{"type":"FeatureCollection","data_type":"Dataset","url_type":null,"permissions":[{"permissions":{"download":true,"view":true},"group_id":"everyone"}],"classification":null,"title":"2009FR","count":207,"stream_id":18281,"contributor":{"url":"http://geocommons.com/users/9758","name":"reedonly"},"data_attributes":null,"calculation_params":null,"icon_link":null,"link":"http://geocommons.com/overlays/18281.json","extent":[-84.7461,39.117,-82.5679,40.8178],"geometry_types":["point"],"unique_name":null,"name":"2009FR","feature_count":207,"description":"Peripheral enrollments","next_feature":null,"is_raster":false,"short_classification":"Y","stats":{"geo_score":{"max":0.714,"mean":0.71055072463768,"variance":0.00246278260869565,"stdev":0.0496264305455838,"min":0.0,"median":0.714}},"features":[{"properties":{"zip":"43078","geo_score":0.714,"id":"a7f5regmtzu1","geo_precision":"zip"},"type":"Feature","geometry":{"type":"Point","coordinates":[-83.689927,40.042282]}},{"properties":{"zip":"43318","geo_score":0.714,"id":"a7f5rea5e9jz","geo_precision":"zip"},"type":"Feature","geometry":{"type":"Point","coordinates":[-83.784554,40.374272]}},{"properties":{"zip":"43318","geo_score":0.714,"id":"a7f5re4y9gxq","geo_precision":"zip"},"type":"Feature","geometry":{"type":"Point","coordinates":[-83.784554,40.374272]}},{"properties":{"zip":"43318","geo_score":0.714,"id":"a7f5re6hh7pm","geo_precision":"zip"},"type":"Feature","geometry":{"type":"Point","coordinates":[-83.784554,40.374272]}},{"properties":{"zip":"43318","geo_score":0.714,"id":"a7f5rea3it2h","geo_precision":"zip"},"type":"Feature","geometry":{"type":"Point","coordinates":[-83.784554,40.374272]}},{"properties":{"zip":"43318","geo_score":0.714,"id":"a7f5re60srrt","geo_precision":"zip"},"type":"Feature","geometry":{"type":"Point","coordinates":[-83.784554,40.374272]}},{"properties":{"zip":"43318","geo_score":0.714,"id":"a7f5re6r9czk","geo_precision":"zip"},"type":"Feature","geometry":{"type":"Point","coordinates":[-83.784554,40.374272]}},{"properties":{"zip":"43318","geo_score":0.714,"id":"a7f5re5vzhdq","geo_precision":"zip"},"type":"Feature","geometry":{"type":"Point","coordinates":[-83.784554,40.374272]}},{"properties":{"zip":"43318","geo_score":0.714,"id":"a7f5re97nxzk","geo_precision":"zip"},"type":"Feature","geometry":{"type":"Point","coordinates":[-83.784554,40.374272]}},{"properties":{"zip":"43318","geo_score":0.714,"id":"a7f5re5fb19x","geo_precision":"zip"},"type":"Feature","geometry":{"type":"Point","coordinates":[-83.784554,40.374272]}},{"properties":{"zip":"43318","geo_score":0.714,"id":"a7f5re5kxh5u","geo_precision":"zip"},"type":"Feature","geometry":{"type":"Point","coordinates":[-83.784554,40.374272]}},{"properties":{"zip":"43318","geo_score":0.714,"id":"a7f5reg6xl1t","geo_precision":"zip"},"type":"Feature","geometry":{"type":"Point","coordinates":[-83.784554,40.374272]}},{"properties":{"zip":"43318","geo_score":0.714,"id":"a7f5rebenklo","geo_precision":"zip"},"type":"Feature","geometry":{"type":"Point","coordinates":[-83.784554,40.374272]}},{"properties":{"zip":"43318","geo_score":0.714,"id":"a7f5rejkzz8k","geo_precision":"zip"},"type":"Feature","geometry":{"type":"Point","coordinates":[-83.784554,40.374272]}},{"properties":{"zip":"43318","geo_score":0.714,"id":"a7f5re8zgrot","geo_precision":"zip"},"type":"Feature","geometry":{"type":"Point","coordinates":[-83.784554,40.374272]}},{"properties":{"zip":"43318","geo_score":0.714,"id":"a7f5redxuj25","geo_precision":"zip"},"type":"Feature","geometry":{"type":"Point","coordinates":[-83.784554,40.374272]}},{"properties":{"zip":"43318","geo_score":0.714,"id":"a7f5re8vluyd","geo_precision":"zip"},"type":"Feature","geometry":{"type":"Point","coordinates":[-83.784554,40.374272]}},{"properties":{"zip":"43318","geo_score":0.714,"id":"a7f5re8dn207","geo_precision":"zip"},"type":"Feature","geometry":{"type":"Point","coordinates":[-83.784554,40.374272]}},{"properties":{"zip":"43324","geo_score":0.714,"id":"a7f5regjpxvm","geo_precision":"zip"},"type":"Feature","geometry":{"type":"Point","coordinates":[-83.809604,40.43991]}},{"properties":{"zip":"43324","geo_score":0.714,"id":"a7f5readyr59","geo_precision":"zip"},"type":"Feature","geometry":{"type":"Point","coordinates":[-83.809604,40.43991]}},{"properties":{"zip":"43324","geo_score":0.714,"id":"a7f5reb0uqnu","geo_precision":"zip"},"type":"Feature","geometry":{"type":"Point","coordinates":[-83.809604,40.43991]}},{"properties":{"zip":"43324","geo_score":0.714,"id":"a7f5reko7gcu","geo_precision":"zip"},"type":"Feature","geometry":{"type":"Point","coordinates":[-83.809604,40.43991]}},{"properties":{"zip":"43326","geo_score":0.714,"id":"a7f5re7sucht","geo_precision":"zip"},"type":"Feature","geometry":{"type":"Point","coordinates":[-83.616923,40.6401]}},{"properties":{"zip":"43331","geo_score":0.714,"id":"a7f5rekgxxqt","geo_precision":"zip"},"type":"Feature","geometry":{"type":"Point","coordinates":[-83.92023,40.501851]}},{"properties":{"zip":"43331","geo_score":0.714,"id":"a7f5re61kzr5","geo_precision":"zip"},"type":"Feature","geometry":{"type":"Point","coordinates":[-83.92023,40.501851]}},{"properties":{"zip":"43331","geo_score":0.714,"id":"a7f5re4sobc3","geo_precision":"zip"},"type":"Feature","geometry":{"type":"Point","coordinates":[-83.92023,40.501851]}},{"properties":{"zip":"43333","geo_score":0.714,"id":"a7f5re82ucog","geo_precision":"zip"},"type":"Feature","geometry":{"type":"Point","coordinates":[-83.945495,40.417272]}},{"properties":{"zip":"43336","geo_score":0.714,"id":"a7f5reezf1nw","geo_precision":"zip"},"type":"Feature","geometry":{"type":"Point","coordinates":[-83.57726,40.294825]}},{"properties":{"zip":"43343","geo_score":0.714,"id":"a7f5reg0ttlv","geo_precision":"zip"},"type":"Feature","geometry":{"type":"Point","coordinates":[-83.792897,40.391089]}},{"properties":{"zip":"43343","geo_score":0.714,"id":"a7f5rekwjm8k","geo_precision":"zip"},"type":"Feature","geometry":{"type":"Point","coordinates":[-83.792897,40.391089]}},{"properties":{"zip":"43343","geo_score":0.714,"id":"a7f5ree8hx2m","geo_precision":"zip"},"type":"Feature","geometry":{"type":"Point","coordinates":[-83.792897,40.391089]}},{"properties":{"zip":"43343","geo_score":0.714,"id":"a7f5rebrn4f6","geo_precision":"zip"},"type":"Feature","geometry":{"type":"Point","coordinates":[-83.792897,40.391089]}},{"properties":{"zip":"43343","geo_score":0.714,"id":"a7f5re785g7v","geo_precision":"zip"},"type":"Feature","geometry":{"type":"Point","coordinates":[-83.792897,40.391089]}},{"properties":{"zip":"43343","geo_score":0.714,"id":"a7f5re5hpekc","geo_precision":"zip"},"type":"Feature","geometry":{"type":"Point","coordinates":[-83.792897,40.391089]}},{"properties":{"zip":"43343","geo_score":0.714,"id":"a7f5ree4weu9","geo_precision":"zip"},"type":"Feature","geometry":{"type":"Point","coordinates":[-83.792897,40.391089]}},{"properties":{"zip":"43343","geo_score":0.714,"id":"a7f5rebva123","geo_precision":"zip"},"type":"Feature","geometry":{"type":"Point","coordinates":[-83.792897,40.391089]}},{"properties":{"zip":"43343","geo_score":0.714,"id":"a7f5rec4gv77","geo_precision":"zip"},"type":"Feature","geometry":{"type":"Point","coordinates":[-83.792897,40.391089]}},{"properties":{"zip":"43343","geo_score":0.714,"id":"a7f5re7blwk1","geo_precision":"zip"},"type":"Feature","geometry":{"type":"Point","coordinates":[-83.792897,40.391089]}},{"properties":{"zip":"43343","geo_score":0.714,"id":"a7f5re81h18k","geo_precision":"zip"},"type":"Feature","geometry":{"type":"Point","coordinates":[-83.792897,40.391089]}},{"properties":{"zip":"43343","geo_score":0.714,"id":"a7f5rec929x3","geo_precision":"zip"},"type":"Feature","geometry":{"type":"Point","coordinates":[-83.792897,40.391089]}},{"properties":{"zip":"43343","geo_score":0.714,"id":"a7f5re64698e","geo_precision":"zip"},"type":"Feature","geometry":{"type":"Point","coordinates":[-83.792897,40.391089]}},{"properties":{"zip":"43343","geo_score":0.714,"id":"a7f5rekeqeh6","geo_precision":"zip"},"type":"Feature","geometry":{"type":"Point","coordinates":[-83.792897,40.391089]}},{"properties":{"zip":"43343","geo_score":0.714,"id":"a7f5redwtz2q","geo_precision":"zip"},"type":"Feature","geometry":{"type":"Point","coordinates":[-83.792897,40.391089]}},{"properties":{"zip":"43348","geo_score":0.714,"id":"a7f5recw6hc6","geo_precision":"zip"},"type":"Feature","geometry":{"type":"Point","coordinates":[-83.890243,40.402746]}},{"properties":{"zip":"43348","geo_score":0.714,"id":"a7f5refzs1ce","geo_precision":"zip"},"type":"Feature","geometry":{"type":"Point","coordinates":[-83.890243,40.402746]}},{"properties":{"zip":"43357","geo_score":0.714,"id":"a7f5rearm27j","geo_precision":"zip"},"type":"Feature","geometry":{"type":"Point","coordinates":[-83.660208,40.299778]}},{"properties":{"zip":"43357","geo_score":0.714,"id":"a7f5rekl518w","geo_precision":"zip"},"type":"Feature","geometry":{"type":"Point","coordinates":[-83.660208,40.299778]}},{"properties":{"zip":"43358","geo_score":0.714,"id":"a7f5rel2tgsz","geo_precision":"zip"},"type":"Feature","geometry":{"type":"Point","coordinates":[-83.589373,40.377556]}},{"properties":{"zip":"45310","geo_score":0.714,"id":"a7f5reflch1g","geo_precision":"zip"},"type":"Feature","geometry":{"type":"Point","coordinates":[-84.643532,40.354106]}},{"properties":{"zip":"45333","geo_score":0.714,"id":"a7f5re4weyge","geo_precision":"zip"},"type":"Feature","geometry":{"type":"Point","coordinates":[-84.333281,40.242549]}},{"properties":{"zip":"45395","geo_score":0.0,"id":"a7f5redncisb","geo_precision":"unmatched"},"type":"Feature","geometry":null},{"properties":{"zip":"45801","geo_score":0.714,"id":"a7f5rekgdnz6","geo_precision":"zip"},"type":"Feature","geometry":{"type":"Point","coordinates":[-84.0471,40.772147]}},{"properties":{"zip":"45805","geo_score":0.714,"id":"a7f5redus113","geo_precision":"zip"},"type":"Feature","geometry":{"type":"Point","coordinates":[-84.169749,40.733043]}},{"properties":{"zip":"45806","geo_score":0.714,"id":"a7f5re9ywoaz","geo_precision":"zip"},"type":"Feature","geometry":{"type":"Point","coordinates":[-84.071057,40.687273]}},{"properties":{"zip":"45822","geo_score":0.714,"id":"a7f5reb5yd0i","geo_precision":"zip"},"type":"Feature","geometry":{"type":"Point","coordinates":[-84.491621,40.603103]}},{"properties":{"zip":"45822","geo_score":0.714,"id":"a7f5ree4kfm6","geo_precision":"zip"},"type":"Feature","geometry":{"type":"Point","coordinates":[-84.491621,40.603103]}},{"properties":{"zip":"45822","geo_score":0.714,"id":"a7f5reaul303","geo_precision":"zip"},"type":"Feature","geometry":{"type":"Point","coordinates":[-84.491621,40.603103]}},{"properties":{"zip":"45822","geo_score":0.714,"id":"a7f5rehrieyl","geo_precision":"zip"},"type":"Feature","geometry":{"type":"Point","coordinates":[-84.491621,40.603103]}},{"properties":{"zip":"45822","geo_score":0.714,"id":"a7f5re8up3v5","geo_precision":"zip"},"type":"Feature","geometry":{"type":"Point","coordinates":[-84.491621,40.603103]}},{"properties":{"zip":"45822","geo_score":0.714,"id":"a7f5relbta88","geo_precision":"zip"},"type":"Feature","geometry":{"type":"Point","coordinates":[-84.491621,40.603103]}},{"properties":{"zip":"45822","geo_score":0.714,"id":"a7f5red5emzr","geo_precision":"zip"},"type":"Feature","geometry":{"type":"Point","coordinates":[-84.491621,40.603103]}},{"properties":{"zip":"45822","geo_score":0.714,"id":"a7f5re69cdsh","geo_precision":"zip"},"type":"Feature","geometry":{"type":"Point","coordinates":[-84.491621,40.603103]}},{"properties":{"zip":"45822","geo_score":0.714,"id":"a7f5refrtqwc","geo_precision":"zip"},"type":"Feature","geometry":{"type":"Point","coordinates":[-84.491621,40.603103]}},{"properties":{"zip":"45822","geo_score":0.714,"id":"a7f5reaiq4z8","geo_precision":"zip"},"type":"Feature","geometry":{"type":"Point","coordinates":[-84.491621,40.603103]}},{"properties":{"zip":"45822","geo_score":0.714,"id":"a7f5reb8dhb6","geo_precision":"zip"},"type":"Feature","geometry":{"type":"Point","coordinates":[-84.491621,40.603103]}},{"properties":{"zip":"45822","geo_score":0.714,"id":"a7f5re6d0wdt","geo_precision":"zip"},"type":"Feature","geometry":{"type":"Point","coordinates":[-84.491621,40.603103]}},{"properties":{"zip":"45822","geo_score":0.714,"id":"a7f5refl9ena","geo_precision":"zip"},"type":"Feature","geometry":{"type":"Point","coordinates":[-84.491621,40.603103]}},{"properties":{"zip":"45822","geo_score":0.714,"id":"a7f5rejc9s9u","geo_precision":"zip"},"type":"Feature","geometry":{"type":"Point","coordinates":[-84.491621,40.603103]}},{"properties":{"zip":"45822","geo_score":0.714,"id":"a7f5rej310vu","geo_precision":"zip"},"type":"Feature","geometry":{"type":"Point","coordinates":[-84.491621,40.603103]}},{"properties":{"zip":"45822","geo_score":0.714,"id":"a7f5rejlrplv","geo_precision":"zip"},"type":"Feature","geometry":{"type":"Point","coordinates":[-84.491621,40.603103]}},{"properties":{"zip":"45822","geo_score":0.714,"id":"a7f5redz6mm6","geo_precision":"zip"},"type":"Feature","geometry":{"type":"Point","coordinates":[-84.491621,40.603103]}},{"properties":{"zip":"45822","geo_score":0.714,"id":"a7f5re4vrmgu","geo_precision":"zip"},"type":"Feature","geometry":{"type":"Point","coordinates":[-84.491621,40.603103]}},{"properties":{"zip":"45822","geo_score":0.714,"id":"a7f5rel64q2c","geo_precision":"zip"},"type":"Feature","geometry":{"type":"Point","coordinates":[-84.491621,40.603103]}},{"properties":{"zip":"45822","geo_score":0.714,"id":"a7f5rekxpwve","geo_precision":"zip"},"type":"Feature","geometry":{"type":"Point","coordinates":[-84.491621,40.603103]}},{"properties":{"zip":"45822","geo_score":0.714,"id":"a7f5re5di1oh","geo_precision":"zip"},"type":"Feature","geometry":{"type":"Point","coordinates":[-84.491621,40.603103]}},{"properties":{"zip":"45822","geo_score":0.714,"id":"a7f5redr5i7g","geo_precision":"zip"},"type":"Feature","geometry":{"type":"Point","coordinates":[-84.491621,40.603103]}},{"properties":{"zip":"45822","geo_score":0.714,"id":"a7f5rebsi5f2","geo_precision":"zip"},"type":"Feature","geometry":{"type":"Point","coordinates":[-84.491621,40.603103]}},{"properties":{"zip":"45822","geo_score":0.714,"id":"a7f5rej8105o","geo_precision":"zip"},"type":"Feature","geometry":{"type":"Point","coordinates":[-84.491621,40.603103]}},{"properties":{"zip":"45822","geo_score":0.714,"id":"a7f5regg5lde","geo_precision":"zip"},"type":"Feature","geometry":{"type":"Point","coordinates":[-84.491621,40.603103]}},{"properties":{"zip":"45822","geo_score":0.714,"id":"a7f5recdlbdc","geo_precision":"zip"},"type":"Feature","geometry":{"type":"Point","coordinates":[-84.491621,40.603103]}},{"properties":{"zip":"45822","geo_score":0.714,"id":"a7f5rejjawmk","geo_precision":"zip"},"type":"Feature","geometry":{"type":"Point","coordinates":[-84.491621,40.603103]}},{"properties":{"zip":"45826","geo_score":0.714,"id":"a7f5re8qgn10","geo_precision":"zip"},"type":"Feature","geometry":{"type":"Point","coordinates":[-84.633484,40.428177]}},{"properties":{"zip":"45826","geo_score":0.714,"id":"a7f5red4vjjy","geo_precision":"zip"},"type":"Feature","geometry":{"type":"Point","coordinates":[-84.633484,40.428177]}},{"properties":{"zip":"45826","geo_score":0.714,"id":"a7f5re4z5an7","geo_precision":"zip"},"type":"Feature","geometry":{"type":"Point","coordinates":[-84.633484,40.428177]}},{"properties":{"zip":"45826","geo_score":0.714,"id":"a7f5rej47qxm","geo_precision":"zip"},"type":"Feature","geometry":{"type":"Point","coordinates":[-84.633484,40.428177]}},{"properties":{"zip":"45828","geo_score":0.714,"id":"a7f5rekhq3gu","geo_precision":"zip"},"type":"Feature","geometry":{"type":"Point","coordinates":[-84.65357,40.450602]}},{"properties":{"zip":"45828","geo_score":0.714,"id":"a7f5rehrdbfu","geo_precision":"zip"},"type":"Feature","geometry":{"type":"Point","coordinates":[-84.65357,40.450602]}},{"properties":{"zip":"45828","geo_score":0.714,"id":"a7f5reie1za2","geo_precision":"zip"},"type":"Feature","geometry":{"type":"Point","coordinates":[-84.65357,40.450602]}},{"properties":{"zip":"45828","geo_score":0.714,"id":"a7f5realahqe","geo_precision":"zip"},"type":"Feature","geometry":{"type":"Point","coordinates":[-84.65357,40.450602]}},{"properties":{"zip":"45828","geo_score":0.714,"id":"a7f5reb51hw5","geo_precision":"zip"},"type":"Feature","geometry":{"type":"Point","coordinates":[-84.65357,40.450602]}},{"properties":{"zip":"45828","geo_score":0.714,"id":"a7f5regfxbun","geo_precision":"zip"},"type":"Feature","geometry":{"type":"Point","coordinates":[-84.65357,40.450602]}},{"properties":{"zip":"45828","geo_score":0.714,"id":"a7f5re57vz27","geo_precision":"zip"},"type":"Feature","geometry":{"type":"Point","coordinates":[-84.65357,40.450602]}},{"properties":{"zip":"45828","geo_score":0.714,"id":"a7f5regpd3ry","geo_precision":"zip"},"type":"Feature","geometry":{"type":"Point","coordinates":[-84.65357,40.450602]}},{"properties":{"zip":"45828","geo_score":0.714,"id":"a7f5rei70idx","geo_precision":"zip"},"type":"Feature","geometry":{"type":"Point","coordinates":[-84.65357,40.450602]}},{"properties":{"zip":"45828","geo_score":0.714,"id":"a7f5re729qj6","geo_precision":"zip"},"type":"Feature","geometry":{"type":"Point","coordinates":[-84.65357,40.450602]}},{"properties":{"zip":"45828","geo_score":0.714,"id":"a7f5recgpwew","geo_precision":"zip"},"type":"Feature","geometry":{"type":"Point","coordinates":[-84.65357,40.450602]}},{"properties":{"zip":"45833","geo_score":0.714,"id":"a7f5ref7tvsg","geo_precision":"zip"},"type":"Feature","geometry":{"type":"Point","coordinates":[-84.272729,40.817828]}},{"properties":{"zip":"45833","geo_score":0.714,"id":"a7f5rekjfklq","geo_precision":"zip"},"type":"Feature","geometry":{"type":"Point","coordinates":[-84.272729,40.817828]}},{"properties":{"zip":"45846","geo_score":0.714,"id":"a7f5re9c7ogt","geo_precision":"zip"},"type":"Feature","geometry":{"type":"Point","coordinates":[-84.746073,40.450324]}},{"properties":{"zip":"45846","geo_score":0.714,"id":"a7f5re7nje12","geo_precision":"zip"},"type":"Feature","geometry":{"type":"Point","coordinates":[-84.746073,40.450324]}},{"properties":{"zip":"45846","geo_score":0.714,"id":"a7f5rek3uyxd","geo_precision":"zip"},"type":"Feature","geometry":{"type":"Point","coordinates":[-84.746073,40.450324]}},{"properties":{"zip":"45846","geo_score":0.714,"id":"a7f5re9oka5e","geo_precision":"zip"},"type":"Feature","geometry":{"type":"Point","coordinates":[-84.746073,40.450324]}},{"properties":{"zip":"45846","geo_score":0.714,"id":"a7f5rei9yhbr","geo_precision":"zip"},"type":"Feature","geometry":{"type":"Point","coordinates":[-84.746073,40.450324]}},{"properties":{"zip":"45846","geo_score":0.714,"id":"a7f5re9zedaz","geo_precision":"zip"},"type":"Feature","geometry":{"type":"Point","coordinates":[-84.746073,40.450324]}},{"properties":{"zip":"45846","geo_score":0.714,"id":"a7f5re8hljs9","geo_precision":"zip"},"type":"Feature","geometry":{"type":"Point","coordinates":[-84.746073,40.450324]}},{"properties":{"zip":"45846","geo_score":0.714,"id":"a7f5rebml9do","geo_precision":"zip"},"type":"Feature","geometry":{"type":"Point","coordinates":[-84.746073,40.450324]}},{"properties":{"zip":"45846","geo_score":0.714,"id":"a7f5re5yui28","geo_precision":"zip"},"type":"Feature","geometry":{"type":"Point","coordinates":[-84.746073,40.450324]}},{"properties":{"zip":"45846","geo_score":0.714,"id":"a7f5rektpwoq","geo_precision":"zip"},"type":"Feature","geometry":{"type":"Point","coordinates":[-84.746073,40.450324]}},{"properties":{"zip":"45846","geo_score":0.714,"id":"a7f5redbqqr1","geo_precision":"zip"},"type":"Feature","geometry":{"type":"Point","coordinates":[-84.746073,40.450324]}},{"properties":{"zip":"45846","geo_score":0.714,"id":"a7f5re9ytrjk","geo_precision":"zip"},"type":"Feature","geometry":{"type":"Point","coordinates":[-84.746073,40.450324]}},{"properties":{"zip":"45846","geo_score":0.714,"id":"a7f5rege2un7","geo_precision":"zip"},"type":"Feature","geometry":{"type":"Point","coordinates":[-84.746073,40.450324]}},{"properties":{"zip":"45846","geo_score":0.714,"id":"a7f5re86ftij","geo_precision":"zip"},"type":"Feature","geometry":{"type":"Point","coordinates":[-84.746073,40.450324]}},{"properties":{"zip":"45860","geo_score":0.714,"id":"a7f5reiqr10p","geo_precision":"zip"},"type":"Feature","geometry":{"type":"Point","coordinates":[-84.535296,40.394413]}},{"properties":{"zip":"45860","geo_score":0.714,"id":"a7f5refsd291","geo_precision":"zip"},"type":"Feature","geometry":{"type":"Point","coordinates":[-84.535296,40.394413]}},{"properties":{"zip":"45860","geo_score":0.714,"id":"a7f5rejx24s3","geo_precision":"zip"},"type":"Feature","geometry":{"type":"Point","coordinates":[-84.535296,40.394413]}},{"properties":{"zip":"45860","geo_score":0.714,"id":"a7f5re6r18wt","geo_precision":"zip"},"type":"Feature","geometry":{"type":"Point","coordinates":[-84.535296,40.394413]}},{"properties":{"zip":"45860","geo_score":0.714,"id":"a7f5reesmc4y","geo_precision":"zip"},"type":"Feature","geometry":{"type":"Point","coordinates":[-84.535296,40.394413]}},{"properties":{"zip":"45860","geo_score":0.714,"id":"a7f5rej8uecb","geo_precision":"zip"},"type":"Feature","geometry":{"type":"Point","coordinates":[-84.535296,40.394413]}},{"properties":{"zip":"45860","geo_score":0.714,"id":"a7f5rejwi2lu","geo_precision":"zip"},"type":"Feature","geometry":{"type":"Point","coordinates":[-84.535296,40.394413]}},{"properties":{"zip":"45862","geo_score":0.714,"id":"a7f5regc76rn","geo_precision":"zip"},"type":"Feature","geometry":{"type":"Point","coordinates":[-84.547735,40.575306]}},{"properties":{"zip":"45862","geo_score":0.714,"id":"a7f5rek28j26","geo_precision":"zip"},"type":"Feature","geometry":{"type":"Point","coordinates":[-84.547735,40.575306]}},{"properties":{"zip":"45865","geo_score":0.714,"id":"a7f5reenhdir","geo_precision":"zip"},"type":"Feature","geometry":{"type":"Point","coordinates":[-84.344116,40.369492]}},{"properties":{"zip":"45865","geo_score":0.714,"id":"a7f5reif170z","geo_precision":"zip"},"type":"Feature","geometry":{"type":"Point","coordinates":[-84.344116,40.369492]}},{"properties":{"zip":"45865","geo_score":0.714,"id":"a7f5re68mqcf","geo_precision":"zip"},"type":"Feature","geometry":{"type":"Point","coordinates":[-84.344116,40.369492]}},{"properties":{"zip":"45865","geo_score":0.714,"id":"a7f5reeys7zk","geo_precision":"zip"},"type":"Feature","geometry":{"type":"Point","coordinates":[-84.344116,40.369492]}},{"properties":{"zip":"45865","geo_score":0.714,"id":"a7f5rebn0lz8","geo_precision":"zip"},"type":"Feature","geometry":{"type":"Point","coordinates":[-84.344116,40.369492]}},{"properties":{"zip":"45865","geo_score":0.714,"id":"a7f5re9p6ddp","geo_precision":"zip"},"type":"Feature","geometry":{"type":"Point","coordinates":[-84.344116,40.369492]}},{"properties":{"zip":"45865","geo_score":0.714,"id":"a7f5ree6nbso","geo_precision":"zip"},"type":"Feature","geometry":{"type":"Point","coordinates":[-84.344116,40.369492]}},{"properties":{"zip":"45865","geo_score":0.714,"id":"a7f5re6sqign","geo_precision":"zip"},"type":"Feature","geometry":{"type":"Point","coordinates":[-84.344116,40.369492]}},{"properties":{"zip":"45865","geo_score":0.714,"id":"a7f5rebb851r","geo_precision":"zip"},"type":"Feature","geometry":{"type":"Point","coordinates":[-84.344116,40.369492]}},{"properties":{"zip":"45865","geo_score":0.714,"id":"a7f5reglxx17","geo_precision":"zip"},"type":"Feature","geometry":{"type":"Point","coordinates":[-84.344116,40.369492]}},{"properties":{"zip":"45865","geo_score":0.714,"id":"a7f5reg2nerp","geo_precision":"zip"},"type":"Feature","geometry":{"type":"Point","coordinates":[-84.344116,40.369492]}},{"properties":{"zip":"45865","geo_score":0.714,"id":"a7f5re6jhsdk","geo_precision":"zip"},"type":"Feature","geometry":{"type":"Point","coordinates":[-84.344116,40.369492]}},{"properties":{"zip":"45865","geo_score":0.714,"id":"a7f5reakthnh","geo_precision":"zip"},"type":"Feature","geometry":{"type":"Point","coordinates":[-84.344116,40.369492]}},{"properties":{"zip":"45865","geo_score":0.714,"id":"a7f5rel0i10i","geo_precision":"zip"},"type":"Feature","geometry":{"type":"Point","coordinates":[-84.344116,40.369492]}},{"properties":{"zip":"45865","geo_score":0.714,"id":"a7f5reivxp54","geo_precision":"zip"},"type":"Feature","geometry":{"type":"Point","coordinates":[-84.344116,40.369492]}},{"properties":{"zip":"45865","geo_score":0.714,"id":"a7f5rea51b7h","geo_precision":"zip"},"type":"Feature","geometry":{"type":"Point","coordinates":[-84.344116,40.369492]}},{"properties":{"zip":"45865","geo_score":0.714,"id":"a7f5rej3awvy","geo_precision":"zip"},"type":"Feature","geometry":{"type":"Point","coordinates":[-84.344116,40.369492]}},{"properties":{"zip":"45869","geo_score":0.714,"id":"a7f5rejqespq","geo_precision":"zip"},"type":"Feature","geometry":{"type":"Point","coordinates":[-84.2145,40.504687]}},{"properties":{"zip":"45869","geo_score":0.714,"id":"a7f5reaq1jt0","geo_precision":"zip"},"type":"Feature","geometry":{"type":"Point","coordinates":[-84.2145,40.504687]}},{"properties":{"zip":"45869","geo_score":0.714,"id":"a7f5rebku17e","geo_precision":"zip"},"type":"Feature","geometry":{"type":"Point","coordinates":[-84.2145,40.504687]}},{"properties":{"zip":"45869","geo_score":0.714,"id":"a7f5re5a0qjt","geo_precision":"zip"},"type":"Feature","geometry":{"type":"Point","coordinates":[-84.2145,40.504687]}},{"properties":{"zip":"45869","geo_score":0.714,"id":"a7f5refw6l14","geo_precision":"zip"},"type":"Feature","geometry":{"type":"Point","coordinates":[-84.2145,40.504687]}},{"properties":{"zip":"45869","geo_score":0.714,"id":"a7f5regklrl4","geo_precision":"zip"},"type":"Feature","geometry":{"type":"Point","coordinates":[-84.2145,40.504687]}},{"properties":{"zip":"45869","geo_score":0.714,"id":"a7f5rehpxwbb","geo_precision":"zip"},"type":"Feature","geometry":{"type":"Point","coordinates":[-84.2145,40.504687]}},{"properties":{"zip":"45869","geo_score":0.714,"id":"a7f5rejxcj2l","geo_precision":"zip"},"type":"Feature","geometry":{"type":"Point","coordinates":[-84.2145,40.504687]}},{"properties":{"zip":"45869","geo_score":0.714,"id":"a7f5redeuq1q","geo_precision":"zip"},"type":"Feature","geometry":{"type":"Point","coordinates":[-84.2145,40.504687]}},{"properties":{"zip":"45869","geo_score":0.714,"id":"a7f5recsvhtv","geo_precision":"zip"},"type":"Feature","geometry":{"type":"Point","coordinates":[-84.2145,40.504687]}},{"properties":{"zip":"45869","geo_score":0.714,"id":"a7f5rebgzizh","geo_precision":"zip"},"type":"Feature","geometry":{"type":"Point","coordinates":[-84.2145,40.504687]}},{"properties":{"zip":"45869","geo_score":0.714,"id":"a7f5rekjkbou","geo_precision":"zip"},"type":"Feature","geometry":{"type":"Point","coordinates":[-84.2145,40.504687]}},{"properties":{"zip":"45869","geo_score":0.714,"id":"a7f5re7fxihq","geo_precision":"zip"},"type":"Feature","geometry":{"type":"Point","coordinates":[-84.2145,40.504687]}},{"properties":{"zip":"45869","geo_score":0.714,"id":"a7f5re5g0aih","geo_precision":"zip"},"type":"Feature","geometry":{"type":"Point","coordinates":[-84.2145,40.504687]}},{"properties":{"zip":"45869","geo_score":0.714,"id":"a7f5re77zovu","geo_precision":"zip"},"type":"Feature","geometry":{"type":"Point","coordinates":[-84.2145,40.504687]}},{"properties":{"zip":"45869","geo_score":0.714,"id":"a7f5reg4h387","geo_precision":"zip"},"type":"Feature","geometry":{"type":"Point","coordinates":[-84.2145,40.504687]}},{"properties":{"zip":"45869","geo_score":0.714,"id":"a7f5rehvml8l","geo_precision":"zip"},"type":"Feature","geometry":{"type":"Point","coordinates":[-84.2145,40.504687]}},{"properties":{"zip":"45869","geo_score":0.714,"id":"a7f5recygfvf","geo_precision":"zip"},"type":"Feature","geometry":{"type":"Point","coordinates":[-84.2145,40.504687]}},{"properties":{"zip":"45869","geo_score":0.714,"id":"a7f5rei9vl8d","geo_precision":"zip"},"type":"Feature","geometry":{"type":"Point","coordinates":[-84.2145,40.504687]}},{"properties":{"zip":"45869","geo_score":0.714,"id":"a7f5rebrqv0t","geo_precision":"zip"},"type":"Feature","geometry":{"type":"Point","coordinates":[-84.2145,40.504687]}},{"properties":{"zip":"45869","geo_score":0.714,"id":"a7f5re64wqys","geo_precision":"zip"},"type":"Feature","geometry":{"type":"Point","coordinates":[-84.2145,40.504687]}},{"properties":{"zip":"45869","geo_score":0.714,"id":"a7f5reisvzdy","geo_precision":"zip"},"type":"Feature","geometry":{"type":"Point","coordinates":[-84.2145,40.504687]}},{"properties":{"zip":"45869","geo_score":0.714,"id":"a7f5rel3x3z9","geo_precision":"zip"},"type":"Feature","geometry":{"type":"Point","coordinates":[-84.2145,40.504687]}},{"properties":{"zip":"45869","geo_score":0.714,"id":"a7f5re9x60gm","geo_precision":"zip"},"type":"Feature","geometry":{"type":"Point","coordinates":[-84.2145,40.504687]}},{"properties":{"zip":"45869","geo_score":0.714,"id":"a7f5regwxx8m","geo_precision":"zip"},"type":"Feature","geometry":{"type":"Point","coordinates":[-84.2145,40.504687]}},{"properties":{"zip":"45869","geo_score":0.714,"id":"a7f5reg3bebk","geo_precision":"zip"},"type":"Feature","geometry":{"type":"Point","coordinates":[-84.2145,40.504687]}},{"properties":{"zip":"45869","geo_score":0.714,"id":"a7f5rehuoc8a","geo_precision":"zip"},"type":"Feature","geometry":{"type":"Point","coordinates":[-84.2145,40.504687]}},{"properties":{"zip":"45871","geo_score":0.714,"id":"a7f5reiud8bl","geo_precision":"zip"},"type":"Feature","geometry":{"type":"Point","coordinates":[-84.282659,40.496141]}},{"properties":{"zip":"45883","geo_score":0.714,"id":"a7f5rejsye10","geo_precision":"zip"},"type":"Feature","geometry":{"type":"Point","coordinates":[-84.580511,40.392547]}},{"properties":{"zip":"45883","geo_score":0.714,"id":"a7f5redzb36a","geo_precision":"zip"},"type":"Feature","geometry":{"type":"Point","coordinates":[-84.580511,40.392547]}},{"properties":{"zip":"45883","geo_score":0.714,"id":"a7f5re9ip7c0","geo_precision":"zip"},"type":"Feature","geometry":{"type":"Point","coordinates":[-84.580511,40.392547]}},{"properties":{"zip":"45883","geo_score":0.714,"id":"a7f5reh311ol","geo_precision":"zip"},"type":"Feature","geometry":{"type":"Point","coordinates":[-84.580511,40.392547]}},{"properties":{"zip":"45883","geo_score":0.714,"id":"a7f5reiuhnox","geo_precision":"zip"},"type":"Feature","geometry":{"type":"Point","coordinates":[-84.580511,40.392547]}},{"properties":{"zip":"45883","geo_score":0.714,"id":"a7f5rekkeh75","geo_precision":"zip"},"type":"Feature","geometry":{"type":"Point","coordinates":[-84.580511,40.392547]}},{"properties":{"zip":"45885","geo_score":0.714,"id":"a7f5re7uirqw","geo_precision":"zip"},"type":"Feature","geometry":{"type":"Point","coordinates":[-84.424675,40.545325]}},{"properties":{"zip":"45885","geo_score":0.714,"id":"a7f5ree4ppqx","geo_precision":"zip"},"type":"Feature","geometry":{"type":"Point","coordinates":[-84.424675,40.545325]}},{"properties":{"zip":"45885","geo_score":0.714,"id":"a7f5reh9covr","geo_precision":"zip"},"type":"Feature","geometry":{"type":"Point","coordinates":[-84.424675,40.545325]}},{"properties":{"zip":"45885","geo_score":0.714,"id":"a7f5re52m5ur","geo_precision":"zip"},"type":"Feature","geometry":{"type":"Point","coordinates":[-84.424675,40.545325]}},{"properties":{"zip":"45885","geo_score":0.714,"id":"a7f5rebly9jw","geo_precision":"zip"},"type":"Feature","geometry":{"type":"Point","coordinates":[-84.424675,40.545325]}},{"properties":{"zip":"45885","geo_score":0.714,"id":"a7f5re8rfaeh","geo_precision":"zip"},"type":"Feature","geometry":{"type":"Point","coordinates":[-84.424675,40.545325]}},{"properties":{"zip":"45885","geo_score":0.714,"id":"a7f5reboujux","geo_precision":"zip"},"type":"Feature","geometry":{"type":"Point","coordinates":[-84.424675,40.545325]}},{"properties":{"zip":"45885","geo_score":0.714,"id":"a7f5re5t78kx","geo_precision":"zip"},"type":"Feature","geometry":{"type":"Point","coordinates":[-84.424675,40.545325]}},{"properties":{"zip":"45885","geo_score":0.714,"id":"a7f5rehn2jlj","geo_precision":"zip"},"type":"Feature","geometry":{"type":"Point","coordinates":[-84.424675,40.545325]}},{"properties":{"zip":"45885","geo_score":0.714,"id":"a7f5rea3m0ur","geo_precision":"zip"},"type":"Feature","geometry":{"type":"Point","coordinates":[-84.424675,40.545325]}},{"properties":{"zip":"45885","geo_score":0.714,"id":"a7f5refjcv1j","geo_precision":"zip"},"type":"Feature","geometry":{"type":"Point","coordinates":[-84.424675,40.545325]}},{"properties":{"zip":"45885","geo_score":0.714,"id":"a7f5rek23up3","geo_precision":"zip"},"type":"Feature","geometry":{"type":"Point","coordinates":[-84.424675,40.545325]}},{"properties":{"zip":"45885","geo_score":0.714,"id":"a7f5rebfs0gw","geo_precision":"zip"},"type":"Feature","geometry":{"type":"Point","coordinates":[-84.424675,40.545325]}},{"properties":{"zip":"45885","geo_score":0.714,"id":"a7f5rechy9ds","geo_precision":"zip"},"type":"Feature","geometry":{"type":"Point","coordinates":[-84.424675,40.545325]}},{"properties":{"zip":"45895","geo_score":0.714,"id":"a7f5re7m7ta6","geo_precision":"zip"},"type":"Feature","geometry":{"type":"Point","coordinates":[-84.152138,40.582252]}},{"properties":{"zip":"45895","geo_score":0.714,"id":"a7f5re5c6gv3","geo_precision":"zip"},"type":"Feature","geometry":{"type":"Point","coordinates":[-84.152138,40.582252]}},{"properties":{"zip":"45895","geo_score":0.714,"id":"a7f5reg4gsqn","geo_precision":"zip"},"type":"Feature","geometry":{"type":"Point","coordinates":[-84.152138,40.582252]}},{"properties":{"zip":"45895","geo_score":0.714,"id":"a7f5re671lra","geo_precision":"zip"},"type":"Feature","geometry":{"type":"Point","coordinates":[-84.152138,40.582252]}},{"properties":{"zip":"45895","geo_score":0.714,"id":"a7f5rel3i7vu","geo_precision":"zip"},"type":"Feature","geometry":{"type":"Point","coordinates":[-84.152138,40.582252]}},{"properties":{"zip":"45895","geo_score":0.714,"id":"a7f5red99ff5","geo_precision":"zip"},"type":"Feature","geometry":{"type":"Point","coordinates":[-84.152138,40.582252]}},{"properties":{"zip":"45895","geo_score":0.714,"id":"a7f5refnrug4","geo_precision":"zip"},"type":"Feature","geometry":{"type":"Point","coordinates":[-84.152138,40.582252]}},{"properties":{"zip":"45895","geo_score":0.714,"id":"a7f5rec43mfq","geo_precision":"zip"},"type":"Feature","geometry":{"type":"Point","coordinates":[-84.152138,40.582252]}},{"properties":{"zip":"45895","geo_score":0.714,"id":"a7f5rehoqq32","geo_precision":"zip"},"type":"Feature","geometry":{"type":"Point","coordinates":[-84.152138,40.582252]}},{"properties":{"zip":"45895","geo_score":0.714,"id":"a7f5re8lhjpt","geo_precision":"zip"},"type":"Feature","geometry":{"type":"Point","coordinates":[-84.152138,40.582252]}},{"properties":{"zip":"45895","geo_score":0.714,"id":"a7f5regyba9h","geo_precision":"zip"},"type":"Feature","geometry":{"type":"Point","coordinates":[-84.152138,40.582252]}},{"properties":{"zip":"45895","geo_score":0.714,"id":"a7f5rea0fuf6","geo_precision":"zip"},"type":"Feature","geometry":{"type":"Point","coordinates":[-84.152138,40.582252]}},{"properties":{"zip":"45895","geo_score":0.714,"id":"a7f5re5z7mse","geo_precision":"zip"},"type":"Feature","geometry":{"type":"Point","coordinates":[-84.152138,40.582252]}},{"properties":{"zip":"45895","geo_score":0.714,"id":"a7f5rea6bt9t","geo_precision":"zip"},"type":"Feature","geometry":{"type":"Point","coordinates":[-84.152138,40.582252]}},{"properties":{"zip":"45895","geo_score":0.714,"id":"a7f5rehqlx13","geo_precision":"zip"},"type":"Feature","geometry":{"type":"Point","coordinates":[-84.152138,40.582252]}},{"properties":{"zip":"45895","geo_score":0.714,"id":"a7f5re7utb0r","geo_precision":"zip"},"type":"Feature","geometry":{"type":"Point","coordinates":[-84.152138,40.582252]}},{"properties":{"zip":"45895","geo_score":0.714,"id":"a7f5re782ien","geo_precision":"zip"},"type":"Feature","geometry":{"type":"Point","coordinates":[-84.152138,40.582252]}},{"properties":{"zip":"45895","geo_score":0.714,"id":"a7f5rec187oo","geo_precision":"zip"},"type":"Feature","geometry":{"type":"Point","coordinates":[-84.152138,40.582252]}},{"properties":{"zip":"45895","geo_score":0.714,"id":"a7f5re9jgdw9","geo_precision":"zip"},"type":"Feature","geometry":{"type":"Point","coordinates":[-84.152138,40.582252]}},{"properties":{"zip":"45896","geo_score":0.714,"id":"a7f5re7z61pm","geo_precision":"zip"},"type":"Feature","geometry":{"type":"Point","coordinates":[-82.567939,39.117016]}},{"properties":{"zip":"45898","geo_score":0.714,"id":"a7f5re9e1qvg","geo_precision":"zip"},"type":"Feature","geometry":{"type":"Point","coordinates":[-84.727461,40.756436]}}],"is_temporal":false,"author":{"url":"","metadata":"","contact_name":"","contact_address":"","source":"","contact_phone":""},"source":"","pagination":{"sort":null,"start":0,"total":207,"limit":1000000},"state":"complete","tags":"","published":"2009-11-19T10:38:28Z","id":18281}