{"type":"FeatureCollection","data_type":"Dataset","url_type":null,"permissions":[{"permissions":{"download":true,"view":true},"group_id":"everyone"}],"classification":null,"title":"Members_by_County_City_zip","count":288,"stream_id":182983,"contributor":{"url":"http://geocommons.com/users/29031","name":"wrg20"},"data_attributes":null,"calculation_params":null,"icon_link":null,"link":"http://geocommons.com/overlays/182983.json","extent":[-89.6701,39.2825,-87.5567,42.4783],"geometry_types":["point"],"unique_name":null,"name":"Members_by_County_City_zip","feature_count":288,"description":"","next_feature":null,"is_raster":false,"short_classification":"Y","stats":{"total count":{"max":26774,"mean":296.545138888889,"variance":2552813.03628291,"stdev":1597.75249531425,"min":2,"median":102},"survivor":{"max":2620,"mean":30.3576923076923,"variance":26869.6514850015,"stdev":163.919649478034,"min":1,"median":12},"inactive":{"max":7305,"mean":88.9390681003584,"variance":196142.568216395,"stdev":442.879857541969,"min":1,"median":33},"annuitant":{"max":4099,"mean":52.2188679245283,"variance":66678.2776729561,"stdev":258.221373385233,"min":1,"median":19},"active":{"max":12750,"mean":129.701754385965,"variance":584479.533975784,"stdev":764.512612044945,"min":1,"median":49}},"features":[{"properties":{"city":"Addison","total count":161,"zip":"60101","geo_score":1.0,"survivor":20,"inactive":59,"annuitant":37,"id":"a62adwryi4ij","geo_precision":"zip","active":45,"state":"Illinois"},"type":"Feature","geometry":{"type":"Point","coordinates":[-88.022516,41.887579]}},{"properties":{"city":"Algonquin","total count":239,"zip":"60102","geo_score":0.896,"survivor":16,"inactive":83,"annuitant":33,"id":"a62adws1m3su","geo_precision":"zip","active":107,"state":"Illinois"},"type":"Feature","geometry":{"type":"Point","coordinates":[-88.260638,42.188913]}},{"properties":{"city":"Alsip","total count":146,"zip":"60803","geo_score":1.0,"survivor":9,"inactive":40,"annuitant":16,"id":"a62adx1f6n8x","geo_precision":"zip","active":81,"state":"Illinois"},"type":"Feature","geometry":{"type":"Point","coordinates":[-87.68732,41.811929]}},{"properties":{"city":"Antioch","total count":134,"zip":"60002","geo_score":0.886,"survivor":13,"inactive":26,"annuitant":30,"id":"a62adx4s9sj7","geo_precision":"zip","active":65,"state":"Illinois"},"type":"Feature","geometry":{"type":"Point","coordinates":[-89.146751,41.498089]}},{"properties":{"city":"Arlington Heights","total count":763,"zip":"60004","geo_score":1.0,"survivor":95,"inactive":277,"annuitant":120,"id":"a62adx5c0yzr","geo_precision":"zip","active":271,"state":"Illinois"},"type":"Feature","geometry":{"type":"Point","coordinates":[-87.99822,42.085626]}},{"properties":{"city":"Aurora","total count":1402,"zip":"60504","geo_score":1.0,"survivor":76,"inactive":535,"annuitant":133,"id":"a62adx20l4c9","geo_precision":"zip","active":658,"state":"Illinois"},"type":"Feature","geometry":{"type":"Point","coordinates":[-88.136616,41.768399]}},{"properties":{"city":"Bannockburn","total count":7,"zip":"60015","geo_score":0.857,"survivor":null,"inactive":4,"annuitant":null,"id":"a62adwxt3bp9","geo_precision":"zip","active":3,"state":"Illinois"},"type":"Feature","geometry":{"type":"Point","coordinates":[-87.897014,42.167525]}},{"properties":{"city":"Barrington","total count":262,"zip":"60011","geo_score":1.0,"survivor":25,"inactive":91,"annuitant":52,"id":"a62adwy5572u","geo_precision":"zip","active":94,"state":"Illinois"},"type":"Feature","geometry":{"type":"Point","coordinates":[-87.610053,42.322814]}},{"properties":{"city":"Bartlett","total count":329,"zip":"60103","geo_score":0.883,"survivor":27,"inactive":148,"annuitant":19,"id":"a62adwtiuhwt","geo_precision":"zip","active":135,"state":"Illinois"},"type":"Feature","geometry":{"type":"Point","coordinates":[-88.145074,41.999472]}},{"properties":{"city":"Batavia","total count":431,"zip":"60510","geo_score":0.879,"survivor":36,"inactive":149,"annuitant":62,"id":"a62adwpu2n4t","geo_precision":"zip","active":184,"state":"Illinois"},"type":"Feature","geometry":{"type":"Point","coordinates":[-88.281462,41.849473]}},{"properties":{"city":"Beach Park","total count":41,"zip":"60099","geo_score":1.0,"survivor":3,"inactive":10,"annuitant":7,"id":"a62adx19o7v7","geo_precision":"zip","active":21,"state":"Illinois"},"type":"Feature","geometry":{"type":"Point","coordinates":[-87.857296,42.422244]}},{"properties":{"city":"Beecher","total count":61,"zip":"60401","geo_score":0.857,"survivor":4,"inactive":15,"annuitant":10,"id":"a62adwt8132s","geo_precision":"zip","active":32,"state":"Illinois"},"type":"Feature","geometry":{"type":"Point","coordinates":[-87.634761,41.293367]}},{"properties":{"city":"Bellwood","total count":173,"zip":"60104","geo_score":1.0,"survivor":22,"inactive":42,"annuitant":35,"id":"a62adwvf125s","geo_precision":"zip","active":74,"state":"Illinois"},"type":"Feature","geometry":{"type":"Point","coordinates":[-87.68732,41.811929]}},{"properties":{"city":"Bensenville","total count":87,"zip":"60106","geo_score":1.0,"survivor":8,"inactive":34,"annuitant":12,"id":"a62adx2ppmup","geo_precision":"zip","active":32,"state":"Illinois"},"type":"Feature","geometry":{"type":"Point","coordinates":[-88.088716,41.839679]}},{"properties":{"city":"Berkeley","total count":50,"zip":"60163","geo_score":1.0,"survivor":6,"inactive":15,"annuitant":6,"id":"a62adx5a3mnm","geo_precision":"zip","active":23,"state":"Illinois"},"type":"Feature","geometry":{"type":"Point","coordinates":[-87.68732,41.811929]}},{"properties":{"city":"Berwyn","total count":479,"zip":"60402","geo_score":0.875,"survivor":28,"inactive":149,"annuitant":60,"id":"a62adx2163wm","geo_precision":"zip","active":242,"state":"Illinois"},"type":"Feature","geometry":{"type":"Point","coordinates":[-87.782834,41.821421]}},{"properties":{"city":"Big Rock","total count":32,"zip":"60511","geo_score":1.0,"survivor":5,"inactive":10,"annuitant":2,"id":"a62adx4cs57c","geo_precision":"zip","active":15,"state":"Illinois"},"type":"Feature","geometry":{"type":"Point","coordinates":[-88.54574,41.764324]}},{"properties":{"city":"Bloomingdale","total count":193,"zip":"60108","geo_score":1.0,"survivor":39,"inactive":70,"annuitant":24,"id":"a62adwwwb03g","geo_precision":"zip","active":60,"state":"Illinois"},"type":"Feature","geometry":{"type":"Point","coordinates":[-88.088716,41.839679]}},{"properties":{"city":"Blue Island","total count":117,"zip":"60406","geo_score":1.0,"survivor":24,"inactive":28,"annuitant":15,"id":"a62adwyp247y","geo_precision":"zip","active":50,"state":"Illinois"},"type":"Feature","geometry":{"type":"Point","coordinates":[-87.68732,41.811929]}},{"properties":{"city":"Bolingbrook","total count":604,"zip":"60440","geo_score":1.0,"survivor":45,"inactive":238,"annuitant":76,"id":"a62adwujk4ut","geo_precision":"zip","active":245,"state":"Illinois"},"type":"Feature","geometry":{"type":"Point","coordinates":[-88.022464,41.623336]}},{"properties":{"city":"Braidwood","total count":44,"zip":"60408","geo_score":1.0,"survivor":null,"inactive":13,"annuitant":6,"id":"a62adx1zuad7","geo_precision":"zip","active":25,"state":"Illinois"},"type":"Feature","geometry":{"type":"Point","coordinates":[-88.017171,41.285878]}},{"properties":{"city":"Bridgeview","total count":85,"zip":"60455","geo_score":1.0,"survivor":18,"inactive":23,"annuitant":9,"id":"a62adwuy9g6g","geo_precision":"zip","active":35,"state":"Illinois"},"type":"Feature","geometry":{"type":"Point","coordinates":[-87.68732,41.811929]}},{"properties":{"city":"Broadview","total count":88,"zip":"60155","geo_score":1.0,"survivor":12,"inactive":27,"annuitant":15,"id":"a62adx5t6o0k","geo_precision":"zip","active":33,"state":"Illinois"},"type":"Feature","geometry":{"type":"Point","coordinates":[-87.68732,41.811929]}},{"properties":{"city":"Brookfield","total count":226,"zip":"60513","geo_score":1.0,"survivor":23,"inactive":67,"annuitant":34,"id":"a62adx14dqi3","geo_precision":"zip","active":102,"state":"Illinois"},"type":"Feature","geometry":{"type":"Point","coordinates":[-87.68732,41.811929]}},{"properties":{"city":"Buffalo Grove","total count":319,"zip":"60089","geo_score":1.0,"survivor":26,"inactive":131,"annuitant":37,"id":"a62adwykt21g","geo_precision":"zip","active":122,"state":"Illinois"},"type":"Feature","geometry":{"type":"Point","coordinates":[-87.960771,42.180411]}},{"properties":{"city":"Bull Valley","total count":10,"zip":"60098","geo_score":0.871,"survivor":null,"inactive":1,"annuitant":2,"id":"a62adwpdwwmk","geo_precision":"zip","active":5,"state":"Illinois"},"type":"Feature","geometry":{"type":"Point","coordinates":[-88.507317,42.363632]}},{"properties":{"city":"Burbank","total count":150,"zip":"60459","geo_score":1.0,"survivor":15,"inactive":39,"annuitant":21,"id":"a62adx416ycc","geo_precision":"zip","active":75,"state":"Illinois"},"type":"Feature","geometry":{"type":"Point","coordinates":[-87.68732,41.811929]}},{"properties":{"city":"Burlington","total count":8,"zip":"60109","geo_score":1.0,"survivor":1,"inactive":4,"annuitant":2,"id":"a62adx04kvb0","geo_precision":"zip","active":1,"state":"Illinois"},"type":"Feature","geometry":{"type":"Point","coordinates":[-88.539027,42.045792]}},{"properties":{"city":"Burnham","total count":25,"zip":"60633","geo_score":1.0,"survivor":2,"inactive":7,"annuitant":4,"id":"a62adx25tlzl","geo_precision":"zip","active":12,"state":"Illinois"},"type":"Feature","geometry":{"type":"Point","coordinates":[-87.556711,41.638924]}},{"properties":{"city":"Burr Ridge","total count":178,"zip":"60527","geo_score":0.873,"survivor":10,"inactive":61,"annuitant":42,"id":"a62adx4zecp2","geo_precision":"zip","active":54,"state":"Illinois"},"type":"Feature","geometry":{"type":"Point","coordinates":[-88.088716,41.839679]}},{"properties":{"city":"Calumet City","total count":281,"zip":"60409","geo_score":1.0,"survivor":43,"inactive":46,"annuitant":55,"id":"a62adx596zo7","geo_precision":"zip","active":137,"state":"Illinois"},"type":"Feature","geometry":{"type":"Point","coordinates":[-87.68732,41.811929]}},{"properties":{"city":"Calumet Park","total count":77,"zip":"60827","geo_score":0.883,"survivor":6,"inactive":16,"annuitant":11,"id":"a62adx2w4zxx","geo_precision":"zip","active":42,"state":"Illinois"},"type":"Feature","geometry":{"type":"Point","coordinates":[-87.68732,41.811929]}},{"properties":{"city":"Campton Hills","total count":3,"zip":"60175","geo_score":0.905,"survivor":null,"inactive":1,"annuitant":1,"id":"a62adx16wefn","geo_precision":"zip","active":1,"state":"Illinois"},"type":"Feature","geometry":{"type":"Point","coordinates":[-88.386905,41.943171]}},{"properties":{"city":"Carol Stream","total count":264,"zip":"60188","geo_score":1.0,"survivor":25,"inactive":88,"annuitant":33,"id":"a62adwxkb2lo","geo_precision":"zip","active":118,"state":"Illinois"},"type":"Feature","geometry":{"type":"Point","coordinates":[-88.088716,41.839679]}},{"properties":{"city":"Carpentersville","total count":152,"zip":"60110","geo_score":1.0,"survivor":8,"inactive":60,"annuitant":11,"id":"a62adwyq3xwz","geo_precision":"zip","active":73,"state":"Illinois"},"type":"Feature","geometry":{"type":"Point","coordinates":[-88.297238,42.125008]}},{"properties":{"city":"Cary","total count":215,"zip":"60013","geo_score":0.883,"survivor":13,"inactive":73,"annuitant":23,"id":"a62adwrg4886","geo_precision":"zip","active":106,"state":"Illinois"},"type":"Feature","geometry":{"type":"Point","coordinates":[-88.253416,42.19808]}},{"properties":{"city":"Channahon","total count":129,"zip":"60410","geo_score":1.0,"survivor":8,"inactive":49,"annuitant":11,"id":"a62adwtqw2ip","geo_precision":"zip","active":61,"state":"Illinois"},"type":"Feature","geometry":{"type":"Point","coordinates":[-88.199325,41.43313]}},{"properties":{"city":"Chicago","total count":26774,"zip":"60643","geo_score":0.883,"survivor":2620,"inactive":7305,"annuitant":4099,"id":"a62adwthg5gr","geo_precision":"zip","active":12750,"state":"Illinois"},"type":"Feature","geometry":{"type":"Point","coordinates":[-87.660604,41.662812]}},{"properties":{"city":"Chicago Heights","total count":243,"zip":"60411","geo_score":0.962,"survivor":27,"inactive":66,"annuitant":45,"id":"a62adwz1gnyw","geo_precision":"zip","active":98,"state":"Illinois"},"type":"Feature","geometry":{"type":"Point","coordinates":[-87.637821,41.480868]}},{"properties":{"city":"Chicago Ridge","total count":76,"zip":"60415","geo_score":1.0,"survivor":11,"inactive":19,"annuitant":14,"id":"a62adwu51m4k","geo_precision":"zip","active":32,"state":"Illinois"},"type":"Feature","geometry":{"type":"Point","coordinates":[-87.68732,41.811929]}},{"properties":{"city":"Cicero","total count":300,"zip":"60804","geo_score":1.0,"survivor":27,"inactive":81,"annuitant":20,"id":"a62adx5efemr","geo_precision":"zip","active":172,"state":"Illinois"},"type":"Feature","geometry":{"type":"Point","coordinates":[-87.68732,41.811929]}},{"properties":{"city":"Clare","total count":16,"zip":"60111","geo_score":1.0,"survivor":2,"inactive":2,"annuitant":6,"id":"a62adwubgb0z","geo_precision":"zip","active":6,"state":"Illinois"},"type":"Feature","geometry":{"type":"Point","coordinates":[-88.83055,42.008626]}},{"properties":{"city":"Clarendon Hills","total count":115,"zip":"60514","geo_score":1.0,"survivor":11,"inactive":45,"annuitant":19,"id":"a62adwuqx3o0","geo_precision":"zip","active":37,"state":"Illinois"},"type":"Feature","geometry":{"type":"Point","coordinates":[-87.966094,41.774295]}},{"properties":{"city":"Cortland","total count":144,"zip":"60112","geo_score":1.0,"survivor":13,"inactive":24,"annuitant":20,"id":"a62adwzphxej","geo_precision":"zip","active":87,"state":"Illinois"},"type":"Feature","geometry":{"type":"Point","coordinates":[-88.684007,41.926177]}},{"properties":{"city":"Country Club Hills","total count":229,"zip":"60478","geo_score":1.0,"survivor":30,"inactive":57,"annuitant":37,"id":"a62adx0r2xq5","geo_precision":"zip","active":102,"state":"Illinois"},"type":"Feature","geometry":{"type":"Point","coordinates":[-87.68732,41.811929]}},{"properties":{"city":"Countryside","total count":66,"zip":"60525","geo_score":0.867,"survivor":9,"inactive":20,"annuitant":10,"id":"a62adx1cxl27","geo_precision":"zip","active":27,"state":"Illinois"},"type":"Feature","geometry":{"type":"Point","coordinates":[-87.902281,41.770309]}},{"properties":{"city":"Crest Hill","total count":149,"zip":"60403","geo_score":0.857,"survivor":13,"inactive":26,"annuitant":37,"id":"a62adx495miv","geo_precision":"city","active":50,"state":"Illinois"},"type":"Feature","geometry":{"type":"Point","coordinates":[-88.098671,41.554753]}},{"properties":{"city":"Crestwood","total count":73,"zip":"60445","geo_score":1.0,"survivor":5,"inactive":18,"annuitant":16,"id":"a62adwwv7ssp","geo_precision":"zip","active":34,"state":"Illinois"},"type":"Feature","geometry":{"type":"Point","coordinates":[-87.752551,41.661144]}},{"properties":{"city":"Crete","total count":258,"zip":"60417","geo_score":1.0,"survivor":29,"inactive":74,"annuitant":63,"id":"a62adwy99yd3","geo_precision":"zip","active":91,"state":"Illinois"},"type":"Feature","geometry":{"type":"Point","coordinates":[-87.621223,41.426684]}},{"properties":{"city":"Crystal Lake","total count":622,"zip":"60014","geo_score":0.87,"survivor":35,"inactive":212,"annuitant":108,"id":"a62adwrnugo5","geo_precision":"zip","active":267,"state":"Illinois"},"type":"Feature","geometry":{"type":"Point","coordinates":[-88.300642,42.281689]}},{"properties":{"city":"Custer Park","total count":12,"zip":"60481","geo_score":0.886,"survivor":null,"inactive":2,"annuitant":4,"id":"a62adx1mblb9","geo_precision":"zip","active":6,"state":"Illinois"},"type":"Feature","geometry":{"type":"Point","coordinates":[-88.052554,41.328643]}},{"properties":{"city":"Darien","total count":328,"zip":"60561","geo_score":1.0,"survivor":25,"inactive":96,"annuitant":75,"id":"a62adx3p68ce","geo_precision":"zip","active":132,"state":"Illinois"},"type":"Feature","geometry":{"type":"Point","coordinates":[-87.98046,41.743437]}},{"properties":{"city":"Deer Park","total count":19,"zip":"60010","geo_score":0.9,"survivor":1,"inactive":7,"annuitant":5,"id":"a62adwx175d3","geo_precision":"zip","active":6,"state":"Illinois"},"type":"Feature","geometry":{"type":"Point","coordinates":[-88.152025,42.231968]}},{"properties":{"city":"Deerfield","total count":195,"zip":"60015","geo_score":0.886,"survivor":17,"inactive":70,"annuitant":31,"id":"a62adwssmoxa","geo_precision":"zip","active":77,"state":"Illinois"},"type":"Feature","geometry":{"type":"Point","coordinates":[-87.897014,42.167525]}},{"properties":{"city":"Dekalb","total count":3221,"zip":"60115","geo_score":0.881,"survivor":326,"inactive":337,"annuitant":855,"id":"a62adwtiaqu5","geo_precision":"zip","active":1703,"state":"Illinois"},"type":"Feature","geometry":{"type":"Point","coordinates":[-88.776197,41.864196]}},{"properties":{"city":"Des Plaines","total count":576,"zip":"60016","geo_score":1.0,"survivor":68,"inactive":167,"annuitant":85,"id":"a62adx2m8pe1","geo_precision":"zip","active":256,"state":"Illinois"},"type":"Feature","geometry":{"type":"Point","coordinates":[-87.890466,42.048278]}},{"properties":{"city":"Dixmoor","total count":10,"zip":"60426","geo_score":0.857,"survivor":1,"inactive":1,"annuitant":2,"id":"a62adx4a4cfp","geo_precision":"zip","active":6,"state":"Illinois"},"type":"Feature","geometry":{"type":"Point","coordinates":[-87.634768,41.611146]}},{"properties":{"city":"Dolton","total count":214,"zip":"60419","geo_score":1.0,"survivor":29,"inactive":41,"annuitant":42,"id":"a62adx590qa8","geo_precision":"zip","active":102,"state":"Illinois"},"type":"Feature","geometry":{"type":"Point","coordinates":[-87.68732,41.811929]}},{"properties":{"city":"Downers Grove","total count":774,"zip":"60546","geo_score":0.898,"survivor":75,"inactive":283,"annuitant":148,"id":"a62adwsu3lzf","geo_precision":"zip","active":268,"state":"Illinois"},"type":"Feature","geometry":{"type":"Point","coordinates":[-87.823114,41.842809]}},{"properties":{"city":"Dundee","total count":28,"zip":"60118","geo_score":0.943,"survivor":5,"inactive":12,"annuitant":2,"id":"a62adwxiqh9f","geo_precision":"zip","active":9,"state":"Illinois"},"type":"Feature","geometry":{"type":"Point","coordinates":[-88.282858,42.098081]}},{"properties":{"city":"East Dundee","total count":33,"zip":"60118","geo_score":0.971,"survivor":6,"inactive":12,"annuitant":3,"id":"a62adwr6xbk9","geo_precision":"zip","active":12,"state":"Illinois"},"type":"Feature","geometry":{"type":"Point","coordinates":[-88.282858,42.098081]}},{"properties":{"city":"Elburn","total count":154,"zip":"60119","geo_score":0.867,"survivor":12,"inactive":41,"annuitant":25,"id":"a62adx4ih3zv","geo_precision":"zip","active":76,"state":"Illinois"},"type":"Feature","geometry":{"type":"Point","coordinates":[-88.465355,41.829751]}},{"properties":{"city":"Elgin","total count":1259,"zip":"60123","geo_score":1.0,"survivor":94,"inactive":421,"annuitant":191,"id":"a62adwr3euwc","geo_precision":"zip","active":553,"state":"Illinois"},"type":"Feature","geometry":{"type":"Point","coordinates":[-88.371044,42.036325]}},{"properties":{"city":"Elk Grove Village","total count":265,"zip":"60007","geo_score":1.0,"survivor":29,"inactive":98,"annuitant":35,"id":"a62adx4wo2t1","geo_precision":"zip","active":103,"state":"Illinois"},"type":"Feature","geometry":{"type":"Point","coordinates":[-87.905866,42.020278]}},{"properties":{"city":"Elmhurst","total count":552,"zip":"60126","geo_score":0.857,"survivor":46,"inactive":210,"annuitant":109,"id":"a62adwy6rbw9","geo_precision":"zip","active":186,"state":"Illinois"},"type":"Feature","geometry":{"type":"Point","coordinates":[-87.948396,41.863364]}},{"properties":{"city":"Elmwood Park","total count":286,"zip":"60707","geo_score":1.0,"survivor":20,"inactive":117,"annuitant":41,"id":"a62adwr6bd8t","geo_precision":"zip","active":108,"state":"Illinois"},"type":"Feature","geometry":{"type":"Point","coordinates":[-87.818509,41.923181]}},{"properties":{"city":"Elwood","total count":34,"zip":"60421","geo_score":1.0,"survivor":3,"inactive":12,"annuitant":4,"id":"a62adwvhfc9e","geo_precision":"zip","active":14,"state":"Illinois"},"type":"Feature","geometry":{"type":"Point","coordinates":[-88.090588,41.44288]}},{"properties":{"city":"Esmond","total count":15,"zip":"60129","geo_score":1.0,"survivor":3,"inactive":2,"annuitant":3,"id":"a62adwwhsxjk","geo_precision":"zip","active":7,"state":"Illinois"},"type":"Feature","geometry":{"type":"Point","coordinates":[-88.919791,42.042932]}},{"properties":{"city":"Evanston","total count":1155,"zip":"60201","geo_score":1.0,"survivor":130,"inactive":368,"annuitant":250,"id":"a62adwvc6t8e","geo_precision":"zip","active":407,"state":"Illinois"},"type":"Feature","geometry":{"type":"Point","coordinates":[-87.702155,42.049148]}},{"properties":{"city":"Evergreen Park","total count":260,"zip":"60805","geo_score":1.0,"survivor":30,"inactive":70,"annuitant":48,"id":"a62adwxfurv1","geo_precision":"zip","active":112,"state":"Illinois"},"type":"Feature","geometry":{"type":"Point","coordinates":[-87.68732,41.811929]}},{"properties":{"city":"Flossmoor","total count":292,"zip":"60422","geo_score":0.929,"survivor":30,"inactive":83,"annuitant":53,"id":"a62adwxfgrvi","geo_precision":"zip","active":126,"state":"Illinois"},"type":"Feature","geometry":{"type":"Point","coordinates":[-87.713381,41.546145]}},{"properties":{"city":"Ford Heights","total count":15,"zip":"60411","geo_score":0.917,"survivor":3,"inactive":5,"annuitant":4,"id":"a62adwrvirtd","geo_precision":"zip","active":3,"state":"Illinois"},"type":"Feature","geometry":{"type":"Point","coordinates":[-87.637821,41.480868]}},{"properties":{"city":"Forest Park","total count":267,"zip":"60130","geo_score":1.0,"survivor":14,"inactive":90,"annuitant":29,"id":"a62adx0ekvuu","geo_precision":"zip","active":134,"state":"Illinois"},"type":"Feature","geometry":{"type":"Point","coordinates":[-87.68732,41.811929]}},{"properties":{"city":"Forest View","total count":4,"zip":"60402","geo_score":0.871,"survivor":null,"inactive":3,"annuitant":null,"id":"a62adwrgcy6v","geo_precision":"zip","active":null,"state":"Illinois"},"type":"Feature","geometry":{"type":"Point","coordinates":[-87.782834,41.821421]}},{"properties":{"city":"Fox Lake","total count":55,"zip":"60020","geo_score":0.883,"survivor":3,"inactive":18,"annuitant":12,"id":"a62adx0s6gj4","geo_precision":"zip","active":22,"state":"Illinois"},"type":"Feature","geometry":{"type":"Point","coordinates":[-88.180918,42.384188]}},{"properties":{"city":"Fox River Grove","total count":35,"zip":"60021","geo_score":1.0,"survivor":2,"inactive":16,"annuitant":1,"id":"a62adx3qzchv","geo_precision":"zip","active":13,"state":"Illinois"},"type":"Feature","geometry":{"type":"Point","coordinates":[-88.250406,42.213058]}},{"properties":{"city":"Frankfort","total count":397,"zip":"60423","geo_score":0.878,"survivor":25,"inactive":137,"annuitant":67,"id":"a62adwwp2qil","geo_precision":"zip","active":168,"state":"Illinois"},"type":"Feature","geometry":{"type":"Point","coordinates":[-87.806994,41.502534]}},{"properties":{"city":"Franklin Park","total count":139,"zip":"60131","geo_score":1.0,"survivor":5,"inactive":68,"annuitant":11,"id":"a62adwxezw9n","geo_precision":"zip","active":55,"state":"Illinois"},"type":"Feature","geometry":{"type":"Point","coordinates":[-87.884962,41.93598]}},{"properties":{"city":"Gages Lake","total count":8,"zip":"60030","geo_score":0.857,"survivor":2,"inactive":1,"annuitant":1,"id":"a62adwpxwhvz","geo_precision":"zip","active":4,"state":"Illinois"},"type":"Feature","geometry":{"type":"Point","coordinates":[-87.998133,42.3428]}},{"properties":{"city":"Geneva","total count":434,"zip":"60134","geo_score":1.0,"survivor":22,"inactive":147,"annuitant":63,"id":"a62adwu11yia","geo_precision":"zip","active":202,"state":"Illinois"},"type":"Feature","geometry":{"type":"Point","coordinates":[-88.406165,41.97974]}},{"properties":{"city":"Genoa","total count":138,"zip":"60135","geo_score":1.0,"survivor":17,"inactive":29,"annuitant":33,"id":"a62adx5h1qzq","geo_precision":"zip","active":59,"state":"Illinois"},"type":"Feature","geometry":{"type":"Point","coordinates":[-88.718101,42.10153]}},{"properties":{"city":"Gilberts","total count":71,"zip":"60136","geo_score":1.0,"survivor":3,"inactive":29,"annuitant":5,"id":"a62adwzbnn04","geo_precision":"zip","active":34,"state":"Illinois"},"type":"Feature","geometry":{"type":"Point","coordinates":[-88.379932,42.102524]}},{"properties":{"city":"Glen Ellyn","total count":664,"zip":"60137","geo_score":0.871,"survivor":55,"inactive":219,"annuitant":145,"id":"a62adwrop3tp","geo_precision":"zip","active":240,"state":"Illinois"},"type":"Feature","geometry":{"type":"Point","coordinates":[-88.067844,41.830308]}},{"properties":{"city":"Glencoe","total count":70,"zip":"60022","geo_score":1.0,"survivor":9,"inactive":17,"annuitant":21,"id":"a62adwx42irh","geo_precision":"zip","active":23,"state":"Illinois"},"type":"Feature","geometry":{"type":"Point","coordinates":[-87.815914,42.102927]}},{"properties":{"city":"Glendale Heights","total count":164,"zip":"60139","geo_score":1.0,"survivor":7,"inactive":58,"annuitant":23,"id":"a62adx2ey76r","geo_precision":"zip","active":58,"state":"Illinois"},"type":"Feature","geometry":{"type":"Point","coordinates":[-88.088716,41.839679]}},{"properties":{"city":"Glenview","total count":547,"zip":"60025","geo_score":0.886,"survivor":42,"inactive":146,"annuitant":90,"id":"a62adwvetqlc","geo_precision":"zip","active":152,"state":"Illinois"},"type":"Feature","geometry":{"type":"Point","coordinates":[-87.875345,42.086694]}},{"properties":{"city":"Glenwood","total count":134,"zip":"60425","geo_score":1.0,"survivor":20,"inactive":39,"annuitant":22,"id":"a62adx1n3dzl","geo_precision":"zip","active":53,"state":"Illinois"},"type":"Feature","geometry":{"type":"Point","coordinates":[-87.68732,41.811929]}},{"properties":{"city":"Grayslake","total count":452,"zip":"60030","geo_score":0.857,"survivor":33,"inactive":115,"annuitant":90,"id":"a62adwuefjiv","geo_precision":"zip","active":214,"state":"Illinois"},"type":"Feature","geometry":{"type":"Point","coordinates":[-87.998133,42.3428]}},{"properties":{"city":"Great Lakes","total count":5,"zip":"60088","geo_score":1.0,"survivor":1,"inactive":2,"annuitant":null,"id":"a62adx50pyog","geo_precision":"zip","active":2,"state":"Illinois"},"type":"Feature","geometry":{"type":"Point","coordinates":[-87.85427,42.309272]}},{"properties":{"city":"Gurnee","total count":365,"zip":"60031","geo_score":0.889,"survivor":20,"inactive":108,"annuitant":45,"id":"a62adwpnm4gn","geo_precision":"zip","active":191,"state":"Illinois"},"type":"Feature","geometry":{"type":"Point","coordinates":[-87.903406,42.290023]}},{"properties":{"city":"Hainesville","total count":28,"zip":"60030","geo_score":0.87,"survivor":null,"inactive":8,"annuitant":null,"id":"a62adww1n2ej","geo_precision":"zip","active":13,"state":"Illinois"},"type":"Feature","geometry":{"type":"Point","coordinates":[-87.998133,42.3428]}},{"properties":{"city":"Hampshire","total count":96,"zip":"60140","geo_score":0.873,"survivor":9,"inactive":31,"annuitant":15,"id":"a62adx1qoxa9","geo_precision":"zip","active":41,"state":"Illinois"},"type":"Feature","geometry":{"type":"Point","coordinates":[-88.456751,42.088359]}},{"properties":{"city":"Hanover Park","total count":145,"zip":"60133","geo_score":0.87,"survivor":8,"inactive":55,"annuitant":17,"id":"a62adwz2j31u","geo_precision":"zip","active":54,"state":"Illinois"},"type":"Feature","geometry":{"type":"Point","coordinates":[-88.083959,42.030261]}},{"properties":{"city":"Harvard","total count":78,"zip":"60033","geo_score":0.893,"survivor":5,"inactive":23,"annuitant":18,"id":"a62adwyhwsm3","geo_precision":"zip","active":32,"state":"Illinois"},"type":"Feature","geometry":{"type":"Point","coordinates":[-88.641211,42.441129]}},{"properties":{"city":"Harvey","total count":138,"zip":"60426","geo_score":0.878,"survivor":24,"inactive":25,"annuitant":26,"id":"a62adwwg0lrg","geo_precision":"zip","active":62,"state":"Illinois"},"type":"Feature","geometry":{"type":"Point","coordinates":[-87.634768,41.611146]}},{"properties":{"city":"Harwood Heights","total count":48,"zip":"60706","geo_score":1.0,"survivor":1,"inactive":18,"annuitant":8,"id":"a62adx5ftgvo","geo_precision":"zip","active":17,"state":"Illinois"},"type":"Feature","geometry":{"type":"Point","coordinates":[-87.68732,41.811929]}},{"properties":{"city":"Hawthorn Woods","total count":69,"zip":"60047","geo_score":0.868,"survivor":4,"inactive":26,"annuitant":15,"id":"a62adx2vd7pt","geo_precision":"zip","active":22,"state":"Illinois"},"type":"Feature","geometry":{"type":"Point","coordinates":[-88.047853,42.170581]}},{"properties":{"city":"Hazel Crest","total count":202,"zip":"60429","geo_score":0.959,"survivor":27,"inactive":49,"annuitant":38,"id":"a62adwu9bdwe","geo_precision":"zip","active":88,"state":"Illinois"},"type":"Feature","geometry":{"type":"Point","coordinates":[-87.646435,41.573646]}},{"properties":{"city":"Hebron","total count":8,"zip":"60034","geo_score":1.0,"survivor":1,"inactive":3,"annuitant":1,"id":"a62adwqh1uy8","geo_precision":"zip","active":3,"state":"Illinois"},"type":"Feature","geometry":{"type":"Point","coordinates":[-88.430802,42.455151]}},{"properties":{"city":"Hickory Hills","total count":125,"zip":"60457","geo_score":1.0,"survivor":20,"inactive":28,"annuitant":28,"id":"a62adwsgu218","geo_precision":"zip","active":49,"state":"Illinois"},"type":"Feature","geometry":{"type":"Point","coordinates":[-87.68732,41.811929]}},{"properties":{"city":"Highland Park","total count":298,"zip":"60035","geo_score":0.869,"survivor":33,"inactive":86,"annuitant":81,"id":"a62adx371tvu","geo_precision":"zip","active":97,"state":"Illinois"},"type":"Feature","geometry":{"type":"Point","coordinates":[-87.772286,42.152526]}},{"properties":{"city":"Highwood","total count":13,"zip":"60040","geo_score":1.0,"survivor":3,"inactive":5,"annuitant":1,"id":"a62adwrc9nfc","geo_precision":"zip","active":4,"state":"Illinois"},"type":"Feature","geometry":{"type":"Point","coordinates":[-87.814666,42.207374]}},{"properties":{"city":"Hillside","total count":76,"zip":"60162","geo_score":1.0,"survivor":9,"inactive":23,"annuitant":14,"id":"a62adwrq68fr","geo_precision":"zip","active":30,"state":"Illinois"},"type":"Feature","geometry":{"type":"Point","coordinates":[-87.68732,41.811929]}},{"properties":{"city":"Hinckley","total count":79,"zip":"60520","geo_score":1.0,"survivor":16,"inactive":13,"annuitant":12,"id":"a62adx37nnuu","geo_precision":"zip","active":38,"state":"Illinois"},"type":"Feature","geometry":{"type":"Point","coordinates":[-88.686052,41.740713]}},{"properties":{"city":"Hines","total count":2,"zip":"60141","geo_score":1.0,"survivor":null,"inactive":null,"annuitant":1,"id":"a62adwyz3agl","geo_precision":"zip","active":1,"state":"Illinois"},"type":"Feature","geometry":{"type":"Point","coordinates":[-87.68732,41.811929]}},{"properties":{"city":"Hinsdale","total count":190,"zip":"60521","geo_score":0.87,"survivor":23,"inactive":69,"annuitant":31,"id":"a62adwq38enw","geo_precision":"zip","active":67,"state":"Illinois"},"type":"Feature","geometry":{"type":"Point","coordinates":[-87.935893,41.769753]}},{"properties":{"city":"Hodgkins","total count":4,"zip":"60525","geo_score":0.867,"survivor":null,"inactive":1,"annuitant":1,"id":"a62adx55z4kv","geo_precision":"zip","active":2,"state":"Illinois"},"type":"Feature","geometry":{"type":"Point","coordinates":[-87.902281,41.770309]}},{"properties":{"city":"Hoffman Estates","total count":379,"zip":"60169","geo_score":0.857,"survivor":28,"inactive":140,"annuitant":56,"id":"a62adwuuuxpm","geo_precision":"city","active":155,"state":"Illinois"},"type":"Feature","geometry":{"type":"Point","coordinates":[-88.079795,42.042805]}},{"properties":{"city":"Holiday Hills","total count":2,"zip":"60051","geo_score":0.869,"survivor":null,"inactive":null,"annuitant":null,"id":"a62adx09wqoy","geo_precision":"zip","active":2,"state":"Illinois"},"type":"Feature","geometry":{"type":"Point","coordinates":[-88.452481,42.324761]}},{"properties":{"city":"Homer Glen","total count":165,"zip":"60491","geo_score":0.857,"survivor":17,"inactive":42,"annuitant":41,"id":"a62adx3pege3","geo_precision":"city","active":62,"state":"Illinois"},"type":"Feature","geometry":{"type":"Point","coordinates":[-87.938111,41.600032]}},{"properties":{"city":"Hometown","total count":34,"zip":"60456","geo_score":1.0,"survivor":9,"inactive":7,"annuitant":6,"id":"a62adx3ujxfh","geo_precision":"zip","active":12,"state":"Illinois"},"type":"Feature","geometry":{"type":"Point","coordinates":[-87.68732,41.811929]}},{"properties":{"city":"Homewood","total count":499,"zip":"60430","geo_score":0.857,"survivor":47,"inactive":164,"annuitant":92,"id":"a62adwqrb5qs","geo_precision":"zip","active":196,"state":"Illinois"},"type":"Feature","geometry":{"type":"Point","coordinates":[-87.693935,41.535868]}},{"properties":{"city":"Huntley","total count":230,"zip":"60142","geo_score":1.0,"survivor":22,"inactive":48,"annuitant":82,"id":"a62adww6x9py","geo_precision":"zip","active":76,"state":"Illinois"},"type":"Feature","geometry":{"type":"Point","coordinates":[-88.450815,42.197379]}},{"properties":{"city":"Indian Creek","total count":6,"zip":"60061","geo_score":0.87,"survivor":1,"inactive":2,"annuitant":null,"id":"a62adx2gscvt","geo_precision":"zip","active":3,"state":"Illinois"},"type":"Feature","geometry":{"type":"Point","coordinates":[-87.962973,42.231183]}},{"properties":{"city":"Indian Head Park","total count":64,"zip":"60525","geo_score":1.0,"survivor":12,"inactive":4,"annuitant":22,"id":"a62adwq96q0h","geo_precision":"zip","active":20,"state":"Illinois"},"type":"Feature","geometry":{"type":"Point","coordinates":[-87.902281,41.770309]}},{"properties":{"city":"Ingleside","total count":62,"zip":"60041","geo_score":0.905,"survivor":11,"inactive":9,"annuitant":15,"id":"a62adwq1ppqg","geo_precision":"zip","active":27,"state":"Illinois"},"type":"Feature","geometry":{"type":"Point","coordinates":[-88.127583,42.370855]}},{"properties":{"city":"Inverness","total count":42,"zip":"60067","geo_score":1.0,"survivor":3,"inactive":4,"annuitant":13,"id":"a62adwtpv78y","geo_precision":"zip","active":8,"state":"Illinois"},"type":"Feature","geometry":{"type":"Point","coordinates":[-88.096187,42.118082]}},{"properties":{"city":"Island Lake","total count":55,"zip":"60042","geo_score":1.0,"survivor":1,"inactive":22,"annuitant":7,"id":"a62adwpy0oqu","geo_precision":"zip","active":25,"state":"Illinois"},"type":"Feature","geometry":{"type":"Point","coordinates":[-88.188464,42.27179]}},{"properties":{"city":"Itasca","total count":64,"zip":"60143","geo_score":1.0,"survivor":3,"inactive":22,"annuitant":12,"id":"a62adx5urmz1","geo_precision":"zip","active":27,"state":"Illinois"},"type":"Feature","geometry":{"type":"Point","coordinates":[-88.088716,41.839679]}},{"properties":{"city":"Johnsburg","total count":27,"zip":"60051","geo_score":0.889,"survivor":1,"inactive":6,"annuitant":4,"id":"a62adx2mni11","geo_precision":"zip","active":11,"state":"Illinois"},"type":"Feature","geometry":{"type":"Point","coordinates":[-88.452481,42.324761]}},{"properties":{"city":"Joliet","total count":951,"zip":"60435","geo_score":0.881,"survivor":73,"inactive":303,"annuitant":148,"id":"a62adwqn27ph","geo_precision":"zip","active":427,"state":"Illinois"},"type":"Feature","geometry":{"type":"Point","coordinates":[-88.090337,41.554753]}},{"properties":{"city":"Justice","total count":55,"zip":"60458","geo_score":1.0,"survivor":6,"inactive":13,"annuitant":12,"id":"a62adx5oufmm","geo_precision":"zip","active":24,"state":"Illinois"},"type":"Feature","geometry":{"type":"Point","coordinates":[-87.68732,41.811929]}},{"properties":{"city":"Kaneville","total count":6,"zip":"60144","geo_score":1.0,"survivor":1,"inactive":1,"annuitant":null,"id":"a62adwpvm9xo","geo_precision":"zip","active":4,"state":"Illinois"},"type":"Feature","geometry":{"type":"Point","coordinates":[-88.420178,41.936977]}},{"properties":{"city":"Kenilworth","total count":13,"zip":"60043","geo_score":1.0,"survivor":null,"inactive":4,"annuitant":6,"id":"a62adwyu5hyv","geo_precision":"zip","active":3,"state":"Illinois"},"type":"Feature","geometry":{"type":"Point","coordinates":[-87.71456,42.088428]}},{"properties":{"city":"Kildeer","total count":26,"zip":"60047","geo_score":1.0,"survivor":1,"inactive":14,"annuitant":2,"id":"a62adwwsms8e","geo_precision":"zip","active":9,"state":"Illinois"},"type":"Feature","geometry":{"type":"Point","coordinates":[-88.047853,42.170581]}},{"properties":{"city":"Kingston","total count":71,"zip":"60145","geo_score":0.857,"survivor":13,"inactive":13,"annuitant":18,"id":"a62adx36turl","geo_precision":"zip","active":27,"state":"Illinois"},"type":"Feature","geometry":{"type":"Point","coordinates":[-88.776207,42.154747]}},{"properties":{"city":"Kirkland","total count":50,"zip":"60146","geo_score":0.893,"survivor":9,"inactive":10,"annuitant":9,"id":"a62adwpefmfu","geo_precision":"zip","active":22,"state":"Illinois"},"type":"Feature","geometry":{"type":"Point","coordinates":[-88.932876,42.100025]}},{"properties":{"city":"La Grange","total count":257,"zip":"60525","geo_score":0.888,"survivor":35,"inactive":79,"annuitant":50,"id":"a62adwqp58zy","geo_precision":"zip","active":87,"state":"Illinois"},"type":"Feature","geometry":{"type":"Point","coordinates":[-87.902281,41.770309]}},{"properties":{"city":"La Grange Highlands","total count":15,"zip":"60525","geo_score":0.891,"survivor":1,"inactive":2,"annuitant":2,"id":"a62adwuud9cv","geo_precision":"zip","active":6,"state":"Illinois"},"type":"Feature","geometry":{"type":"Point","coordinates":[-87.902281,41.770309]}},{"properties":{"city":"La Grange Park","total count":197,"zip":"60526","geo_score":1.0,"survivor":29,"inactive":66,"annuitant":38,"id":"a62adwwbn08j","geo_precision":"zip","active":61,"state":"Illinois"},"type":"Feature","geometry":{"type":"Point","coordinates":[-87.68732,41.811929]}},{"properties":{"city":"Lafox","total count":2,"zip":"60147","geo_score":1.0,"survivor":null,"inactive":1,"annuitant":null,"id":"a62adwr50tne","geo_precision":"zip","active":1,"state":"Illinois"},"type":"Feature","geometry":{"type":"Point","coordinates":[-88.420178,41.936977]}},{"properties":{"city":"Lake Barrington","total count":36,"zip":"60010","geo_score":0.878,"survivor":4,"inactive":14,"annuitant":5,"id":"a62adwxodqdg","geo_precision":"zip","active":11,"state":"Illinois"},"type":"Feature","geometry":{"type":"Point","coordinates":[-88.152025,42.231968]}},{"properties":{"city":"Lake Bluff","total count":79,"zip":"60044","geo_score":0.873,"survivor":8,"inactive":28,"annuitant":19,"id":"a62adwtpp220","geo_precision":"zip","active":24,"state":"Illinois"},"type":"Feature","geometry":{"type":"Point","coordinates":[-87.89535,42.280023]}},{"properties":{"city":"Lake Forest","total count":139,"zip":"60045","geo_score":0.959,"survivor":16,"inactive":49,"annuitant":28,"id":"a62adx0fvol5","geo_precision":"zip","active":46,"state":"Illinois"},"type":"Feature","geometry":{"type":"Point","coordinates":[-87.873126,42.221968]}},{"properties":{"city":"Lake In the Hills","total count":168,"zip":"60156","geo_score":0.898,"survivor":8,"inactive":62,"annuitant":9,"id":"a62adx097ivd","geo_precision":"zip","active":81,"state":"Illinois"},"type":"Feature","geometry":{"type":"Point","coordinates":[-88.383794,42.222769]}},{"properties":{"city":"Lake Villa","total count":199,"zip":"60046","geo_score":0.914,"survivor":12,"inactive":64,"annuitant":31,"id":"a62adwyifs06","geo_precision":"zip","active":92,"state":"Illinois"},"type":"Feature","geometry":{"type":"Point","coordinates":[-88.052581,42.398632]}},{"properties":{"city":"Lake Zurich","total count":164,"zip":"60047","geo_score":0.871,"survivor":20,"inactive":62,"annuitant":15,"id":"a62adwz10w3k","geo_precision":"zip","active":67,"state":"Illinois"},"type":"Feature","geometry":{"type":"Point","coordinates":[-88.047853,42.170581]}},{"properties":{"city":"Lakemoor","total count":18,"zip":"60051","geo_score":0.875,"survivor":3,"inactive":7,"annuitant":1,"id":"a62adwwalpqq","geo_precision":"zip","active":7,"state":"Illinois"},"type":"Feature","geometry":{"type":"Point","coordinates":[-88.452481,42.324761]}},{"properties":{"city":"Lansing","total count":231,"zip":"60438","geo_score":0.878,"survivor":19,"inactive":44,"annuitant":36,"id":"a62adx5sckow","geo_precision":"zip","active":132,"state":"Illinois"},"type":"Feature","geometry":{"type":"Point","coordinates":[-87.558376,41.563091]}},{"properties":{"city":"Lemont","total count":267,"zip":"60439","geo_score":0.857,"survivor":20,"inactive":59,"annuitant":45,"id":"a62adx10mi0m","geo_precision":"zip","active":102,"state":"Illinois"},"type":"Feature","geometry":{"type":"Point","coordinates":[-87.933113,41.688365]}},{"properties":{"city":"Libertyville","total count":316,"zip":"60048","geo_score":0.881,"survivor":25,"inactive":103,"annuitant":62,"id":"a62adwrjr54v","geo_precision":"zip","active":126,"state":"Illinois"},"type":"Feature","geometry":{"type":"Point","coordinates":[-87.925906,42.233357]}},{"properties":{"city":"Lincolnshire","total count":61,"zip":"60069","geo_score":0.869,"survivor":8,"inactive":24,"annuitant":12,"id":"a62adwq57dwm","geo_precision":"zip","active":17,"state":"Illinois"},"type":"Feature","geometry":{"type":"Point","coordinates":[-87.955628,42.199191]}},{"properties":{"city":"Lincolnwood","total count":188,"zip":"60712","geo_score":1.0,"survivor":18,"inactive":49,"annuitant":47,"id":"a62adwywjdyc","geo_precision":"zip","active":70,"state":"Illinois"},"type":"Feature","geometry":{"type":"Point","coordinates":[-87.736135,42.00798]}},{"properties":{"city":"Lindenhurst","total count":126,"zip":"60046","geo_score":0.876,"survivor":3,"inactive":38,"annuitant":14,"id":"a62adwvfywy3","geo_precision":"zip","active":71,"state":"Illinois"},"type":"Feature","geometry":{"type":"Point","coordinates":[-88.052581,42.398632]}},{"properties":{"city":"Lisle","total count":373,"zip":"60532","geo_score":1.0,"survivor":30,"inactive":139,"annuitant":49,"id":"a62adwstgj1j","geo_precision":"zip","active":155,"state":"Illinois"},"type":"Feature","geometry":{"type":"Point","coordinates":[-88.037714,41.79818]}},{"properties":{"city":"Lockport","total count":9,"zip":"60491","geo_score":0.857,"survivor":2,"inactive":4,"annuitant":1,"id":"a62adwrrfpo5","geo_precision":"city","active":2,"state":"Illinois"},"type":"Feature","geometry":{"type":"Point","coordinates":[-88.031268,41.552615]}},{"properties":{"city":"Lockport","total count":270,"zip":"60441","geo_score":0.945,"survivor":24,"inactive":103,"annuitant":26,"id":"a62adx05dw86","geo_precision":"zip","active":108,"state":"Illinois"},"type":"Feature","geometry":{"type":"Point","coordinates":[-88.054503,41.573087]}},{"properties":{"city":"Lombard","total count":563,"zip":"60148","geo_score":0.871,"survivor":59,"inactive":200,"annuitant":112,"id":"a62adx2rb3z5","geo_precision":"zip","active":191,"state":"Illinois"},"type":"Feature","geometry":{"type":"Point","coordinates":[-87.987842,41.856974]}},{"properties":{"city":"Long Grove","total count":59,"zip":"60047","geo_score":0.857,"survivor":3,"inactive":27,"annuitant":7,"id":"a62adwq3tocv","geo_precision":"zip","active":21,"state":"Illinois"},"type":"Feature","geometry":{"type":"Point","coordinates":[-88.047853,42.170581]}},{"properties":{"city":"Lynwood","total count":102,"zip":"60411","geo_score":0.865,"survivor":11,"inactive":21,"annuitant":20,"id":"a62adx4urcip","geo_precision":"zip","active":50,"state":"Illinois"},"type":"Feature","geometry":{"type":"Point","coordinates":[-87.637821,41.480868]}},{"properties":{"city":"Lyons","total count":57,"zip":"60534","geo_score":1.0,"survivor":2,"inactive":16,"annuitant":10,"id":"a62adx15pva0","geo_precision":"zip","active":29,"state":"Illinois"},"type":"Feature","geometry":{"type":"Point","coordinates":[-87.68732,41.811929]}},{"properties":{"city":"Malta","total count":124,"zip":"60150","geo_score":1.0,"survivor":12,"inactive":18,"annuitant":46,"id":"a62adwr8c1d6","geo_precision":"zip","active":48,"state":"Illinois"},"type":"Feature","geometry":{"type":"Point","coordinates":[-88.88516,41.931731]}},{"properties":{"city":"Manhattan","total count":101,"zip":"60442","geo_score":0.881,"survivor":10,"inactive":27,"annuitant":7,"id":"a62adx4pozcd","geo_precision":"zip","active":57,"state":"Illinois"},"type":"Feature","geometry":{"type":"Point","coordinates":[-87.959773,41.351421]}},{"properties":{"city":"Maple Park","total count":75,"zip":"60151","geo_score":0.873,"survivor":10,"inactive":14,"annuitant":11,"id":"a62adx4imiqc","geo_precision":"zip","active":40,"state":"Illinois"},"type":"Feature","geometry":{"type":"Point","coordinates":[-88.59647,41.834196]}},{"properties":{"city":"Marengo","total count":96,"zip":"60152","geo_score":0.878,"survivor":6,"inactive":31,"annuitant":20,"id":"a62adwulio7t","geo_precision":"zip","active":38,"state":"Illinois"},"type":"Feature","geometry":{"type":"Point","coordinates":[-88.564536,42.217245]}},{"properties":{"city":"Markham","total count":99,"zip":"60428","geo_score":0.857,"survivor":8,"inactive":19,"annuitant":13,"id":"a62adwyizsc0","geo_precision":"city","active":36,"state":"Illinois"},"type":"Feature","geometry":{"type":"Point","coordinates":[-87.69477,41.593645]}},{"properties":{"city":"Matteson","total count":319,"zip":"60443","geo_score":0.88,"survivor":29,"inactive":100,"annuitant":62,"id":"a62adx3p27m6","geo_precision":"zip","active":128,"state":"Illinois"},"type":"Feature","geometry":{"type":"Point","coordinates":[-87.71338,41.520868]}},{"properties":{"city":"Maywood","total count":206,"zip":"60153","geo_score":0.873,"survivor":27,"inactive":74,"annuitant":43,"id":"a62adwzf76zl","geo_precision":"zip","active":61,"state":"Illinois"},"type":"Feature","geometry":{"type":"Point","coordinates":[-87.853393,41.86392]}},{"properties":{"city":"McHenry","total count":261,"zip":"60050","geo_score":0.857,"survivor":27,"inactive":67,"annuitant":24,"id":"a62adwv5dhjm","geo_precision":"zip","active":88,"state":"Illinois"},"type":"Feature","geometry":{"type":"Point","coordinates":[-88.226198,42.389465]}},{"properties":{"city":"Medinah","total count":23,"zip":"60157","geo_score":1.0,"survivor":2,"inactive":12,"annuitant":3,"id":"a62adwu3cw77","geo_precision":"zip","active":6,"state":"Illinois"},"type":"Feature","geometry":{"type":"Point","coordinates":[-88.088716,41.839679]}},{"properties":{"city":"Melrose Park","total count":254,"zip":"60160","geo_score":1.0,"survivor":23,"inactive":93,"annuitant":34,"id":"a62adwxss547","geo_precision":"zip","active":104,"state":"Illinois"},"type":"Feature","geometry":{"type":"Point","coordinates":[-87.858707,41.91488]}},{"properties":{"city":"Merrionette Park","total count":16,"zip":"60803","geo_score":0.876,"survivor":1,"inactive":4,"annuitant":2,"id":"a62adx5mal1a","geo_precision":"zip","active":8,"state":"Illinois"},"type":"Feature","geometry":{"type":"Point","coordinates":[-87.68732,41.811929]}},{"properties":{"city":"Midlothian","total count":75,"zip":"60445","geo_score":0.871,"survivor":9,"inactive":26,"annuitant":7,"id":"a62adx12g7ca","geo_precision":"zip","active":33,"state":"Illinois"},"type":"Feature","geometry":{"type":"Point","coordinates":[-87.752551,41.661144]}},{"properties":{"city":"Mokena","total count":240,"zip":"60448","geo_score":0.881,"survivor":16,"inactive":80,"annuitant":29,"id":"a62adwvz6wh0","geo_precision":"zip","active":114,"state":"Illinois"},"type":"Feature","geometry":{"type":"Point","coordinates":[-87.92561,41.548643]}},{"properties":{"city":"Monee","total count":99,"zip":"60449","geo_score":1.0,"survivor":9,"inactive":28,"annuitant":16,"id":"a62adwte1jt1","geo_precision":"zip","active":44,"state":"Illinois"},"type":"Feature","geometry":{"type":"Point","coordinates":[-87.786645,41.412269]}},{"properties":{"city":"Morton Grove","total count":285,"zip":"60053","geo_score":1.0,"survivor":28,"inactive":86,"annuitant":67,"id":"a62adwup83o0","geo_precision":"zip","active":104,"state":"Illinois"},"type":"Feature","geometry":{"type":"Point","coordinates":[-87.793815,42.039329]}},{"properties":{"city":"Mount Prospect","total count":411,"zip":"60056","geo_score":0.89,"survivor":31,"inactive":106,"annuitant":64,"id":"a62adx23ixvf","geo_precision":"zip","active":133,"state":"Illinois"},"type":"Feature","geometry":{"type":"Point","coordinates":[-87.895067,42.076695]}},{"properties":{"city":"Mundelein","total count":221,"zip":"60060","geo_score":0.871,"survivor":20,"inactive":79,"annuitant":30,"id":"a62adx1eiyx6","geo_precision":"zip","active":92,"state":"Illinois"},"type":"Feature","geometry":{"type":"Point","coordinates":[-88.052855,42.243913]}},{"properties":{"city":"N Aurora","total count":2,"zip":"60542","geo_score":0.948,"survivor":2,"inactive":null,"annuitant":null,"id":"a62adx0hdxbv","geo_precision":"zip","active":null,"state":"Illinois"},"type":"Feature","geometry":{"type":"Point","coordinates":[-88.335182,41.807369]}},{"properties":{"city":"N Riverside","total count":4,"zip":"60546","geo_score":0.959,"survivor":null,"inactive":3,"annuitant":null,"id":"a62adx45c2hq","geo_precision":"zip","active":1,"state":"Illinois"},"type":"Feature","geometry":{"type":"Point","coordinates":[-87.823114,41.842809]}},{"properties":{"city":"Naperville","total count":1918,"zip":"60540","geo_score":0.857,"survivor":125,"inactive":762,"annuitant":220,"id":"a62adwstzbot","geo_precision":"zip","active":811,"state":"Illinois"},"type":"Feature","geometry":{"type":"Point","coordinates":[-88.232846,41.744752]}},{"properties":{"city":"New Lenox","total count":411,"zip":"60451","geo_score":0.875,"survivor":32,"inactive":138,"annuitant":64,"id":"a62adwswp3jo","geo_precision":"zip","active":177,"state":"Illinois"},"type":"Feature","geometry":{"type":"Point","coordinates":[-87.94172,41.498088]}},{"properties":{"city":"Niles","total count":211,"zip":"60714","geo_score":1.0,"survivor":22,"inactive":65,"annuitant":34,"id":"a62adx0v320o","geo_precision":"zip","active":90,"state":"Illinois"},"type":"Feature","geometry":{"type":"Point","coordinates":[-87.811163,42.031179]}},{"properties":{"city":"Norridge","total count":87,"zip":"60706","geo_score":0.888,"survivor":12,"inactive":30,"annuitant":16,"id":"a62adwwdbvzi","geo_precision":"zip","active":29,"state":"Illinois"},"type":"Feature","geometry":{"type":"Point","coordinates":[-87.68732,41.811929]}},{"properties":{"city":"North Aurora","total count":190,"zip":"60542","geo_score":1.0,"survivor":12,"inactive":77,"annuitant":15,"id":"a62adx3fg7l3","geo_precision":"zip","active":86,"state":"Illinois"},"type":"Feature","geometry":{"type":"Point","coordinates":[-88.335182,41.807369]}},{"properties":{"city":"North Barrington","total count":15,"zip":"60010","geo_score":0.876,"survivor":5,"inactive":7,"annuitant":2,"id":"a62adwufiwan","geo_precision":"zip","active":1,"state":"Illinois"},"type":"Feature","geometry":{"type":"Point","coordinates":[-88.152025,42.231968]}},{"properties":{"city":"North Chicago","total count":33,"zip":"60064","geo_score":1.0,"survivor":4,"inactive":10,"annuitant":4,"id":"a62adwyc08z0","geo_precision":"zip","active":15,"state":"Illinois"},"type":"Feature","geometry":{"type":"Point","coordinates":[-87.962976,42.347324]}},{"properties":{"city":"North Riverside","total count":70,"zip":"60546","geo_score":1.0,"survivor":9,"inactive":22,"annuitant":11,"id":"a62adwvg7cai","geo_precision":"zip","active":27,"state":"Illinois"},"type":"Feature","geometry":{"type":"Point","coordinates":[-87.823114,41.842809]}},{"properties":{"city":"Northbrook","total count":370,"zip":"60062","geo_score":1.0,"survivor":55,"inactive":107,"annuitant":79,"id":"a62adwtmovla","geo_precision":"zip","active":123,"state":"Illinois"},"type":"Feature","geometry":{"type":"Point","coordinates":[-87.838815,42.120176]}},{"properties":{"city":"Northfield","total count":61,"zip":"60093","geo_score":0.886,"survivor":3,"inactive":24,"annuitant":14,"id":"a62adwta7bp3","geo_precision":"zip","active":20,"state":"Illinois"},"type":"Feature","geometry":{"type":"Point","coordinates":[-87.647822,41.501702]}},{"properties":{"city":"Northlake","total count":83,"zip":"60164","geo_score":1.0,"survivor":7,"inactive":41,"annuitant":5,"id":"a62adx1o0sb0","geo_precision":"zip","active":30,"state":"Illinois"},"type":"Feature","geometry":{"type":"Point","coordinates":[-87.895619,41.917253]}},{"properties":{"city":"Northwoods","total count":2,"zip":"60185","geo_score":0.857,"survivor":null,"inactive":null,"annuitant":null,"id":"a62adx5b4dtl","geo_precision":"zip","active":2,"state":"Illinois"},"type":"Feature","geometry":{"type":"Point","coordinates":[-88.173684,41.942806]}},{"properties":{"city":"Oak Brook","total count":170,"zip":"60523","geo_score":1.0,"survivor":16,"inactive":58,"annuitant":57,"id":"a62adwu5bjxn","geo_precision":"zip","active":30,"state":"Illinois"},"type":"Feature","geometry":{"type":"Point","coordinates":[-87.963759,41.83713]}},{"properties":{"city":"Oak Forest","total count":201,"zip":"60452","geo_score":1.0,"survivor":23,"inactive":53,"annuitant":34,"id":"a62adwzrre2w","geo_precision":"zip","active":91,"state":"Illinois"},"type":"Feature","geometry":{"type":"Point","coordinates":[-87.68732,41.811929]}},{"properties":{"city":"Oak Lawn","total count":8,"zip":"60454","geo_score":1.0,"survivor":null,"inactive":4,"annuitant":null,"id":"a62adx40zaug","geo_precision":"zip","active":4,"state":"Illinois"},"type":"Feature","geometry":{"type":"Point","coordinates":[-87.68732,41.811929]}},{"properties":{"city":"Oak Lawn","total count":624,"zip":"60453","geo_score":1.0,"survivor":101,"inactive":153,"annuitant":98,"id":"a62adwvbf7ka","geo_precision":"zip","active":272,"state":"Illinois"},"type":"Feature","geometry":{"type":"Point","coordinates":[-87.68732,41.811929]}},{"properties":{"city":"Oak Park","total count":1845,"zip":"60302","geo_score":1.0,"survivor":128,"inactive":574,"annuitant":279,"id":"a62adwz78g1y","geo_precision":"zip","active":864,"state":"Illinois"},"type":"Feature","geometry":{"type":"Point","coordinates":[-87.68732,41.811929]}},{"properties":{"city":"Oakbrook Terrace","total count":28,"zip":"60181","geo_score":0.857,"survivor":1,"inactive":8,"annuitant":5,"id":"a62adwyz55ne","geo_precision":"zip","active":12,"state":"Illinois"},"type":"Feature","geometry":{"type":"Point","coordinates":[-87.988677,41.90503]}},{"properties":{"city":"Oakwood Hills","total count":7,"zip":"60013","geo_score":0.881,"survivor":null,"inactive":2,"annuitant":1,"id":"a62adwtftmqg","geo_precision":"zip","active":4,"state":"Illinois"},"type":"Feature","geometry":{"type":"Point","coordinates":[-88.253416,42.19808]}},{"properties":{"city":"Old Mill Creek","total count":4,"zip":"60083","geo_score":0.881,"survivor":null,"inactive":2,"annuitant":null,"id":"a62adwr3ey0y","geo_precision":"zip","active":2,"state":"Illinois"},"type":"Feature","geometry":{"type":"Point","coordinates":[-87.952578,42.465298]}},{"properties":{"city":"Olympia Fields","total count":163,"zip":"60461","geo_score":1.0,"survivor":13,"inactive":42,"annuitant":43,"id":"a62adwpgms2k","geo_precision":"zip","active":61,"state":"Illinois"},"type":"Feature","geometry":{"type":"Point","coordinates":[-87.68732,41.811929]}},{"properties":{"city":"Orland Hills","total count":49,"zip":"60487","geo_score":0.753,"survivor":5,"inactive":10,"annuitant":2,"id":"a62adwpidcxr","geo_precision":"city","active":21,"state":"Illinois"},"type":"Feature","geometry":{"type":"Point","coordinates":[-89.670103,40.596705]}},{"properties":{"city":"Orland Park","total count":837,"zip":"60462","geo_score":0.886,"survivor":59,"inactive":146,"annuitant":98,"id":"a62adwqomp3m","geo_precision":"zip","active":205,"state":"Illinois"},"type":"Feature","geometry":{"type":"Point","coordinates":[-87.823385,41.570033]}},{"properties":{"city":"Palatine","total count":672,"zip":"60067","geo_score":0.873,"survivor":59,"inactive":233,"annuitant":105,"id":"a62adwyabs5c","geo_precision":"zip","active":275,"state":"Illinois"},"type":"Feature","geometry":{"type":"Point","coordinates":[-88.096187,42.118082]}},{"properties":{"city":"Palos Heights","total count":248,"zip":"60463","geo_score":1.0,"survivor":28,"inactive":75,"annuitant":53,"id":"a62adx4yqcal","geo_precision":"zip","active":92,"state":"Illinois"},"type":"Feature","geometry":{"type":"Point","coordinates":[-87.68732,41.811929]}},{"properties":{"city":"Palos Hills","total count":209,"zip":"60465","geo_score":1.0,"survivor":24,"inactive":41,"annuitant":39,"id":"a62adwz9u2lu","geo_precision":"zip","active":105,"state":"Illinois"},"type":"Feature","geometry":{"type":"Point","coordinates":[-87.68732,41.811929]}},{"properties":{"city":"Palos Park","total count":173,"zip":"60464","geo_score":1.0,"survivor":18,"inactive":44,"annuitant":38,"id":"a62adwxczp5i","geo_precision":"zip","active":73,"state":"Illinois"},"type":"Feature","geometry":{"type":"Point","coordinates":[-87.68732,41.811929]}},{"properties":{"city":"Park City","total count":13,"zip":"60085","geo_score":1.0,"survivor":1,"inactive":2,"annuitant":2,"id":"a62adwzkcbme","geo_precision":"zip","active":8,"state":"Illinois"},"type":"Feature","geometry":{"type":"Point","coordinates":[-87.88424,42.348355]}},{"properties":{"city":"Park Forest","total count":382,"zip":"60466","geo_score":0.867,"survivor":49,"inactive":89,"annuitant":88,"id":"a62adwxaaw08","geo_precision":"zip","active":153,"state":"Illinois"},"type":"Feature","geometry":{"type":"Point","coordinates":[-87.685325,41.592257]}},{"properties":{"city":"Park Ridge","total count":498,"zip":"60068","geo_score":1.0,"survivor":60,"inactive":160,"annuitant":104,"id":"a62adwtkdqrl","geo_precision":"zip","active":174,"state":"Illinois"},"type":"Feature","geometry":{"type":"Point","coordinates":[-87.843714,42.037228]}},{"properties":{"city":"Peotone","total count":59,"zip":"60468","geo_score":0.857,"survivor":5,"inactive":11,"annuitant":11,"id":"a62adwzbvpc2","geo_precision":"zip","active":32,"state":"Illinois"},"type":"Feature","geometry":{"type":"Point","coordinates":[-87.882548,41.371699]}},{"properties":{"city":"Phoenix","total count":19,"zip":"60426","geo_score":1.0,"survivor":2,"inactive":4,"annuitant":3,"id":"a62adx29bqfv","geo_precision":"zip","active":10,"state":"Illinois"},"type":"Feature","geometry":{"type":"Point","coordinates":[-87.634768,41.611146]}},{"properties":{"city":"Pingree Grove","total count":25,"zip":"60140","geo_score":0.869,"survivor":null,"inactive":10,"annuitant":null,"id":"a62adwy7cxs7","geo_precision":"zip","active":15,"state":"Illinois"},"type":"Feature","geometry":{"type":"Point","coordinates":[-88.456751,42.088359]}},{"properties":{"city":"Plainfield","total count":740,"zip":"60544","geo_score":0.871,"survivor":56,"inactive":297,"annuitant":74,"id":"a62adx4qwund","geo_precision":"zip","active":313,"state":"Illinois"},"type":"Feature","geometry":{"type":"Point","coordinates":[-88.181452,41.590308]}},{"properties":{"city":"Plato Center","total count":2,"zip":"60124","geo_score":0.74,"survivor":null,"inactive":null,"annuitant":null,"id":"a62adx4i6v1j","geo_precision":"city","active":2,"state":"Illinois"},"type":"Feature","geometry":{"type":"Point","coordinates":[-87.667527,39.282538]}},{"properties":{"city":"Port Barrington","total count":6,"zip":"60010","geo_score":0.878,"survivor":null,"inactive":2,"annuitant":null,"id":"a62adwz073l0","geo_precision":"zip","active":4,"state":"Illinois"},"type":"Feature","geometry":{"type":"Point","coordinates":[-88.152025,42.231968]}},{"properties":{"city":"Posen","total count":14,"zip":"60469","geo_score":1.0,"survivor":null,"inactive":2,"annuitant":6,"id":"a62adwzjcbjx","geo_precision":"zip","active":6,"state":"Illinois"},"type":"Feature","geometry":{"type":"Point","coordinates":[-87.68732,41.811929]}},{"properties":{"city":"Prairie View","total count":13,"zip":"60069","geo_score":1.0,"survivor":6,"inactive":4,"annuitant":1,"id":"a62adwtjle87","geo_precision":"zip","active":2,"state":"Illinois"},"type":"Feature","geometry":{"type":"Point","coordinates":[-87.955628,42.199191]}},{"properties":{"city":"Prospect Heights","total count":71,"zip":"60070","geo_score":1.0,"survivor":3,"inactive":25,"annuitant":20,"id":"a62adwqobdlq","geo_precision":"zip","active":23,"state":"Illinois"},"type":"Feature","geometry":{"type":"Point","coordinates":[-87.939519,42.105805]}},{"properties":{"city":"Richmond","total count":23,"zip":"60071","geo_score":1.0,"survivor":3,"inactive":7,"annuitant":4,"id":"a62adx1am71i","geo_precision":"zip","active":9,"state":"Illinois"},"type":"Feature","geometry":{"type":"Point","coordinates":[-88.429864,42.328463]}},{"properties":{"city":"Richton Park","total count":182,"zip":"60471","geo_score":1.0,"survivor":19,"inactive":43,"annuitant":30,"id":"a62adwu22iwo","geo_precision":"zip","active":90,"state":"Illinois"},"type":"Feature","geometry":{"type":"Point","coordinates":[-87.68732,41.811929]}},{"properties":{"city":"Ringwood","total count":4,"zip":"60072","geo_score":1.0,"survivor":null,"inactive":null,"annuitant":1,"id":"a62adx14f30e","geo_precision":"zip","active":3,"state":"Illinois"},"type":"Feature","geometry":{"type":"Point","coordinates":[-88.305439,42.404829]}},{"properties":{"city":"River Forest","total count":305,"zip":"60305","geo_score":1.0,"survivor":25,"inactive":99,"annuitant":72,"id":"a62adwwe1gme","geo_precision":"zip","active":109,"state":"Illinois"},"type":"Feature","geometry":{"type":"Point","coordinates":[-87.68732,41.811929]}},{"properties":{"city":"River Grove","total count":116,"zip":"60171","geo_score":1.0,"survivor":18,"inactive":43,"annuitant":15,"id":"a62adwtch7yl","geo_precision":"zip","active":40,"state":"Illinois"},"type":"Feature","geometry":{"type":"Point","coordinates":[-87.83931,41.923168]}},{"properties":{"city":"Riverdale","total count":93,"zip":"60827","geo_score":1.0,"survivor":11,"inactive":15,"annuitant":15,"id":"a62adwrtlxog","geo_precision":"zip","active":50,"state":"Illinois"},"type":"Feature","geometry":{"type":"Point","coordinates":[-87.68732,41.811929]}},{"properties":{"city":"Riverside","total count":203,"zip":"60546","geo_score":0.949,"survivor":18,"inactive":83,"annuitant":36,"id":"a62adwrpadiv","geo_precision":"zip","active":66,"state":"Illinois"},"type":"Feature","geometry":{"type":"Point","coordinates":[-87.823114,41.842809]}},{"properties":{"city":"Riverwoods","total count":31,"zip":"60015","geo_score":1.0,"survivor":4,"inactive":12,"annuitant":10,"id":"a62adx3m89vb","geo_precision":"zip","active":5,"state":"Illinois"},"type":"Feature","geometry":{"type":"Point","coordinates":[-87.897014,42.167525]}},{"properties":{"city":"Robbins","total count":25,"zip":"60472","geo_score":1.0,"survivor":3,"inactive":null,"annuitant":11,"id":"a62adx2u89bm","geo_precision":"zip","active":11,"state":"Illinois"},"type":"Feature","geometry":{"type":"Point","coordinates":[-87.878888,41.95273]}},{"properties":{"city":"Rockdale","total count":9,"zip":"60436","geo_score":0.873,"survivor":null,"inactive":4,"annuitant":2,"id":"a62adws0ec3r","geo_precision":"zip","active":3,"state":"Illinois"},"type":"Feature","geometry":{"type":"Point","coordinates":[-88.201729,41.520031]}},{"properties":{"city":"Rolling Meadows","total count":149,"zip":"60008","geo_score":1.0,"survivor":10,"inactive":57,"annuitant":30,"id":"a62adx36exsh","geo_precision":"zip","active":50,"state":"Illinois"},"type":"Feature","geometry":{"type":"Point","coordinates":[-88.026871,42.074226]}},{"properties":{"city":"Romeoville","total count":196,"zip":"60446","geo_score":1.0,"survivor":11,"inactive":54,"annuitant":27,"id":"a62adwrztmcm","geo_precision":"zip","active":104,"state":"Illinois"},"type":"Feature","geometry":{"type":"Point","coordinates":[-88.069621,41.64038]}},{"properties":{"city":"Roselle","total count":173,"zip":"60172","geo_score":0.909,"survivor":18,"inactive":74,"annuitant":13,"id":"a62adwz6x7b8","geo_precision":"zip","active":68,"state":"Illinois"},"type":"Feature","geometry":{"type":"Point","coordinates":[-88.12035,41.967528]}},{"properties":{"city":"Rosemont","total count":12,"zip":"60018","geo_score":1.0,"survivor":1,"inactive":5,"annuitant":2,"id":"a62adwt1ysbg","geo_precision":"zip","active":4,"state":"Illinois"},"type":"Feature","geometry":{"type":"Point","coordinates":[-87.884509,41.995308]}},{"properties":{"city":"Round Lake","total count":230,"zip":"60073","geo_score":0.889,"survivor":3,"inactive":53,"annuitant":10,"id":"a62adx0ysuu1","geo_precision":"zip","active":65,"state":"Illinois"},"type":"Feature","geometry":{"type":"Point","coordinates":[-88.167861,42.326133]}},{"properties":{"city":"Round Lake Park","total count":24,"zip":"60073","geo_score":0.879,"survivor":1,"inactive":5,"annuitant":null,"id":"a62adx18w4p2","geo_precision":"zip","active":9,"state":"Illinois"},"type":"Feature","geometry":{"type":"Point","coordinates":[-88.167861,42.326133]}},{"properties":{"city":"S Barrington","total count":2,"zip":"60010","geo_score":0.87,"survivor":null,"inactive":1,"annuitant":null,"id":"a62adx35333a","geo_precision":"zip","active":1,"state":"Illinois"},"type":"Feature","geometry":{"type":"Point","coordinates":[-88.152025,42.231968]}},{"properties":{"city":"S Chicago Heights","total count":5,"zip":"60411","geo_score":0.97,"survivor":1,"inactive":1,"annuitant":null,"id":"a62adwzpp99k","geo_precision":"zip","active":3,"state":"Illinois"},"type":"Feature","geometry":{"type":"Point","coordinates":[-87.637821,41.480868]}},{"properties":{"city":"Saint Charles","total count":638,"zip":"60174","geo_score":0.881,"survivor":44,"inactive":230,"annuitant":109,"id":"a62adx4i3sh4","geo_precision":"zip","active":255,"state":"Illinois"},"type":"Feature","geometry":{"type":"Point","coordinates":[-88.298966,41.966138]}},{"properties":{"city":"Sandwich","total count":137,"zip":"60548","geo_score":1.0,"survivor":18,"inactive":34,"annuitant":26,"id":"a62adwsvnoxt","geo_precision":"zip","active":59,"state":"Illinois"},"type":"Feature","geometry":{"type":"Point","coordinates":[-88.688906,41.702091]}},{"properties":{"city":"Sauk Village","total count":49,"zip":"60411","geo_score":0.895,"survivor":6,"inactive":9,"annuitant":7,"id":"a62adwrnihm1","geo_precision":"zip","active":27,"state":"Illinois"},"type":"Feature","geometry":{"type":"Point","coordinates":[-87.637821,41.480868]}},{"properties":{"city":"Schaumburg","total count":645,"zip":"60193","geo_score":1.0,"survivor":50,"inactive":225,"annuitant":89,"id":"a62adwpgybpu","geo_precision":"zip","active":281,"state":"Illinois"},"type":"Feature","geometry":{"type":"Point","coordinates":[-88.117844,42.016827]}},{"properties":{"city":"Schiller Park","total count":72,"zip":"60176","geo_score":1.0,"survivor":4,"inactive":35,"annuitant":4,"id":"a62adx2t7qsz","geo_precision":"zip","active":29,"state":"Illinois"},"type":"Feature","geometry":{"type":"Point","coordinates":[-87.873412,41.95918]}},{"properties":{"city":"Shabbona","total count":78,"zip":"60550","geo_score":1.0,"survivor":11,"inactive":8,"annuitant":18,"id":"a62adwwdace1","geo_precision":"zip","active":41,"state":"Illinois"},"type":"Feature","geometry":{"type":"Point","coordinates":[-88.836821,41.746774]}},{"properties":{"city":"Shorewood","total count":243,"zip":"60404","geo_score":0.857,"survivor":18,"inactive":54,"annuitant":35,"id":"a62adwpx1s3u","geo_precision":"city","active":88,"state":"Illinois"},"type":"Feature","geometry":{"type":"Point","coordinates":[-88.201729,41.520031]}},{"properties":{"city":"Skokie","total count":708,"zip":"60076","geo_score":1.0,"survivor":37,"inactive":143,"annuitant":84,"id":"a62adwwy6vyz","geo_precision":"zip","active":187,"state":"Illinois"},"type":"Feature","geometry":{"type":"Point","coordinates":[-87.883566,42.057878]}},{"properties":{"city":"Sleepy Hollow","total count":55,"zip":"60118","geo_score":0.869,"survivor":4,"inactive":17,"annuitant":10,"id":"a62adx521c5j","geo_precision":"zip","active":24,"state":"Illinois"},"type":"Feature","geometry":{"type":"Point","coordinates":[-88.282858,42.098081]}},{"properties":{"city":"Somonauk","total count":47,"zip":"60552","geo_score":0.875,"survivor":1,"inactive":17,"annuitant":7,"id":"a62adwx45s2t","geo_precision":"zip","active":22,"state":"Illinois"},"type":"Feature","geometry":{"type":"Point","coordinates":[-88.679801,41.710863]}},{"properties":{"city":"South Barrington","total count":29,"zip":"60010","geo_score":0.876,"survivor":2,"inactive":11,"annuitant":4,"id":"a62adwytthy4","geo_precision":"zip","active":12,"state":"Illinois"},"type":"Feature","geometry":{"type":"Point","coordinates":[-88.152025,42.231968]}},{"properties":{"city":"South Chicago Height","total count":11,"zip":"60411","geo_score":0.992,"survivor":1,"inactive":3,"annuitant":null,"id":"a62adwsqjmki","geo_precision":"zip","active":7,"state":"Illinois"},"type":"Feature","geometry":{"type":"Point","coordinates":[-87.637821,41.480868]}},{"properties":{"city":"South Elgin","total count":200,"zip":"60177","geo_score":0.867,"survivor":9,"inactive":61,"annuitant":21,"id":"a62adww2asd7","geo_precision":"zip","active":109,"state":"Illinois"},"type":"Feature","geometry":{"type":"Point","coordinates":[-88.309799,41.971694]}},{"properties":{"city":"South Holland","total count":379,"zip":"60473","geo_score":0.875,"survivor":47,"inactive":81,"annuitant":78,"id":"a62adwsohz8i","geo_precision":"zip","active":173,"state":"Illinois"},"type":"Feature","geometry":{"type":"Point","coordinates":[-87.606989,41.589202]}},{"properties":{"city":"Spring Grove","total count":74,"zip":"60081","geo_score":0.87,"survivor":5,"inactive":24,"annuitant":11,"id":"a62adx46fpd3","geo_precision":"zip","active":34,"state":"Illinois"},"type":"Feature","geometry":{"type":"Point","coordinates":[-88.173141,42.421965]}},{"properties":{"city":"Steger","total count":74,"zip":"60475","geo_score":1.0,"survivor":6,"inactive":17,"annuitant":8,"id":"a62adwpw0y4c","geo_precision":"zip","active":43,"state":"Illinois"},"type":"Feature","geometry":{"type":"Point","coordinates":[-87.68732,41.811929]}},{"properties":{"city":"Stickney","total count":32,"zip":"60402","geo_score":1.0,"survivor":1,"inactive":10,"annuitant":5,"id":"a62adwtiw7xy","geo_precision":"zip","active":16,"state":"Illinois"},"type":"Feature","geometry":{"type":"Point","coordinates":[-87.782834,41.821421]}},{"properties":{"city":"Stone Park","total count":21,"zip":"60165","geo_score":1.0,"survivor":2,"inactive":8,"annuitant":2,"id":"a62adx1kuha0","geo_precision":"zip","active":9,"state":"Illinois"},"type":"Feature","geometry":{"type":"Point","coordinates":[-87.878011,41.90743]}},{"properties":{"city":"Streamwood","total count":220,"zip":"60107","geo_score":1.0,"survivor":10,"inactive":95,"annuitant":14,"id":"a62adwrn2ptq","geo_precision":"zip","active":101,"state":"Illinois"},"type":"Feature","geometry":{"type":"Point","coordinates":[-88.178475,42.019093]}},{"properties":{"city":"Sugar Grove","total count":264,"zip":"60554","geo_score":1.0,"survivor":14,"inactive":94,"annuitant":32,"id":"a62adwr70jmx","geo_precision":"zip","active":124,"state":"Illinois"},"type":"Feature","geometry":{"type":"Point","coordinates":[-88.451655,41.776787]}},{"properties":{"city":"Summit","total count":25,"zip":"60501","geo_score":1.0,"survivor":2,"inactive":8,"annuitant":2,"id":"a62adwsv6o79","geo_precision":"zip","active":10,"state":"Illinois"},"type":"Feature","geometry":{"type":"Point","coordinates":[-87.810334,41.788088]}},{"properties":{"city":"Sycamore","total count":1263,"zip":"60178","geo_score":0.881,"survivor":147,"inactive":167,"annuitant":312,"id":"a62adwvhbdl3","geo_precision":"zip","active":637,"state":"Illinois"},"type":"Feature","geometry":{"type":"Point","coordinates":[-88.631477,42.066415]}},{"properties":{"city":"Techny","total count":3,"zip":"60082","geo_score":1.0,"survivor":2,"inactive":null,"annuitant":1,"id":"a62adwxindom","geo_precision":"zip","active":null,"state":"Illinois"},"type":"Feature","geometry":{"type":"Point","coordinates":[-87.812064,42.116377]}},{"properties":{"city":"Third Lake","total count":19,"zip":"60030","geo_score":0.889,"survivor":null,"inactive":5,"annuitant":null,"id":"a62adwykwpt4","geo_precision":"zip","active":14,"state":"Illinois"},"type":"Feature","geometry":{"type":"Point","coordinates":[-87.998133,42.3428]}},{"properties":{"city":"Thornton","total count":30,"zip":"60476","geo_score":1.0,"survivor":6,"inactive":7,"annuitant":2,"id":"a62adx5ljrb6","geo_precision":"zip","active":15,"state":"Illinois"},"type":"Feature","geometry":{"type":"Point","coordinates":[-87.68732,41.811929]}},{"properties":{"city":"Tinley Park","total count":564,"zip":"60477","geo_score":0.857,"survivor":42,"inactive":131,"annuitant":69,"id":"a62adwq9et46","geo_precision":"zip","active":162,"state":"Illinois"},"type":"Feature","geometry":{"type":"Point","coordinates":[-87.843108,41.585311]}},{"properties":{"city":"Tower Lakes","total count":7,"zip":"60010","geo_score":1.0,"survivor":2,"inactive":2,"annuitant":1,"id":"a62adx35jhm1","geo_precision":"zip","active":2,"state":"Illinois"},"type":"Feature","geometry":{"type":"Point","coordinates":[-88.152025,42.231968]}},{"properties":{"city":"Trout Valley","total count":2,"zip":"60013","geo_score":1.0,"survivor":null,"inactive":1,"annuitant":null,"id":"a62adwxkqdgy","geo_precision":"zip","active":1,"state":"Illinois"},"type":"Feature","geometry":{"type":"Point","coordinates":[-88.253416,42.19808]}},{"properties":{"city":"Union","total count":14,"zip":"60180","geo_score":1.0,"survivor":4,"inactive":1,"annuitant":3,"id":"a62adx5ed3xz","geo_precision":"zip","active":6,"state":"Illinois"},"type":"Feature","geometry":{"type":"Point","coordinates":[-88.525091,42.222569]}},{"properties":{"city":"University Park","total count":89,"zip":"60484","geo_score":0.857,"survivor":6,"inactive":7,"annuitant":16,"id":"a62adwz6hxku","geo_precision":"city","active":29,"state":"Illinois"},"type":"Feature","geometry":{"type":"Point","coordinates":[-87.685325,41.592257]}},{"properties":{"city":"Vernon Hills","total count":168,"zip":"60061","geo_score":1.0,"survivor":18,"inactive":67,"annuitant":15,"id":"a62adx1skh4k","geo_precision":"zip","active":68,"state":"Illinois"},"type":"Feature","geometry":{"type":"Point","coordinates":[-87.962973,42.231183]}},{"properties":{"city":"Villa Park","total count":183,"zip":"60181","geo_score":0.869,"survivor":13,"inactive":68,"annuitant":21,"id":"a62adx1lnnzf","geo_precision":"zip","active":81,"state":"Illinois"},"type":"Feature","geometry":{"type":"Point","coordinates":[-87.988677,41.90503]}},{"properties":{"city":"Village of Lakewood","total count":17,"zip":"60014","geo_score":0.882,"survivor":2,"inactive":6,"annuitant":1,"id":"a62adwtfszbu","geo_precision":"zip","active":8,"state":"Illinois"},"type":"Feature","geometry":{"type":"Point","coordinates":[-88.300642,42.281689]}},{"properties":{"city":"Volo","total count":11,"zip":"60073","geo_score":1.0,"survivor":null,"inactive":1,"annuitant":null,"id":"a62adwrxy61y","geo_precision":"zip","active":4,"state":"Illinois"},"type":"Feature","geometry":{"type":"Point","coordinates":[-88.167861,42.326133]}},{"properties":{"city":"Wadsworth","total count":53,"zip":"60083","geo_score":0.873,"survivor":4,"inactive":14,"annuitant":10,"id":"a62adx4zvkhi","geo_precision":"zip","active":25,"state":"Illinois"},"type":"Feature","geometry":{"type":"Point","coordinates":[-87.952578,42.465298]}},{"properties":{"city":"Warrenville","total count":147,"zip":"60555","geo_score":0.935,"survivor":16,"inactive":52,"annuitant":26,"id":"a62adwucpbis","geo_precision":"zip","active":53,"state":"Illinois"},"type":"Feature","geometry":{"type":"Point","coordinates":[-88.214237,41.822807]}},{"properties":{"city":"Wasco","total count":5,"zip":"60183","geo_score":0.857,"survivor":null,"inactive":null,"annuitant":2,"id":"a62adx38gpd0","geo_precision":"zip","active":3,"state":"Illinois"},"type":"Feature","geometry":{"type":"Point","coordinates":[-88.477859,41.948916]}},{"properties":{"city":"Waterman","total count":88,"zip":"60556","geo_score":0.875,"survivor":11,"inactive":4,"annuitant":16,"id":"a62adwpsjcjn","geo_precision":"zip","active":57,"state":"Illinois"},"type":"Feature","geometry":{"type":"Point","coordinates":[-88.802308,41.817529]}},{"properties":{"city":"Wauconda","total count":96,"zip":"60084","geo_score":0.881,"survivor":5,"inactive":33,"annuitant":6,"id":"a62adwvl07pw","geo_precision":"zip","active":52,"state":"Illinois"},"type":"Feature","geometry":{"type":"Point","coordinates":[-88.183415,42.25419]}},{"properties":{"city":"Waukegan","total count":279,"zip":"60085","geo_score":0.893,"survivor":26,"inactive":69,"annuitant":36,"id":"a62adwqbii5h","geo_precision":"zip","active":148,"state":"Illinois"},"type":"Feature","geometry":{"type":"Point","coordinates":[-87.88424,42.348355]}},{"properties":{"city":"Wayne","total count":16,"zip":"60184","geo_score":1.0,"survivor":3,"inactive":7,"annuitant":3,"id":"a62adx5dc0bf","geo_precision":"zip","active":3,"state":"Illinois"},"type":"Feature","geometry":{"type":"Point","coordinates":[-88.088716,41.839679]}},{"properties":{"city":"West Chicago","total count":226,"zip":"60185","geo_score":0.87,"survivor":12,"inactive":79,"annuitant":44,"id":"a62adwuchxau","geo_precision":"zip","active":91,"state":"Illinois"},"type":"Feature","geometry":{"type":"Point","coordinates":[-88.173684,41.942806]}},{"properties":{"city":"West Dundee","total count":77,"zip":"60118","geo_score":1.0,"survivor":5,"inactive":19,"annuitant":12,"id":"a62adwvw6azf","geo_precision":"zip","active":41,"state":"Illinois"},"type":"Feature","geometry":{"type":"Point","coordinates":[-88.282858,42.098081]}},{"properties":{"city":"Westchester","total count":246,"zip":"60154","geo_score":1.0,"survivor":22,"inactive":97,"annuitant":45,"id":"a62adwx8kmq2","geo_precision":"zip","active":82,"state":"Illinois"},"type":"Feature","geometry":{"type":"Point","coordinates":[-87.68732,41.811929]}},{"properties":{"city":"Western Springs","total count":194,"zip":"60558","geo_score":1.0,"survivor":20,"inactive":66,"annuitant":45,"id":"a62adwtqunv4","geo_precision":"zip","active":63,"state":"Illinois"},"type":"Feature","geometry":{"type":"Point","coordinates":[-87.68732,41.811929]}},{"properties":{"city":"Westmont","total count":255,"zip":"60559","geo_score":1.0,"survivor":15,"inactive":101,"annuitant":41,"id":"a62adww7ybmj","geo_precision":"zip","active":98,"state":"Illinois"},"type":"Feature","geometry":{"type":"Point","coordinates":[-87.970713,41.799876]}},{"properties":{"city":"Wheaton","total count":1012,"zip":"60187","geo_score":1.0,"survivor":56,"inactive":255,"annuitant":75,"id":"a62adwv83g6a","geo_precision":"zip","active":219,"state":"Illinois"},"type":"Feature","geometry":{"type":"Point","coordinates":[-88.088716,41.839679]}},{"properties":{"city":"Wheeling","total count":164,"zip":"60090","geo_score":1.0,"survivor":19,"inactive":61,"annuitant":13,"id":"a62adwuhjh73","geo_precision":"zip","active":71,"state":"Illinois"},"type":"Feature","geometry":{"type":"Point","coordinates":[-87.933819,42.124176]}},{"properties":{"city":"Willow Springs","total count":59,"zip":"60480","geo_score":1.0,"survivor":4,"inactive":18,"annuitant":12,"id":"a62adwwjnver","geo_precision":"zip","active":25,"state":"Illinois"},"type":"Feature","geometry":{"type":"Point","coordinates":[-87.68732,41.811929]}},{"properties":{"city":"Willowbrook","total count":184,"zip":"60527","geo_score":0.87,"survivor":15,"inactive":64,"annuitant":28,"id":"a62adwzefw9s","geo_precision":"zip","active":71,"state":"Illinois"},"type":"Feature","geometry":{"type":"Point","coordinates":[-88.088716,41.839679]}},{"properties":{"city":"Wilmette","total count":377,"zip":"60091","geo_score":1.0,"survivor":47,"inactive":121,"annuitant":92,"id":"a62adx3293bp","geo_precision":"zip","active":117,"state":"Illinois"},"type":"Feature","geometry":{"type":"Point","coordinates":[-87.72836,42.079228]}},{"properties":{"city":"Wilmington","total count":57,"zip":"60481","geo_score":0.914,"survivor":5,"inactive":15,"annuitant":5,"id":"a62adwt4td98","geo_precision":"zip","active":32,"state":"Illinois"},"type":"Feature","geometry":{"type":"Point","coordinates":[-88.052554,41.328643]}},{"properties":{"city":"Winfield","total count":180,"zip":"60190","geo_score":1.0,"survivor":20,"inactive":62,"annuitant":35,"id":"a62adwqqhr7u","geo_precision":"zip","active":63,"state":"Illinois"},"type":"Feature","geometry":{"type":"Point","coordinates":[-88.088716,41.839679]}},{"properties":{"city":"Winnetka","total count":99,"zip":"60093","geo_score":0.886,"survivor":19,"inactive":33,"annuitant":30,"id":"a62adww40rr2","geo_precision":"zip","active":17,"state":"Illinois"},"type":"Feature","geometry":{"type":"Point","coordinates":[-87.647822,41.501702]}},{"properties":{"city":"Winthrop Harbor","total count":37,"zip":"60096","geo_score":1.0,"survivor":1,"inactive":12,"annuitant":4,"id":"a62adws8wzdh","geo_precision":"zip","active":20,"state":"Illinois"},"type":"Feature","geometry":{"type":"Point","coordinates":[-87.834222,42.47832]}},{"properties":{"city":"Wonder Lake","total count":46,"zip":"60097","geo_score":1.0,"survivor":5,"inactive":11,"annuitant":9,"id":"a62adwr0bnn4","geo_precision":"zip","active":21,"state":"Illinois"},"type":"Feature","geometry":{"type":"Point","coordinates":[-88.332794,42.355165]}},{"properties":{"city":"Wood Dale","total count":81,"zip":"60191","geo_score":1.0,"survivor":12,"inactive":25,"annuitant":13,"id":"a62adx3gy00m","geo_precision":"zip","active":31,"state":"Illinois"},"type":"Feature","geometry":{"type":"Point","coordinates":[-88.088716,41.839679]}},{"properties":{"city":"Woodridge","total count":340,"zip":"60517","geo_score":1.0,"survivor":28,"inactive":119,"annuitant":42,"id":"a62adx52nmu1","geo_precision":"zip","active":151,"state":"Illinois"},"type":"Feature","geometry":{"type":"Point","coordinates":[-88.041731,41.736788]}},{"properties":{"city":"Woodstock","total count":351,"zip":"60098","geo_score":0.857,"survivor":40,"inactive":108,"annuitant":59,"id":"a62adx192jh4","geo_precision":"zip","active":144,"state":"Illinois"},"type":"Feature","geometry":{"type":"Point","coordinates":[-88.507317,42.363632]}},{"properties":{"city":"Worth","total count":74,"zip":"60482","geo_score":0.871,"survivor":8,"inactive":18,"annuitant":12,"id":"a62adx5qlynp","geo_precision":"zip","active":36,"state":"Illinois"},"type":"Feature","geometry":{"type":"Point","coordinates":[-87.740051,41.683367]}},{"properties":{"city":"Zion","total count":95,"zip":"60099","geo_score":0.857,"survivor":5,"inactive":20,"annuitant":11,"id":"a62adx2e092z","geo_precision":"zip","active":59,"state":"Illinois"},"type":"Feature","geometry":{"type":"Point","coordinates":[-87.857296,42.422244]}}],"is_temporal":false,"author":{"url":"","metadata":null,"contact_name":null,"contact_address":null,"source":null,"contact_phone":null},"source":"","pagination":{"sort":null,"start":0,"total":288,"limit":1000000},"state":"complete","tags":"","published":"2014-08-13T01:40:29-04:00","id":182983}