{"type":"FeatureCollection","data_type":"Dataset","url_type":null,"permissions":[{"permissions":{"download":true,"view":true},"group_id":"everyone"}],"classification":null,"title":"asdf","count":397,"stream_id":18362,"contributor":{"url":"http://geocommons.com/users/9800","name":"tempalte"},"data_attributes":null,"calculation_params":null,"icon_link":null,"link":"http://geocommons.com/overlays/18362.json","extent":[-94.5986,39.1024,-94.5986,39.1024],"geometry_types":["point"],"unique_name":null,"name":"asdf","feature_count":397,"description":"","next_feature":null,"is_raster":false,"short_classification":"Y","stats":{"geo_score":{"max":0.857,"mean":0.857000000000006,"variance":4.15692096673731e-29,"stdev":6.44741883759486e-15,"min":0.857,"median":0.857}},"features":[{"properties":{"name":"1","city":"Kansas City","zip":"641106","geo_score":0.857,"country":"United States","id":"a6a40la1nqyt","geo_precision":"city","state":"MO"},"type":"Feature","geometry":{"type":"Point","coordinates":[-94.598583,39.102404]}},{"properties":{"name":"2","city":"Kansas City","zip":"641106","geo_score":0.857,"country":"United States","id":"a6a40l4vs1gg","geo_precision":"city","state":"MO"},"type":"Feature","geometry":{"type":"Point","coordinates":[-94.598583,39.102404]}},{"properties":{"name":"3","city":"Kansas City","zip":"641106","geo_score":0.857,"country":"United States","id":"a6a40l9xjxvf","geo_precision":"city","state":"MO"},"type":"Feature","geometry":{"type":"Point","coordinates":[-94.598583,39.102404]}},{"properties":{"name":"4","city":"Kansas City","zip":"641106","geo_score":0.857,"country":"United States","id":"a6a40lf5xq03","geo_precision":"city","state":"MO"},"type":"Feature","geometry":{"type":"Point","coordinates":[-94.598583,39.102404]}},{"properties":{"name":"5","city":"Kansas City","zip":"641106","geo_score":0.857,"country":"United States","id":"a6a40laubcu6","geo_precision":"city","state":"MO"},"type":"Feature","geometry":{"type":"Point","coordinates":[-94.598583,39.102404]}},{"properties":{"name":"6","city":"Kansas City","zip":"641106","geo_score":0.857,"country":"United States","id":"a6a40ljc6kr0","geo_precision":"city","state":"MO"},"type":"Feature","geometry":{"type":"Point","coordinates":[-94.598583,39.102404]}},{"properties":{"name":"7","city":"Kansas City","zip":"641106","geo_score":0.857,"country":"United States","id":"a6a40le31e5i","geo_precision":"city","state":"MO"},"type":"Feature","geometry":{"type":"Point","coordinates":[-94.598583,39.102404]}},{"properties":{"name":"8","city":"Kansas City","zip":"641106","geo_score":0.857,"country":"United States","id":"a6a40l9y4r3m","geo_precision":"city","state":"MO"},"type":"Feature","geometry":{"type":"Point","coordinates":[-94.598583,39.102404]}},{"properties":{"name":"9","city":"Kansas City","zip":"641106","geo_score":0.857,"country":"United States","id":"a6a40lea2dd2","geo_precision":"city","state":"MO"},"type":"Feature","geometry":{"type":"Point","coordinates":[-94.598583,39.102404]}},{"properties":{"name":"0","city":"Kansas City","zip":"641106","geo_score":0.857,"country":"United States","id":"a6a40l46gj7x","geo_precision":"city","state":"MO"},"type":"Feature","geometry":{"type":"Point","coordinates":[-94.598583,39.102404]}},{"properties":{"name":"a","city":"Kansas City","zip":"641106","geo_score":0.857,"country":"United States","id":"a6a40l8rc8qc","geo_precision":"city","state":"MO"},"type":"Feature","geometry":{"type":"Point","coordinates":[-94.598583,39.102404]}},{"properties":{"name":"s","city":"Kansas City","zip":"641108","geo_score":0.857,"country":"United States","id":"a6a40l4pgnmo","geo_precision":"city","state":"MO"},"type":"Feature","geometry":{"type":"Point","coordinates":[-94.598583,39.102404]}},{"properties":{"name":"d","city":"Kansas City","zip":"641108","geo_score":0.857,"country":"United States","id":"a6a40li67ohj","geo_precision":"city","state":"MO"},"type":"Feature","geometry":{"type":"Point","coordinates":[-94.598583,39.102404]}},{"properties":{"name":"f","city":"Kansas City","zip":"641108","geo_score":0.857,"country":"United States","id":"a6a40li3ctoz","geo_precision":"city","state":"MO"},"type":"Feature","geometry":{"type":"Point","coordinates":[-94.598583,39.102404]}},{"properties":{"name":"sad","city":"Kansas City","zip":"641108","geo_score":0.857,"country":"United States","id":"a6a40l4uyvjr","geo_precision":"city","state":"MO"},"type":"Feature","geometry":{"type":"Point","coordinates":[-94.598583,39.102404]}},{"properties":{"name":"dfg","city":"Kansas City","zip":"641108","geo_score":0.857,"country":"United States","id":"a6a40ld4y3h6","geo_precision":"city","state":"MO"},"type":"Feature","geometry":{"type":"Point","coordinates":[-94.598583,39.102404]}},{"properties":{"name":"sdfg","city":"Kansas City","zip":"641108","geo_score":0.857,"country":"United States","id":"a6a40ldnjbnr","geo_precision":"city","state":"MO"},"type":"Feature","geometry":{"type":"Point","coordinates":[-94.598583,39.102404]}},{"properties":{"name":"sdfg","city":"Kansas City","zip":"641108","geo_score":0.857,"country":"United States","id":"a6a40lh96m59","geo_precision":"city","state":"MO"},"type":"Feature","geometry":{"type":"Point","coordinates":[-94.598583,39.102404]}},{"properties":{"name":"1","city":"Kansas City","zip":"641108","geo_score":0.857,"country":"United States","id":"a6a40ldvckcx","geo_precision":"city","state":"MO"},"type":"Feature","geometry":{"type":"Point","coordinates":[-94.598583,39.102404]}},{"properties":{"name":"fdg","city":"Kansas City","zip":"641108","geo_score":0.857,"country":"United States","id":"a6a40lgf9769","geo_precision":"city","state":"MO"},"type":"Feature","geometry":{"type":"Point","coordinates":[-94.598583,39.102404]}},{"properties":{"name":"sdh","city":"Kansas City","zip":"641108","geo_score":0.857,"country":"United States","id":"a6a40lfgu5hg","geo_precision":"city","state":"MO"},"type":"Feature","geometry":{"type":"Point","coordinates":[-94.598583,39.102404]}},{"properties":{"name":"gjh","city":"Kansas City","zip":"641108","geo_score":0.857,"country":"United States","id":"a6a40lbj0jxc","geo_precision":"city","state":"MO"},"type":"Feature","geometry":{"type":"Point","coordinates":[-94.598583,39.102404]}},{"properties":{"name":"gh","city":"Kansas City","zip":"641108","geo_score":0.857,"country":"United States","id":"a6a40l4b21j8","geo_precision":"city","state":"MO"},"type":"Feature","geometry":{"type":"Point","coordinates":[-94.598583,39.102404]}},{"properties":{"name":"j","city":"Kansas City","zip":"641109","geo_score":0.857,"country":"United States","id":"a6a40l7eeras","geo_precision":"city","state":"MO"},"type":"Feature","geometry":{"type":"Point","coordinates":[-94.598583,39.102404]}},{"properties":{"name":"m","city":"Kansas City","zip":"641109","geo_score":0.857,"country":"United States","id":"a6a40l5mpczn","geo_precision":"city","state":"MO"},"type":"Feature","geometry":{"type":"Point","coordinates":[-94.598583,39.102404]}},{"properties":{"name":"tyj","city":"Kansas City","zip":"641109","geo_score":0.857,"country":"United States","id":"a6a40li4zdrn","geo_precision":"city","state":"MO"},"type":"Feature","geometry":{"type":"Point","coordinates":[-94.598583,39.102404]}},{"properties":{"name":"tyj","city":"Kansas City","zip":"641109","geo_score":0.857,"country":"United States","id":"a6a40lizq3dn","geo_precision":"city","state":"MO"},"type":"Feature","geometry":{"type":"Point","coordinates":[-94.598583,39.102404]}},{"properties":{"name":"j","city":"Kansas City","zip":"641109","geo_score":0.857,"country":"United States","id":"a6a40lc3o2a1","geo_precision":"city","state":"MO"},"type":"Feature","geometry":{"type":"Point","coordinates":[-94.598583,39.102404]}},{"properties":{"name":"j","city":"Kansas City","zip":"641109","geo_score":0.857,"country":"United States","id":"a6a40lixtizo","geo_precision":"city","state":"MO"},"type":"Feature","geometry":{"type":"Point","coordinates":[-94.598583,39.102404]}},{"properties":{"name":"tyj","city":"Kansas City","zip":"641109","geo_score":0.857,"country":"United States","id":"a6a40lg0kfgf","geo_precision":"city","state":"MO"},"type":"Feature","geometry":{"type":"Point","coordinates":[-94.598583,39.102404]}},{"properties":{"name":"er","city":"Kansas City","zip":"641109","geo_score":0.857,"country":"United States","id":"a6a40l6m8596","geo_precision":"city","state":"MO"},"type":"Feature","geometry":{"type":"Point","coordinates":[-94.598583,39.102404]}},{"properties":{"name":"1","city":"Kansas City","zip":"641109","geo_score":0.857,"country":"United States","id":"a6a40lh2copf","geo_precision":"city","state":"MO"},"type":"Feature","geometry":{"type":"Point","coordinates":[-94.598583,39.102404]}},{"properties":{"name":"gh","city":"Kansas City","zip":"641109","geo_score":0.857,"country":"United States","id":"a6a40l4e21oe","geo_precision":"city","state":"MO"},"type":"Feature","geometry":{"type":"Point","coordinates":[-94.598583,39.102404]}},{"properties":{"name":"c","city":"Kansas City","zip":"641109","geo_score":0.857,"country":"United States","id":"a6a40lcpojn2","geo_precision":"city","state":"MO"},"type":"Feature","geometry":{"type":"Point","coordinates":[-94.598583,39.102404]}},{"properties":{"name":"d","city":"Kansas City","zip":"641109","geo_score":0.857,"country":"United States","id":"a6a40l9bukxf","geo_precision":"city","state":"MO"},"type":"Feature","geometry":{"type":"Point","coordinates":[-94.598583,39.102404]}},{"properties":{"name":"fgh","city":"Kansas City","zip":"641109","geo_score":0.857,"country":"United States","id":"a6a40l66cshr","geo_precision":"city","state":"MO"},"type":"Feature","geometry":{"type":"Point","coordinates":[-94.598583,39.102404]}},{"properties":{"name":"gfh","city":"Kansas City","zip":"641109","geo_score":0.857,"country":"United States","id":"a6a40l6740k7","geo_precision":"city","state":"MO"},"type":"Feature","geometry":{"type":"Point","coordinates":[-94.598583,39.102404]}},{"properties":{"name":"dfj","city":"Kansas City","zip":"641109","geo_score":0.857,"country":"United States","id":"a6a40lc6d1pe","geo_precision":"city","state":"MO"},"type":"Feature","geometry":{"type":"Point","coordinates":[-94.598583,39.102404]}},{"properties":{"name":"d","city":"Kansas City","zip":"641109","geo_score":0.857,"country":"United States","id":"a6a40l6e6cam","geo_precision":"city","state":"MO"},"type":"Feature","geometry":{"type":"Point","coordinates":[-94.598583,39.102404]}},{"properties":{"name":"jdh","city":"Kansas City","zip":"641109","geo_score":0.857,"country":"United States","id":"a6a40lfoldyg","geo_precision":"city","state":"MO"},"type":"Feature","geometry":{"type":"Point","coordinates":[-94.598583,39.102404]}},{"properties":{"name":"j","city":"Kansas City","zip":"641109","geo_score":0.857,"country":"United States","id":"a6a40lakkphr","geo_precision":"city","state":"MO"},"type":"Feature","geometry":{"type":"Point","coordinates":[-94.598583,39.102404]}},{"properties":{"name":"yj","city":"Kansas City","zip":"641109","geo_score":0.857,"country":"United States","id":"a6a40licwmsy","geo_precision":"city","state":"MO"},"type":"Feature","geometry":{"type":"Point","coordinates":[-94.598583,39.102404]}},{"properties":{"name":"tyj","city":"Kansas City","zip":"641109","geo_score":0.857,"country":"United States","id":"a6a40l6rwadu","geo_precision":"city","state":"MO"},"type":"Feature","geometry":{"type":"Point","coordinates":[-94.598583,39.102404]}},{"properties":{"name":"tyj","city":"Kansas City","zip":"641109","geo_score":0.857,"country":"United States","id":"a6a40liqoh4h","geo_precision":"city","state":"MO"},"type":"Feature","geometry":{"type":"Point","coordinates":[-94.598583,39.102404]}},{"properties":{"name":"j","city":"Kansas City","zip":"641109","geo_score":0.857,"country":"United States","id":"a6a40lfos2af","geo_precision":"city","state":"MO"},"type":"Feature","geometry":{"type":"Point","coordinates":[-94.598583,39.102404]}},{"properties":{"name":"tryj","city":"Kansas City","zip":"641109","geo_score":0.857,"country":"United States","id":"a6a40lao2an0","geo_precision":"city","state":"MO"},"type":"Feature","geometry":{"type":"Point","coordinates":[-94.598583,39.102404]}},{"properties":{"name":"dfg","city":"Kansas City","zip":"641109","geo_score":0.857,"country":"United States","id":"a6a40lbqhdpx","geo_precision":"city","state":"MO"},"type":"Feature","geometry":{"type":"Point","coordinates":[-94.598583,39.102404]}},{"properties":{"name":"ghdf","city":"Kansas City","zip":"641109","geo_score":0.857,"country":"United States","id":"a6a40l5v7p2t","geo_precision":"city","state":"MO"},"type":"Feature","geometry":{"type":"Point","coordinates":[-94.598583,39.102404]}},{"properties":{"name":"ghdf","city":"Kansas City","zip":"641109","geo_score":0.857,"country":"United States","id":"a6a40lg3ixi3","geo_precision":"city","state":"MO"},"type":"Feature","geometry":{"type":"Point","coordinates":[-94.598583,39.102404]}},{"properties":{"name":"fgh","city":"Kansas City","zip":"641109","geo_score":0.857,"country":"United States","id":"a6a40lh878jq","geo_precision":"city","state":"MO"},"type":"Feature","geometry":{"type":"Point","coordinates":[-94.598583,39.102404]}},{"properties":{"name":"dt","city":"Kansas City","zip":"641109","geo_score":0.857,"country":"United States","id":"a6a40l6ko20a","geo_precision":"city","state":"MO"},"type":"Feature","geometry":{"type":"Point","coordinates":[-94.598583,39.102404]}},{"properties":{"name":"hd","city":"Kansas City","zip":"641110","geo_score":0.857,"country":"United States","id":"a6a40li127oz","geo_precision":"city","state":"MO"},"type":"Feature","geometry":{"type":"Point","coordinates":[-94.598583,39.102404]}},{"properties":{"name":"fgh","city":"Kansas City","zip":"641110","geo_score":0.857,"country":"United States","id":"a6a40litn57u","geo_precision":"city","state":"MO"},"type":"Feature","geometry":{"type":"Point","coordinates":[-94.598583,39.102404]}},{"properties":{"name":"dfh","city":"Kansas City","zip":"641110","geo_score":0.857,"country":"United States","id":"a6a40l77r3wi","geo_precision":"city","state":"MO"},"type":"Feature","geometry":{"type":"Point","coordinates":[-94.598583,39.102404]}},{"properties":{"name":"gd","city":"Kansas City","zip":"641110","geo_score":0.857,"country":"United States","id":"a6a40l8qu14l","geo_precision":"city","state":"MO"},"type":"Feature","geometry":{"type":"Point","coordinates":[-94.598583,39.102404]}},{"properties":{"name":"gd","city":"Kansas City","zip":"641110","geo_score":0.857,"country":"United States","id":"a6a40ldy4f6f","geo_precision":"city","state":"MO"},"type":"Feature","geometry":{"type":"Point","coordinates":[-94.598583,39.102404]}},{"properties":{"name":"fgh","city":"Kansas City","zip":"641110","geo_score":0.857,"country":"United States","id":"a6a40l62u5hg","geo_precision":"city","state":"MO"},"type":"Feature","geometry":{"type":"Point","coordinates":[-94.598583,39.102404]}},{"properties":{"name":"dfg","city":"Kansas City","zip":"641110","geo_score":0.857,"country":"United States","id":"a6a40l4jw126","geo_precision":"city","state":"MO"},"type":"Feature","geometry":{"type":"Point","coordinates":[-94.598583,39.102404]}},{"properties":{"name":"1","city":"Kansas City","zip":"641110","geo_score":0.857,"country":"United States","id":"a6a40lblv0ri","geo_precision":"city","state":"MO"},"type":"Feature","geometry":{"type":"Point","coordinates":[-94.598583,39.102404]}},{"properties":{"name":"gs","city":"Kansas City","zip":"641110","geo_score":0.857,"country":"United States","id":"a6a40l7ux46i","geo_precision":"city","state":"MO"},"type":"Feature","geometry":{"type":"Point","coordinates":[-94.598583,39.102404]}},{"properties":{"name":"dfg","city":"Kansas City","zip":"641110","geo_score":0.857,"country":"United States","id":"a6a40l4schyg","geo_precision":"city","state":"MO"},"type":"Feature","geometry":{"type":"Point","coordinates":[-94.598583,39.102404]}},{"properties":{"name":"sdfg","city":"Kansas City","zip":"641110","geo_score":0.857,"country":"United States","id":"a6a40l4y85af","geo_precision":"city","state":"MO"},"type":"Feature","geometry":{"type":"Point","coordinates":[-94.598583,39.102404]}},{"properties":{"name":"fgs","city":"Kansas City","zip":"641110","geo_score":0.857,"country":"United States","id":"a6a40lc4lrji","geo_precision":"city","state":"MO"},"type":"Feature","geometry":{"type":"Point","coordinates":[-94.598583,39.102404]}},{"properties":{"name":"fdg","city":"Kansas City","zip":"641110","geo_score":0.857,"country":"United States","id":"a6a40lg7wfmp","geo_precision":"city","state":"MO"},"type":"Feature","geometry":{"type":"Point","coordinates":[-94.598583,39.102404]}},{"properties":{"name":"sdfg","city":"Kansas City","zip":"641110","geo_score":0.857,"country":"United States","id":"a6a40lj0bgwf","geo_precision":"city","state":"MO"},"type":"Feature","geometry":{"type":"Point","coordinates":[-94.598583,39.102404]}},{"properties":{"name":"gs","city":"Kansas City","zip":"641110","geo_score":0.857,"country":"United States","id":"a6a40l8qw49n","geo_precision":"city","state":"MO"},"type":"Feature","geometry":{"type":"Point","coordinates":[-94.598583,39.102404]}},{"properties":{"name":"fgh","city":"Kansas City","zip":"641110","geo_score":0.857,"country":"United States","id":"a6a40l6q41pp","geo_precision":"city","state":"MO"},"type":"Feature","geometry":{"type":"Point","coordinates":[-94.598583,39.102404]}},{"properties":{"name":"sdfg","city":"Kansas City","zip":"641110","geo_score":0.857,"country":"United States","id":"a6a40ldn8o2i","geo_precision":"city","state":"MO"},"type":"Feature","geometry":{"type":"Point","coordinates":[-94.598583,39.102404]}},{"properties":{"name":"gsd","city":"Kansas City","zip":"641110","geo_score":0.857,"country":"United States","id":"a6a40lgyarfo","geo_precision":"city","state":"MO"},"type":"Feature","geometry":{"type":"Point","coordinates":[-94.598583,39.102404]}},{"properties":{"name":"fgh","city":"Kansas City","zip":"641110","geo_score":0.857,"country":"United States","id":"a6a40ljm6v21","geo_precision":"city","state":"MO"},"type":"Feature","geometry":{"type":"Point","coordinates":[-94.598583,39.102404]}},{"properties":{"name":"sdg","city":"Kansas City","zip":"641110","geo_score":0.857,"country":"United States","id":"a6a40lbkotug","geo_precision":"city","state":"MO"},"type":"Feature","geometry":{"type":"Point","coordinates":[-94.598583,39.102404]}},{"properties":{"name":"sdfg","city":"Kansas City","zip":"641110","geo_score":0.857,"country":"United States","id":"a6a40l9fposd","geo_precision":"city","state":"MO"},"type":"Feature","geometry":{"type":"Point","coordinates":[-94.598583,39.102404]}},{"properties":{"name":"gd","city":"Kansas City","zip":"641110","geo_score":0.857,"country":"United States","id":"a6a40l8xb59a","geo_precision":"city","state":"MO"},"type":"Feature","geometry":{"type":"Point","coordinates":[-94.598583,39.102404]}},{"properties":{"name":"1","city":"Kansas City","zip":"641110","geo_score":0.857,"country":"United States","id":"a6a40l62peub","geo_precision":"city","state":"MO"},"type":"Feature","geometry":{"type":"Point","coordinates":[-94.598583,39.102404]}},{"properties":{"name":"gd","city":"Kansas City","zip":"641110","geo_score":0.857,"country":"United States","id":"a6a40lfgqo7k","geo_precision":"city","state":"MO"},"type":"Feature","geometry":{"type":"Point","coordinates":[-94.598583,39.102404]}},{"properties":{"name":"1","city":"Kansas City","zip":"641110","geo_score":0.857,"country":"United States","id":"a6a40lcxn60q","geo_precision":"city","state":"MO"},"type":"Feature","geometry":{"type":"Point","coordinates":[-94.598583,39.102404]}},{"properties":{"name":"1","city":"Kansas City","zip":"641110","geo_score":0.857,"country":"United States","id":"a6a40l3xgfge","geo_precision":"city","state":"MO"},"type":"Feature","geometry":{"type":"Point","coordinates":[-94.598583,39.102404]}},{"properties":{"name":"1","city":"Kansas City","zip":"641110","geo_score":0.857,"country":"United States","id":"a6a40l97gmaw","geo_precision":"city","state":"MO"},"type":"Feature","geometry":{"type":"Point","coordinates":[-94.598583,39.102404]}},{"properties":{"name":"1","city":"Kansas City","zip":"641110","geo_score":0.857,"country":"United States","id":"a6a40lfm62eq","geo_precision":"city","state":"MO"},"type":"Feature","geometry":{"type":"Point","coordinates":[-94.598583,39.102404]}},{"properties":{"name":"1","city":"Kansas City","zip":"641110","geo_score":0.857,"country":"United States","id":"a6a40li7t8hq","geo_precision":"city","state":"MO"},"type":"Feature","geometry":{"type":"Point","coordinates":[-94.598583,39.102404]}},{"properties":{"name":"1","city":"Kansas City","zip":"641110","geo_score":0.857,"country":"United States","id":"a6a40l993m8l","geo_precision":"city","state":"MO"},"type":"Feature","geometry":{"type":"Point","coordinates":[-94.598583,39.102404]}},{"properties":{"name":"1","city":"Kansas City","zip":"641110","geo_score":0.857,"country":"United States","id":"a6a40l90qq6r","geo_precision":"city","state":"MO"},"type":"Feature","geometry":{"type":"Point","coordinates":[-94.598583,39.102404]}},{"properties":{"name":"1","city":"Kansas City","zip":"641110","geo_score":0.857,"country":"United States","id":"a6a40l8zkg1n","geo_precision":"city","state":"MO"},"type":"Feature","geometry":{"type":"Point","coordinates":[-94.598583,39.102404]}},{"properties":{"name":"1","city":"Kansas City","zip":"641110","geo_score":0.857,"country":"United States","id":"a6a40lepbiji","geo_precision":"city","state":"MO"},"type":"Feature","geometry":{"type":"Point","coordinates":[-94.598583,39.102404]}},{"properties":{"name":"1","city":"Kansas City","zip":"641110","geo_score":0.857,"country":"United States","id":"a6a40lig5efs","geo_precision":"city","state":"MO"},"type":"Feature","geometry":{"type":"Point","coordinates":[-94.598583,39.102404]}},{"properties":{"name":"1","city":"Kansas City","zip":"641110","geo_score":0.857,"country":"United States","id":"a6a40l5ltsha","geo_precision":"city","state":"MO"},"type":"Feature","geometry":{"type":"Point","coordinates":[-94.598583,39.102404]}},{"properties":{"name":"1","city":"Kansas City","zip":"641110","geo_score":0.857,"country":"United States","id":"a6a40lfpvql3","geo_precision":"city","state":"MO"},"type":"Feature","geometry":{"type":"Point","coordinates":[-94.598583,39.102404]}},{"properties":{"name":"1","city":"Kansas City","zip":"641110","geo_score":0.857,"country":"United States","id":"a6a40liqfw03","geo_precision":"city","state":"MO"},"type":"Feature","geometry":{"type":"Point","coordinates":[-94.598583,39.102404]}},{"properties":{"name":"sdfg","city":"Kansas City","zip":"641110","geo_score":0.857,"country":"United States","id":"a6a40ljf86md","geo_precision":"city","state":"MO"},"type":"Feature","geometry":{"type":"Point","coordinates":[-94.598583,39.102404]}},{"properties":{"name":"sdfg","city":"Kansas City","zip":"641110","geo_score":0.857,"country":"United States","id":"a6a40l4equzx","geo_precision":"city","state":"MO"},"type":"Feature","geometry":{"type":"Point","coordinates":[-94.598583,39.102404]}},{"properties":{"name":"gd","city":"Kansas City","zip":"641110","geo_score":0.857,"country":"United States","id":"a6a40l9b3f45","geo_precision":"city","state":"MO"},"type":"Feature","geometry":{"type":"Point","coordinates":[-94.598583,39.102404]}},{"properties":{"name":"1","city":"Kansas City","zip":"641110","geo_score":0.857,"country":"United States","id":"a6a40l976qah","geo_precision":"city","state":"MO"},"type":"Feature","geometry":{"type":"Point","coordinates":[-94.598583,39.102404]}},{"properties":{"name":"1","city":"Kansas City","zip":"641110","geo_score":0.857,"country":"United States","id":"a6a40l74ikj8","geo_precision":"city","state":"MO"},"type":"Feature","geometry":{"type":"Point","coordinates":[-94.598583,39.102404]}},{"properties":{"name":"1","city":"Kansas City","zip":"641110","geo_score":0.857,"country":"United States","id":"a6a40l9woych","geo_precision":"city","state":"MO"},"type":"Feature","geometry":{"type":"Point","coordinates":[-94.598583,39.102404]}},{"properties":{"name":"1","city":"Kansas City","zip":"641110","geo_score":0.857,"country":"United States","id":"a6a40leqar2n","geo_precision":"city","state":"MO"},"type":"Feature","geometry":{"type":"Point","coordinates":[-94.598583,39.102404]}},{"properties":{"name":"1","city":"Kansas City","zip":"641110","geo_score":0.857,"country":"United States","id":"a6a40l9ngdmm","geo_precision":"city","state":"MO"},"type":"Feature","geometry":{"type":"Point","coordinates":[-94.598583,39.102404]}},{"properties":{"name":"1","city":"Kansas City","zip":"641110","geo_score":0.857,"country":"United States","id":"a6a40l4f8q5o","geo_precision":"city","state":"MO"},"type":"Feature","geometry":{"type":"Point","coordinates":[-94.598583,39.102404]}},{"properties":{"name":"1","city":"Kansas City","zip":"641110","geo_score":0.857,"country":"United States","id":"a6a40lhqpc2a","geo_precision":"city","state":"MO"},"type":"Feature","geometry":{"type":"Point","coordinates":[-94.598583,39.102404]}},{"properties":{"name":"1","city":"Kansas City","zip":"641110","geo_score":0.857,"country":"United States","id":"a6a40lbfv94g","geo_precision":"city","state":"MO"},"type":"Feature","geometry":{"type":"Point","coordinates":[-94.598583,39.102404]}},{"properties":{"name":"1","city":"Kansas City","zip":"641110","geo_score":0.857,"country":"United States","id":"a6a40l4mhw3k","geo_precision":"city","state":"MO"},"type":"Feature","geometry":{"type":"Point","coordinates":[-94.598583,39.102404]}},{"properties":{"name":"1","city":"Kansas City","zip":"641110","geo_score":0.857,"country":"United States","id":"a6a40lazshwz","geo_precision":"city","state":"MO"},"type":"Feature","geometry":{"type":"Point","coordinates":[-94.598583,39.102404]}},{"properties":{"name":"1","city":"Kansas City","zip":"641110","geo_score":0.857,"country":"United States","id":"a6a40lcgymjb","geo_precision":"city","state":"MO"},"type":"Feature","geometry":{"type":"Point","coordinates":[-94.598583,39.102404]}},{"properties":{"name":"1","city":"Kansas City","zip":"641110","geo_score":0.857,"country":"United States","id":"a6a40l55erm0","geo_precision":"city","state":"MO"},"type":"Feature","geometry":{"type":"Point","coordinates":[-94.598583,39.102404]}},{"properties":{"name":"1","city":"Kansas City","zip":"641110","geo_score":0.857,"country":"United States","id":"a6a40ljy8gnm","geo_precision":"city","state":"MO"},"type":"Feature","geometry":{"type":"Point","coordinates":[-94.598583,39.102404]}},{"properties":{"name":"1","city":"Kansas City","zip":"641110","geo_score":0.857,"country":"United States","id":"a6a40l8k2zn7","geo_precision":"city","state":"MO"},"type":"Feature","geometry":{"type":"Point","coordinates":[-94.598583,39.102404]}},{"properties":{"name":"1","city":"Kansas City","zip":"641110","geo_score":0.857,"country":"United States","id":"a6a40lht26d9","geo_precision":"city","state":"MO"},"type":"Feature","geometry":{"type":"Point","coordinates":[-94.598583,39.102404]}},{"properties":{"name":"1","city":"Kansas City","zip":"641110","geo_score":0.857,"country":"United States","id":"a6a40ljkpjoi","geo_precision":"city","state":"MO"},"type":"Feature","geometry":{"type":"Point","coordinates":[-94.598583,39.102404]}},{"properties":{"name":"1","city":"Kansas City","zip":"641110","geo_score":0.857,"country":"United States","id":"a6a40laqu0w4","geo_precision":"city","state":"MO"},"type":"Feature","geometry":{"type":"Point","coordinates":[-94.598583,39.102404]}},{"properties":{"name":"56356t","city":"Kansas City","zip":"641110","geo_score":0.857,"country":"United States","id":"a6a40lc3g54o","geo_precision":"city","state":"MO"},"type":"Feature","geometry":{"type":"Point","coordinates":[-94.598583,39.102404]}},{"properties":{"name":"thh","city":"Kansas City","zip":"641110","geo_score":0.857,"country":"United States","id":"a6a40lgf1o0c","geo_precision":"city","state":"MO"},"type":"Feature","geometry":{"type":"Point","coordinates":[-94.598583,39.102404]}},{"properties":{"name":"1","city":"Kansas City","zip":"641110","geo_score":0.857,"country":"United States","id":"a6a40l89etcv","geo_precision":"city","state":"MO"},"type":"Feature","geometry":{"type":"Point","coordinates":[-94.598583,39.102404]}},{"properties":{"name":"1","city":"Kansas City","zip":"641111","geo_score":0.857,"country":"United States","id":"a6a40lg18rex","geo_precision":"city","state":"MO"},"type":"Feature","geometry":{"type":"Point","coordinates":[-94.598583,39.102404]}},{"properties":{"name":"1","city":"Kansas City","zip":"641111","geo_score":0.857,"country":"United States","id":"a6a40lj4ly3l","geo_precision":"city","state":"MO"},"type":"Feature","geometry":{"type":"Point","coordinates":[-94.598583,39.102404]}},{"properties":{"name":"1","city":"Kansas City","zip":"641111","geo_score":0.857,"country":"United States","id":"a6a40lhimxu4","geo_precision":"city","state":"MO"},"type":"Feature","geometry":{"type":"Point","coordinates":[-94.598583,39.102404]}},{"properties":{"name":"1","city":"Kansas City","zip":"641111","geo_score":0.857,"country":"United States","id":"a6a40lg4flh9","geo_precision":"city","state":"MO"},"type":"Feature","geometry":{"type":"Point","coordinates":[-94.598583,39.102404]}},{"properties":{"name":"1","city":"Kansas City","zip":"641111","geo_score":0.857,"country":"United States","id":"a6a40lbzzml1","geo_precision":"city","state":"MO"},"type":"Feature","geometry":{"type":"Point","coordinates":[-94.598583,39.102404]}},{"properties":{"name":"1","city":"Kansas City","zip":"641111","geo_score":0.857,"country":"United States","id":"a6a40l3o9als","geo_precision":"city","state":"MO"},"type":"Feature","geometry":{"type":"Point","coordinates":[-94.598583,39.102404]}},{"properties":{"name":"1","city":"Kansas City","zip":"641111","geo_score":0.857,"country":"United States","id":"a6a40lgglb0b","geo_precision":"city","state":"MO"},"type":"Feature","geometry":{"type":"Point","coordinates":[-94.598583,39.102404]}},{"properties":{"name":"1","city":"Kansas City","zip":"641111","geo_score":0.857,"country":"United States","id":"a6a40liufvii","geo_precision":"city","state":"MO"},"type":"Feature","geometry":{"type":"Point","coordinates":[-94.598583,39.102404]}},{"properties":{"name":"1","city":"Kansas City","zip":"641111","geo_score":0.857,"country":"United States","id":"a6a40lgltzaf","geo_precision":"city","state":"MO"},"type":"Feature","geometry":{"type":"Point","coordinates":[-94.598583,39.102404]}},{"properties":{"name":"1","city":"Kansas City","zip":"641111","geo_score":0.857,"country":"United States","id":"a6a40lg3p9m7","geo_precision":"city","state":"MO"},"type":"Feature","geometry":{"type":"Point","coordinates":[-94.598583,39.102404]}},{"properties":{"name":"1","city":"Kansas City","zip":"641111","geo_score":0.857,"country":"United States","id":"a6a40l69cf02","geo_precision":"city","state":"MO"},"type":"Feature","geometry":{"type":"Point","coordinates":[-94.598583,39.102404]}},{"properties":{"name":"1","city":"Kansas City","zip":"641111","geo_score":0.857,"country":"United States","id":"a6a40la4knxo","geo_precision":"city","state":"MO"},"type":"Feature","geometry":{"type":"Point","coordinates":[-94.598583,39.102404]}},{"properties":{"name":"1","city":"Kansas City","zip":"641111","geo_score":0.857,"country":"United States","id":"a6a40l85i75d","geo_precision":"city","state":"MO"},"type":"Feature","geometry":{"type":"Point","coordinates":[-94.598583,39.102404]}},{"properties":{"name":"1","city":"Kansas City","zip":"641111","geo_score":0.857,"country":"United States","id":"a6a40lfsq3yo","geo_precision":"city","state":"MO"},"type":"Feature","geometry":{"type":"Point","coordinates":[-94.598583,39.102404]}},{"properties":{"name":"1","city":"Kansas City","zip":"641111","geo_score":0.857,"country":"United States","id":"a6a40l54eyn6","geo_precision":"city","state":"MO"},"type":"Feature","geometry":{"type":"Point","coordinates":[-94.598583,39.102404]}},{"properties":{"name":"1","city":"Kansas City","zip":"641111","geo_score":0.857,"country":"United States","id":"a6a40li3jln1","geo_precision":"city","state":"MO"},"type":"Feature","geometry":{"type":"Point","coordinates":[-94.598583,39.102404]}},{"properties":{"name":"1","city":"Kansas City","zip":"641111","geo_score":0.857,"country":"United States","id":"a6a40lj2dx89","geo_precision":"city","state":"MO"},"type":"Feature","geometry":{"type":"Point","coordinates":[-94.598583,39.102404]}},{"properties":{"name":"1","city":"Kansas City","zip":"641111","geo_score":0.857,"country":"United States","id":"a6a40l5hm2uu","geo_precision":"city","state":"MO"},"type":"Feature","geometry":{"type":"Point","coordinates":[-94.598583,39.102404]}},{"properties":{"name":"1","city":"Kansas City","zip":"641111","geo_score":0.857,"country":"United States","id":"a6a40lh8xum9","geo_precision":"city","state":"MO"},"type":"Feature","geometry":{"type":"Point","coordinates":[-94.598583,39.102404]}},{"properties":{"name":"1","city":"Kansas City","zip":"641111","geo_score":0.857,"country":"United States","id":"a6a40lg72dx1","geo_precision":"city","state":"MO"},"type":"Feature","geometry":{"type":"Point","coordinates":[-94.598583,39.102404]}},{"properties":{"name":"1","city":"Kansas City","zip":"641111","geo_score":0.857,"country":"United States","id":"a6a40lboasb1","geo_precision":"city","state":"MO"},"type":"Feature","geometry":{"type":"Point","coordinates":[-94.598583,39.102404]}},{"properties":{"name":"1","city":"Kansas City","zip":"641111","geo_score":0.857,"country":"United States","id":"a6a40lcsd4hg","geo_precision":"city","state":"MO"},"type":"Feature","geometry":{"type":"Point","coordinates":[-94.598583,39.102404]}},{"properties":{"name":"1","city":"Kansas City","zip":"641111","geo_score":0.857,"country":"United States","id":"a6a40l5hubyl","geo_precision":"city","state":"MO"},"type":"Feature","geometry":{"type":"Point","coordinates":[-94.598583,39.102404]}},{"properties":{"name":"1","city":"Kansas City","zip":"641111","geo_score":0.857,"country":"United States","id":"a6a40lfig37l","geo_precision":"city","state":"MO"},"type":"Feature","geometry":{"type":"Point","coordinates":[-94.598583,39.102404]}},{"properties":{"name":"1","city":"Kansas City","zip":"641111","geo_score":0.857,"country":"United States","id":"a6a40li7qyyp","geo_precision":"city","state":"MO"},"type":"Feature","geometry":{"type":"Point","coordinates":[-94.598583,39.102404]}},{"properties":{"name":"1","city":"Kansas City","zip":"641111","geo_score":0.857,"country":"United States","id":"a6a40l42j6dz","geo_precision":"city","state":"MO"},"type":"Feature","geometry":{"type":"Point","coordinates":[-94.598583,39.102404]}},{"properties":{"name":"sfgsdfg","city":"Kansas City","zip":"641111","geo_score":0.857,"country":"United States","id":"a6a40lj3c0fw","geo_precision":"city","state":"MO"},"type":"Feature","geometry":{"type":"Point","coordinates":[-94.598583,39.102404]}},{"properties":{"name":"1","city":"Kansas City","zip":"641111","geo_score":0.857,"country":"United States","id":"a6a40l9d286p","geo_precision":"city","state":"MO"},"type":"Feature","geometry":{"type":"Point","coordinates":[-94.598583,39.102404]}},{"properties":{"name":"1","city":"Kansas City","zip":"641111","geo_score":0.857,"country":"United States","id":"a6a40l4uae2a","geo_precision":"city","state":"MO"},"type":"Feature","geometry":{"type":"Point","coordinates":[-94.598583,39.102404]}},{"properties":{"name":"1","city":"Kansas City","zip":"641111","geo_score":0.857,"country":"United States","id":"a6a40lhwrhtm","geo_precision":"city","state":"MO"},"type":"Feature","geometry":{"type":"Point","coordinates":[-94.598583,39.102404]}},{"properties":{"name":"1","city":"Kansas City","zip":"641111","geo_score":0.857,"country":"United States","id":"a6a40lgc5vx5","geo_precision":"city","state":"MO"},"type":"Feature","geometry":{"type":"Point","coordinates":[-94.598583,39.102404]}},{"properties":{"name":"1","city":"Kansas City","zip":"641111","geo_score":0.857,"country":"United States","id":"a6a40ldqsr3n","geo_precision":"city","state":"MO"},"type":"Feature","geometry":{"type":"Point","coordinates":[-94.598583,39.102404]}},{"properties":{"name":"1","city":"Kansas City","zip":"641111","geo_score":0.857,"country":"United States","id":"a6a40l4lrlh3","geo_precision":"city","state":"MO"},"type":"Feature","geometry":{"type":"Point","coordinates":[-94.598583,39.102404]}},{"properties":{"name":"1","city":"Kansas City","zip":"641111","geo_score":0.857,"country":"United States","id":"a6a40l9raqlr","geo_precision":"city","state":"MO"},"type":"Feature","geometry":{"type":"Point","coordinates":[-94.598583,39.102404]}},{"properties":{"name":"1","city":"Kansas City","zip":"641111","geo_score":0.857,"country":"United States","id":"a6a40l3otv39","geo_precision":"city","state":"MO"},"type":"Feature","geometry":{"type":"Point","coordinates":[-94.598583,39.102404]}},{"properties":{"name":"1","city":"Kansas City","zip":"641111","geo_score":0.857,"country":"United States","id":"a6a40lbb3p7u","geo_precision":"city","state":"MO"},"type":"Feature","geometry":{"type":"Point","coordinates":[-94.598583,39.102404]}},{"properties":{"name":"1","city":"Kansas City","zip":"641111","geo_score":0.857,"country":"United States","id":"a6a40labwblz","geo_precision":"city","state":"MO"},"type":"Feature","geometry":{"type":"Point","coordinates":[-94.598583,39.102404]}},{"properties":{"name":"1","city":"Kansas City","zip":"641111","geo_score":0.857,"country":"United States","id":"a6a40l7xqcpa","geo_precision":"city","state":"MO"},"type":"Feature","geometry":{"type":"Point","coordinates":[-94.598583,39.102404]}},{"properties":{"name":"1","city":"Kansas City","zip":"641111","geo_score":0.857,"country":"United States","id":"a6a40ldp7t3y","geo_precision":"city","state":"MO"},"type":"Feature","geometry":{"type":"Point","coordinates":[-94.598583,39.102404]}},{"properties":{"name":"1","city":"Kansas City","zip":"641111","geo_score":0.857,"country":"United States","id":"a6a40lbdopmr","geo_precision":"city","state":"MO"},"type":"Feature","geometry":{"type":"Point","coordinates":[-94.598583,39.102404]}},{"properties":{"name":"1","city":"Kansas City","zip":"641111","geo_score":0.857,"country":"United States","id":"a6a40l9otgan","geo_precision":"city","state":"MO"},"type":"Feature","geometry":{"type":"Point","coordinates":[-94.598583,39.102404]}},{"properties":{"name":"1","city":"Kansas City","zip":"641111","geo_score":0.857,"country":"United States","id":"a6a40l9x3jtl","geo_precision":"city","state":"MO"},"type":"Feature","geometry":{"type":"Point","coordinates":[-94.598583,39.102404]}},{"properties":{"name":"sdgsdfg","city":"Kansas City","zip":"641111","geo_score":0.857,"country":"United States","id":"a6a40l80b6zn","geo_precision":"city","state":"MO"},"type":"Feature","geometry":{"type":"Point","coordinates":[-94.598583,39.102404]}},{"properties":{"name":"1","city":"Kansas City","zip":"641111","geo_score":0.857,"country":"United States","id":"a6a40l6n0s8t","geo_precision":"city","state":"MO"},"type":"Feature","geometry":{"type":"Point","coordinates":[-94.598583,39.102404]}},{"properties":{"name":"1","city":"Kansas City","zip":"641112","geo_score":0.857,"country":"United States","id":"a6a40l684c1b","geo_precision":"city","state":"MO"},"type":"Feature","geometry":{"type":"Point","coordinates":[-94.598583,39.102404]}},{"properties":{"name":"1","city":"Kansas City","zip":"641112","geo_score":0.857,"country":"United States","id":"a6a40ldlf2tw","geo_precision":"city","state":"MO"},"type":"Feature","geometry":{"type":"Point","coordinates":[-94.598583,39.102404]}},{"properties":{"name":"1","city":"Kansas City","zip":"641112","geo_score":0.857,"country":"United States","id":"a6a40lfcqddg","geo_precision":"city","state":"MO"},"type":"Feature","geometry":{"type":"Point","coordinates":[-94.598583,39.102404]}},{"properties":{"name":"1","city":"Kansas City","zip":"641112","geo_score":0.857,"country":"United States","id":"a6a40l7q7dfq","geo_precision":"city","state":"MO"},"type":"Feature","geometry":{"type":"Point","coordinates":[-94.598583,39.102404]}},{"properties":{"name":"1","city":"Kansas City","zip":"641112","geo_score":0.857,"country":"United States","id":"a6a40lh1b62e","geo_precision":"city","state":"MO"},"type":"Feature","geometry":{"type":"Point","coordinates":[-94.598583,39.102404]}},{"properties":{"name":"1","city":"Kansas City","zip":"641112","geo_score":0.857,"country":"United States","id":"a6a40l5oso02","geo_precision":"city","state":"MO"},"type":"Feature","geometry":{"type":"Point","coordinates":[-94.598583,39.102404]}},{"properties":{"name":"1","city":"Kansas City","zip":"641112","geo_score":0.857,"country":"United States","id":"a6a40lbpos74","geo_precision":"city","state":"MO"},"type":"Feature","geometry":{"type":"Point","coordinates":[-94.598583,39.102404]}},{"properties":{"name":"1","city":"Kansas City","zip":"641112","geo_score":0.857,"country":"United States","id":"a6a40lbuvs7m","geo_precision":"city","state":"MO"},"type":"Feature","geometry":{"type":"Point","coordinates":[-94.598583,39.102404]}},{"properties":{"name":"1","city":"Kansas City","zip":"641112","geo_score":0.857,"country":"United States","id":"a6a40lgj3q4z","geo_precision":"city","state":"MO"},"type":"Feature","geometry":{"type":"Point","coordinates":[-94.598583,39.102404]}},{"properties":{"name":"1","city":"Kansas City","zip":"641112","geo_score":0.857,"country":"United States","id":"a6a40l6z81q1","geo_precision":"city","state":"MO"},"type":"Feature","geometry":{"type":"Point","coordinates":[-94.598583,39.102404]}},{"properties":{"name":"1","city":"Kansas City","zip":"641112","geo_score":0.857,"country":"United States","id":"a6a40lf8dk7q","geo_precision":"city","state":"MO"},"type":"Feature","geometry":{"type":"Point","coordinates":[-94.598583,39.102404]}},{"properties":{"name":"1","city":"Kansas City","zip":"641112","geo_score":0.857,"country":"United States","id":"a6a40l9ekzwd","geo_precision":"city","state":"MO"},"type":"Feature","geometry":{"type":"Point","coordinates":[-94.598583,39.102404]}},{"properties":{"name":"1","city":"Kansas City","zip":"641113","geo_score":0.857,"country":"United States","id":"a6a40l73frq8","geo_precision":"city","state":"MO"},"type":"Feature","geometry":{"type":"Point","coordinates":[-94.598583,39.102404]}},{"properties":{"name":"1","city":"Kansas City","zip":"641113","geo_score":0.857,"country":"United States","id":"a6a40lj3clh3","geo_precision":"city","state":"MO"},"type":"Feature","geometry":{"type":"Point","coordinates":[-94.598583,39.102404]}},{"properties":{"name":"1","city":"Kansas City","zip":"641113","geo_score":0.857,"country":"United States","id":"a6a40lbyerfz","geo_precision":"city","state":"MO"},"type":"Feature","geometry":{"type":"Point","coordinates":[-94.598583,39.102404]}},{"properties":{"name":"1","city":"Kansas City","zip":"641113","geo_score":0.857,"country":"United States","id":"a6a40l4teca3","geo_precision":"city","state":"MO"},"type":"Feature","geometry":{"type":"Point","coordinates":[-94.598583,39.102404]}},{"properties":{"name":"1","city":"Kansas City","zip":"641113","geo_score":0.857,"country":"United States","id":"a6a40l71vtv6","geo_precision":"city","state":"MO"},"type":"Feature","geometry":{"type":"Point","coordinates":[-94.598583,39.102404]}},{"properties":{"name":"1","city":"Kansas City","zip":"641113","geo_score":0.857,"country":"United States","id":"a6a40lghobze","geo_precision":"city","state":"MO"},"type":"Feature","geometry":{"type":"Point","coordinates":[-94.598583,39.102404]}},{"properties":{"name":"1","city":"Kansas City","zip":"641113","geo_score":0.857,"country":"United States","id":"a6a40l4wydrh","geo_precision":"city","state":"MO"},"type":"Feature","geometry":{"type":"Point","coordinates":[-94.598583,39.102404]}},{"properties":{"name":"1","city":"Kansas City","zip":"641113","geo_score":0.857,"country":"United States","id":"a6a40l4ml0nu","geo_precision":"city","state":"MO"},"type":"Feature","geometry":{"type":"Point","coordinates":[-94.598583,39.102404]}},{"properties":{"name":"1","city":"Kansas City","zip":"641113","geo_score":0.857,"country":"United States","id":"a6a40l57qax5","geo_precision":"city","state":"MO"},"type":"Feature","geometry":{"type":"Point","coordinates":[-94.598583,39.102404]}},{"properties":{"name":"1","city":"Kansas City","zip":"641113","geo_score":0.857,"country":"United States","id":"a6a40l6uypup","geo_precision":"city","state":"MO"},"type":"Feature","geometry":{"type":"Point","coordinates":[-94.598583,39.102404]}},{"properties":{"name":"1","city":"Kansas City","zip":"641113","geo_score":0.857,"country":"United States","id":"a6a40lh765nz","geo_precision":"city","state":"MO"},"type":"Feature","geometry":{"type":"Point","coordinates":[-94.598583,39.102404]}},{"properties":{"name":"1","city":"Kansas City","zip":"641113","geo_score":0.857,"country":"United States","id":"a6a40l8cnu89","geo_precision":"city","state":"MO"},"type":"Feature","geometry":{"type":"Point","coordinates":[-94.598583,39.102404]}},{"properties":{"name":"1","city":"Kansas City","zip":"641113","geo_score":0.857,"country":"United States","id":"a6a40li34qfp","geo_precision":"city","state":"MO"},"type":"Feature","geometry":{"type":"Point","coordinates":[-94.598583,39.102404]}},{"properties":{"name":"1","city":"Kansas City","zip":"641113","geo_score":0.857,"country":"United States","id":"a6a40ljbmise","geo_precision":"city","state":"MO"},"type":"Feature","geometry":{"type":"Point","coordinates":[-94.598583,39.102404]}},{"properties":{"name":"1","city":"Kansas City","zip":"641113","geo_score":0.857,"country":"United States","id":"a6a40lb9op7n","geo_precision":"city","state":"MO"},"type":"Feature","geometry":{"type":"Point","coordinates":[-94.598583,39.102404]}},{"properties":{"name":"1","city":"Kansas City","zip":"641113","geo_score":0.857,"country":"United States","id":"a6a40lj8pthu","geo_precision":"city","state":"MO"},"type":"Feature","geometry":{"type":"Point","coordinates":[-94.598583,39.102404]}},{"properties":{"name":"1","city":"Kansas City","zip":"641113","geo_score":0.857,"country":"United States","id":"a6a40lhqifdv","geo_precision":"city","state":"MO"},"type":"Feature","geometry":{"type":"Point","coordinates":[-94.598583,39.102404]}},{"properties":{"name":"1","city":"Kansas City","zip":"641113","geo_score":0.857,"country":"United States","id":"a6a40lhs9rqf","geo_precision":"city","state":"MO"},"type":"Feature","geometry":{"type":"Point","coordinates":[-94.598583,39.102404]}},{"properties":{"name":"1","city":"Kansas City","zip":"641113","geo_score":0.857,"country":"United States","id":"a6a40lfx7axk","geo_precision":"city","state":"MO"},"type":"Feature","geometry":{"type":"Point","coordinates":[-94.598583,39.102404]}},{"properties":{"name":"1","city":"Kansas City","zip":"641113","geo_score":0.857,"country":"United States","id":"a6a40l72kdqb","geo_precision":"city","state":"MO"},"type":"Feature","geometry":{"type":"Point","coordinates":[-94.598583,39.102404]}},{"properties":{"name":"1","city":"Kansas City","zip":"641113","geo_score":0.857,"country":"United States","id":"a6a40lj80stk","geo_precision":"city","state":"MO"},"type":"Feature","geometry":{"type":"Point","coordinates":[-94.598583,39.102404]}},{"properties":{"name":"1","city":"Kansas City","zip":"641113","geo_score":0.857,"country":"United States","id":"a6a40lhb0i96","geo_precision":"city","state":"MO"},"type":"Feature","geometry":{"type":"Point","coordinates":[-94.598583,39.102404]}},{"properties":{"name":"1","city":"Kansas City","zip":"641113","geo_score":0.857,"country":"United States","id":"a6a40lcwyce3","geo_precision":"city","state":"MO"},"type":"Feature","geometry":{"type":"Point","coordinates":[-94.598583,39.102404]}},{"properties":{"name":"1","city":"Kansas City","zip":"641113","geo_score":0.857,"country":"United States","id":"a6a40l5t6qjk","geo_precision":"city","state":"MO"},"type":"Feature","geometry":{"type":"Point","coordinates":[-94.598583,39.102404]}},{"properties":{"name":"1","city":"Kansas City","zip":"641113","geo_score":0.857,"country":"United States","id":"a6a40l9cuuxy","geo_precision":"city","state":"MO"},"type":"Feature","geometry":{"type":"Point","coordinates":[-94.598583,39.102404]}},{"properties":{"name":"1","city":"Kansas City","zip":"641113","geo_score":0.857,"country":"United States","id":"a6a40l56xoq5","geo_precision":"city","state":"MO"},"type":"Feature","geometry":{"type":"Point","coordinates":[-94.598583,39.102404]}},{"properties":{"name":"1","city":"Kansas City","zip":"641113","geo_score":0.857,"country":"United States","id":"a6a40lf2kzvf","geo_precision":"city","state":"MO"},"type":"Feature","geometry":{"type":"Point","coordinates":[-94.598583,39.102404]}},{"properties":{"name":"1","city":"Kansas City","zip":"641113","geo_score":0.857,"country":"United States","id":"a6a40leoogri","geo_precision":"city","state":"MO"},"type":"Feature","geometry":{"type":"Point","coordinates":[-94.598583,39.102404]}},{"properties":{"name":"1","city":"Kansas City","zip":"641113","geo_score":0.857,"country":"United States","id":"a6a40le87yvv","geo_precision":"city","state":"MO"},"type":"Feature","geometry":{"type":"Point","coordinates":[-94.598583,39.102404]}},{"properties":{"name":"1","city":"Kansas City","zip":"641113","geo_score":0.857,"country":"United States","id":"a6a40le3a4nh","geo_precision":"city","state":"MO"},"type":"Feature","geometry":{"type":"Point","coordinates":[-94.598583,39.102404]}},{"properties":{"name":"1","city":"Kansas City","zip":"641113","geo_score":0.857,"country":"United States","id":"a6a40l89grxr","geo_precision":"city","state":"MO"},"type":"Feature","geometry":{"type":"Point","coordinates":[-94.598583,39.102404]}},{"properties":{"name":"1","city":"Kansas City","zip":"641113","geo_score":0.857,"country":"United States","id":"a6a40li1sfll","geo_precision":"city","state":"MO"},"type":"Feature","geometry":{"type":"Point","coordinates":[-94.598583,39.102404]}},{"properties":{"name":"1","city":"Kansas City","zip":"641113","geo_score":0.857,"country":"United States","id":"a6a40lgojeq9","geo_precision":"city","state":"MO"},"type":"Feature","geometry":{"type":"Point","coordinates":[-94.598583,39.102404]}},{"properties":{"name":"1","city":"Kansas City","zip":"641113","geo_score":0.857,"country":"United States","id":"a6a40liz2hvk","geo_precision":"city","state":"MO"},"type":"Feature","geometry":{"type":"Point","coordinates":[-94.598583,39.102404]}},{"properties":{"name":"1","city":"Kansas City","zip":"641113","geo_score":0.857,"country":"United States","id":"a6a40lita1ml","geo_precision":"city","state":"MO"},"type":"Feature","geometry":{"type":"Point","coordinates":[-94.598583,39.102404]}},{"properties":{"name":"1","city":"Kansas City","zip":"641113","geo_score":0.857,"country":"United States","id":"a6a40lfd6c6g","geo_precision":"city","state":"MO"},"type":"Feature","geometry":{"type":"Point","coordinates":[-94.598583,39.102404]}},{"properties":{"name":"1","city":"Kansas City","zip":"641113","geo_score":0.857,"country":"United States","id":"a6a40lil1k73","geo_precision":"city","state":"MO"},"type":"Feature","geometry":{"type":"Point","coordinates":[-94.598583,39.102404]}},{"properties":{"name":"1","city":"Kansas City","zip":"641113","geo_score":0.857,"country":"United States","id":"a6a40l7wf4zl","geo_precision":"city","state":"MO"},"type":"Feature","geometry":{"type":"Point","coordinates":[-94.598583,39.102404]}},{"properties":{"name":"1","city":"Kansas City","zip":"641113","geo_score":0.857,"country":"United States","id":"a6a40lcl9f79","geo_precision":"city","state":"MO"},"type":"Feature","geometry":{"type":"Point","coordinates":[-94.598583,39.102404]}},{"properties":{"name":"1","city":"Kansas City","zip":"641113","geo_score":0.857,"country":"United States","id":"a6a40l5c57be","geo_precision":"city","state":"MO"},"type":"Feature","geometry":{"type":"Point","coordinates":[-94.598583,39.102404]}},{"properties":{"name":"1","city":"Kansas City","zip":"641113","geo_score":0.857,"country":"United States","id":"a6a40lcmi56z","geo_precision":"city","state":"MO"},"type":"Feature","geometry":{"type":"Point","coordinates":[-94.598583,39.102404]}},{"properties":{"name":"1","city":"Kansas City","zip":"641113","geo_score":0.857,"country":"United States","id":"a6a40l3o0d5i","geo_precision":"city","state":"MO"},"type":"Feature","geometry":{"type":"Point","coordinates":[-94.598583,39.102404]}},{"properties":{"name":"1","city":"Kansas City","zip":"641113","geo_score":0.857,"country":"United States","id":"a6a40l6nu51t","geo_precision":"city","state":"MO"},"type":"Feature","geometry":{"type":"Point","coordinates":[-94.598583,39.102404]}},{"properties":{"name":"1","city":"Kansas City","zip":"641113","geo_score":0.857,"country":"United States","id":"a6a40lgp1shv","geo_precision":"city","state":"MO"},"type":"Feature","geometry":{"type":"Point","coordinates":[-94.598583,39.102404]}},{"properties":{"name":"1","city":"Kansas City","zip":"641113","geo_score":0.857,"country":"United States","id":"a6a40lgsi5qk","geo_precision":"city","state":"MO"},"type":"Feature","geometry":{"type":"Point","coordinates":[-94.598583,39.102404]}},{"properties":{"name":"1","city":"Kansas City","zip":"641113","geo_score":0.857,"country":"United States","id":"a6a40l7i753c","geo_precision":"city","state":"MO"},"type":"Feature","geometry":{"type":"Point","coordinates":[-94.598583,39.102404]}},{"properties":{"name":"1","city":"Kansas City","zip":"641113","geo_score":0.857,"country":"United States","id":"a6a40ldbl8pi","geo_precision":"city","state":"MO"},"type":"Feature","geometry":{"type":"Point","coordinates":[-94.598583,39.102404]}},{"properties":{"name":"1","city":"Kansas City","zip":"641113","geo_score":0.857,"country":"United States","id":"a6a40lcl225y","geo_precision":"city","state":"MO"},"type":"Feature","geometry":{"type":"Point","coordinates":[-94.598583,39.102404]}},{"properties":{"name":"1","city":"Kansas City","zip":"641113","geo_score":0.857,"country":"United States","id":"a6a40ldgbrlp","geo_precision":"city","state":"MO"},"type":"Feature","geometry":{"type":"Point","coordinates":[-94.598583,39.102404]}},{"properties":{"name":"1","city":"Kansas City","zip":"641113","geo_score":0.857,"country":"United States","id":"a6a40l80xl1v","geo_precision":"city","state":"MO"},"type":"Feature","geometry":{"type":"Point","coordinates":[-94.598583,39.102404]}},{"properties":{"name":"1","city":"Kansas City","zip":"641113","geo_score":0.857,"country":"United States","id":"a6a40lfbwegs","geo_precision":"city","state":"MO"},"type":"Feature","geometry":{"type":"Point","coordinates":[-94.598583,39.102404]}},{"properties":{"name":"1","city":"Kansas City","zip":"641113","geo_score":0.857,"country":"United States","id":"a6a40lf25n7m","geo_precision":"city","state":"MO"},"type":"Feature","geometry":{"type":"Point","coordinates":[-94.598583,39.102404]}},{"properties":{"name":"1","city":"Kansas City","zip":"641113","geo_score":0.857,"country":"United States","id":"a6a40li5canz","geo_precision":"city","state":"MO"},"type":"Feature","geometry":{"type":"Point","coordinates":[-94.598583,39.102404]}},{"properties":{"name":"1","city":"Kansas City","zip":"641113","geo_score":0.857,"country":"United States","id":"a6a40l9hsr2l","geo_precision":"city","state":"MO"},"type":"Feature","geometry":{"type":"Point","coordinates":[-94.598583,39.102404]}},{"properties":{"name":"1","city":"Kansas City","zip":"641113","geo_score":0.857,"country":"United States","id":"a6a40liwn89o","geo_precision":"city","state":"MO"},"type":"Feature","geometry":{"type":"Point","coordinates":[-94.598583,39.102404]}},{"properties":{"name":"1","city":"Kansas City","zip":"641113","geo_score":0.857,"country":"United States","id":"a6a40lbhwhfu","geo_precision":"city","state":"MO"},"type":"Feature","geometry":{"type":"Point","coordinates":[-94.598583,39.102404]}},{"properties":{"name":"1","city":"Kansas City","zip":"641113","geo_score":0.857,"country":"United States","id":"a6a40lhtpk1k","geo_precision":"city","state":"MO"},"type":"Feature","geometry":{"type":"Point","coordinates":[-94.598583,39.102404]}},{"properties":{"name":"1","city":"Kansas City","zip":"641113","geo_score":0.857,"country":"United States","id":"a6a40lilvvmz","geo_precision":"city","state":"MO"},"type":"Feature","geometry":{"type":"Point","coordinates":[-94.598583,39.102404]}},{"properties":{"name":"1","city":"Kansas City","zip":"641113","geo_score":0.857,"country":"United States","id":"a6a40li9l520","geo_precision":"city","state":"MO"},"type":"Feature","geometry":{"type":"Point","coordinates":[-94.598583,39.102404]}},{"properties":{"name":"1","city":"Kansas City","zip":"641113","geo_score":0.857,"country":"United States","id":"a6a40lcl3509","geo_precision":"city","state":"MO"},"type":"Feature","geometry":{"type":"Point","coordinates":[-94.598583,39.102404]}},{"properties":{"name":"1","city":"Kansas City","zip":"641113","geo_score":0.857,"country":"United States","id":"a6a40lei5f9p","geo_precision":"city","state":"MO"},"type":"Feature","geometry":{"type":"Point","coordinates":[-94.598583,39.102404]}},{"properties":{"name":"1","city":"Kansas City","zip":"641113","geo_score":0.857,"country":"United States","id":"a6a40l825ldl","geo_precision":"city","state":"MO"},"type":"Feature","geometry":{"type":"Point","coordinates":[-94.598583,39.102404]}},{"properties":{"name":"1","city":"Kansas City","zip":"641113","geo_score":0.857,"country":"United States","id":"a6a40lk05btp","geo_precision":"city","state":"MO"},"type":"Feature","geometry":{"type":"Point","coordinates":[-94.598583,39.102404]}},{"properties":{"name":"1","city":"Kansas City","zip":"641113","geo_score":0.857,"country":"United States","id":"a6a40lcgiy79","geo_precision":"city","state":"MO"},"type":"Feature","geometry":{"type":"Point","coordinates":[-94.598583,39.102404]}},{"properties":{"name":"1","city":"Kansas City","zip":"641113","geo_score":0.857,"country":"United States","id":"a6a40lgk4vej","geo_precision":"city","state":"MO"},"type":"Feature","geometry":{"type":"Point","coordinates":[-94.598583,39.102404]}},{"properties":{"name":"1","city":"Kansas City","zip":"641113","geo_score":0.857,"country":"United States","id":"a6a40l6gmxvx","geo_precision":"city","state":"MO"},"type":"Feature","geometry":{"type":"Point","coordinates":[-94.598583,39.102404]}},{"properties":{"name":"1","city":"Kansas City","zip":"641113","geo_score":0.857,"country":"United States","id":"a6a40ld4pflt","geo_precision":"city","state":"MO"},"type":"Feature","geometry":{"type":"Point","coordinates":[-94.598583,39.102404]}},{"properties":{"name":"1","city":"Kansas City","zip":"641113","geo_score":0.857,"country":"United States","id":"a6a40l8y1q5q","geo_precision":"city","state":"MO"},"type":"Feature","geometry":{"type":"Point","coordinates":[-94.598583,39.102404]}},{"properties":{"name":"1","city":"Kansas City","zip":"641113","geo_score":0.857,"country":"United States","id":"a6a40l7nyt5n","geo_precision":"city","state":"MO"},"type":"Feature","geometry":{"type":"Point","coordinates":[-94.598583,39.102404]}},{"properties":{"name":"1","city":"Kansas City","zip":"641113","geo_score":0.857,"country":"United States","id":"a6a40lg9isif","geo_precision":"city","state":"MO"},"type":"Feature","geometry":{"type":"Point","coordinates":[-94.598583,39.102404]}},{"properties":{"name":"1","city":"Kansas City","zip":"641113","geo_score":0.857,"country":"United States","id":"a6a40ld6jw6o","geo_precision":"city","state":"MO"},"type":"Feature","geometry":{"type":"Point","coordinates":[-94.598583,39.102404]}},{"properties":{"name":"1","city":"Kansas City","zip":"641113","geo_score":0.857,"country":"United States","id":"a6a40lcyhfqd","geo_precision":"city","state":"MO"},"type":"Feature","geometry":{"type":"Point","coordinates":[-94.598583,39.102404]}},{"properties":{"name":"1","city":"Kansas City","zip":"641113","geo_score":0.857,"country":"United States","id":"a6a40ldig5ia","geo_precision":"city","state":"MO"},"type":"Feature","geometry":{"type":"Point","coordinates":[-94.598583,39.102404]}},{"properties":{"name":"1","city":"Kansas City","zip":"641113","geo_score":0.857,"country":"United States","id":"a6a40l7579qo","geo_precision":"city","state":"MO"},"type":"Feature","geometry":{"type":"Point","coordinates":[-94.598583,39.102404]}},{"properties":{"name":"1","city":"Kansas City","zip":"641113","geo_score":0.857,"country":"United States","id":"a6a40lc6b9xq","geo_precision":"city","state":"MO"},"type":"Feature","geometry":{"type":"Point","coordinates":[-94.598583,39.102404]}},{"properties":{"name":"1","city":"Kansas City","zip":"641113","geo_score":0.857,"country":"United States","id":"a6a40l9npdqh","geo_precision":"city","state":"MO"},"type":"Feature","geometry":{"type":"Point","coordinates":[-94.598583,39.102404]}},{"properties":{"name":"1","city":"Kansas City","zip":"641113","geo_score":0.857,"country":"United States","id":"a6a40l7d9ap8","geo_precision":"city","state":"MO"},"type":"Feature","geometry":{"type":"Point","coordinates":[-94.598583,39.102404]}},{"properties":{"name":"1","city":"Kansas City","zip":"641113","geo_score":0.857,"country":"United States","id":"a6a40lgeac6g","geo_precision":"city","state":"MO"},"type":"Feature","geometry":{"type":"Point","coordinates":[-94.598583,39.102404]}},{"properties":{"name":"1","city":"Kansas City","zip":"641113","geo_score":0.857,"country":"United States","id":"a6a40l6fasfc","geo_precision":"city","state":"MO"},"type":"Feature","geometry":{"type":"Point","coordinates":[-94.598583,39.102404]}},{"properties":{"name":"1","city":"Kansas City","zip":"641113","geo_score":0.857,"country":"United States","id":"a6a40l879gcd","geo_precision":"city","state":"MO"},"type":"Feature","geometry":{"type":"Point","coordinates":[-94.598583,39.102404]}},{"properties":{"name":"1","city":"Kansas City","zip":"641113","geo_score":0.857,"country":"United States","id":"a6a40lg8amej","geo_precision":"city","state":"MO"},"type":"Feature","geometry":{"type":"Point","coordinates":[-94.598583,39.102404]}},{"properties":{"name":"1","city":"Kansas City","zip":"641114","geo_score":0.857,"country":"United States","id":"a6a40lgkp0to","geo_precision":"city","state":"MO"},"type":"Feature","geometry":{"type":"Point","coordinates":[-94.598583,39.102404]}},{"properties":{"name":"1","city":"Kansas City","zip":"641114","geo_score":0.857,"country":"United States","id":"a6a40lcjmtbp","geo_precision":"city","state":"MO"},"type":"Feature","geometry":{"type":"Point","coordinates":[-94.598583,39.102404]}},{"properties":{"name":"1","city":"Kansas City","zip":"641114","geo_score":0.857,"country":"United States","id":"a6a40la86zlf","geo_precision":"city","state":"MO"},"type":"Feature","geometry":{"type":"Point","coordinates":[-94.598583,39.102404]}},{"properties":{"name":"1","city":"Kansas City","zip":"641114","geo_score":0.857,"country":"United States","id":"a6a40l81uqjg","geo_precision":"city","state":"MO"},"type":"Feature","geometry":{"type":"Point","coordinates":[-94.598583,39.102404]}},{"properties":{"name":"1","city":"Kansas City","zip":"641114","geo_score":0.857,"country":"United States","id":"a6a40lfz1gwi","geo_precision":"city","state":"MO"},"type":"Feature","geometry":{"type":"Point","coordinates":[-94.598583,39.102404]}},{"properties":{"name":"1","city":"Kansas City","zip":"641114","geo_score":0.857,"country":"United States","id":"a6a40l9ahhfp","geo_precision":"city","state":"MO"},"type":"Feature","geometry":{"type":"Point","coordinates":[-94.598583,39.102404]}},{"properties":{"name":"1","city":"Kansas City","zip":"641114","geo_score":0.857,"country":"United States","id":"a6a40lb3f9rk","geo_precision":"city","state":"MO"},"type":"Feature","geometry":{"type":"Point","coordinates":[-94.598583,39.102404]}},{"properties":{"name":"1","city":"Kansas City","zip":"641114","geo_score":0.857,"country":"United States","id":"a6a40l8jr6ap","geo_precision":"city","state":"MO"},"type":"Feature","geometry":{"type":"Point","coordinates":[-94.598583,39.102404]}},{"properties":{"name":"1","city":"Kansas City","zip":"641114","geo_score":0.857,"country":"United States","id":"a6a40lhi788v","geo_precision":"city","state":"MO"},"type":"Feature","geometry":{"type":"Point","coordinates":[-94.598583,39.102404]}},{"properties":{"name":"1","city":"Kansas City","zip":"641114","geo_score":0.857,"country":"United States","id":"a6a40lb0ym5a","geo_precision":"city","state":"MO"},"type":"Feature","geometry":{"type":"Point","coordinates":[-94.598583,39.102404]}},{"properties":{"name":"1","city":"Kansas City","zip":"641114","geo_score":0.857,"country":"United States","id":"a6a40l5ya4fd","geo_precision":"city","state":"MO"},"type":"Feature","geometry":{"type":"Point","coordinates":[-94.598583,39.102404]}},{"properties":{"name":"1","city":"Kansas City","zip":"641114","geo_score":0.857,"country":"United States","id":"a6a40l5fkqko","geo_precision":"city","state":"MO"},"type":"Feature","geometry":{"type":"Point","coordinates":[-94.598583,39.102404]}},{"properties":{"name":"1","city":"Kansas City","zip":"641114","geo_score":0.857,"country":"United States","id":"a6a40l7pk2sx","geo_precision":"city","state":"MO"},"type":"Feature","geometry":{"type":"Point","coordinates":[-94.598583,39.102404]}},{"properties":{"name":"1","city":"Kansas City","zip":"641114","geo_score":0.857,"country":"United States","id":"a6a40lhvcn7f","geo_precision":"city","state":"MO"},"type":"Feature","geometry":{"type":"Point","coordinates":[-94.598583,39.102404]}},{"properties":{"name":"1","city":"Kansas City","zip":"641114","geo_score":0.857,"country":"United States","id":"a6a40ldixsqo","geo_precision":"city","state":"MO"},"type":"Feature","geometry":{"type":"Point","coordinates":[-94.598583,39.102404]}},{"properties":{"name":"1","city":"Kansas City","zip":"641114","geo_score":0.857,"country":"United States","id":"a6a40l8jtu3u","geo_precision":"city","state":"MO"},"type":"Feature","geometry":{"type":"Point","coordinates":[-94.598583,39.102404]}},{"properties":{"name":"1","city":"Kansas City","zip":"641114","geo_score":0.857,"country":"United States","id":"a6a40l69lxua","geo_precision":"city","state":"MO"},"type":"Feature","geometry":{"type":"Point","coordinates":[-94.598583,39.102404]}},{"properties":{"name":"1","city":"Kansas City","zip":"641114","geo_score":0.857,"country":"United States","id":"a6a40li96bym","geo_precision":"city","state":"MO"},"type":"Feature","geometry":{"type":"Point","coordinates":[-94.598583,39.102404]}},{"properties":{"name":"1","city":"Kansas City","zip":"641114","geo_score":0.857,"country":"United States","id":"a6a40lk2rjm7","geo_precision":"city","state":"MO"},"type":"Feature","geometry":{"type":"Point","coordinates":[-94.598583,39.102404]}},{"properties":{"name":"1","city":"Kansas City","zip":"641114","geo_score":0.857,"country":"United States","id":"a6a40lb4mm7o","geo_precision":"city","state":"MO"},"type":"Feature","geometry":{"type":"Point","coordinates":[-94.598583,39.102404]}},{"properties":{"name":"1","city":"Kansas City","zip":"641114","geo_score":0.857,"country":"United States","id":"a6a40lfpylhu","geo_precision":"city","state":"MO"},"type":"Feature","geometry":{"type":"Point","coordinates":[-94.598583,39.102404]}},{"properties":{"name":"1","city":"Kansas City","zip":"641114","geo_score":0.857,"country":"United States","id":"a6a40lecpweg","geo_precision":"city","state":"MO"},"type":"Feature","geometry":{"type":"Point","coordinates":[-94.598583,39.102404]}},{"properties":{"name":"1","city":"Kansas City","zip":"641114","geo_score":0.857,"country":"United States","id":"a6a40lk1bh85","geo_precision":"city","state":"MO"},"type":"Feature","geometry":{"type":"Point","coordinates":[-94.598583,39.102404]}},{"properties":{"name":"1","city":"Kansas City","zip":"641114","geo_score":0.857,"country":"United States","id":"a6a40lhemtqc","geo_precision":"city","state":"MO"},"type":"Feature","geometry":{"type":"Point","coordinates":[-94.598583,39.102404]}},{"properties":{"name":"1","city":"Kansas City","zip":"641114","geo_score":0.857,"country":"United States","id":"a6a40lk2fddx","geo_precision":"city","state":"MO"},"type":"Feature","geometry":{"type":"Point","coordinates":[-94.598583,39.102404]}},{"properties":{"name":"1","city":"Kansas City","zip":"641114","geo_score":0.857,"country":"United States","id":"a6a40lgpcyzv","geo_precision":"city","state":"MO"},"type":"Feature","geometry":{"type":"Point","coordinates":[-94.598583,39.102404]}},{"properties":{"name":"1","city":"Kansas City","zip":"641114","geo_score":0.857,"country":"United States","id":"a6a40ldwnz9x","geo_precision":"city","state":"MO"},"type":"Feature","geometry":{"type":"Point","coordinates":[-94.598583,39.102404]}},{"properties":{"name":"1","city":"Kansas City","zip":"641114","geo_score":0.857,"country":"United States","id":"a6a40lc7qzx7","geo_precision":"city","state":"MO"},"type":"Feature","geometry":{"type":"Point","coordinates":[-94.598583,39.102404]}},{"properties":{"name":"1","city":"Kansas City","zip":"641114","geo_score":0.857,"country":"United States","id":"a6a40leun4ja","geo_precision":"city","state":"MO"},"type":"Feature","geometry":{"type":"Point","coordinates":[-94.598583,39.102404]}},{"properties":{"name":"1","city":"Kansas City","zip":"641114","geo_score":0.857,"country":"United States","id":"a6a40lhio7r0","geo_precision":"city","state":"MO"},"type":"Feature","geometry":{"type":"Point","coordinates":[-94.598583,39.102404]}},{"properties":{"name":"1","city":"Kansas City","zip":"641114","geo_score":0.857,"country":"United States","id":"a6a40lelxz20","geo_precision":"city","state":"MO"},"type":"Feature","geometry":{"type":"Point","coordinates":[-94.598583,39.102404]}},{"properties":{"name":"1","city":"Kansas City","zip":"641114","geo_score":0.857,"country":"United States","id":"a6a40lhdcy2u","geo_precision":"city","state":"MO"},"type":"Feature","geometry":{"type":"Point","coordinates":[-94.598583,39.102404]}},{"properties":{"name":"1","city":"Kansas City","zip":"641114","geo_score":0.857,"country":"United States","id":"a6a40lb9ur98","geo_precision":"city","state":"MO"},"type":"Feature","geometry":{"type":"Point","coordinates":[-94.598583,39.102404]}},{"properties":{"name":"1","city":"Kansas City","zip":"641114","geo_score":0.857,"country":"United States","id":"a6a40l8p6zzk","geo_precision":"city","state":"MO"},"type":"Feature","geometry":{"type":"Point","coordinates":[-94.598583,39.102404]}},{"properties":{"name":"1","city":"Kansas City","zip":"641114","geo_score":0.857,"country":"United States","id":"a6a40lbbr027","geo_precision":"city","state":"MO"},"type":"Feature","geometry":{"type":"Point","coordinates":[-94.598583,39.102404]}},{"properties":{"name":"1","city":"Kansas City","zip":"641114","geo_score":0.857,"country":"United States","id":"a6a40ldkdigg","geo_precision":"city","state":"MO"},"type":"Feature","geometry":{"type":"Point","coordinates":[-94.598583,39.102404]}},{"properties":{"name":"1","city":"Kansas City","zip":"641114","geo_score":0.857,"country":"United States","id":"a6a40l8sggu9","geo_precision":"city","state":"MO"},"type":"Feature","geometry":{"type":"Point","coordinates":[-94.598583,39.102404]}},{"properties":{"name":"1","city":"Kansas City","zip":"641114","geo_score":0.857,"country":"United States","id":"a6a40l901918","geo_precision":"city","state":"MO"},"type":"Feature","geometry":{"type":"Point","coordinates":[-94.598583,39.102404]}},{"properties":{"name":"1","city":"Kansas City","zip":"641114","geo_score":0.857,"country":"United States","id":"a6a40lbe9542","geo_precision":"city","state":"MO"},"type":"Feature","geometry":{"type":"Point","coordinates":[-94.598583,39.102404]}},{"properties":{"name":"1","city":"Kansas City","zip":"641114","geo_score":0.857,"country":"United States","id":"a6a40lhbn7y2","geo_precision":"city","state":"MO"},"type":"Feature","geometry":{"type":"Point","coordinates":[-94.598583,39.102404]}},{"properties":{"name":"1","city":"Kansas City","zip":"641114","geo_score":0.857,"country":"United States","id":"a6a40l7tvfgw","geo_precision":"city","state":"MO"},"type":"Feature","geometry":{"type":"Point","coordinates":[-94.598583,39.102404]}},{"properties":{"name":"1","city":"Kansas City","zip":"641114","geo_score":0.857,"country":"United States","id":"a6a40l5quxgw","geo_precision":"city","state":"MO"},"type":"Feature","geometry":{"type":"Point","coordinates":[-94.598583,39.102404]}},{"properties":{"name":"1","city":"Kansas City","zip":"641114","geo_score":0.857,"country":"United States","id":"a6a40laginfo","geo_precision":"city","state":"MO"},"type":"Feature","geometry":{"type":"Point","coordinates":[-94.598583,39.102404]}},{"properties":{"name":"1","city":"Kansas City","zip":"641114","geo_score":0.857,"country":"United States","id":"a6a40lhrp3hf","geo_precision":"city","state":"MO"},"type":"Feature","geometry":{"type":"Point","coordinates":[-94.598583,39.102404]}},{"properties":{"name":"1","city":"Kansas City","zip":"641114","geo_score":0.857,"country":"United States","id":"a6a40l6j4bdw","geo_precision":"city","state":"MO"},"type":"Feature","geometry":{"type":"Point","coordinates":[-94.598583,39.102404]}},{"properties":{"name":"1","city":"Kansas City","zip":"641114","geo_score":0.857,"country":"United States","id":"a6a40l6v4ipx","geo_precision":"city","state":"MO"},"type":"Feature","geometry":{"type":"Point","coordinates":[-94.598583,39.102404]}},{"properties":{"name":"1","city":"Kansas City","zip":"641114","geo_score":0.857,"country":"United States","id":"a6a40lfr5md2","geo_precision":"city","state":"MO"},"type":"Feature","geometry":{"type":"Point","coordinates":[-94.598583,39.102404]}},{"properties":{"name":"1","city":"Kansas City","zip":"641114","geo_score":0.857,"country":"United States","id":"a6a40ldf7ekf","geo_precision":"city","state":"MO"},"type":"Feature","geometry":{"type":"Point","coordinates":[-94.598583,39.102404]}},{"properties":{"name":"1","city":"Kansas City","zip":"641114","geo_score":0.857,"country":"United States","id":"a6a40l6phmdo","geo_precision":"city","state":"MO"},"type":"Feature","geometry":{"type":"Point","coordinates":[-94.598583,39.102404]}},{"properties":{"name":"1","city":"Kansas City","zip":"641114","geo_score":0.857,"country":"United States","id":"a6a40lbrzbiq","geo_precision":"city","state":"MO"},"type":"Feature","geometry":{"type":"Point","coordinates":[-94.598583,39.102404]}},{"properties":{"name":"1","city":"Kansas City","zip":"641114","geo_score":0.857,"country":"United States","id":"a6a40lcx0hkl","geo_precision":"city","state":"MO"},"type":"Feature","geometry":{"type":"Point","coordinates":[-94.598583,39.102404]}},{"properties":{"name":"1","city":"Kansas City","zip":"641114","geo_score":0.857,"country":"United States","id":"a6a40la8c4pb","geo_precision":"city","state":"MO"},"type":"Feature","geometry":{"type":"Point","coordinates":[-94.598583,39.102404]}},{"properties":{"name":"1","city":"Kansas City","zip":"641114","geo_score":0.857,"country":"United States","id":"a6a40la5k9kv","geo_precision":"city","state":"MO"},"type":"Feature","geometry":{"type":"Point","coordinates":[-94.598583,39.102404]}},{"properties":{"name":"1","city":"Kansas City","zip":"641114","geo_score":0.857,"country":"United States","id":"a6a40lb9nvnu","geo_precision":"city","state":"MO"},"type":"Feature","geometry":{"type":"Point","coordinates":[-94.598583,39.102404]}},{"properties":{"name":"1","city":"Kansas City","zip":"641114","geo_score":0.857,"country":"United States","id":"a6a40l6tpyea","geo_precision":"city","state":"MO"},"type":"Feature","geometry":{"type":"Point","coordinates":[-94.598583,39.102404]}},{"properties":{"name":"1","city":"Kansas City","zip":"641114","geo_score":0.857,"country":"United States","id":"a6a40l72l8bu","geo_precision":"city","state":"MO"},"type":"Feature","geometry":{"type":"Point","coordinates":[-94.598583,39.102404]}},{"properties":{"name":"1","city":"Kansas City","zip":"641114","geo_score":0.857,"country":"United States","id":"a6a40lap4w3x","geo_precision":"city","state":"MO"},"type":"Feature","geometry":{"type":"Point","coordinates":[-94.598583,39.102404]}},{"properties":{"name":"1","city":"Kansas City","zip":"641114","geo_score":0.857,"country":"United States","id":"a6a40ljwx3z0","geo_precision":"city","state":"MO"},"type":"Feature","geometry":{"type":"Point","coordinates":[-94.598583,39.102404]}},{"properties":{"name":"1","city":"Kansas City","zip":"641114","geo_score":0.857,"country":"United States","id":"a6a40l7icjww","geo_precision":"city","state":"MO"},"type":"Feature","geometry":{"type":"Point","coordinates":[-94.598583,39.102404]}},{"properties":{"name":"1","city":"Kansas City","zip":"641114","geo_score":0.857,"country":"United States","id":"a6a40lehthit","geo_precision":"city","state":"MO"},"type":"Feature","geometry":{"type":"Point","coordinates":[-94.598583,39.102404]}},{"properties":{"name":"1","city":"Kansas City","zip":"641114","geo_score":0.857,"country":"United States","id":"a6a40lemd0u2","geo_precision":"city","state":"MO"},"type":"Feature","geometry":{"type":"Point","coordinates":[-94.598583,39.102404]}},{"properties":{"name":"1","city":"Kansas City","zip":"641114","geo_score":0.857,"country":"United States","id":"a6a40lhumsu6","geo_precision":"city","state":"MO"},"type":"Feature","geometry":{"type":"Point","coordinates":[-94.598583,39.102404]}},{"properties":{"name":"1","city":"Kansas City","zip":"641123","geo_score":0.857,"country":"United States","id":"a6a40lh9b5il","geo_precision":"city","state":"MO"},"type":"Feature","geometry":{"type":"Point","coordinates":[-94.598583,39.102404]}},{"properties":{"name":"1","city":"Kansas City","zip":"641123","geo_score":0.857,"country":"United States","id":"a6a40l8ghsl3","geo_precision":"city","state":"MO"},"type":"Feature","geometry":{"type":"Point","coordinates":[-94.598583,39.102404]}},{"properties":{"name":"1","city":"Kansas City","zip":"641123","geo_score":0.857,"country":"United States","id":"a6a40legsaz3","geo_precision":"city","state":"MO"},"type":"Feature","geometry":{"type":"Point","coordinates":[-94.598583,39.102404]}},{"properties":{"name":"1","city":"Kansas City","zip":"641123","geo_score":0.857,"country":"United States","id":"a6a40lghn4sf","geo_precision":"city","state":"MO"},"type":"Feature","geometry":{"type":"Point","coordinates":[-94.598583,39.102404]}},{"properties":{"name":"1","city":"Kansas City","zip":"641124","geo_score":0.857,"country":"United States","id":"a6a40liv9fp8","geo_precision":"city","state":"MO"},"type":"Feature","geometry":{"type":"Point","coordinates":[-94.598583,39.102404]}},{"properties":{"name":"1","city":"Kansas City","zip":"641124","geo_score":0.857,"country":"United States","id":"a6a40lc91zem","geo_precision":"city","state":"MO"},"type":"Feature","geometry":{"type":"Point","coordinates":[-94.598583,39.102404]}},{"properties":{"name":"1","city":"Kansas City","zip":"641124","geo_score":0.857,"country":"United States","id":"a6a40lhezxyi","geo_precision":"city","state":"MO"},"type":"Feature","geometry":{"type":"Point","coordinates":[-94.598583,39.102404]}},{"properties":{"name":"1","city":"Kansas City","zip":"641124","geo_score":0.857,"country":"United States","id":"a6a40l4kxvpw","geo_precision":"city","state":"MO"},"type":"Feature","geometry":{"type":"Point","coordinates":[-94.598583,39.102404]}},{"properties":{"name":"1","city":"Kansas City","zip":"641126","geo_score":0.857,"country":"United States","id":"a6a40ldgf45r","geo_precision":"city","state":"MO"},"type":"Feature","geometry":{"type":"Point","coordinates":[-94.598583,39.102404]}},{"properties":{"name":"1","city":"Kansas City","zip":"641127","geo_score":0.857,"country":"United States","id":"a6a40l7ouz0q","geo_precision":"city","state":"MO"},"type":"Feature","geometry":{"type":"Point","coordinates":[-94.598583,39.102404]}},{"properties":{"name":"1","city":"Kansas City","zip":"641127","geo_score":0.857,"country":"United States","id":"a6a40lctn5hk","geo_precision":"city","state":"MO"},"type":"Feature","geometry":{"type":"Point","coordinates":[-94.598583,39.102404]}},{"properties":{"name":"1","city":"Kansas City","zip":"641127","geo_score":0.857,"country":"United States","id":"a6a40lctf1vp","geo_precision":"city","state":"MO"},"type":"Feature","geometry":{"type":"Point","coordinates":[-94.598583,39.102404]}},{"properties":{"name":"1","city":"Kansas City","zip":"641127","geo_score":0.857,"country":"United States","id":"a6a40l934zy9","geo_precision":"city","state":"MO"},"type":"Feature","geometry":{"type":"Point","coordinates":[-94.598583,39.102404]}},{"properties":{"name":"1","city":"Kansas City","zip":"641127","geo_score":0.857,"country":"United States","id":"a6a40lekzmm0","geo_precision":"city","state":"MO"},"type":"Feature","geometry":{"type":"Point","coordinates":[-94.598583,39.102404]}},{"properties":{"name":"1","city":"Kansas City","zip":"641127","geo_score":0.857,"country":"United States","id":"a6a40les8ixy","geo_precision":"city","state":"MO"},"type":"Feature","geometry":{"type":"Point","coordinates":[-94.598583,39.102404]}},{"properties":{"name":"1","city":"Kansas City","zip":"641127","geo_score":0.857,"country":"United States","id":"a6a40lga935o","geo_precision":"city","state":"MO"},"type":"Feature","geometry":{"type":"Point","coordinates":[-94.598583,39.102404]}},{"properties":{"name":"1","city":"Kansas City","zip":"641127","geo_score":0.857,"country":"United States","id":"a6a40l4pum7z","geo_precision":"city","state":"MO"},"type":"Feature","geometry":{"type":"Point","coordinates":[-94.598583,39.102404]}},{"properties":{"name":"1","city":"Kansas City","zip":"641127","geo_score":0.857,"country":"United States","id":"a6a40l54fxqg","geo_precision":"city","state":"MO"},"type":"Feature","geometry":{"type":"Point","coordinates":[-94.598583,39.102404]}},{"properties":{"name":"1","city":"Kansas City","zip":"641127","geo_score":0.857,"country":"United States","id":"a6a40lfmo6ws","geo_precision":"city","state":"MO"},"type":"Feature","geometry":{"type":"Point","coordinates":[-94.598583,39.102404]}},{"properties":{"name":"1","city":"Kansas City","zip":"641127","geo_score":0.857,"country":"United States","id":"a6a40l4nd2nr","geo_precision":"city","state":"MO"},"type":"Feature","geometry":{"type":"Point","coordinates":[-94.598583,39.102404]}},{"properties":{"name":"1","city":"Kansas City","zip":"641127","geo_score":0.857,"country":"United States","id":"a6a40ldavvz6","geo_precision":"city","state":"MO"},"type":"Feature","geometry":{"type":"Point","coordinates":[-94.598583,39.102404]}},{"properties":{"name":"1","city":"Kansas City","zip":"641127","geo_score":0.857,"country":"United States","id":"a6a40lhs3gan","geo_precision":"city","state":"MO"},"type":"Feature","geometry":{"type":"Point","coordinates":[-94.598583,39.102404]}},{"properties":{"name":"1","city":"Kansas City","zip":"641127","geo_score":0.857,"country":"United States","id":"a6a40ldv21a5","geo_precision":"city","state":"MO"},"type":"Feature","geometry":{"type":"Point","coordinates":[-94.598583,39.102404]}},{"properties":{"name":"1","city":"Kansas City","zip":"641128","geo_score":0.857,"country":"United States","id":"a6a40lemf9iz","geo_precision":"city","state":"MO"},"type":"Feature","geometry":{"type":"Point","coordinates":[-94.598583,39.102404]}},{"properties":{"name":"1","city":"Kansas City","zip":"641128","geo_score":0.857,"country":"United States","id":"a6a40l8pki8f","geo_precision":"city","state":"MO"},"type":"Feature","geometry":{"type":"Point","coordinates":[-94.598583,39.102404]}},{"properties":{"name":"1","city":"Kansas City","zip":"641128","geo_score":0.857,"country":"United States","id":"a6a40l5zyjwu","geo_precision":"city","state":"MO"},"type":"Feature","geometry":{"type":"Point","coordinates":[-94.598583,39.102404]}},{"properties":{"name":"1","city":"Kansas City","zip":"641128","geo_score":0.857,"country":"United States","id":"a6a40lgxjyvc","geo_precision":"city","state":"MO"},"type":"Feature","geometry":{"type":"Point","coordinates":[-94.598583,39.102404]}},{"properties":{"name":"1","city":"Kansas City","zip":"641128","geo_score":0.857,"country":"United States","id":"a6a40l6w9mbe","geo_precision":"city","state":"MO"},"type":"Feature","geometry":{"type":"Point","coordinates":[-94.598583,39.102404]}},{"properties":{"name":"1","city":"Kansas City","zip":"641128","geo_score":0.857,"country":"United States","id":"a6a40lhcudwf","geo_precision":"city","state":"MO"},"type":"Feature","geometry":{"type":"Point","coordinates":[-94.598583,39.102404]}},{"properties":{"name":"1","city":"Kansas City","zip":"641128","geo_score":0.857,"country":"United States","id":"a6a40l5rznzi","geo_precision":"city","state":"MO"},"type":"Feature","geometry":{"type":"Point","coordinates":[-94.598583,39.102404]}},{"properties":{"name":"1","city":"Kansas City","zip":"641128","geo_score":0.857,"country":"United States","id":"a6a40lfkxzir","geo_precision":"city","state":"MO"},"type":"Feature","geometry":{"type":"Point","coordinates":[-94.598583,39.102404]}},{"properties":{"name":"1","city":"Kansas City","zip":"641128","geo_score":0.857,"country":"United States","id":"a6a40l8wi18o","geo_precision":"city","state":"MO"},"type":"Feature","geometry":{"type":"Point","coordinates":[-94.598583,39.102404]}},{"properties":{"name":"1","city":"Kansas City","zip":"641128","geo_score":0.857,"country":"United States","id":"a6a40l69v3qk","geo_precision":"city","state":"MO"},"type":"Feature","geometry":{"type":"Point","coordinates":[-94.598583,39.102404]}},{"properties":{"name":"1","city":"Kansas City","zip":"641128","geo_score":0.857,"country":"United States","id":"a6a40ldsfg45","geo_precision":"city","state":"MO"},"type":"Feature","geometry":{"type":"Point","coordinates":[-94.598583,39.102404]}},{"properties":{"name":"1","city":"Kansas City","zip":"641128","geo_score":0.857,"country":"United States","id":"a6a40lcssizg","geo_precision":"city","state":"MO"},"type":"Feature","geometry":{"type":"Point","coordinates":[-94.598583,39.102404]}},{"properties":{"name":"1","city":"Kansas City","zip":"641128","geo_score":0.857,"country":"United States","id":"a6a40l6k5p3v","geo_precision":"city","state":"MO"},"type":"Feature","geometry":{"type":"Point","coordinates":[-94.598583,39.102404]}},{"properties":{"name":"1","city":"Kansas City","zip":"641128","geo_score":0.857,"country":"United States","id":"a6a40l454rkz","geo_precision":"city","state":"MO"},"type":"Feature","geometry":{"type":"Point","coordinates":[-94.598583,39.102404]}},{"properties":{"name":"1","city":"Kansas City","zip":"641128","geo_score":0.857,"country":"United States","id":"a6a40lfr29xq","geo_precision":"city","state":"MO"},"type":"Feature","geometry":{"type":"Point","coordinates":[-94.598583,39.102404]}},{"properties":{"name":"1","city":"Kansas City","zip":"641128","geo_score":0.857,"country":"United States","id":"a6a40lfn8nm0","geo_precision":"city","state":"MO"},"type":"Feature","geometry":{"type":"Point","coordinates":[-94.598583,39.102404]}},{"properties":{"name":"1","city":"Kansas City","zip":"641128","geo_score":0.857,"country":"United States","id":"a6a40ljhdou9","geo_precision":"city","state":"MO"},"type":"Feature","geometry":{"type":"Point","coordinates":[-94.598583,39.102404]}},{"properties":{"name":"1","city":"Kansas City","zip":"641128","geo_score":0.857,"country":"United States","id":"a6a40lefhi0v","geo_precision":"city","state":"MO"},"type":"Feature","geometry":{"type":"Point","coordinates":[-94.598583,39.102404]}},{"properties":{"name":"1","city":"Kansas City","zip":"641129","geo_score":0.857,"country":"United States","id":"a6a40l460pj8","geo_precision":"city","state":"MO"},"type":"Feature","geometry":{"type":"Point","coordinates":[-94.598583,39.102404]}},{"properties":{"name":"1","city":"Kansas City","zip":"641129","geo_score":0.857,"country":"United States","id":"a6a40l6axopf","geo_precision":"city","state":"MO"},"type":"Feature","geometry":{"type":"Point","coordinates":[-94.598583,39.102404]}},{"properties":{"name":"1","city":"Kansas City","zip":"641129","geo_score":0.857,"country":"United States","id":"a6a40l4tzfxy","geo_precision":"city","state":"MO"},"type":"Feature","geometry":{"type":"Point","coordinates":[-94.598583,39.102404]}},{"properties":{"name":"1","city":"Kansas City","zip":"641129","geo_score":0.857,"country":"United States","id":"a6a40licw43a","geo_precision":"city","state":"MO"},"type":"Feature","geometry":{"type":"Point","coordinates":[-94.598583,39.102404]}},{"properties":{"name":"1","city":"Kansas City","zip":"641130","geo_score":0.857,"country":"United States","id":"a6a40lfxq4ai","geo_precision":"city","state":"MO"},"type":"Feature","geometry":{"type":"Point","coordinates":[-94.598583,39.102404]}},{"properties":{"name":"1","city":"Kansas City","zip":"641130","geo_score":0.857,"country":"United States","id":"a6a40ljohgvk","geo_precision":"city","state":"MO"},"type":"Feature","geometry":{"type":"Point","coordinates":[-94.598583,39.102404]}},{"properties":{"name":"1","city":"Kansas City","zip":"641130","geo_score":0.857,"country":"United States","id":"a6a40lhfcesi","geo_precision":"city","state":"MO"},"type":"Feature","geometry":{"type":"Point","coordinates":[-94.598583,39.102404]}},{"properties":{"name":"1","city":"Kansas City","zip":"641130","geo_score":0.857,"country":"United States","id":"a6a40lcdyqbe","geo_precision":"city","state":"MO"},"type":"Feature","geometry":{"type":"Point","coordinates":[-94.598583,39.102404]}},{"properties":{"name":"1","city":"Kansas City","zip":"641130","geo_score":0.857,"country":"United States","id":"a6a40l773w8j","geo_precision":"city","state":"MO"},"type":"Feature","geometry":{"type":"Point","coordinates":[-94.598583,39.102404]}},{"properties":{"name":"1","city":"Kansas City","zip":"641130","geo_score":0.857,"country":"United States","id":"a6a40lgj8mzq","geo_precision":"city","state":"MO"},"type":"Feature","geometry":{"type":"Point","coordinates":[-94.598583,39.102404]}},{"properties":{"name":"1","city":"Kansas City","zip":"641130","geo_score":0.857,"country":"United States","id":"a6a40lcoocbm","geo_precision":"city","state":"MO"},"type":"Feature","geometry":{"type":"Point","coordinates":[-94.598583,39.102404]}},{"properties":{"name":"1","city":"Kansas City","zip":"641130","geo_score":0.857,"country":"United States","id":"a6a40ldy2a3z","geo_precision":"city","state":"MO"},"type":"Feature","geometry":{"type":"Point","coordinates":[-94.598583,39.102404]}},{"properties":{"name":"1","city":"Kansas City","zip":"641130","geo_score":0.857,"country":"United States","id":"a6a40ldjvxak","geo_precision":"city","state":"MO"},"type":"Feature","geometry":{"type":"Point","coordinates":[-94.598583,39.102404]}},{"properties":{"name":"1","city":"Kansas City","zip":"641130","geo_score":0.857,"country":"United States","id":"a6a40laaajhd","geo_precision":"city","state":"MO"},"type":"Feature","geometry":{"type":"Point","coordinates":[-94.598583,39.102404]}},{"properties":{"name":"1","city":"Kansas City","zip":"641130","geo_score":0.857,"country":"United States","id":"a6a40lgt9t2s","geo_precision":"city","state":"MO"},"type":"Feature","geometry":{"type":"Point","coordinates":[-94.598583,39.102404]}},{"properties":{"name":"1","city":"Kansas City","zip":"641130","geo_score":0.857,"country":"United States","id":"a6a40l47e0s7","geo_precision":"city","state":"MO"},"type":"Feature","geometry":{"type":"Point","coordinates":[-94.598583,39.102404]}},{"properties":{"name":"1","city":"Kansas City","zip":"641130","geo_score":0.857,"country":"United States","id":"a6a40l98qonb","geo_precision":"city","state":"MO"},"type":"Feature","geometry":{"type":"Point","coordinates":[-94.598583,39.102404]}},{"properties":{"name":"1","city":"Kansas City","zip":"641130","geo_score":0.857,"country":"United States","id":"a6a40lic2kgg","geo_precision":"city","state":"MO"},"type":"Feature","geometry":{"type":"Point","coordinates":[-94.598583,39.102404]}},{"properties":{"name":"1","city":"Kansas City","zip":"641130","geo_score":0.857,"country":"United States","id":"a6a40l865xpz","geo_precision":"city","state":"MO"},"type":"Feature","geometry":{"type":"Point","coordinates":[-94.598583,39.102404]}},{"properties":{"name":"1","city":"Kansas City","zip":"641130","geo_score":0.857,"country":"United States","id":"a6a40ljzwz4o","geo_precision":"city","state":"MO"},"type":"Feature","geometry":{"type":"Point","coordinates":[-94.598583,39.102404]}},{"properties":{"name":"1","city":"Kansas City","zip":"641130","geo_score":0.857,"country":"United States","id":"a6a40l3nynvw","geo_precision":"city","state":"MO"},"type":"Feature","geometry":{"type":"Point","coordinates":[-94.598583,39.102404]}},{"properties":{"name":"1","city":"Kansas City","zip":"641130","geo_score":0.857,"country":"United States","id":"a6a40l4a2f5b","geo_precision":"city","state":"MO"},"type":"Feature","geometry":{"type":"Point","coordinates":[-94.598583,39.102404]}},{"properties":{"name":"1","city":"Kansas City","zip":"641130","geo_score":0.857,"country":"United States","id":"a6a40lgr5zns","geo_precision":"city","state":"MO"},"type":"Feature","geometry":{"type":"Point","coordinates":[-94.598583,39.102404]}},{"properties":{"name":"1","city":"Kansas City","zip":"641130","geo_score":0.857,"country":"United States","id":"a6a40l4qw2e7","geo_precision":"city","state":"MO"},"type":"Feature","geometry":{"type":"Point","coordinates":[-94.598583,39.102404]}},{"properties":{"name":"1","city":"Kansas City","zip":"641130","geo_score":0.857,"country":"United States","id":"a6a40l5alqc4","geo_precision":"city","state":"MO"},"type":"Feature","geometry":{"type":"Point","coordinates":[-94.598583,39.102404]}},{"properties":{"name":"1","city":"Kansas City","zip":"641130","geo_score":0.857,"country":"United States","id":"a6a40l5c8awy","geo_precision":"city","state":"MO"},"type":"Feature","geometry":{"type":"Point","coordinates":[-94.598583,39.102404]}},{"properties":{"name":"1","city":"Kansas City","zip":"641131","geo_score":0.857,"country":"United States","id":"a6a40la8jkmi","geo_precision":"city","state":"MO"},"type":"Feature","geometry":{"type":"Point","coordinates":[-94.598583,39.102404]}},{"properties":{"name":"1","city":"Kansas City","zip":"641131","geo_score":0.857,"country":"United States","id":"a6a40lesb7qd","geo_precision":"city","state":"MO"},"type":"Feature","geometry":{"type":"Point","coordinates":[-94.598583,39.102404]}},{"properties":{"name":"1","city":"Kansas City","zip":"641131","geo_score":0.857,"country":"United States","id":"a6a40lk0kyyg","geo_precision":"city","state":"MO"},"type":"Feature","geometry":{"type":"Point","coordinates":[-94.598583,39.102404]}},{"properties":{"name":"1","city":"Kansas City","zip":"641131","geo_score":0.857,"country":"United States","id":"a6a40lbcb11d","geo_precision":"city","state":"MO"},"type":"Feature","geometry":{"type":"Point","coordinates":[-94.598583,39.102404]}},{"properties":{"name":"1","city":"Kansas City","zip":"641131","geo_score":0.857,"country":"United States","id":"a6a40l7c80ho","geo_precision":"city","state":"MO"},"type":"Feature","geometry":{"type":"Point","coordinates":[-94.598583,39.102404]}},{"properties":{"name":"1","city":"Kansas City","zip":"641131","geo_score":0.857,"country":"United States","id":"a6a40la5hx7c","geo_precision":"city","state":"MO"},"type":"Feature","geometry":{"type":"Point","coordinates":[-94.598583,39.102404]}},{"properties":{"name":"1","city":"Kansas City","zip":"641131","geo_score":0.857,"country":"United States","id":"a6a40l4332hg","geo_precision":"city","state":"MO"},"type":"Feature","geometry":{"type":"Point","coordinates":[-94.598583,39.102404]}},{"properties":{"name":"1","city":"Kansas City","zip":"641131","geo_score":0.857,"country":"United States","id":"a6a40le5weac","geo_precision":"city","state":"MO"},"type":"Feature","geometry":{"type":"Point","coordinates":[-94.598583,39.102404]}},{"properties":{"name":"1","city":"Kansas City","zip":"641131","geo_score":0.857,"country":"United States","id":"a6a40l83ba7v","geo_precision":"city","state":"MO"},"type":"Feature","geometry":{"type":"Point","coordinates":[-94.598583,39.102404]}},{"properties":{"name":"1","city":"Kansas City","zip":"641131","geo_score":0.857,"country":"United States","id":"a6a40lixr00t","geo_precision":"city","state":"MO"},"type":"Feature","geometry":{"type":"Point","coordinates":[-94.598583,39.102404]}},{"properties":{"name":"1","city":"Kansas City","zip":"641131","geo_score":0.857,"country":"United States","id":"a6a40ljqaomv","geo_precision":"city","state":"MO"},"type":"Feature","geometry":{"type":"Point","coordinates":[-94.598583,39.102404]}},{"properties":{"name":"1","city":"Kansas City","zip":"641131","geo_score":0.857,"country":"United States","id":"a6a40lgzdv01","geo_precision":"city","state":"MO"},"type":"Feature","geometry":{"type":"Point","coordinates":[-94.598583,39.102404]}},{"properties":{"name":"1","city":"Kansas City","zip":"641131","geo_score":0.857,"country":"United States","id":"a6a40lgxicus","geo_precision":"city","state":"MO"},"type":"Feature","geometry":{"type":"Point","coordinates":[-94.598583,39.102404]}},{"properties":{"name":"1","city":"Kansas City","zip":"641131","geo_score":0.857,"country":"United States","id":"a6a40l69rtj2","geo_precision":"city","state":"MO"},"type":"Feature","geometry":{"type":"Point","coordinates":[-94.598583,39.102404]}},{"properties":{"name":"1","city":"Kansas City","zip":"641131","geo_score":0.857,"country":"United States","id":"a6a40lgudqc8","geo_precision":"city","state":"MO"},"type":"Feature","geometry":{"type":"Point","coordinates":[-94.598583,39.102404]}},{"properties":{"name":"1","city":"Kansas City","zip":"641131","geo_score":0.857,"country":"United States","id":"a6a40l819vk3","geo_precision":"city","state":"MO"},"type":"Feature","geometry":{"type":"Point","coordinates":[-94.598583,39.102404]}},{"properties":{"name":"1","city":"Kansas City","zip":"641131","geo_score":0.857,"country":"United States","id":"a6a40lhhqjn1","geo_precision":"city","state":"MO"},"type":"Feature","geometry":{"type":"Point","coordinates":[-94.598583,39.102404]}},{"properties":{"name":"1","city":"Kansas City","zip":"641131","geo_score":0.857,"country":"United States","id":"a6a40likfhx9","geo_precision":"city","state":"MO"},"type":"Feature","geometry":{"type":"Point","coordinates":[-94.598583,39.102404]}},{"properties":{"name":"1","city":"Kansas City","zip":"641131","geo_score":0.857,"country":"United States","id":"a6a40l4ckfxa","geo_precision":"city","state":"MO"},"type":"Feature","geometry":{"type":"Point","coordinates":[-94.598583,39.102404]}},{"properties":{"name":"1","city":"Kansas City","zip":"641131","geo_score":0.857,"country":"United States","id":"a6a40l4twr7j","geo_precision":"city","state":"MO"},"type":"Feature","geometry":{"type":"Point","coordinates":[-94.598583,39.102404]}}],"is_temporal":false,"author":{"url":"","metadata":"","contact_name":"","contact_address":"","source":"","contact_phone":""},"source":"","pagination":{"sort":null,"start":0,"total":397,"limit":1000000},"state":"complete","tags":"","published":"2014-08-11T00:07:32-04:00","id":18362}