{"type":"FeatureCollection","data_type":"Dataset","url_type":null,"permissions":[{"permissions":{"download":true,"view":true},"group_id":"everyone"}],"classification":null,"title":"Unemployment By State","count":53,"stream_id":184166,"contributor":{"url":"http://geocommons.com/users/36857","name":"alannamarie"},"data_attributes":null,"calculation_params":null,"icon_link":null,"link":"http://geocommons.com/overlays/184166.json","extent":[-160.577,18.3931,-67.181,55.9886],"geometry_types":["point"],"unique_name":null,"name":"Unemployment By State","feature_count":53,"description":"","next_feature":null,"is_raster":false,"short_classification":"Y","stats":{"geo_score":{"max":0.857,"mean":0.81851923076923,"variance":0.016098842760181,"stdev":0.126881215158829,"min":0.0,"median":0.857}},"features":[{"properties":{"geo_precis":null,"county":null,"geo_score":null,"zip code":null,"id":"a6c74qocjbki","unemployme":"Rates 2008","state":null},"type":"Feature","geometry":null},{"properties":{"geo_precis":"zip","county":"Henry","geo_score":0.857,"zip code":"36310","id":"a6c74qpp5w6n","unemployme":"6.1","state":"Alabama"},"type":"Feature","geometry":{"type":"Point","coordinates":[-85.179654,31.55628]}},{"properties":{"geo_precis":"zip","county":"Anchorage","geo_score":0.714,"zip code":"99695","id":"a6c74qctjggo","unemployme":"7.3","state":"Alaska"},"type":"Feature","geometry":{"type":"Point","coordinates":[-160.576944,55.988611]}},{"properties":{"geo_precis":"zip","county":"Apache Junction","geo_score":0.714,"zip code":"85290","id":"a6c74qp5mv79","unemployme":"6.3","state":"Arizona"},"type":"Feature","geometry":{"type":"Point","coordinates":[-111.355407,33.583103]}},{"properties":{"geo_precis":"zip","county":"Alma","geo_score":0.714,"zip code":"72921","id":"a6c74qfctzir","unemployme":"5.7","state":"Arkansas"},"type":"Feature","geometry":{"type":"Point","coordinates":[-94.178263,35.4287]}},{"properties":{"geo_precis":"zip","county":"Almeda","geo_score":0.714,"zip code":"94710","id":"a6c74qnsoaad","unemployme":"8.4","state":"California"},"type":"Feature","geometry":{"type":"Point","coordinates":[-122.30273,37.873366]}},{"properties":{"geo_precis":"zip","county":"Piktin","geo_score":0.857,"zip code":"81612","id":"a6c74qd4ntm8","unemployme":"5.8","state":"Colorado"},"type":"Feature","geometry":{"type":"Point","coordinates":[-106.882774,39.223416]}},{"properties":{"geo_precis":"zip","county":"Hartford","geo_score":0.857,"zip code":"06037","id":"a6c74qp9vkhq","unemployme":"6.6","state":"Connecticut"},"type":"Feature","geometry":{"type":"Point","coordinates":[-72.745652,41.621488]}},{"properties":{"geo_precis":"unmatched","county":"Kent","geo_score":0.0,"zip code":"19906","id":"a6c74qojrldi","unemployme":"5.6","state":"Delaware"},"type":"Feature","geometry":null},{"properties":{"geo_precis":"zip","county":"Washington","geo_score":0.857,"zip code":"20001","id":"a6c74qeerzgg","unemployme":"8","state":"District of Columbia"},"type":"Feature","geometry":{"type":"Point","coordinates":[-77.011365,38.916778]}},{"properties":{"geo_precis":"zip","county":"Duval","geo_score":0.857,"zip code":"32277","id":"a6c74qeh8ppc","unemployme":"7.3","state":"Florida"},"type":"Feature","geometry":{"type":"Point","coordinates":[-81.586394,30.370439]}},{"properties":{"geo_precis":"zip","county":"Bacon","geo_score":0.714,"zip code":"31510","id":"a6c74qcgj7fc","unemployme":"7.5","state":"Georgia"},"type":"Feature","geometry":{"type":"Point","coordinates":[-82.41652,31.547982]}},{"properties":{"geo_precis":"zip","county":"Hawaii","geo_score":0.857,"zip code":"96743","id":"a6c74qolsyd7","unemployme":"4.9","state":"Hawaii"},"type":"Feature","geometry":{"type":"Point","coordinates":[-155.827778,19.9325]}},{"properties":{"geo_precis":"zip","county":"Ada","geo_score":0.857,"zip code":"83799","id":"a6c74qjxaoda","unemployme":"5.7","state":"Idaho"},"type":"Feature","geometry":{"type":"Point","coordinates":[-116.243984,43.459855]}},{"properties":{"geo_precis":"zip","county":"Dupage","geo_score":0.857,"zip code":"60101","id":"a6c74qdguy1i","unemployme":"7.3","state":"Illinois"},"type":"Feature","geometry":{"type":"Point","coordinates":[-88.022516,41.887579]}},{"properties":{"geo_precis":"zip","county":"Madison","geo_score":0.857,"zip code":"46001","id":"a6c74qgquywo","unemployme":"7.1","state":"Indiana"},"type":"Feature","geometry":{"type":"Point","coordinates":[-85.601364,40.193931]}},{"properties":{"geo_precis":"zip","county":"Dallas","geo_score":0.857,"zip code":"50003","id":"a6c74qoswl44","unemployme":"4.3","state":"Iowa"},"type":"Feature","geometry":{"type":"Point","coordinates":[-94.034515,41.617591]}},{"properties":{"geo_precis":"zip","county":"Bultler","geo_score":0.857,"zip code":"67002","id":"a6c74qndi0ef","unemployme":"4.9","state":"Kansas"},"type":"Feature","geometry":{"type":"Point","coordinates":[-97.098431,37.701532]}},{"properties":{"geo_precis":"zip","county":"Clinton","geo_score":0.857,"zip code":"42602","id":"a6c74qkzsdsd","unemployme":"7","state":"Kentucky"},"type":"Feature","geometry":{"type":"Point","coordinates":[-85.064676,36.817012]}},{"properties":{"geo_precis":"zip","county":"Bienville","geo_score":0.857,"zip code":"71001","id":"a6c74qh4g31c","unemployme":"5.3","state":"Louisiana"},"type":"Feature","geometry":{"type":"Point","coordinates":[-92.886824,32.668205]}},{"properties":{"geo_precis":"zip","county":"Kennebec","geo_score":0.857,"zip code":"4338","id":"a6c74qozmk75","unemployme":"6.3","state":"Maine"},"type":"Feature","geometry":{"type":"Point","coordinates":[-69.751913,44.414056]}},{"properties":{"geo_precis":"zip","county":"Anne Arundel","geo_score":0.857,"zip code":"21012","id":"a6c74qq7tkd9","unemployme":"5.3","state":"Maryland"},"type":"Feature","geometry":{"type":"Point","coordinates":[-76.510795,39.040389]}},{"properties":{"geo_precis":"zip","county":"Plymouth","geo_score":0.857,"zip code":"2351","id":"a6c74qe1la4k","unemployme":"5.9","state":"Massachusetts"},"type":"Feature","geometry":{"type":"Point","coordinates":[-70.966155,42.091767]}},{"properties":{"geo_precis":"zip","county":"Kent","geo_score":0.857,"zip code":"49357","id":"a6c74qk4elo1","unemployme":"9.6","state":"Michigan"},"type":"Feature","geometry":{"type":"Point","coordinates":[-85.550267,43.031413]}},{"properties":{"geo_precis":"zip","county":"Pope","geo_score":0.857,"zip code":"56334","id":"a6c74qbwzc15","unemployme":"6.4","state":"Minnesota"},"type":"Feature","geometry":{"type":"Point","coordinates":[-95.417537,45.654684]}},{"properties":{"geo_precis":"zip","county":"Grenada","geo_score":0.857,"zip code":"38902","id":"a6c74qmfbc66","unemployme":"7.2","state":"Mississippi"},"type":"Feature","geometry":{"type":"Point","coordinates":[-89.794687,33.824113]}},{"properties":{"geo_precis":"zip","county":"Jefferson","geo_score":0.857,"zip code":"63010","id":"a6c74qf8kctn","unemployme":"6.7","state":"Missouri"},"type":"Feature","geometry":{"type":"Point","coordinates":[-90.350118,38.433665]}},{"properties":{"geo_precis":"zip","county":"Fallon","geo_score":0.857,"zip code":"59354","id":"a6c74qeesdzh","unemployme":"4.9","state":"Montana"},"type":"Feature","geometry":{"type":"Point","coordinates":[-104.475079,46.283486]}},{"properties":{"geo_precis":"zip","county":"Dodge","geo_score":0.857,"zip code":"68026","id":"a6c74qann5w8","unemployme":"3.7","state":"Nebraska"},"type":"Feature","geometry":{"type":"Point","coordinates":[-96.617443,41.567907]}},{"properties":{"geo_precis":"zip","county":"Clark","geo_score":0.857,"zip code":"89006","id":"a6c74qn13wx5","unemployme":"8","state":"Nevada"},"type":"Feature","geometry":{"type":"Point","coordinates":[-114.972061,35.927901]}},{"properties":{"geo_precis":"zip","county":"Hillsborough","geo_score":0.857,"zip code":"3031","id":"a6c74qji6rie","unemployme":"4.3","state":"New Hampshire"},"type":"Feature","geometry":{"type":"Point","coordinates":[-71.595626,42.842031]}},{"properties":{"geo_precis":"zip","county":"Essex","geo_score":0.714,"zip code":"7051","id":"a6c74qf5zdr2","unemployme":"6.1","state":"New Jersey"},"type":"Feature","geometry":{"type":"Point","coordinates":[-74.245241,40.79185]}},{"properties":{"geo_precis":"zip","county":"Bernalillo","geo_score":0.857,"zip code":"87199","id":"a6c74qmm7vcj","unemployme":"4.3","state":"New Mexico"},"type":"Feature","geometry":{"type":"Point","coordinates":[-106.672872,35.044339]}},{"properties":{"geo_precis":"zip","county":"Albany","geo_score":0.857,"zip code":"12288","id":"a6c74qk6ycpb","unemployme":"6.1","state":"New York"},"type":"Feature","geometry":{"type":"Point","coordinates":[-73.970812,42.614852]}},{"properties":{"geo_precis":"zip","county":"Cumberland","geo_score":0.857,"zip code":"28314","id":"a6c74qp1bdip","unemployme":"7.9","state":"North Carolina"},"type":"Feature","geometry":{"type":"Point","coordinates":[-79.011328,35.05425]}},{"properties":{"geo_precis":"zip","county":"Burleigh","geo_score":0.714,"zip code":"58507","id":"a6c74qe4dppg","unemployme":"3.3","state":"North Dakota"},"type":"Feature","geometry":{"type":"Point","coordinates":[-100.520063,46.980475]}},{"properties":{"geo_precis":"zip","county":"Summit","geo_score":0.857,"zip code":"44399","id":"a6c74qal415m","unemployme":"7.3","state":"Ohio"},"type":"Feature","geometry":{"type":"Point","coordinates":[-81.53999,41.128705]}},{"properties":{"geo_precis":"zip","county":"Pontotoc","geo_score":0.857,"zip code":"74821","id":"a6c74qdmx3ea","unemployme":"4.7","state":"Oklahoma"},"type":"Feature","geometry":{"type":"Point","coordinates":[-96.669321,34.735301]}},{"properties":{"geo_precis":"zip","county":"Linn","geo_score":0.857,"zip code":"97322","id":"a6c74qnpb363","unemployme":"8.1","state":"Oregon"},"type":"Feature","geometry":{"type":"Point","coordinates":[-123.097041,44.627255]}},{"properties":{"geo_precis":"zip","county":"Montgomery","geo_score":0.714,"zip code":"19001","id":"a6c74qd066m1","unemployme":"6.1","state":"Pennsylvania"},"type":"Feature","geometry":{"type":"Point","coordinates":[-75.137674,40.131777]}},{"properties":{"geo_precis":"zip","county":"Bristol","geo_score":0.857,"zip code":"2806","id":"a6c74qm42c9t","unemployme":"9.3","state":"Rhode Island"},"type":"Feature","geometry":{"type":"Point","coordinates":[-71.341441,41.743712]}},{"properties":{"geo_precis":"zip","county":"Marion","geo_score":0.857,"zip code":"29571","id":"a6c74qjzfyyw","unemployme":"8.4","state":"South Carolina"},"type":"Feature","geometry":{"type":"Point","coordinates":[-79.538945,34.205992]}},{"properties":{"geo_precis":"zip","county":"Brown","geo_score":0.857,"zip code":"57402","id":"a6c74qnjn7z7","unemployme":"3.4","state":"South Dakota"},"type":"Feature","geometry":{"type":"Point","coordinates":[-98.352014,45.589567]}},{"properties":{"geo_precis":"zip","county":"Oak Ridge","geo_score":0.857,"zip code":"37830","id":"a6c74qdnn6d9","unemployme":"6.9","state":"Tennessee"},"type":"Feature","geometry":{"type":"Point","coordinates":[-84.222143,36.023134]}},{"properties":{"geo_precis":"zip","county":"Dallas","geo_score":0.857,"zip code":"75001","id":"a6c74qfre594","unemployme":"5.7","state":"Texas"},"type":"Feature","geometry":{"type":"Point","coordinates":[-96.777626,32.767268]}},{"properties":{"geo_precis":"zip","county":"Utah","geo_score":0.857,"zip code":"84003","id":"a6c74ql6uplr","unemployme":"3.7","state":"Utah"},"type":"Feature","geometry":{"type":"Point","coordinates":[-111.770208,40.44995]}},{"properties":{"geo_precis":"zip","county":"Washington","geo_score":0.857,"zip code":"5641","id":"a6c74qn0wwbf","unemployme":"5.7","state":"Vermont"},"type":"Feature","geometry":{"type":"Point","coordinates":[-72.402601,44.148396]}},{"properties":{"geo_precis":"zip","county":"Washington","geo_score":0.857,"zip code":"24212","id":"a6c74qhqu78h","unemployme":"4.8","state":"Virginia"},"type":"Feature","geometry":{"type":"Point","coordinates":[-81.970764,36.690942]}},{"properties":{"geo_precis":"zip","county":"San Juan","geo_score":0.857,"zip code":"98222","id":"a6c74qg0isje","unemployme":"6.4","state":"Washington"},"type":"Feature","geometry":{"type":"Point","coordinates":[-122.921551,48.610644]}},{"properties":{"geo_precis":"zip","county":"Raleigh","geo_score":0.857,"zip code":"25802","id":"a6c74qmpbhlu","unemployme":"4.6","state":"West Virginia"},"type":"Feature","geometry":{"type":"Point","coordinates":[-81.224458,37.748935]}},{"properties":{"geo_precis":"zip","county":"Adams","geo_score":0.857,"zip code":"53910","id":"a6c74qkuuonp","unemployme":"5.6","state":"Wisconsin"},"type":"Feature","geometry":{"type":"Point","coordinates":[-89.806792,43.83803]}},{"properties":{"geo_precis":"zip","county":"Lincoln","geo_score":0.857,"zip code":"83110","id":"a6c74qh1s1cj","unemployme":"3.2","state":"Wyoming"},"type":"Feature","geometry":{"type":"Point","coordinates":[-110.619734,42.711296]}},{"properties":{"geo_precis":"zip","county":"Aguada","geo_score":0.857,"zip code":"602","id":"a6c74qov6ett","unemployme":null,"state":"Puerto Rico"},"type":"Feature","geometry":{"type":"Point","coordinates":[-67.180953,18.393103]}}],"is_temporal":false,"author":{"url":"http://www.geocommons.com","metadata":null,"contact_name":null,"contact_address":null,"source":null,"contact_phone":null},"source":"http://www.geocommons.com","pagination":{"sort":null,"start":0,"total":53,"limit":1000000},"state":"complete","tags":"","published":"2014-08-13T03:33:49-04:00","id":184166}