{"type":"FeatureCollection","data_type":"Dataset","url_type":null,"permissions":[{"permissions":{"download":true,"view":true},"group_id":"everyone"}],"classification":null,"title":"Paternal Births","count":145,"stream_id":184292,"contributor":{"url":"http://geocommons.com/users/32912","name":"rodri354"},"data_attributes":null,"calculation_params":null,"icon_link":null,"link":"http://geocommons.com/overlays/184292.json","extent":[-104.821,27.3364,-76.6122,47.2349],"geometry_types":["point"],"unique_name":null,"name":"Paternal Births","feature_count":145,"description":"This is the data for all of the births on the paternal side of my family.","next_feature":null,"is_raster":false,"short_classification":"Y","stats":{},"features":[{"properties":{"cities":"Baltimore","geo_score":0.857,"id":"a68jydrdhz9e","geo_precision":"city","state":"Maryland"},"type":"Feature","geometry":{"type":"Point","coordinates":[-76.612189,39.290385]}},{"properties":{"cities":"Baltimore","geo_score":0.857,"id":"a68jydrhhwl4","geo_precision":"city","state":"Maryland"},"type":"Feature","geometry":{"type":"Point","coordinates":[-76.612189,39.290385]}},{"properties":{"cities":"Bay City","geo_score":0.776,"id":"a68jydxjlfkq","geo_precision":"city","state":"Texas"},"type":"Feature","geometry":{"type":"Point","coordinates":[-96.272199,32.183483]}},{"properties":{"cities":"Bridgeport","geo_score":0.857,"id":"a68jydrgnm58","geo_precision":"city","state":"Texas"},"type":"Feature","geometry":{"type":"Point","coordinates":[-97.697401,33.174802]}},{"properties":{"cities":"Bridgeport","geo_score":0.857,"id":"a68jydp3fnmo","geo_precision":"city","state":"Texas"},"type":"Feature","geometry":{"type":"Point","coordinates":[-97.697401,33.174802]}},{"properties":{"cities":"Bridgeport","geo_score":0.857,"id":"a68jydtmefbi","geo_precision":"city","state":"Texas"},"type":"Feature","geometry":{"type":"Point","coordinates":[-97.697401,33.174802]}},{"properties":{"cities":"Bridgeport","geo_score":0.857,"id":"a68jydtisu5y","geo_precision":"city","state":"Texas"},"type":"Feature","geometry":{"type":"Point","coordinates":[-97.697401,33.174802]}},{"properties":{"cities":"Bridgeport","geo_score":0.857,"id":"a68jye05417s","geo_precision":"city","state":"Texas"},"type":"Feature","geometry":{"type":"Point","coordinates":[-97.697401,33.174802]}},{"properties":{"cities":"Bridgeport","geo_score":0.857,"id":"a68jydwdjirt","geo_precision":"city","state":"Texas"},"type":"Feature","geometry":{"type":"Point","coordinates":[-97.697401,33.174802]}},{"properties":{"cities":"Bridgeport","geo_score":0.857,"id":"a68jye26u6t1","geo_precision":"city","state":"Texas"},"type":"Feature","geometry":{"type":"Point","coordinates":[-97.697401,33.174802]}},{"properties":{"cities":"Bridgeport","geo_score":0.857,"id":"a68jydz9zh42","geo_precision":"city","state":"Texas"},"type":"Feature","geometry":{"type":"Point","coordinates":[-97.697401,33.174802]}},{"properties":{"cities":"Colorado Springs","geo_score":0.857,"id":"a68jye4c9mhl","geo_precision":"city","state":"Colorado"},"type":"Feature","geometry":{"type":"Point","coordinates":[-104.821363,38.833882]}},{"properties":{"cities":"Dallas","geo_score":0.857,"id":"a68jydu3pvaj","geo_precision":"city","state":"Texas"},"type":"Feature","geometry":{"type":"Point","coordinates":[-96.806667,32.783056]}},{"properties":{"cities":"Dallas","geo_score":0.857,"id":"a68jydxxti4x","geo_precision":"city","state":"Texas"},"type":"Feature","geometry":{"type":"Point","coordinates":[-96.806667,32.783056]}},{"properties":{"cities":"Dallas","geo_score":0.857,"id":"a68jydw2ky42","geo_precision":"city","state":"Texas"},"type":"Feature","geometry":{"type":"Point","coordinates":[-96.806667,32.783056]}},{"properties":{"cities":"Dallas","geo_score":0.857,"id":"a68jyduf0ri9","geo_precision":"city","state":"Texas"},"type":"Feature","geometry":{"type":"Point","coordinates":[-96.806667,32.783056]}},{"properties":{"cities":"Dallas","geo_score":0.857,"id":"a68jye2k50v9","geo_precision":"city","state":"Texas"},"type":"Feature","geometry":{"type":"Point","coordinates":[-96.806667,32.783056]}},{"properties":{"cities":"Dallas","geo_score":0.857,"id":"a68jye4h86hk","geo_precision":"city","state":"Texas"},"type":"Feature","geometry":{"type":"Point","coordinates":[-96.806667,32.783056]}},{"properties":{"cities":"Dallas","geo_score":0.857,"id":"a68jydq5fza7","geo_precision":"city","state":"Texas"},"type":"Feature","geometry":{"type":"Point","coordinates":[-96.806667,32.783056]}},{"properties":{"cities":"Dallas","geo_score":0.857,"id":"a68jye45hjqf","geo_precision":"city","state":"Texas"},"type":"Feature","geometry":{"type":"Point","coordinates":[-96.806667,32.783056]}},{"properties":{"cities":"Dallas","geo_score":0.857,"id":"a68jyds6afb3","geo_precision":"city","state":"Texas"},"type":"Feature","geometry":{"type":"Point","coordinates":[-96.806667,32.783056]}},{"properties":{"cities":"Dallas","geo_score":0.857,"id":"a68jydz3yq7c","geo_precision":"city","state":"Texas"},"type":"Feature","geometry":{"type":"Point","coordinates":[-96.806667,32.783056]}},{"properties":{"cities":"Dallas","geo_score":0.857,"id":"a68jye2ltw9h","geo_precision":"city","state":"Texas"},"type":"Feature","geometry":{"type":"Point","coordinates":[-96.806667,32.783056]}},{"properties":{"cities":"Dallas","geo_score":0.857,"id":"a68jydtjybpf","geo_precision":"city","state":"Texas"},"type":"Feature","geometry":{"type":"Point","coordinates":[-96.806667,32.783056]}},{"properties":{"cities":"Dallas","geo_score":0.857,"id":"a68jye53y8mi","geo_precision":"city","state":"Texas"},"type":"Feature","geometry":{"type":"Point","coordinates":[-96.806667,32.783056]}},{"properties":{"cities":"Dallas","geo_score":0.857,"id":"a68jydty4bow","geo_precision":"city","state":"Texas"},"type":"Feature","geometry":{"type":"Point","coordinates":[-96.806667,32.783056]}},{"properties":{"cities":"Dallas","geo_score":0.857,"id":"a68jydsgcs0z","geo_precision":"city","state":"Texas"},"type":"Feature","geometry":{"type":"Point","coordinates":[-96.806667,32.783056]}},{"properties":{"cities":"Dallas","geo_score":0.857,"id":"a68jye3yjr5d","geo_precision":"city","state":"Texas"},"type":"Feature","geometry":{"type":"Point","coordinates":[-96.806667,32.783056]}},{"properties":{"cities":"Dallas","geo_score":0.857,"id":"a68jydz2nws5","geo_precision":"city","state":"Texas"},"type":"Feature","geometry":{"type":"Point","coordinates":[-96.806667,32.783056]}},{"properties":{"cities":"Dallas","geo_score":0.857,"id":"a68jye4dgp95","geo_precision":"city","state":"Texas"},"type":"Feature","geometry":{"type":"Point","coordinates":[-96.806667,32.783056]}},{"properties":{"cities":"Dallas","geo_score":0.857,"id":"a68jydq0g9u3","geo_precision":"city","state":"Texas"},"type":"Feature","geometry":{"type":"Point","coordinates":[-96.806667,32.783056]}},{"properties":{"cities":"Dallas","geo_score":0.857,"id":"a68jye2450l9","geo_precision":"city","state":"Texas"},"type":"Feature","geometry":{"type":"Point","coordinates":[-96.806667,32.783056]}},{"properties":{"cities":"Des Moines","geo_score":0.857,"id":"a68jydwxghyf","geo_precision":"city","state":"Iowa"},"type":"Feature","geometry":{"type":"Point","coordinates":[-93.609106,41.600545]}},{"properties":{"cities":"Des Moines","geo_score":0.857,"id":"a68jydtx15we","geo_precision":"city","state":"Iowa"},"type":"Feature","geometry":{"type":"Point","coordinates":[-93.609106,41.600545]}},{"properties":{"cities":"Dolores","geo_score":0.776,"id":"a68jydzho7u5","geo_precision":"city","state":"Texas"},"type":"Feature","geometry":{"type":"Point","coordinates":[-94.956049,32.785689]}},{"properties":{"cities":"Dolores","geo_score":0.776,"id":"a68jydy1wzj1","geo_precision":"city","state":"Texas"},"type":"Feature","geometry":{"type":"Point","coordinates":[-94.956049,32.785689]}},{"properties":{"cities":"Downers Grove","geo_score":0.857,"id":"a68jydy2hbbb","geo_precision":"city","state":"Illinois"},"type":"Feature","geometry":{"type":"Point","coordinates":[-88.012267,41.796279]}},{"properties":{"cities":"Eastland","geo_score":0.857,"id":"a68jye4o9fm3","geo_precision":"city","state":"Texas"},"type":"Feature","geometry":{"type":"Point","coordinates":[-98.777973,32.403972]}},{"properties":{"cities":"Ennis","geo_score":0.857,"id":"a68jyduq2jh6","geo_precision":"city","state":"Texas"},"type":"Feature","geometry":{"type":"Point","coordinates":[-96.63479,32.333778]}},{"properties":{"cities":"Fort Worth","geo_score":0.746,"id":"a68jydvyqun7","geo_precision":"city","state":"Texas"},"type":"Feature","geometry":{"type":"Point","coordinates":[-95.262161,31.108239]}},{"properties":{"cities":"Fort Worth","geo_score":0.746,"id":"a68jydvv4jne","geo_precision":"city","state":"Texas"},"type":"Feature","geometry":{"type":"Point","coordinates":[-95.262161,31.108239]}},{"properties":{"cities":"Houston","geo_score":0.816,"id":"a68jyduxgd0c","geo_precision":"city","state":"Texas"},"type":"Feature","geometry":{"type":"Point","coordinates":[-96.919704,29.845783]}},{"properties":{"cities":"Jordan","geo_score":0.857,"id":"a68jydxluzje","geo_precision":"city","state":"Minnesota"},"type":"Feature","geometry":{"type":"Point","coordinates":[-93.601183,44.658362]}},{"properties":{"cities":"Jordan","geo_score":0.857,"id":"a68jye25cugt","geo_precision":"city","state":"Minnesota"},"type":"Feature","geometry":{"type":"Point","coordinates":[-93.601183,44.658362]}},{"properties":{"cities":"Lockhart","geo_score":0.857,"id":"a68jye3duoii","geo_precision":"city","state":"Texas"},"type":"Feature","geometry":{"type":"Point","coordinates":[-97.630472,29.875405]}},{"properties":{"cities":"Lockhart","geo_score":0.857,"id":"a68jye4pniqn","geo_precision":"city","state":"Texas"},"type":"Feature","geometry":{"type":"Point","coordinates":[-97.630472,29.875405]}},{"properties":{"cities":"Maplewood","geo_score":0.857,"id":"a68jydwagyxq","geo_precision":"city","state":"Minnesota"},"type":"Feature","geometry":{"type":"Point","coordinates":[-92.995215,44.953022]}},{"properties":{"cities":"Maplewood","geo_score":0.857,"id":"a68jydy56evr","geo_precision":"city","state":"Minnesota"},"type":"Feature","geometry":{"type":"Point","coordinates":[-92.995215,44.953022]}},{"properties":{"cities":"Minneapolis","geo_score":0.857,"id":"a68jye0yujso","geo_precision":"city","state":"Minnesota"},"type":"Feature","geometry":{"type":"Point","coordinates":[-93.263836,44.979965]}},{"properties":{"cities":"Minneapolis","geo_score":0.857,"id":"a68jydsetv8m","geo_precision":"city","state":"Minnesota"},"type":"Feature","geometry":{"type":"Point","coordinates":[-93.263836,44.979965]}},{"properties":{"cities":"Minneapolis","geo_score":0.857,"id":"a68jydz7wcni","geo_precision":"city","state":"Minnesota"},"type":"Feature","geometry":{"type":"Point","coordinates":[-93.263836,44.979965]}},{"properties":{"cities":"Robstown","geo_score":0.857,"id":"a68jye13mzoz","geo_precision":"city","state":"Texas"},"type":"Feature","geometry":{"type":"Point","coordinates":[-97.752083,27.795517]}},{"properties":{"cities":"San Antonio","geo_score":0.857,"id":"a68jydvilaep","geo_precision":"city","state":"Texas"},"type":"Feature","geometry":{"type":"Point","coordinates":[-98.493628,29.424122]}},{"properties":{"cities":"San Antonio","geo_score":0.857,"id":"a68jydsaxm44","geo_precision":"city","state":"Texas"},"type":"Feature","geometry":{"type":"Point","coordinates":[-98.493628,29.424122]}},{"properties":{"cities":"San Antonio","geo_score":0.857,"id":"a68jye0brznu","geo_precision":"city","state":"Texas"},"type":"Feature","geometry":{"type":"Point","coordinates":[-98.493628,29.424122]}},{"properties":{"cities":"San Antonio","geo_score":0.857,"id":"a68jye20gwx1","geo_precision":"city","state":"Texas"},"type":"Feature","geometry":{"type":"Point","coordinates":[-98.493628,29.424122]}},{"properties":{"cities":"San Antonio","geo_score":0.857,"id":"a68jydugv4oq","geo_precision":"city","state":"Texas"},"type":"Feature","geometry":{"type":"Point","coordinates":[-98.493628,29.424122]}},{"properties":{"cities":"San Antonio","geo_score":0.857,"id":"a68jye47y0f8","geo_precision":"city","state":"Texas"},"type":"Feature","geometry":{"type":"Point","coordinates":[-98.493628,29.424122]}},{"properties":{"cities":"San Antonio","geo_score":0.857,"id":"a68jydxpk8bx","geo_precision":"city","state":"Texas"},"type":"Feature","geometry":{"type":"Point","coordinates":[-98.493628,29.424122]}},{"properties":{"cities":"San Antonio","geo_score":0.857,"id":"a68jye48l7sl","geo_precision":"city","state":"Texas"},"type":"Feature","geometry":{"type":"Point","coordinates":[-98.493628,29.424122]}},{"properties":{"cities":"Sarasota","geo_score":0.857,"id":"a68jyduwrxf9","geo_precision":"city","state":"Florida"},"type":"Feature","geometry":{"type":"Point","coordinates":[-82.530653,27.336435]}},{"properties":{"cities":"Sarasota","geo_score":0.857,"id":"a68jydqzvkad","geo_precision":"city","state":"Florida"},"type":"Feature","geometry":{"type":"Point","coordinates":[-82.530653,27.336435]}},{"properties":{"cities":"Sarasota","geo_score":0.857,"id":"a68jydy6x09q","geo_precision":"city","state":"Florida"},"type":"Feature","geometry":{"type":"Point","coordinates":[-82.530653,27.336435]}},{"properties":{"cities":"Somerset","geo_score":0.857,"id":"a68jydzq3nzc","geo_precision":"city","state":"Texas"},"type":"Feature","geometry":{"type":"Point","coordinates":[-98.667756,29.22053]}},{"properties":{"cities":"South Saint Paul","geo_score":0.806,"id":"a68jye3flsm3","geo_precision":"city","state":"Minnesota"},"type":"Feature","geometry":{"type":"Point","coordinates":[-93.093274,44.94441]}},{"properties":{"cities":"Saint Paul","geo_score":0.857,"id":"a68jydqdn24r","geo_precision":"city","state":"Minnesota"},"type":"Feature","geometry":{"type":"Point","coordinates":[-93.093274,44.94441]}},{"properties":{"cities":"Saint Paul","geo_score":0.857,"id":"a68jydu1g3dd","geo_precision":"city","state":"Minnesota"},"type":"Feature","geometry":{"type":"Point","coordinates":[-93.093274,44.94441]}},{"properties":{"cities":"Saint Paul","geo_score":0.857,"id":"a68jye2ay31q","geo_precision":"city","state":"Minnesota"},"type":"Feature","geometry":{"type":"Point","coordinates":[-93.093274,44.94441]}},{"properties":{"cities":"Saint Paul","geo_score":0.857,"id":"a68jye1ff3yg","geo_precision":"city","state":"Minnesota"},"type":"Feature","geometry":{"type":"Point","coordinates":[-93.093274,44.94441]}},{"properties":{"cities":"Saint Paul","geo_score":0.857,"id":"a68jydzsr4p2","geo_precision":"city","state":"Minnesota"},"type":"Feature","geometry":{"type":"Point","coordinates":[-93.093274,44.94441]}},{"properties":{"cities":"Saint Paul","geo_score":0.857,"id":"a68jydxnx2xu","geo_precision":"city","state":"Minnesota"},"type":"Feature","geometry":{"type":"Point","coordinates":[-93.093274,44.94441]}},{"properties":{"cities":"Saint Paul","geo_score":0.857,"id":"a68jydq2cke3","geo_precision":"city","state":"Minnesota"},"type":"Feature","geometry":{"type":"Point","coordinates":[-93.093274,44.94441]}},{"properties":{"cities":"Saint Paul","geo_score":0.857,"id":"a68jydpaoxtp","geo_precision":"city","state":"Minnesota"},"type":"Feature","geometry":{"type":"Point","coordinates":[-93.093274,44.94441]}},{"properties":{"cities":"Saint Paul","geo_score":0.857,"id":"a68jydu3cc3p","geo_precision":"city","state":"Minnesota"},"type":"Feature","geometry":{"type":"Point","coordinates":[-93.093274,44.94441]}},{"properties":{"cities":"Saint Paul","geo_score":0.857,"id":"a68jye29t00q","geo_precision":"city","state":"Minnesota"},"type":"Feature","geometry":{"type":"Point","coordinates":[-93.093274,44.94441]}},{"properties":{"cities":"Saint Paul","geo_score":0.857,"id":"a68jye4a2uu7","geo_precision":"city","state":"Minnesota"},"type":"Feature","geometry":{"type":"Point","coordinates":[-93.093274,44.94441]}},{"properties":{"cities":"Saint Paul","geo_score":0.857,"id":"a68jydrml8n4","geo_precision":"city","state":"Minnesota"},"type":"Feature","geometry":{"type":"Point","coordinates":[-93.093274,44.94441]}},{"properties":{"cities":"Saint Paul","geo_score":0.857,"id":"a68jydxue5pw","geo_precision":"city","state":"Minnesota"},"type":"Feature","geometry":{"type":"Point","coordinates":[-93.093274,44.94441]}},{"properties":{"cities":"Saint Paul","geo_score":0.857,"id":"a68jydu9kkc9","geo_precision":"city","state":"Minnesota"},"type":"Feature","geometry":{"type":"Point","coordinates":[-93.093274,44.94441]}},{"properties":{"cities":"Saint Paul","geo_score":0.857,"id":"a68jye3409ya","geo_precision":"city","state":"Minnesota"},"type":"Feature","geometry":{"type":"Point","coordinates":[-93.093274,44.94441]}},{"properties":{"cities":"Saint Paul","geo_score":0.857,"id":"a68jye43b6uf","geo_precision":"city","state":"Minnesota"},"type":"Feature","geometry":{"type":"Point","coordinates":[-93.093274,44.94441]}},{"properties":{"cities":"Saint Paul","geo_score":0.857,"id":"a68jydwv93qe","geo_precision":"city","state":"Minnesota"},"type":"Feature","geometry":{"type":"Point","coordinates":[-93.093274,44.94441]}},{"properties":{"cities":"Saint Paul","geo_score":0.857,"id":"a68jydt5pmwv","geo_precision":"city","state":"Minnesota"},"type":"Feature","geometry":{"type":"Point","coordinates":[-93.093274,44.94441]}},{"properties":{"cities":"Saint Paul","geo_score":0.857,"id":"a68jydymqyhx","geo_precision":"city","state":"Minnesota"},"type":"Feature","geometry":{"type":"Point","coordinates":[-93.093274,44.94441]}},{"properties":{"cities":"Saint Paul","geo_score":0.857,"id":"a68jye4ut99a","geo_precision":"city","state":"Minnesota"},"type":"Feature","geometry":{"type":"Point","coordinates":[-93.093274,44.94441]}},{"properties":{"cities":"Saint Paul","geo_score":0.857,"id":"a68jye0a3v9y","geo_precision":"city","state":"Minnesota"},"type":"Feature","geometry":{"type":"Point","coordinates":[-93.093274,44.94441]}},{"properties":{"cities":"Saint Paul","geo_score":0.857,"id":"a68jydyijwgh","geo_precision":"city","state":"Minnesota"},"type":"Feature","geometry":{"type":"Point","coordinates":[-93.093274,44.94441]}},{"properties":{"cities":"Saint Paul","geo_score":0.857,"id":"a68jye3lcfrh","geo_precision":"city","state":"Minnesota"},"type":"Feature","geometry":{"type":"Point","coordinates":[-93.093274,44.94441]}},{"properties":{"cities":"Saint Paul","geo_score":0.857,"id":"a68jydzfpuu1","geo_precision":"city","state":"Minnesota"},"type":"Feature","geometry":{"type":"Point","coordinates":[-93.093274,44.94441]}},{"properties":{"cities":"Saint Paul","geo_score":0.857,"id":"a68jye09odn8","geo_precision":"city","state":"Minnesota"},"type":"Feature","geometry":{"type":"Point","coordinates":[-93.093274,44.94441]}},{"properties":{"cities":"Saint Paul","geo_score":0.857,"id":"a68jydzirqty","geo_precision":"city","state":"Minnesota"},"type":"Feature","geometry":{"type":"Point","coordinates":[-93.093274,44.94441]}},{"properties":{"cities":"Saint Paul","geo_score":0.857,"id":"a68jydu09ckp","geo_precision":"city","state":"Minnesota"},"type":"Feature","geometry":{"type":"Point","coordinates":[-93.093274,44.94441]}},{"properties":{"cities":"Saint Paul","geo_score":0.857,"id":"a68jydtfm9hb","geo_precision":"city","state":"Minnesota"},"type":"Feature","geometry":{"type":"Point","coordinates":[-93.093274,44.94441]}},{"properties":{"cities":"Saint Paul","geo_score":0.857,"id":"a68jydyy13dz","geo_precision":"city","state":"Minnesota"},"type":"Feature","geometry":{"type":"Point","coordinates":[-93.093274,44.94441]}},{"properties":{"cities":"Saint Paul","geo_score":0.857,"id":"a68jye221j6e","geo_precision":"city","state":"Minnesota"},"type":"Feature","geometry":{"type":"Point","coordinates":[-93.093274,44.94441]}},{"properties":{"cities":"Saint Paul","geo_score":0.857,"id":"a68jye0tr96b","geo_precision":"city","state":"Minnesota"},"type":"Feature","geometry":{"type":"Point","coordinates":[-93.093274,44.94441]}},{"properties":{"cities":"Saint Paul","geo_score":0.857,"id":"a68jydxm2das","geo_precision":"city","state":"Minnesota"},"type":"Feature","geometry":{"type":"Point","coordinates":[-93.093274,44.94441]}},{"properties":{"cities":"Saint Paul","geo_score":0.857,"id":"a68jye4b02mh","geo_precision":"city","state":"Minnesota"},"type":"Feature","geometry":{"type":"Point","coordinates":[-93.093274,44.94441]}},{"properties":{"cities":"Saint Paul","geo_score":0.857,"id":"a68jydxeg1x7","geo_precision":"city","state":"Minnesota"},"type":"Feature","geometry":{"type":"Point","coordinates":[-93.093274,44.94441]}},{"properties":{"cities":"Saint Paul","geo_score":0.857,"id":"a68jydrky0od","geo_precision":"city","state":"Minnesota"},"type":"Feature","geometry":{"type":"Point","coordinates":[-93.093274,44.94441]}},{"properties":{"cities":"Saint Paul","geo_score":0.857,"id":"a68jyduq5ojh","geo_precision":"city","state":"Minnesota"},"type":"Feature","geometry":{"type":"Point","coordinates":[-93.093274,44.94441]}},{"properties":{"cities":"Saint Paul","geo_score":0.857,"id":"a68jydracq6z","geo_precision":"city","state":"Minnesota"},"type":"Feature","geometry":{"type":"Point","coordinates":[-93.093274,44.94441]}},{"properties":{"cities":"Saint Paul","geo_score":0.857,"id":"a68jye1gufff","geo_precision":"city","state":"Minnesota"},"type":"Feature","geometry":{"type":"Point","coordinates":[-93.093274,44.94441]}},{"properties":{"cities":"Saint Paul","geo_score":0.857,"id":"a68jydu016x3","geo_precision":"city","state":"Minnesota"},"type":"Feature","geometry":{"type":"Point","coordinates":[-93.093274,44.94441]}},{"properties":{"cities":"Saint Paul","geo_score":0.857,"id":"a68jydyp2a1e","geo_precision":"city","state":"Minnesota"},"type":"Feature","geometry":{"type":"Point","coordinates":[-93.093274,44.94441]}},{"properties":{"cities":"Saint Paul","geo_score":0.857,"id":"a68jydzv4z2s","geo_precision":"city","state":"Minnesota"},"type":"Feature","geometry":{"type":"Point","coordinates":[-93.093274,44.94441]}},{"properties":{"cities":"Saint Paul","geo_score":0.857,"id":"a68jydytvdtd","geo_precision":"city","state":"Minnesota"},"type":"Feature","geometry":{"type":"Point","coordinates":[-93.093274,44.94441]}},{"properties":{"cities":"Saint Paul","geo_score":0.857,"id":"a68jye4jti1z","geo_precision":"city","state":"Minnesota"},"type":"Feature","geometry":{"type":"Point","coordinates":[-93.093274,44.94441]}},{"properties":{"cities":"Saint Paul","geo_score":0.857,"id":"a68jydp86cda","geo_precision":"city","state":"Minnesota"},"type":"Feature","geometry":{"type":"Point","coordinates":[-93.093274,44.94441]}},{"properties":{"cities":"Saint Paul","geo_score":0.857,"id":"a68jye35tmi1","geo_precision":"city","state":"Minnesota"},"type":"Feature","geometry":{"type":"Point","coordinates":[-93.093274,44.94441]}},{"properties":{"cities":"Saint Paul","geo_score":0.857,"id":"a68jydyhjk9v","geo_precision":"city","state":"Minnesota"},"type":"Feature","geometry":{"type":"Point","coordinates":[-93.093274,44.94441]}},{"properties":{"cities":"Saint Paul","geo_score":0.857,"id":"a68jydzfu0yd","geo_precision":"city","state":"Minnesota"},"type":"Feature","geometry":{"type":"Point","coordinates":[-93.093274,44.94441]}},{"properties":{"cities":"Saint Paul","geo_score":0.857,"id":"a68jydpip4l0","geo_precision":"city","state":"Minnesota"},"type":"Feature","geometry":{"type":"Point","coordinates":[-93.093274,44.94441]}},{"properties":{"cities":"Saint Paul","geo_score":0.857,"id":"a68jydptbrrl","geo_precision":"city","state":"Minnesota"},"type":"Feature","geometry":{"type":"Point","coordinates":[-93.093274,44.94441]}},{"properties":{"cities":"Saint Paul","geo_score":0.857,"id":"a68jydy9pbl0","geo_precision":"city","state":"Minnesota"},"type":"Feature","geometry":{"type":"Point","coordinates":[-93.093274,44.94441]}},{"properties":{"cities":"Saint Paul","geo_score":0.857,"id":"a68jydw77rau","geo_precision":"city","state":"Minnesota"},"type":"Feature","geometry":{"type":"Point","coordinates":[-93.093274,44.94441]}},{"properties":{"cities":"Saint Paul","geo_score":0.857,"id":"a68jydv5kjqq","geo_precision":"city","state":"Minnesota"},"type":"Feature","geometry":{"type":"Point","coordinates":[-93.093274,44.94441]}},{"properties":{"cities":"Saint Paul","geo_score":0.857,"id":"a68jydynsuhu","geo_precision":"city","state":"Minnesota"},"type":"Feature","geometry":{"type":"Point","coordinates":[-93.093274,44.94441]}},{"properties":{"cities":"Saint Paul","geo_score":0.857,"id":"a68jye5853ca","geo_precision":"city","state":"Minnesota"},"type":"Feature","geometry":{"type":"Point","coordinates":[-93.093274,44.94441]}},{"properties":{"cities":"Saint Paul","geo_score":0.857,"id":"a68jydt9hgkc","geo_precision":"city","state":"Minnesota"},"type":"Feature","geometry":{"type":"Point","coordinates":[-93.093274,44.94441]}},{"properties":{"cities":"Saint Paul","geo_score":0.857,"id":"a68jydr4ob2h","geo_precision":"city","state":"Minnesota"},"type":"Feature","geometry":{"type":"Point","coordinates":[-93.093274,44.94441]}},{"properties":{"cities":"Saint Paul","geo_score":0.857,"id":"a68jydw3rf2d","geo_precision":"city","state":"Minnesota"},"type":"Feature","geometry":{"type":"Point","coordinates":[-93.093274,44.94441]}},{"properties":{"cities":"Saint Paul","geo_score":0.857,"id":"a68jydydch9w","geo_precision":"city","state":"Minnesota"},"type":"Feature","geometry":{"type":"Point","coordinates":[-93.093274,44.94441]}},{"properties":{"cities":"Saint Paul","geo_score":0.857,"id":"a68jye38140x","geo_precision":"city","state":"Minnesota"},"type":"Feature","geometry":{"type":"Point","coordinates":[-93.093274,44.94441]}},{"properties":{"cities":"Saint Paul","geo_score":0.857,"id":"a68jydtd63z2","geo_precision":"city","state":"Minnesota"},"type":"Feature","geometry":{"type":"Point","coordinates":[-93.093274,44.94441]}},{"properties":{"cities":"Saint Paul","geo_score":0.857,"id":"a68jydv4cldd","geo_precision":"city","state":"Minnesota"},"type":"Feature","geometry":{"type":"Point","coordinates":[-93.093274,44.94441]}},{"properties":{"cities":"Saint Paul","geo_score":0.857,"id":"a68jydzwebcu","geo_precision":"city","state":"Minnesota"},"type":"Feature","geometry":{"type":"Point","coordinates":[-93.093274,44.94441]}},{"properties":{"cities":"Saint Paul","geo_score":0.857,"id":"a68jydx4e4ru","geo_precision":"city","state":"Minnesota"},"type":"Feature","geometry":{"type":"Point","coordinates":[-93.093274,44.94441]}},{"properties":{"cities":"Saint Paul","geo_score":0.857,"id":"a68jydyymnzb","geo_precision":"city","state":"Minnesota"},"type":"Feature","geometry":{"type":"Point","coordinates":[-93.093274,44.94441]}},{"properties":{"cities":"Saint Paul","geo_score":0.857,"id":"a68jye17uf5p","geo_precision":"city","state":"Minnesota"},"type":"Feature","geometry":{"type":"Point","coordinates":[-93.093274,44.94441]}},{"properties":{"cities":"Saint Paul","geo_score":0.857,"id":"a68jye4glx24","geo_precision":"city","state":"Minnesota"},"type":"Feature","geometry":{"type":"Point","coordinates":[-93.093274,44.94441]}},{"properties":{"cities":"Saint Paul","geo_score":0.857,"id":"a68jydvk00rn","geo_precision":"city","state":"Minnesota"},"type":"Feature","geometry":{"type":"Point","coordinates":[-93.093274,44.94441]}},{"properties":{"cities":"Saint Paul","geo_score":0.857,"id":"a68jydrzh61f","geo_precision":"city","state":"Minnesota"},"type":"Feature","geometry":{"type":"Point","coordinates":[-93.093274,44.94441]}},{"properties":{"cities":"Saint Paul","geo_score":0.857,"id":"a68jydsj85sn","geo_precision":"city","state":"Minnesota"},"type":"Feature","geometry":{"type":"Point","coordinates":[-93.093274,44.94441]}},{"properties":{"cities":"Saint Paul","geo_score":0.857,"id":"a68jydxx1b9o","geo_precision":"city","state":"Minnesota"},"type":"Feature","geometry":{"type":"Point","coordinates":[-93.093274,44.94441]}},{"properties":{"cities":"Saint Paul","geo_score":0.857,"id":"a68jyduni28j","geo_precision":"city","state":"Minnesota"},"type":"Feature","geometry":{"type":"Point","coordinates":[-93.093274,44.94441]}},{"properties":{"cities":"Saint Paul","geo_score":0.857,"id":"a68jydxdxszn","geo_precision":"city","state":"Minnesota"},"type":"Feature","geometry":{"type":"Point","coordinates":[-93.093274,44.94441]}},{"properties":{"cities":"Saint Paul","geo_score":0.857,"id":"a68jydqhd6p9","geo_precision":"city","state":"Minnesota"},"type":"Feature","geometry":{"type":"Point","coordinates":[-93.093274,44.94441]}},{"properties":{"cities":"Saint Paul","geo_score":0.857,"id":"a68jye4q9uuv","geo_precision":"city","state":"Minnesota"},"type":"Feature","geometry":{"type":"Point","coordinates":[-93.093274,44.94441]}},{"properties":{"cities":"Saint Paul","geo_score":0.857,"id":"a68jye4wrsz7","geo_precision":"city","state":"Minnesota"},"type":"Feature","geometry":{"type":"Point","coordinates":[-93.093274,44.94441]}},{"properties":{"cities":"Saint Paul","geo_score":0.857,"id":"a68jye2f9vcp","geo_precision":"city","state":"Minnesota"},"type":"Feature","geometry":{"type":"Point","coordinates":[-93.093274,44.94441]}},{"properties":{"cities":"Saint Paul","geo_score":0.857,"id":"a68jydz44vtz","geo_precision":"city","state":"Minnesota"},"type":"Feature","geometry":{"type":"Point","coordinates":[-93.093274,44.94441]}},{"properties":{"cities":"Saint Paul","geo_score":0.857,"id":"a68jydpvnmyk","geo_precision":"city","state":"Minnesota"},"type":"Feature","geometry":{"type":"Point","coordinates":[-93.093274,44.94441]}},{"properties":{"cities":"Saint Paul","geo_score":0.857,"id":"a68jydv6s6z1","geo_precision":"city","state":"Minnesota"},"type":"Feature","geometry":{"type":"Point","coordinates":[-93.093274,44.94441]}},{"properties":{"cities":"Wells","geo_score":0.8,"id":"a68jydqg3en5","geo_precision":"city","state":"Minnesota"},"type":"Feature","geometry":{"type":"Point","coordinates":[-91.746841,47.234926]}}],"is_temporal":false,"author":{"url":"","metadata":"","contact_name":"","contact_address":"","source":"","contact_phone":""},"source":"","pagination":{"sort":null,"start":0,"total":145,"limit":1000000},"state":"complete","tags":"rodri354","published":"2014-08-13T03:42:44-04:00","id":184292}