{"type":"FeatureCollection","data_type":"Dataset","url_type":null,"permissions":[{"permissions":{"download":true,"view":true},"group_id":"everyone"}],"classification":null,"title":"Detroit  Police Stations","count":14,"stream_id":184392,"contributor":{"url":"http://geocommons.com/users/36193","name":"chrislong"},"data_attributes":null,"calculation_params":null,"icon_link":null,"link":"http://geocommons.com/overlays/184392.json","extent":[-83.2283,42.3021,-82.965,42.4327],"geometry_types":["point"],"unique_name":null,"name":"Detroit  Police Stations","feature_count":14,"description":"Police stations within the city of Detroit, Michigan.","next_feature":null,"is_raster":false,"short_classification":"Y","stats":{"PRECINCT":{"max":13.0,"variance":17.5,"mean":6.5,"stdev":4.18330013267038,"min":0.0,"median":7.0}},"features":[{"properties":{"ZIP":48226.0,"PHONE":"596-5100","geo_score":0.746,"PRECINCT":1.0,"STATUS":"Closed","DISTRICT":null,"id":"a63g7fexuid2","geo_precision":"range","ADDRESS":"1300 BEAUBIEN"},"type":"Feature","geometry":{"type":"Point","coordinates":[-83.04305,42.3356]}},{"properties":{"ZIP":48227.0,"PHONE":"596-5200","geo_score":0.732,"PRECINCT":2.0,"STATUS":"Closed","DISTRICT":null,"id":"a63g7festp3a","geo_precision":"range","ADDRESS":"13530 LESURE"},"type":"Feature","geometry":{"type":"Point","coordinates":[-83.179975,42.385456]}},{"properties":{"ZIP":48216.0,"PHONE":"596-5300","geo_score":0.423,"PRECINCT":3.0,"STATUS":"Closed","DISTRICT":null,"id":"a63g7f8ka8nc","geo_precision":"street","ADDRESS":"2801 VERNOR W."},"type":"Feature","geometry":{"type":"Point","coordinates":[-83.077517,42.329885]}},{"properties":{"ZIP":48209.0,"PHONE":"596-5400","geo_score":0.592,"PRECINCT":4.0,"STATUS":"Closed","DISTRICT":null,"id":"a63g7f55uywg","geo_precision":"street","ADDRESS":"FORT W &amp;&amp; Green"},"type":"Feature","geometry":{"type":"Point","coordinates":[-83.112822,42.302085]}},{"properties":{"ZIP":48215.0,"PHONE":"596-5500","geo_score":0.543,"PRECINCT":5.0,"STATUS":"Closed","DISTRICT":null,"id":"a63g7f8gbu2j","geo_precision":"street","ADDRESS":"11411 JEFFERSON E."},"type":"Feature","geometry":{"type":"Point","coordinates":[-82.964992,42.369188]}},{"properties":{"ZIP":48223.0,"PHONE":"313-596-5600","geo_score":0.554,"PRECINCT":6.0,"STATUS":"Open","DISTRICT":"Northwestern","id":"a63g7f9f30ex","geo_precision":"street","ADDRESS":"11450 WARWICK"},"type":"Feature","geometry":{"type":"Point","coordinates":[-83.228326,42.384094]}},{"properties":{"ZIP":48209.0,"PHONE":"596-5700","geo_score":0.522,"PRECINCT":7.0,"STATUS":"Closed","DISTRICT":null,"id":"a63g7f5ty848","geo_precision":"street","ADDRESS":"3300 GRATIOT"},"type":"Feature","geometry":{"type":"Point","coordinates":[-83.036664,42.346233]}},{"properties":{"ZIP":48219.0,"PHONE":"596-5800","geo_score":0.5,"PRECINCT":8.0,"STATUS":"Closed","DISTRICT":null,"id":"a63g7fgbh946","geo_precision":"street","ADDRESS":"21400 GRAND RIVER"},"type":"Feature","geometry":{"type":"Point","coordinates":[-83.044272,42.374755]}},{"properties":{"ZIP":48213.0,"PHONE":"313-596-5900","geo_score":0.717,"PRECINCT":9.0,"STATUS":"Open","DISTRICT":"Eastern","id":"a63g7fhpr3yb","geo_precision":"range","ADDRESS":"11187 GRATIOT"},"type":"Feature","geometry":{"type":"Point","coordinates":[-82.995098,42.408576]}},{"properties":{"ZIP":48204.0,"PHONE":"596-1000","geo_score":0.732,"PRECINCT":10.0,"STATUS":"Closed","DISTRICT":null,"id":"a63g7fff7zt3","geo_precision":"range","ADDRESS":"12000 LIVERNOIS"},"type":"Feature","geometry":{"type":"Point","coordinates":[-83.139108,42.37614]}},{"properties":{"ZIP":48234.0,"PHONE":"313-596-1100","geo_score":0.707,"PRECINCT":11.0,"STATUS":"Open","DISTRICT":"Northeastern","id":"a63g7ff5kwn8","geo_precision":"range","ADDRESS":"5100 NEVADA E."},"type":"Feature","geometry":{"type":"Point","coordinates":[-83.052,42.426111]}},{"properties":{"ZIP":48203.0,"PHONE":"313-596-1200","geo_score":0.695,"PRECINCT":12.0,"STATUS":"Open","DISTRICT":"Western","id":"a63g7fgbep70","geo_precision":"range","ADDRESS":"1441 SEVEN MILE W."},"type":"Feature","geometry":{"type":"Point","coordinates":[-83.089287,42.432685]}},{"properties":{"ZIP":48202.0,"PHONE":"313-596-1300","geo_score":0.531,"PRECINCT":13.0,"STATUS":"Open","DISTRICT":"Central","id":"a63g7f4wgn1y","geo_precision":"street","ADDRESS":"4747 WOODWARD"},"type":"Feature","geometry":{"type":"Point","coordinates":[-83.064385,42.356958]}},{"properties":{"ZIP":48209.0,"PHONE":"313-596-5300","geo_score":0.721,"PRECINCT":0.0,"STATUS":"Open","DISTRICT":"Southwestern","id":"a63g7f3x7k7t","geo_precision":"range","ADDRESS":"4700 West Fort"},"type":"Feature","geometry":{"type":"Point","coordinates":[-83.092605,42.311254]}}],"is_temporal":false,"author":{"url":"http://www.detroitmi.gov/DepartmentsandAgencies/PlanningDevelopmentDepartment/Planning/InformationServiceandMapping/CommunityInformationandMapping/AdvancedMaps/DownloadGISFiles.aspx","metadata":"","contact_name":"","contact_address":"","source":"City of Detroit GIS Data","contact_phone":""},"source":"http://www.detroitmi.gov/DepartmentsandAgencies/PlanningDevelopmentDepartment/Planning/InformationServiceandMapping/CommunityInformationandMapping/AdvancedMaps/DownloadGISFiles.aspx","pagination":{"sort":null,"start":0,"total":14,"limit":1000000},"state":"complete","tags":"","published":"2006-08-21T16:00:00Z","id":184392}