{"type":"FeatureCollection","data_type":"Dataset","url_type":null,"permissions":[{"permissions":{"download":true,"view":true},"group_id":"everyone"}],"classification":null,"title":"Vince_Phone_Test","count":70,"stream_id":184682,"contributor":{"url":"http://geocommons.com/users/35388","name":"jmmiller"},"data_attributes":null,"calculation_params":null,"icon_link":null,"link":"http://geocommons.com/overlays/184682.json","extent":[0.0,0.0,0.0,0.0],"geometry_types":[],"unique_name":null,"name":"Vince_Phone_Test","feature_count":70,"description":"","next_feature":null,"is_raster":false,"short_classification":"Y","stats":{"download":{"max":789,"variance":0.0,"mean":789.0,"stdev":0.0,"min":789,"median":789},"time":{"max":123,"variance":0.0,"mean":123.0,"stdev":0.0,"min":123,"median":123},"date":{"max":"2011/12/15 00:00:00 -0500","variance":0.0,"mean":"2011/12/15 00:00:00 -0500","stdev":0.0,"min":"2011/12/15 00:00:00 -0500","median":"2011/12/15 00:00:00 -0500"},"upload":{"max":456,"variance":0.0,"mean":456.0,"stdev":0.0,"min":456,"median":456}},"features":[{"properties":{"download":789,"time":123,"date":{"end_time":"2011/12/16 00:00:00 -0500","original":"12/15/11","granularity":"day","time":"2011/12/15 00:00:00 -0500"},"geo_score":0.0,"upload":456,"phone":"Verizon 3G","id":"a63ywkx1dsah","geo_precision":"unmatched","address":"6687 S 1495 E, salt lake city, ut"},"type":"Feature","geometry":null},{"properties":{"download":789,"time":123,"date":{"end_time":"2011/12/16 00:00:00 -0500","original":"12/15/11","granularity":"day","time":"2011/12/15 00:00:00 -0500"},"geo_score":0.0,"upload":456,"phone":"Sprint 3G","id":"a63ywkma6c4a","geo_precision":"unmatched","address":"6687 S 1495 E, salt lake city, ut"},"type":"Feature","geometry":null},{"properties":{"download":789,"time":123,"date":{"end_time":"2011/12/16 00:00:00 -0500","original":"12/15/11","granularity":"day","time":"2011/12/15 00:00:00 -0500"},"geo_score":0.0,"upload":456,"phone":"T-Mobile 3G","id":"a63ywkmm585k","geo_precision":"unmatched","address":"6687 S 1495 E, salt lake city, ut"},"type":"Feature","geometry":null},{"properties":{"download":789,"time":123,"date":{"end_time":"2011/12/16 00:00:00 -0500","original":"12/15/11","granularity":"day","time":"2011/12/15 00:00:00 -0500"},"geo_score":0.0,"upload":456,"phone":"AT&amp;T 3G","id":"a63ywktzasjh","geo_precision":"unmatched","address":"6687 S 1495 E, salt lake city, ut"},"type":"Feature","geometry":null},{"properties":{"download":789,"time":123,"date":{"end_time":"2011/12/16 00:00:00 -0500","original":"12/15/11","granularity":"day","time":"2011/12/15 00:00:00 -0500"},"geo_score":0.0,"upload":456,"phone":"Verizon 4G","id":"a63ywkwj7skk","geo_precision":"unmatched","address":"6687 S 1495 E, salt lake city, ut"},"type":"Feature","geometry":null},{"properties":{"download":789,"time":123,"date":{"end_time":"2011/12/16 00:00:00 -0500","original":"12/15/11","granularity":"day","time":"2011/12/15 00:00:00 -0500"},"geo_score":0.0,"upload":456,"phone":"Sprint 4G","id":"a63ywkjkdh40","geo_precision":"unmatched","address":"6687 S 1495 E, salt lake city, ut"},"type":"Feature","geometry":null},{"properties":{"download":789,"time":123,"date":{"end_time":"2011/12/16 00:00:00 -0500","original":"12/15/11","granularity":"day","time":"2011/12/15 00:00:00 -0500"},"geo_score":0.0,"upload":456,"phone":"T-Mobile 4G","id":"a63ywkm0rfn6","geo_precision":"unmatched","address":"6687 S 1495 E, salt lake city, ut"},"type":"Feature","geometry":null},{"properties":{"download":789,"time":123,"date":{"end_time":"2011/12/16 00:00:00 -0500","original":"12/15/11","granularity":"day","time":"2011/12/15 00:00:00 -0500"},"geo_score":0.0,"upload":456,"phone":"Verizon 3G","id":"a63ywkm0iu26","geo_precision":"unmatched","address":"90 S 400 W, salt lake city, ut"},"type":"Feature","geometry":null},{"properties":{"download":789,"time":123,"date":{"end_time":"2011/12/16 00:00:00 -0500","original":"12/15/11","granularity":"day","time":"2011/12/15 00:00:00 -0500"},"geo_score":0.0,"upload":456,"phone":"Sprint 3G","id":"a63ywkt4gw41","geo_precision":"unmatched","address":"90 S 400 W, salt lake city, ut"},"type":"Feature","geometry":null},{"properties":{"download":789,"time":123,"date":{"end_time":"2011/12/16 00:00:00 -0500","original":"12/15/11","granularity":"day","time":"2011/12/15 00:00:00 -0500"},"geo_score":0.0,"upload":456,"phone":"T-Mobile 3G","id":"a63ywkvo0esd","geo_precision":"unmatched","address":"90 S 400 W, salt lake city, ut"},"type":"Feature","geometry":null},{"properties":{"download":789,"time":123,"date":{"end_time":"2011/12/16 00:00:00 -0500","original":"12/15/11","granularity":"day","time":"2011/12/15 00:00:00 -0500"},"geo_score":0.0,"upload":456,"phone":"AT&amp;T 3G","id":"a63ywkvgyaxc","geo_precision":"unmatched","address":"90 S 400 W, salt lake city, ut"},"type":"Feature","geometry":null},{"properties":{"download":789,"time":123,"date":{"end_time":"2011/12/16 00:00:00 -0500","original":"12/15/11","granularity":"day","time":"2011/12/15 00:00:00 -0500"},"geo_score":0.0,"upload":456,"phone":"Verizon 4G","id":"a63ywkuuct0a","geo_precision":"unmatched","address":"90 S 400 W, salt lake city, ut"},"type":"Feature","geometry":null},{"properties":{"download":789,"time":123,"date":{"end_time":"2011/12/16 00:00:00 -0500","original":"12/15/11","granularity":"day","time":"2011/12/15 00:00:00 -0500"},"geo_score":0.0,"upload":456,"phone":"Sprint 4G","id":"a63ywkkkr8t8","geo_precision":"unmatched","address":"90 S 400 W, salt lake city, ut"},"type":"Feature","geometry":null},{"properties":{"download":789,"time":123,"date":{"end_time":"2011/12/16 00:00:00 -0500","original":"12/15/11","granularity":"day","time":"2011/12/15 00:00:00 -0500"},"geo_score":0.0,"upload":456,"phone":"T-Mobile 4G","id":"a63ywktmthh7","geo_precision":"unmatched","address":"90 S 400 W, salt lake city, ut"},"type":"Feature","geometry":null},{"properties":{"download":789,"time":123,"date":{"end_time":"2011/12/16 00:00:00 -0500","original":"12/15/11","granularity":"day","time":"2011/12/15 00:00:00 -0500"},"geo_score":0.0,"upload":456,"phone":"Verizon 3G","id":"a63ywkmth539","geo_precision":"unmatched","address":"2100 S 1300 E, salt lake city, ut"},"type":"Feature","geometry":null},{"properties":{"download":789,"time":123,"date":{"end_time":"2011/12/16 00:00:00 -0500","original":"12/15/11","granularity":"day","time":"2011/12/15 00:00:00 -0500"},"geo_score":0.0,"upload":456,"phone":"Sprint 3G","id":"a63ywkrtt7b5","geo_precision":"unmatched","address":"2100 S 1300 E, salt lake city, ut"},"type":"Feature","geometry":null},{"properties":{"download":789,"time":123,"date":{"end_time":"2011/12/16 00:00:00 -0500","original":"12/15/11","granularity":"day","time":"2011/12/15 00:00:00 -0500"},"geo_score":0.0,"upload":456,"phone":"T-Mobile 3G","id":"a63ywkkhokjv","geo_precision":"unmatched","address":"2100 S 1300 E, salt lake city, ut"},"type":"Feature","geometry":null},{"properties":{"download":789,"time":123,"date":{"end_time":"2011/12/16 00:00:00 -0500","original":"12/15/11","granularity":"day","time":"2011/12/15 00:00:00 -0500"},"geo_score":0.0,"upload":456,"phone":"AT&amp;T 3G","id":"a63ywkxbvoqu","geo_precision":"unmatched","address":"2100 S 1300 E, salt lake city, ut"},"type":"Feature","geometry":null},{"properties":{"download":789,"time":123,"date":{"end_time":"2011/12/16 00:00:00 -0500","original":"12/15/11","granularity":"day","time":"2011/12/15 00:00:00 -0500"},"geo_score":0.0,"upload":456,"phone":"Verizon 4G","id":"a63ywkkf3da3","geo_precision":"unmatched","address":"2100 S 1300 E, salt lake city, ut"},"type":"Feature","geometry":null},{"properties":{"download":789,"time":123,"date":{"end_time":"2011/12/16 00:00:00 -0500","original":"12/15/11","granularity":"day","time":"2011/12/15 00:00:00 -0500"},"geo_score":0.0,"upload":456,"phone":"Sprint 4G","id":"a63ywknimo9z","geo_precision":"unmatched","address":"2100 S 1300 E, salt lake city, ut"},"type":"Feature","geometry":null},{"properties":{"download":789,"time":123,"date":{"end_time":"2011/12/16 00:00:00 -0500","original":"12/15/11","granularity":"day","time":"2011/12/15 00:00:00 -0500"},"geo_score":0.0,"upload":456,"phone":"T-Mobile 4G","id":"a63ywkoaumjh","geo_precision":"unmatched","address":"2100 S 1300 E, salt lake city, ut"},"type":"Feature","geometry":null},{"properties":{"download":789,"time":123,"date":{"end_time":"2011/12/16 00:00:00 -0500","original":"12/15/11","granularity":"day","time":"2011/12/15 00:00:00 -0500"},"geo_score":0.0,"upload":456,"phone":"Verizon 3G","id":"a63ywkrxifth","geo_precision":"unmatched","address":"2100 S 900 E, salt lake city, ut"},"type":"Feature","geometry":null},{"properties":{"download":789,"time":123,"date":{"end_time":"2011/12/16 00:00:00 -0500","original":"12/15/11","granularity":"day","time":"2011/12/15 00:00:00 -0500"},"geo_score":0.0,"upload":456,"phone":"Sprint 3G","id":"a63ywku4ux7s","geo_precision":"unmatched","address":"2100 S 900 E, salt lake city, ut"},"type":"Feature","geometry":null},{"properties":{"download":789,"time":123,"date":{"end_time":"2011/12/16 00:00:00 -0500","original":"12/15/11","granularity":"day","time":"2011/12/15 00:00:00 -0500"},"geo_score":0.0,"upload":456,"phone":"T-Mobile 3G","id":"a63ywkrgow65","geo_precision":"unmatched","address":"2100 S 900 E, salt lake city, ut"},"type":"Feature","geometry":null},{"properties":{"download":789,"time":123,"date":{"end_time":"2011/12/16 00:00:00 -0500","original":"12/15/11","granularity":"day","time":"2011/12/15 00:00:00 -0500"},"geo_score":0.0,"upload":456,"phone":"AT&amp;T 3G","id":"a63ywkwrijjm","geo_precision":"unmatched","address":"2100 S 900 E, salt lake city, ut"},"type":"Feature","geometry":null},{"properties":{"download":789,"time":123,"date":{"end_time":"2011/12/16 00:00:00 -0500","original":"12/15/11","granularity":"day","time":"2011/12/15 00:00:00 -0500"},"geo_score":0.0,"upload":456,"phone":"Verizon 4G","id":"a63ywkpjyra2","geo_precision":"unmatched","address":"2100 S 900 E, salt lake city, ut"},"type":"Feature","geometry":null},{"properties":{"download":789,"time":123,"date":{"end_time":"2011/12/16 00:00:00 -0500","original":"12/15/11","granularity":"day","time":"2011/12/15 00:00:00 -0500"},"geo_score":0.0,"upload":456,"phone":"Sprint 4G","id":"a63ywkqj0spc","geo_precision":"unmatched","address":"2100 S 900 E, salt lake city, ut"},"type":"Feature","geometry":null},{"properties":{"download":789,"time":123,"date":{"end_time":"2011/12/16 00:00:00 -0500","original":"12/15/11","granularity":"day","time":"2011/12/15 00:00:00 -0500"},"geo_score":0.0,"upload":456,"phone":"T-Mobile 4G","id":"a63ywknfrrkl","geo_precision":"unmatched","address":"2100 S 900 E, salt lake city, ut"},"type":"Feature","geometry":null},{"properties":{"download":789,"time":123,"date":{"end_time":"2011/12/16 00:00:00 -0500","original":"12/15/11","granularity":"day","time":"2011/12/15 00:00:00 -0500"},"geo_score":0.0,"upload":456,"phone":"Verizon 3G","id":"a63ywkphnkhm","geo_precision":"unmatched","address":"2100 S State St., Salt Lake City, UT"},"type":"Feature","geometry":null},{"properties":{"download":789,"time":123,"date":{"end_time":"2011/12/16 00:00:00 -0500","original":"12/15/11","granularity":"day","time":"2011/12/15 00:00:00 -0500"},"geo_score":0.0,"upload":456,"phone":"Sprint 3G","id":"a63ywksiz94u","geo_precision":"unmatched","address":"2100 S State St., Salt Lake City, UT"},"type":"Feature","geometry":null},{"properties":{"download":789,"time":123,"date":{"end_time":"2011/12/16 00:00:00 -0500","original":"12/15/11","granularity":"day","time":"2011/12/15 00:00:00 -0500"},"geo_score":0.0,"upload":456,"phone":"T-Mobile 3G","id":"a63ywku164n6","geo_precision":"unmatched","address":"2100 S State St., Salt Lake City, UT"},"type":"Feature","geometry":null},{"properties":{"download":789,"time":123,"date":{"end_time":"2011/12/16 00:00:00 -0500","original":"12/15/11","granularity":"day","time":"2011/12/15 00:00:00 -0500"},"geo_score":0.0,"upload":456,"phone":"AT&amp;T 3G","id":"a63ywknr1q7f","geo_precision":"unmatched","address":"2100 S State St., Salt Lake City, UT"},"type":"Feature","geometry":null},{"properties":{"download":789,"time":123,"date":{"end_time":"2011/12/16 00:00:00 -0500","original":"12/15/11","granularity":"day","time":"2011/12/15 00:00:00 -0500"},"geo_score":0.0,"upload":456,"phone":"Verizon 4G","id":"a63ywkoit28n","geo_precision":"unmatched","address":"2100 S State St., Salt Lake City, UT"},"type":"Feature","geometry":null},{"properties":{"download":789,"time":123,"date":{"end_time":"2011/12/16 00:00:00 -0500","original":"12/15/11","granularity":"day","time":"2011/12/15 00:00:00 -0500"},"geo_score":0.0,"upload":456,"phone":"Sprint 4G","id":"a63ywkkvix5c","geo_precision":"unmatched","address":"2100 S State St., Salt Lake City, UT"},"type":"Feature","geometry":null},{"properties":{"download":789,"time":123,"date":{"end_time":"2011/12/16 00:00:00 -0500","original":"12/15/11","granularity":"day","time":"2011/12/15 00:00:00 -0500"},"geo_score":0.0,"upload":456,"phone":"T-Mobile 4G","id":"a63ywktvims6","geo_precision":"unmatched","address":"2100 S State St., Salt Lake City, UT"},"type":"Feature","geometry":null},{"properties":{"download":789,"time":123,"date":{"end_time":"2011/12/16 00:00:00 -0500","original":"12/15/11","granularity":"day","time":"2011/12/15 00:00:00 -0500"},"geo_score":0.0,"upload":456,"phone":"Verizon 3G","id":"a63ywkt4jb46","geo_precision":"unmatched","address":"Fort Union Blvd. and State St., midvale, UT"},"type":"Feature","geometry":null},{"properties":{"download":789,"time":123,"date":{"end_time":"2011/12/16 00:00:00 -0500","original":"12/15/11","granularity":"day","time":"2011/12/15 00:00:00 -0500"},"geo_score":0.0,"upload":456,"phone":"Sprint 3G","id":"a63ywknq5z0x","geo_precision":"unmatched","address":"Fort Union Blvd. and State St., midvale, UT"},"type":"Feature","geometry":null},{"properties":{"download":789,"time":123,"date":{"end_time":"2011/12/16 00:00:00 -0500","original":"12/15/11","granularity":"day","time":"2011/12/15 00:00:00 -0500"},"geo_score":0.0,"upload":456,"phone":"T-Mobile 3G","id":"a63ywktis1y4","geo_precision":"unmatched","address":"Fort Union Blvd. and State St., midvale, UT"},"type":"Feature","geometry":null},{"properties":{"download":789,"time":123,"date":{"end_time":"2011/12/16 00:00:00 -0500","original":"12/15/11","granularity":"day","time":"2011/12/15 00:00:00 -0500"},"geo_score":0.0,"upload":456,"phone":"AT&amp;T 3G","id":"a63ywkoute7c","geo_precision":"unmatched","address":"Fort Union Blvd. and State St., midvale, UT"},"type":"Feature","geometry":null},{"properties":{"download":789,"time":123,"date":{"end_time":"2011/12/16 00:00:00 -0500","original":"12/15/11","granularity":"day","time":"2011/12/15 00:00:00 -0500"},"geo_score":0.0,"upload":456,"phone":"Verizon 4G","id":"a63ywkji295z","geo_precision":"unmatched","address":"Fort Union Blvd. and State St., midvale, UT"},"type":"Feature","geometry":null},{"properties":{"download":789,"time":123,"date":{"end_time":"2011/12/16 00:00:00 -0500","original":"12/15/11","granularity":"day","time":"2011/12/15 00:00:00 -0500"},"geo_score":0.0,"upload":456,"phone":"Sprint 4G","id":"a63ywkj0lzl8","geo_precision":"unmatched","address":"Fort Union Blvd. and State St., midvale, UT"},"type":"Feature","geometry":null},{"properties":{"download":789,"time":123,"date":{"end_time":"2011/12/16 00:00:00 -0500","original":"12/15/11","granularity":"day","time":"2011/12/15 00:00:00 -0500"},"geo_score":0.0,"upload":456,"phone":"T-Mobile 4G","id":"a63ywkj9rnkz","geo_precision":"unmatched","address":"Fort Union Blvd. and State St., midvale, UT"},"type":"Feature","geometry":null},{"properties":{"download":789,"time":123,"date":{"end_time":"2011/12/16 00:00:00 -0500","original":"12/15/11","granularity":"day","time":"2011/12/15 00:00:00 -0500"},"geo_score":0.0,"upload":456,"phone":"Verizon 3G","id":"a63ywktf8xci","geo_precision":"unmatched","address":"700 W. Winchester St., murray, ut"},"type":"Feature","geometry":null},{"properties":{"download":789,"time":123,"date":{"end_time":"2011/12/16 00:00:00 -0500","original":"12/15/11","granularity":"day","time":"2011/12/15 00:00:00 -0500"},"geo_score":0.0,"upload":456,"phone":"Sprint 3G","id":"a63ywkx0gdqq","geo_precision":"unmatched","address":"700 W. Winchester St., murray, ut"},"type":"Feature","geometry":null},{"properties":{"download":789,"time":123,"date":{"end_time":"2011/12/16 00:00:00 -0500","original":"12/15/11","granularity":"day","time":"2011/12/15 00:00:00 -0500"},"geo_score":0.0,"upload":456,"phone":"T-Mobile 3G","id":"a63ywklcc6ml","geo_precision":"unmatched","address":"700 W. Winchester St., murray, ut"},"type":"Feature","geometry":null},{"properties":{"download":789,"time":123,"date":{"end_time":"2011/12/16 00:00:00 -0500","original":"12/15/11","granularity":"day","time":"2011/12/15 00:00:00 -0500"},"geo_score":0.0,"upload":456,"phone":"AT&amp;T 3G","id":"a63ywkqlhrcd","geo_precision":"unmatched","address":"700 W. Winchester St., murray, ut"},"type":"Feature","geometry":null},{"properties":{"download":789,"time":123,"date":{"end_time":"2011/12/16 00:00:00 -0500","original":"12/15/11","granularity":"day","time":"2011/12/15 00:00:00 -0500"},"geo_score":0.0,"upload":456,"phone":"Verizon 4G","id":"a63ywkqsdhhb","geo_precision":"unmatched","address":"700 W. Winchester St., murray, ut"},"type":"Feature","geometry":null},{"properties":{"download":789,"time":123,"date":{"end_time":"2011/12/16 00:00:00 -0500","original":"12/15/11","granularity":"day","time":"2011/12/15 00:00:00 -0500"},"geo_score":0.0,"upload":456,"phone":"Sprint 4G","id":"a63ywkutvzaf","geo_precision":"unmatched","address":"700 W. Winchester St., murray, ut"},"type":"Feature","geometry":null},{"properties":{"download":789,"time":123,"date":{"end_time":"2011/12/16 00:00:00 -0500","original":"12/15/11","granularity":"day","time":"2011/12/15 00:00:00 -0500"},"geo_score":0.0,"upload":456,"phone":"T-Mobile 4G","id":"a63ywkszcwzy","geo_precision":"unmatched","address":"700 W. Winchester St., murray, ut"},"type":"Feature","geometry":null},{"properties":{"download":789,"time":123,"date":{"end_time":"2011/12/16 00:00:00 -0500","original":"12/15/11","granularity":"day","time":"2011/12/15 00:00:00 -0500"},"geo_score":0.0,"upload":456,"phone":"Verizon 3G","id":"a63ywktt2sg1","geo_precision":"unmatched","address":"Highland Dr. I-215, murray, ut"},"type":"Feature","geometry":null},{"properties":{"download":789,"time":123,"date":{"end_time":"2011/12/16 00:00:00 -0500","original":"12/15/11","granularity":"day","time":"2011/12/15 00:00:00 -0500"},"geo_score":0.0,"upload":456,"phone":"Sprint 3G","id":"a63ywkvv1p23","geo_precision":"unmatched","address":"Highland Dr. I-215, murray, ut"},"type":"Feature","geometry":null},{"properties":{"download":789,"time":123,"date":{"end_time":"2011/12/16 00:00:00 -0500","original":"12/15/11","granularity":"day","time":"2011/12/15 00:00:00 -0500"},"geo_score":0.0,"upload":456,"phone":"T-Mobile 3G","id":"a63ywks5xmlf","geo_precision":"unmatched","address":"Highland Dr. I-215, murray, ut"},"type":"Feature","geometry":null},{"properties":{"download":789,"time":123,"date":{"end_time":"2011/12/16 00:00:00 -0500","original":"12/15/11","granularity":"day","time":"2011/12/15 00:00:00 -0500"},"geo_score":0.0,"upload":456,"phone":"AT&amp;T 3G","id":"a63ywkpjmbhb","geo_precision":"unmatched","address":"Highland Dr. I-215, murray, ut"},"type":"Feature","geometry":null},{"properties":{"download":789,"time":123,"date":{"end_time":"2011/12/16 00:00:00 -0500","original":"12/15/11","granularity":"day","time":"2011/12/15 00:00:00 -0500"},"geo_score":0.0,"upload":456,"phone":"Verizon 4G","id":"a63ywklvz04y","geo_precision":"unmatched","address":"Highland Dr. I-215, murray, ut"},"type":"Feature","geometry":null},{"properties":{"download":789,"time":123,"date":{"end_time":"2011/12/16 00:00:00 -0500","original":"12/15/11","granularity":"day","time":"2011/12/15 00:00:00 -0500"},"geo_score":0.0,"upload":456,"phone":"Sprint 4G","id":"a63ywkq6qbbq","geo_precision":"unmatched","address":"Highland Dr. I-215, murray, ut"},"type":"Feature","geometry":null},{"properties":{"download":789,"time":123,"date":{"end_time":"2011/12/16 00:00:00 -0500","original":"12/15/11","granularity":"day","time":"2011/12/15 00:00:00 -0500"},"geo_score":0.0,"upload":456,"phone":"T-Mobile 4G","id":"a63ywksldfix","geo_precision":"unmatched","address":"Highland Dr. I-215, murray, ut"},"type":"Feature","geometry":null},{"properties":{"download":789,"time":123,"date":{"end_time":"2011/12/16 00:00:00 -0500","original":"12/15/11","granularity":"day","time":"2011/12/15 00:00:00 -0500"},"geo_score":0.0,"upload":456,"phone":"Verizon 3G","id":"a63ywkuzuxk4","geo_precision":"unmatched","address":"Walker Lane Highland Dr., cottonwood heights, ut"},"type":"Feature","geometry":null},{"properties":{"download":789,"time":123,"date":{"end_time":"2011/12/16 00:00:00 -0500","original":"12/15/11","granularity":"day","time":"2011/12/15 00:00:00 -0500"},"geo_score":0.0,"upload":456,"phone":"Sprint 3G","id":"a63ywkqnibbo","geo_precision":"unmatched","address":"Walker Lane Highland Dr., cottonwood heights, ut"},"type":"Feature","geometry":null},{"properties":{"download":789,"time":123,"date":{"end_time":"2011/12/16 00:00:00 -0500","original":"12/15/11","granularity":"day","time":"2011/12/15 00:00:00 -0500"},"geo_score":0.0,"upload":456,"phone":"T-Mobile 3G","id":"a63ywkqmrzvr","geo_precision":"unmatched","address":"Walker Lane Highland Dr., cottonwood heights, ut"},"type":"Feature","geometry":null},{"properties":{"download":789,"time":123,"date":{"end_time":"2011/12/16 00:00:00 -0500","original":"12/15/11","granularity":"day","time":"2011/12/15 00:00:00 -0500"},"geo_score":0.0,"upload":456,"phone":"AT&amp;T 3G","id":"a63ywksljdl8","geo_precision":"unmatched","address":"Walker Lane Highland Dr., cottonwood heights, ut"},"type":"Feature","geometry":null},{"properties":{"download":789,"time":123,"date":{"end_time":"2011/12/16 00:00:00 -0500","original":"12/15/11","granularity":"day","time":"2011/12/15 00:00:00 -0500"},"geo_score":0.0,"upload":456,"phone":"Verizon 4G","id":"a63ywkv68es9","geo_precision":"unmatched","address":"Walker Lane Highland Dr., cottonwood heights, ut"},"type":"Feature","geometry":null},{"properties":{"download":789,"time":123,"date":{"end_time":"2011/12/16 00:00:00 -0500","original":"12/15/11","granularity":"day","time":"2011/12/15 00:00:00 -0500"},"geo_score":0.0,"upload":456,"phone":"Sprint 4G","id":"a63ywkwx7xfo","geo_precision":"unmatched","address":"Walker Lane Highland Dr., cottonwood heights, ut"},"type":"Feature","geometry":null},{"properties":{"download":789,"time":123,"date":{"end_time":"2011/12/16 00:00:00 -0500","original":"12/15/11","granularity":"day","time":"2011/12/15 00:00:00 -0500"},"geo_score":0.0,"upload":456,"phone":"T-Mobile 4G","id":"a63ywkncsyp4","geo_precision":"unmatched","address":"Walker Lane Highland Dr., cottonwood heights, ut"},"type":"Feature","geometry":null},{"properties":{"download":789,"time":123,"date":{"end_time":"2011/12/16 00:00:00 -0500","original":"12/15/11","granularity":"day","time":"2011/12/15 00:00:00 -0500"},"geo_score":0.0,"upload":456,"phone":"Verizon 3G","id":"a63ywkz7ubtt","geo_precision":"unmatched","address":"University St. and President's Circle, salt lake city, ut"},"type":"Feature","geometry":null},{"properties":{"download":789,"time":123,"date":{"end_time":"2011/12/16 00:00:00 -0500","original":"12/15/11","granularity":"day","time":"2011/12/15 00:00:00 -0500"},"geo_score":0.0,"upload":456,"phone":"Sprint 3G","id":"a63ywksg46ks","geo_precision":"unmatched","address":"University St. and President's Circle, salt lake city, ut"},"type":"Feature","geometry":null},{"properties":{"download":789,"time":123,"date":{"end_time":"2011/12/16 00:00:00 -0500","original":"12/15/11","granularity":"day","time":"2011/12/15 00:00:00 -0500"},"geo_score":0.0,"upload":456,"phone":"T-Mobile 3G","id":"a63ywko2l43d","geo_precision":"unmatched","address":"University St. and President's Circle, salt lake city, ut"},"type":"Feature","geometry":null},{"properties":{"download":789,"time":123,"date":{"end_time":"2011/12/16 00:00:00 -0500","original":"12/15/11","granularity":"day","time":"2011/12/15 00:00:00 -0500"},"geo_score":0.0,"upload":456,"phone":"AT&amp;T 3G","id":"a63ywkvjs91z","geo_precision":"unmatched","address":"University St. and President's Circle, salt lake city, ut"},"type":"Feature","geometry":null},{"properties":{"download":789,"time":123,"date":{"end_time":"2011/12/16 00:00:00 -0500","original":"12/15/11","granularity":"day","time":"2011/12/15 00:00:00 -0500"},"geo_score":0.0,"upload":456,"phone":"Verizon 4G","id":"a63ywklb4dhc","geo_precision":"unmatched","address":"University St. and President's Circle, salt lake city, ut"},"type":"Feature","geometry":null},{"properties":{"download":789,"time":123,"date":{"end_time":"2011/12/16 00:00:00 -0500","original":"12/15/11","granularity":"day","time":"2011/12/15 00:00:00 -0500"},"geo_score":0.0,"upload":456,"phone":"Sprint 4G","id":"a63ywkogvvjn","geo_precision":"unmatched","address":"University St. and President's Circle, salt lake city, ut"},"type":"Feature","geometry":null},{"properties":{"download":789,"time":123,"date":{"end_time":"2011/12/16 00:00:00 -0500","original":"12/15/11","granularity":"day","time":"2011/12/15 00:00:00 -0500"},"geo_score":0.0,"upload":456,"phone":"T-Mobile 4G","id":"a63ywkp0nxtt","geo_precision":"unmatched","address":"University St. and President's Circle, salt lake city, ut"},"type":"Feature","geometry":null}],"is_temporal":true,"author":{"url":"","metadata":null,"contact_name":null,"contact_address":null,"source":null,"contact_phone":null},"source":"","pagination":{"sort":null,"start":0,"total":70,"limit":1000000},"state":"complete","tags":"","published":"2014-08-13T04:12:59-04:00","id":184682}