{"type":"FeatureCollection","data_type":"Dataset","url_type":null,"permissions":[{"permissions":{"download":true,"view":true},"group_id":"everyone"}],"classification":null,"title":"Tamaulipas Churches","count":96,"stream_id":184736,"contributor":{"url":"http://geocommons.com/users/36594","name":"mfain19"},"data_attributes":null,"calculation_params":null,"icon_link":null,"link":"http://geocommons.com/overlays/184736.json","extent":[-99.567,22.217,-97.437,27.499],"geometry_types":["point"],"unique_name":null,"name":"Tamaulipas Churches","feature_count":96,"description":"This data presents churches located in Tamaulipas, Mexico.","next_feature":null,"is_raster":false,"short_classification":"Y","stats":{},"features":[{"properties":{"church name":"Capilla San Francisco de Asis","municipality":"Ciudad Reynosa","id":"0","address":"Francisco Villa Narciso Mendoza, Ciudad Reynosa, Tamaulipas, Mexico","state":"Tamaulipas"},"type":"Feature","geometry":{"type":"Point","coordinates":[-98.302,26.095]}},{"properties":{"church name":"Iglesia Bautista El Cordero de Dios","municipality":"Ciudad Reynosa","id":"1","address":"Calle Pino y Sabino 1500 del Valle, Ciudad Reynosa, Tamaulipas, Mexico","state":"Tamaulipas"},"type":"Feature","geometry":{"type":"Point","coordinates":[-98.299,26.085]}},{"properties":{"church name":"Iglesia Bautista Independiente de Reynosa","municipality":"Ciudad Reynosa","id":"2","address":"Bustamante 1809 Hidalgo, Cuidad Reynosa, Tamaulipas, Mexico","state":"Tamaulipas"},"type":"Feature","geometry":{"type":"Point","coordinates":[-98.306,26.081]}},{"properties":{"church name":"Iglesia de Cristo","municipality":"Ciudad Reynosa","id":"3","address":"Not Applicable","state":"Tamaulipas"},"type":"Feature","geometry":{"type":"Point","coordinates":[-98.292,26.059]}},{"properties":{"church name":"Igelsia de Cristo","municipality":"Ciudad Reynosa","id":"4","address":"Not Applicable","state":"Tamaulipas"},"type":"Feature","geometry":{"type":"Point","coordinates":[-98.246,26.025]}},{"properties":{"church name":"Igelsia de Dios Septimo Dia","municipality":"Ciudad Reynosa","id":"5","address":"Mariano Escobedo 569 Cuidad Reynosa, Tamaulipas, Mexico","state":"Tamaulipas"},"type":"Feature","geometry":{"type":"Point","coordinates":[-98.229,26.061]}},{"properties":{"church name":"Iglesia Metodista de Mexico Air","municipality":"Ciudad Reynosa","id":"6","address":"16 de Septiembre 540, Centro, Cuidad Reynosa, Tamaulipas, Mexico","state":"Tamaulipas"},"type":"Feature","geometry":{"type":"Point","coordinates":[-98.291,26.081]}},{"properties":{"church name":"Iglesia Metodista El Buen Pastor","municipality":"Cuidad Reynosa","id":"7","address":"Allende 630 Reynosa, Cuidad Reynosa, Tamaulipas, Mexico","state":"Tamaulipas"},"type":"Feature","geometry":{"type":"Point","coordinates":[-98.279,26.094]}},{"properties":{"church name":"Immar el Buen Pastor","municipality":"Cuidad Reynosa","id":"8","address":"Ignacio Allende 630 Reynosa, Cuidad Reynosa, Tamaulipas, Mexico","state":"Tamaulipas"},"type":"Feature","geometry":{"type":"Point","coordinates":[-98.234,26.05]}},{"properties":{"church name":"Monasterio de Monjas Clarisas Sacramentarias","municipality":"Cuidad Reynosa","id":"9","address":"Anacuas 507 del Parque, Cuidad Reynosa, Tamaulipas, Mexico","state":"Tamaulipas"},"type":"Feature","geometry":{"type":"Point","coordinates":[-98.304,26.077]}},{"properties":{"church name":"Parroquia de Nuestra Sra de Sn Juan","municipality":"Cuidad Reynosa","id":"10","address":"Pinos 605 Aztlan, Cuidad Reynosa, Tamaulipas, Mexico","state":"Tamaulipas"},"type":"Feature","geometry":{"type":"Point","coordinates":[-98.326,26.068]}},{"properties":{"church name":"Primera Iglesia Bautista","municipality":"Cuidad Reynosa","id":"11","address":"Nicolas Bravo 970 Centro, Reynosa, Tamaulipas, Mexico","state":"Tamaulipas"},"type":"Feature","geometry":{"type":"Point","coordinates":[-98.282,26.097]}},{"properties":{"church name":"Vision Cristiana Reynosa","municipality":"Cuidad Reynosa","id":"12","address":"Culiacan 100 Rodriuez, Reynosa, Tamaulipas, Mexico","state":"Tamaulipas"},"type":"Feature","geometry":{"type":"Point","coordinates":[-98.286,26.075]}},{"properties":{"church name":"Adventista 7mo Dia","municipality":"Ciudad Victoria","id":"13","address":"Democracia 301, San Marcos, Ciudad Victoria, Tamaulipas, Mexico","state":"Tamaulipas"},"type":"Feature","geometry":{"type":"Point","coordinates":[-99.155,23.725]}},{"properties":{"church name":"Amistad Cristiana de Victoria AC","municipality":"Ciudad Victoria","id":"14","address":"Calle, 20 Matamoros 404 Zona Centro, Ciudad,Victoria, Tamaulipas, Mexico","state":"Tamaulipas"},"type":"Feature","geometry":{"type":"Point","coordinates":[-99.149,23.733]}},{"properties":{"church name":"Dioceses de Cd Victoria A R","municipality":"Ciudad Victoria","id":"15","address":"Jose Ma Morelos y Pavon 1046 Centro, Ciudad Victoria, Tamaulipas, Mexico","state":"Tamaulipas"},"type":"Feature","geometry":{"type":"Point","coordinates":[-99.134,23.731]}},{"properties":{"church name":"iglesia Bautista Victoria en C","municipality":"Ciudad Victoria","id":"16","address":"Ignacio Zaragoza 1719 Centro, Ciudad Victoria, Tamaulipas, Mexico","state":"Tamaulipas"},"type":"Feature","geometry":{"type":"Point","coordinates":[-99.136,23.729]}},{"properties":{"church name":"Iglesia de Cristo","municipality":"CiudadÂ Victoria","id":"17","address":"Not Applicable","state":"Tamaulipas"},"type":"Feature","geometry":{"type":"Point","coordinates":[-99.147,23.725]}},{"properties":{"church name":"Iglesia de La Cosecha","municipality":"Ciudad Victoria","id":"18","address":"Calle Villa de Llera 110 Enrique Cardenas, Ciudad Victoria, Tamaulipas, Mexico","state":"Tamaulipas"},"type":"Feature","geometry":{"type":"Point","coordinates":[-99.165,23.764]}},{"properties":{"church name":"Iglesia Evangelica Crist Espiritual","municipality":"Ciudad Victoria","id":"19","address":"Carrera Torres 415, Centro, Ciudad Victoria, Tamaulipas, Mexico","state":"Tamaulipas"},"type":"Feature","geometry":{"type":"Point","coordinates":[-99.155,23.738]}},{"properties":{"church name":"Iglesia Metodista de Mexico El Mesias","municipality":"Ciudad Victoria","id":"20","address":"Ignacio Allende 637 Centro, Ciudad Cictoria, Tamaulipas, Mexico","state":"Tamaulipas"},"type":"Feature","geometry":{"type":"Point","coordinates":[-99.143,23.735]}},{"properties":{"church name":"Iglesia Nal Presb Luz y Salvacion","municipality":"Ciudad Victoria","id":"21","address":"Gaspar De La Garza 213 Centro, Ciudad Victoria, Tamaulipas, Mexico","state":"Tamaulipas"},"type":"Feature","geometry":{"type":"Point","coordinates":[-99.149,23.73]}},{"properties":{"church name":"Iglesia San Martin de Porras","municipality":"Ciudad Victoria","id":"22","address":"Benito Juarez Centro Ciudad Victoria, Tamaulipas, Mexico","state":"Tamaulipas"},"type":"Feature","geometry":{"type":"Point","coordinates":[-99.117,23.747]}},{"properties":{"church name":"Parroquia de Cristo Rey","municipality":"Ciudad Victoria","id":"23","address":"Veracruz Ciudad Victoria Centr, Ciudad Victoria, Tamaulipas, Mexico","state":"Tamaulipas"},"type":"Feature","geometry":{"type":"Point","coordinates":[-99.15,23.746]}},{"properties":{"church name":"Parroquia de San Jose","municipality":"Ciudad Victoria","id":"24","address":"Ignacio Aldama 518 Centro, Ciudad Victoria, Tamaulipas, Mexico","state":"Tamaulipas"},"type":"Feature","geometry":{"type":"Point","coordinates":[-99.143,23.738]}},{"properties":{"church name":"Parroquia San Agustin","municipality":"Ciudad Victoria","id":"25","address":"Egidio Torre Repeto 234 Calle De Aguayo, Ciudad Victoria, Tamaulipas, Mexico","state":"Tamaulipas"},"type":"Feature","geometry":{"type":"Point","coordinates":[-99.146,23.764]}},{"properties":{"church name":"Sta Iglesia Catedral","municipality":"Ciudad Victoria","id":"26","address":"Manuel Gonzalez Centro, Ciudad Victoria, Tamaulipas, Mexico","state":"Tamaulipas"},"type":"Feature","geometry":{"type":"Point","coordinates":[-99.141,23.725]}},{"properties":{"church name":"Iglesia Bautista Bethel","municipality":"Matamoros","id":"27","address":"Pino 138 Matamoros, Matamoros, Tamaulipas, Mexico","state":"Tamaulipas"},"type":"Feature","geometry":{"type":"Point","coordinates":[-97.517,25.852]}},{"properties":{"church name":"Iglesia Bautista Gerizim","municipality":"Matamoros","id":"28","address":"Playa Novilleros 38 Playa Sol, Matamoros, Tamaulipas, Mexico","state":"Tamaulipas"},"type":"Feature","geometry":{"type":"Point","coordinates":[-97.476,25.853]}},{"properties":{"church name":"Iglesia Bautista Oreb de Matamoros","municipality":"Matamoros","id":"29","address":"Leandro Valle 33 Buenavista, Matamoros, Tamaulipas, Mexico","state":"Tamaulipas"},"type":"Feature","geometry":{"type":"Point","coordinates":[-97.49,25.87]}},{"properties":{"church name":"Iglesia de Cristo","municipality":"Matamoros","id":"30","address":"Not Applicable","state":"Tamaulipas"},"type":"Feature","geometry":{"type":"Point","coordinates":[-97.464,25.838]}},{"properties":{"church name":"Iglesia de Cristo","municipality":"Matamoros","id":"31","address":"Not Applicable","state":"Tamaulipas"},"type":"Feature","geometry":{"type":"Point","coordinates":[-97.503,25.864]}},{"properties":{"church name":"Iglesia De Cristo","municipality":"Matamoros","id":"32","address":"Not Applicable","state":"Tamaulipas"},"type":"Feature","geometry":{"type":"Point","coordinates":[-97.48,25.846]}},{"properties":{"church name":"Iglesia de Cristo - PlayaSol","municipality":"Matamoros","id":"33","address":"Not Applicable","state":"Tamaulipas"},"type":"Feature","geometry":{"type":"Point","coordinates":[-97.475,25.856]}},{"properties":{"church name":"Iglesia de Dios (7o Dia) A R","municipality":"Matamoros","id":"34","address":"Leandro Valle 79 Modelo, Matamoros, Tamaulipas, Mexico","state":"Tamaulipas"},"type":"Feature","geometry":{"type":"Point","coordinates":[-97.491,25.871]}},{"properties":{"church name":"Iglesia de Jesucristo Santos","municipality":"Matamoros","id":"35","address":"Marte 60 Alianza, Matamoros, Tamaulipas, Mexico","state":"Tamaulipas"},"type":"Feature","geometry":{"type":"Point","coordinates":[-97.487,25.866]}},{"properties":{"church name":"Iglesia del Divino Pastor","municipality":"Matamoros","id":"36","address":"Roberto Guerra 75 Popular, Matamoros, Tamaulipas, Mexico","state":"Tamaulipas"},"type":"Feature","geometry":{"type":"Point","coordinates":[-97.467,25.848]}},{"properties":{"church name":"Iglesia La Stma Trinidad","municipality":"Matamoros","id":"37","address":"Rio San Juan 53, Matamoros, Matamoros, Tamaulipas, Mexico","state":"Tamaulipas"},"type":"Feature","geometry":{"type":"Point","coordinates":[-97.503,25.883]}},{"properties":{"church name":"Iglesia Nacional Presbiteriana","municipality":"Matamoros","id":"38","address":"6a 806 Matamoros Matamoros, Tamaulipas, Mexico","state":"Tamaulipas"},"type":"Feature","geometry":{"type":"Point","coordinates":[-97.503,25.863]}},{"properties":{"church name":"Parroquia San Antonio de Padua","municipality":"Matamoros","id":"39","address":"Roberto Guerra 304 Popular Matamors, Tamaulipas, Mexico","state":"Tamaulipas"},"type":"Feature","geometry":{"type":"Point","coordinates":[-97.467,25.848]}},{"properties":{"church name":"Rio Grande Hyberbaric Inc","municipality":"Matamoros","id":"40","address":"Fuentes de Olicia 14 Ciudad Industrial, Matamoros, Tamaulipas, Mexico","state":"Tamaulipas"},"type":"Feature","geometry":{"type":"Point","coordinates":[-97.437,25.835]}},{"properties":{"church name":"Templo Horeb 2","municipality":"Matamoros","id":"41","address":"Mina y Guatemala 200 Modelo, Matamoros, Tamaulipas, Mexico","state":"Tamaulipas"},"type":"Feature","geometry":{"type":"Point","coordinates":[-97.504,25.872]}},{"properties":{"church name":"Templo de la Sagrada Familia","municipality":"Matamoros","id":"42","address":"Tamaulipas Jardin, Matamoros, Tamaulipas, Mexico","state":"Tamaulipas"},"type":"Feature","geometry":{"type":"Point","coordinates":[-97.497,25.889]}},{"properties":{"church name":"Templo Sendero de la Cruz","municipality":"Matamoros","id":"43","address":"Laguna Leona 59 San Francisco, Matamoros, Tamaulipas, Mexico","state":"Tamaulipas"},"type":"Feature","geometry":{"type":"Point","coordinates":[-97.507,25.868]}},{"properties":{"church name":"Vencce.com","municipality":"Matamoros","id":"44","address":"Vizcaya 248 Villa Espanola, Matamoros Tamaulipas, Mexico","state":"Tamaulipas"},"type":"Feature","geometry":{"type":"Point","coordinates":[-97.499,25.864]}},{"properties":{"church name":"Capilla San Antonio Maria Claret","municipality":"Nuevo Laredo","id":"45","address":"Fundadores y Quicapues Mier y Teran, Nuevo Laredo, Tamaulipas, Mexico","state":"Tamaulipas"},"type":"Feature","geometry":{"type":"Point","coordinates":[-99.567,27.495]}},{"properties":{"church name":"Catedral del Espiritu Santo","municipality":"Nuevo Laredo","id":"46","address":"Veracruz 2528 Francisco I Madero, Nuevo Laredo, Tamaulipas, Mexico","state":"Tamaulipas"},"type":"Feature","geometry":{"type":"Point","coordinates":[-99.506,27.468]}},{"properties":{"church name":"Centro De Evang y Rehabilit Agape","municipality":"Nuevo Laredo","id":"47","address":"Nuevo Leon 2115 Guerrero, Nuevo Laredo, Tamaulipas, Mexico","state":"Tamaulipas"},"type":"Feature","geometry":{"type":"Point","coordinates":[-99.495,27.473]}},{"properties":{"church name":"Hermanas Adoratrices","municipality":"Nuevo Laredo","id":"48","address":"15 de Septiembre 2426 Nuevo Laredo Centro, Nuevo Laredo, Tamaulipas, Mexico","state":"Tamaulipas"},"type":"Feature","geometry":{"type":"Point","coordinates":[-99.506,27.456]}},{"properties":{"church name":"Iglesia Bautista Emanuel","municipality":"Nuevo Laredo","id":"49","address":"Not Applicable","state":"Tamaulipas"},"type":"Feature","geometry":{"type":"Point","coordinates":[-99.498,27.482]}},{"properties":{"church name":"Iglesia de Cristo Col. Viveros","municipality":"Nuevo Laredo","id":"50","address":"Not Applicable","state":"Tamaulipas"},"type":"Feature","geometry":{"type":"Point","coordinates":[-99.487,27.485]}},{"properties":{"church name":"Iglesia de Jesucristo Sudemar","municipality":"Nuevo Laredo","id":"51","address":"Cesar Lopez de Lara 1708 Matamoros Nuevo Laredo, Tamaulipas, Mexico","state":"Tamaulipas"},"type":"Feature","geometry":{"type":"Point","coordinates":[-99.517,27.484]}},{"properties":{"church name":"Iglesia Nal Presbiteriana","municipality":"Nuevo Laredo","id":"52","address":"Madero 2120 Nuevo Laredo, Tamaulipas, Mexico","state":"Tamaulipas"},"type":"Feature","geometry":{"type":"Point","coordinates":[-99.503,27.487]}},{"properties":{"church name":"Iglesia Ntra Sra de la Paz","municipality":"Nuevo Laredo","id":"53","address":"Fancisco I Mader 2919 Nuevo Laredo Centro, Nuevo Laredo, Tamaulipas, Mexico","state":"Tamaulipas"},"type":"Feature","geometry":{"type":"Point","coordinates":[-99.507,27.487]}},{"properties":{"church name":"Iglesia San Jose","municipality":"Nuevo Laredo","id":"54","address":"Cuauhtemoc y Canales Nuevo Laredo, Tamaulipas, Mexico","state":"Tamaulipas"},"type":"Feature","geometry":{"type":"Point","coordinates":[-99.522,27.492]}},{"properties":{"church name":"Instituto Biblico Nocturno Jerusalen","municipality":"Nuevo Laredo","id":"55","address":"Colima 2701 Mirador, Nuevo Laredo, Tamaulipas, Mexico","state":"Tamaulipas"},"type":"Feature","geometry":{"type":"Point","coordinates":[-99.528,27.474]}},{"properties":{"church name":"Manantial de Vida","municipality":"Nuevo Laredo","id":"56","address":"Maclovio Herrera 2434 Sector Centro Nuevo Laredo, Tamaulipas, Mexico","state":"Tamaulipas"},"type":"Feature","geometry":{"type":"Point","coordinates":[-99.524,27.486]}},{"properties":{"church name":"Mision Bautista Buenas Nuevas","municipality":"Nuevo Laredo","id":"57","address":"Chiapas 1030 Riveras del Bravo, Nuevo Laredo, Tamaulipas, Mexico","state":"Tamaulipas"},"type":"Feature","geometry":{"type":"Point","coordinates":[-98.282,26.085]}},{"properties":{"church name":"Parroquia Cristo Rey de Nvo Ldo Ar","municipality":"Nuevo Laredo","id":"58","address":"Independencia 7636 Nuevo Laredo Centro, Nuevo Laredo, Tamaulipas, Mexico","state":"Tamaulipas"},"type":"Feature","geometry":{"type":"Point","coordinates":[-99.554,27.489]}},{"properties":{"church name":"Parroquia de la Sagrada Familia","municipality":"Nuevo Laredo","id":"59","address":"Veracruz 3515 Nuevo Laredo Centro, Nuevo Laredo, Tamaulipas, Mexico","state":"Tamaulipas"},"type":"Feature","geometry":{"type":"Point","coordinates":[-99.511,27.498]}},{"properties":{"church name":"Parroquia de San Martin de Porres","municipality":"Nuevo Laredo","id":"60","address":"Tamaulipas 1910 Nuevo Laredo Centro, Nuevo Laredo, Tamaulipas, Mexico","state":"Tamaulipas"},"type":"Feature","geometry":{"type":"Point","coordinates":[-99.497,27.474]}},{"properties":{"church name":"Parroquia de San Pedro Apostol","municipality":"Nuevo Laredo","id":"61","address":"Zihuatanejo Nuevo Laredo Centro, Nuevo Laredo, Tamaulipas, Mexico","state":"Tamaulipas"},"type":"Feature","geometry":{"type":"Point","coordinates":[-99.561,27.499]}},{"properties":{"church name":"Parroquia San Jose","municipality":"Nuevo Laredo","id":"62","address":"Cuauhtemoc 912 Viveros, Nuevo Laredo, Tamaulipas, Mexico","state":"Tamaulipas"},"type":"Feature","geometry":{"type":"Point","coordinates":[-99.484,27.478]}},{"properties":{"church name":"Templo La Obra Milagrosa","municipality":"Nuevo Laredo","id":"63","address":"Amado Nervo 3315 Mirador, Nuevo Laredo, Tamaulipas, Mexico","state":"Tamaulipas"},"type":"Feature","geometry":{"type":"Point","coordinates":[-99.525,27.474]}},{"properties":{"church name":"Iglesia de Cristo en San Fernando","municipality":"San Fernando","id":"64","address":"Not Applicable","state":"Tamaulipas"},"type":"Feature","geometry":{"type":"Point","coordinates":[-98.134,24.836]}},{"properties":{"church name":"Iglesia de Cristo","municipality":"Soto la Marina","id":"65","address":"Not Applicable","state":"Tamaulipas"},"type":"Feature","geometry":{"type":"Point","coordinates":[-98.198,23.771]}},{"properties":{"church name":"Iglesia de Cristo","municipality":"Soto la Marina","id":"66","address":"Not Applicable","state":"Tamaulipas"},"type":"Feature","geometry":{"type":"Point","coordinates":[-98.203,23.763]}},{"properties":{"church name":"Congregacion Cristina del Los Testigos de Jehova A.r.","municipality":"Tampico","id":"67","address":"Guadalupe 1200, Guadalupe Victoria, Tampico, Tamaulipas, Mexico","state":"Tamaulipas"},"type":"Feature","geometry":{"type":"Point","coordinates":[-97.843,22.219]}},{"properties":{"church name":"Iglesia Catolica Catefral","municipality":"Tampico","id":"68","address":"E Carrabza 101 Ote Centro, Tampico, Tamaulipas, Mexico","state":"Tamaulipas"},"type":"Feature","geometry":{"type":"Point","coordinates":[-97.83,22.245]}},{"properties":{"church name":"Iglesia Catolica Cristo Rey","municipality":"Tampico","id":"69","address":"Av Cuauhtemoc 2805 Centro, Tampico, Tamaulipas, Mexico","state":"Tamaulipas"},"type":"Feature","geometry":{"type":"Point","coordinates":[-97.863,22.244]}},{"properties":{"church name":"Iglesia Catolica el Buen Pastor","municipality":"Tampico","id":"70","address":"Priv Paseo de la Laguna 631 Laguna de la Puerta, Tampico, Tamaulipas, Mexico","state":"Tamaulipas"},"type":"Feature","geometry":{"type":"Point","coordinates":[-97.874,22.315]}},{"properties":{"church name":"Iglesia Catolica Espiritu Santo","municipality":"Tampico","id":"71","address":"Alameda 907 Centro, Tampico, Tamaulipas, Mexico","state":"Tamaulipas"},"type":"Feature","geometry":{"type":"Point","coordinates":[-98.98,22.737]}},{"properties":{"church name":"Iglesia Catolica Maria Auxiliadora","municipality":"Tampico","id":"72","address":"Texas 1 Americana, Tampico, Tamaulipas, Mexico","state":"Tamaulipas"},"type":"Feature","geometry":{"type":"Point","coordinates":[-97.861,22.231]}},{"properties":{"church name":"Iglesia Catolica Maria Reina","municipality":"Tampico","id":"73","address":"Calle 4 de Abril 106 Tancol, Tampico, Tamaulipas, Mexico","state":"Tamaulipas"},"type":"Feature","geometry":{"type":"Point","coordinates":[-97.898,22.299]}},{"properties":{"church name":"Iglesia Catolica Ntra Sra de Fatima","municipality":"Tampico","id":"74","address":"F U Gomex 512 Centro, Tampico, Tamaulipas, Mexico","state":"Tamaulipas"},"type":"Feature","geometry":{"type":"Point","coordinates":[-97.842,22.228]}},{"properties":{"church name":"Iglesia Catolica Ntra Sra de Guadalupe","municipality":"Tampico","id":"75","address":"Juarez 411 Guadalupe Victoria, Tampico, Tamaulipas, Mexico","state":"Tamaulipas"},"type":"Feature","geometry":{"type":"Point","coordinates":[-97.866,22.232]}},{"properties":{"church name":"Iglesia Catolica Ntra Sra de la Encarnacion","municipality":"Tampico","id":"76","address":"L de Rosales y Faja de Oro Lomas de Rosales, Tampico, Tamaulipas, Mexico","state":"Tamaulipas"},"type":"Feature","geometry":{"type":"Point","coordinates":[-97.868,22.266]}},{"properties":{"church name":"Iglesia Catolica Ntra Sra de las Mercedes","municipality":"Tampico","id":"77","address":"E Carranza 904 Centro, Tampico, Tamaulipas, Mexico","state":"Tamaulipas"},"type":"Feature","geometry":{"type":"Point","coordinates":[-97.879,22.225]}},{"properties":{"church name":"Iglesia Catolica Ntra Sra de Lourdes","municipality":"Tampico","id":"78","address":"Nanchital y Ebano Petrolera, Tampico, Tamaulipas, Mexico","state":"Tamaulipas"},"type":"Feature","geometry":{"type":"Point","coordinates":[-97.867,22.256]}},{"properties":{"church name":"Iglesia Catolica Ntra Sra del Perpetuo Socorro","municipality":"Tampico","id":"79","address":"Universidad 500 Monteverde, Tampico Tamaulipas, Mexico","state":"Tamaulipas"},"type":"Feature","geometry":{"type":"Point","coordinates":[-97.863,22.259]}},{"properties":{"church name":"Iglesia Catolica Ntra Sra del Santisimo Rosario","municipality":"Tampico","id":"80","address":"Hidalgo 2606 Aguila, Tampico, Tamaulipas, Mexico","state":"Tamaulipas"},"type":"Feature","geometry":{"type":"Point","coordinates":[-97.876,22.253]}},{"properties":{"church name":"Iglesia Catolica San Jose","municipality":"Tampico","id":"81","address":"Hidalgo 3003 Lauro Aguirre, Tampico, Tamaulipas, Mexico","state":"Tamaulipas"},"type":"Feature","geometry":{"type":"Point","coordinates":[-97.871,22.243]}},{"properties":{"church name":"Iglesia Catolica San Pedro y San Pablo","municipality":"Tampico","id":"82","address":"Rio Bravo 104 Centro,Tampico, Tamaulipas, Mexico","state":"Tamaulipas"},"type":"Feature","geometry":{"type":"Point","coordinates":[-97.858,22.242]}},{"properties":{"church name":"Iglesia Catolica Santo Angel","municipality":"Tampico","id":"83","address":"Hidalgo 303 Centro, Tampico, Tamaulipas, Mexico","state":"Tamaulipas"},"type":"Feature","geometry":{"type":"Point","coordinates":[-97.863,22.236]}},{"properties":{"church name":"Iglesia Catolica Sta Cecilia","municipality":"Tampico","id":"84","address":"A Serdan 904 Guadalupe Mainero, Tampico, Tamaulipas, Mexico","state":"Tamaulipas"},"type":"Feature","geometry":{"type":"Point","coordinates":[-97.849,22.221]}},{"properties":{"church name":"Iglesia de Cristo \"la curva\"","municipality":"Tampico","id":"85","address":"Not Applicable","state":"Tamaulipas"},"type":"Feature","geometry":{"type":"Point","coordinates":[-97.869,22.311]}},{"properties":{"church name":"Iglesia de Dios","municipality":"Tampico","id":"86","address":"Xicotencatl 607Â Tampico, Tamaulipas, Mexico","state":"Tamaulipas"},"type":"Feature","geometry":{"type":"Point","coordinates":[-97.843,22.226]}},{"properties":{"church name":"Iglesia de La Cosecha","municipality":"Tampico","id":"87","address":"Aduana 501 Tampico Tampico, Tamaulipas, Mexico","state":"Tamaulipas"},"type":"Feature","geometry":{"type":"Point","coordinates":[-97.854,22.219]}},{"properties":{"church name":"Iglesia Metodista La Resurreccion","municipality":"Tampico","id":"88","address":"Ignacio Ramirez 11 Benito Juarez, Tampico, Tamaulipas, Mexico","state":"Tamaulipas"},"type":"Feature","geometry":{"type":"Point","coordinates":[-97.864,22.238]}},{"properties":{"church name":"La Iglesia de Jesucristo Sudar","municipality":"Tampico","id":"89","address":"Robledo del Bosque Tampico, Tamaulipas, Mexico","state":"Tamaulipas"},"type":"Feature","geometry":{"type":"Point","coordinates":[-97.877,22.315]}},{"properties":{"church name":"La Iglesia de Jesucristo Sudma","municipality":"Tampico","id":"90","address":"Nicolas Bravo 321 Rodriguez, Tampico, Tamaulipas Mexico","state":"Tamaulipas"},"type":"Feature","geometry":{"type":"Point","coordinates":[-97.864,22.237]}},{"properties":{"church name":"Los Testigos de Jehova","municipality":"Tampico","id":"91","address":"Vicente Guerrero 210 Ampliacion Laguna de la P Tampico, Tamaulipas, Mexico","state":"Tamaulipas"},"type":"Feature","geometry":{"type":"Point","coordinates":[-97.872,22.306]}},{"properties":{"church name":"Obispado de Tampico","municipality":"Tampico","id":"92","address":"Altamira 116 Ote Centro, Tampico, Tamaulipas, Mexico","state":"Tamaulipas"},"type":"Feature","geometry":{"type":"Point","coordinates":[-97.858,22.217]}},{"properties":{"church name":"Parroquia Sagrario Catefral","municipality":"Tampico","id":"93","address":"E Carranza 101 Centro Tampico, Tamaulipas, Mexico","state":"Tamaulipas"},"type":"Feature","geometry":{"type":"Point","coordinates":[-97.88,22.221]}},{"properties":{"church name":"Seminario de Tampico","municipality":"Tampico","id":"94","address":"Zacatecas y Tampico Guadalupe ,Tampico, Tamaulipas, Mexico","state":"Tamaulipas"},"type":"Feature","geometry":{"type":"Point","coordinates":[-97.873,22.253]}},{"properties":{"church name":"Iglesia de Cristo","municipality":"Valle Hermoso","id":"95","address":"Yucatan 210, Valle Hermoso, Tamaulipas, Mexico","state":"Tamaulipas"},"type":"Feature","geometry":{"type":"Point","coordinates":[-97.829,25.671]}}],"is_temporal":false,"author":{"url":"","metadata":"","contact_name":"","contact_address":"","source":"","contact_phone":""},"source":"","pagination":{"sort":null,"start":0,"total":96,"limit":1000000},"state":"complete","tags":"","published":"2011-12-06T02:20:09Z","id":184736}