{"type":"FeatureCollection","data_type":"Dataset","url_type":null,"permissions":[{"permissions":{"download":true,"view":true},"group_id":"everyone"}],"classification":null,"title":"Veracruz Churches","count":55,"stream_id":184718,"contributor":{"url":"http://geocommons.com/users/36594","name":"mfain19"},"data_attributes":null,"calculation_params":null,"icon_link":null,"link":"http://geocommons.com/overlays/184718.json","extent":[-97.683,18.065,-94.405,21.351],"geometry_types":["point"],"unique_name":null,"name":"Veracruz Churches","feature_count":55,"description":"This data presents churches located in Veracruz, Mexico.","next_feature":null,"is_raster":false,"short_classification":"Y","stats":{},"features":[{"properties":{"church name":"Hablando De Vida","municipality":"Boca del Rio","id":"0","address":"20 De Noviembre 335, Veracruz, Veracruz, 91909, Mexico","state":"Veracruz"},"type":"Feature","geometry":{"type":"Point","coordinates":[-96.13,19.16]}},{"properties":{"church name":"Iglesia de Cristo","municipality":"Boca del Rio","id":"1","address":"6 Rubi 12, Boca del Rio, Veracruz, Mexico","state":"Veracruz"},"type":"Feature","geometry":{"type":"Point","coordinates":[-96.112,19.142]}},{"properties":{"church name":"La Luz del Mundo","municipality":"Ciudad Mendoza","id":"2","address":"Joyas de Mocambo, Boca del Río, Veracruz, Mexico","state":"Veracruz"},"type":"Feature","geometry":{"type":"Point","coordinates":[-97.181,18.799]}},{"properties":{"church name":"Iglesia de Cristo en Coatzintla","municipality":"Coatzintla","id":"3","address":"Av Galeana 1, Coatzintla, Veracruz, Mexico","state":"Veracruz"},"type":"Feature","geometry":{"type":"Point","coordinates":[-97.475,20.488]}},{"properties":{"church name":"Iglesia de Cristo de la calle 23","municipality":"Cordoba","id":"4","address":"6 2314, Cordoba, Veracruz, Mexico","state":"Veracruz"},"type":"Feature","geometry":{"type":"Point","coordinates":[-96.925,18.889]}},{"properties":{"church name":"Iglesia de Cristo en Córdoba","municipality":"Cordoba","id":"5","address":"27 LB, Cordoba, Veracruz, Mexico","state":"Veracruz"},"type":"Feature","geometry":{"type":"Point","coordinates":[-96.929,18.873]}},{"properties":{"church name":"Iglesia de Cristo San Roman","municipality":"Cordoba","id":"6","address":"Not Applicable","state":"Veracruz"},"type":"Feature","geometry":{"type":"Point","coordinates":[-96.965,18.882]}},{"properties":{"church name":"Iglesia de Cristo","municipality":"Nachital","id":"7","address":"Adolfo Lopez Mateos 2, Nachital, Veracruz, Mexico","state":"Veracruz"},"type":"Feature","geometry":{"type":"Point","coordinates":[-94.405,18.065]}},{"properties":{"church name":"Iglesia de Cristo en Naranjos","municipality":"Naranjos","id":"8","address":"Juventino Rosas 25, Naranjos, Verecruz, Mexico","state":"Veracruz"},"type":"Feature","geometry":{"type":"Point","coordinates":[-97.683,21.351]}},{"properties":{"church name":"Iglesia Bautista Sion","municipality":"Poza Rica","id":"9","address":"15 De Mayo 222, Poza Rica, Veracruz, 91920, Mexico","state":"Veracruz"},"type":"Feature","geometry":{"type":"Point","coordinates":[-97.427,20.519]}},{"properties":{"church name":"Iglesia de Cristo Tlapacoyan","municipality":"Tlapacoyan","id":"10","address":"Tierra Blanca 211, Tlapacoyan, Veracruz, Mexico","state":"Veracruz"},"type":"Feature","geometry":{"type":"Point","coordinates":[-97.21,19.953]}},{"properties":{"church name":"Agua Viva","municipality":"Veracruz","id":"11","address":"Callejon Clavijero 70, Zona Centro, Veracruz, Veracruz, 91700, Mexico","state":"Veracruz"},"type":"Feature","geometry":{"type":"Point","coordinates":[-96.136,19.198]}},{"properties":{"church name":"Auto Todo Mexicana SA de CV","municipality":"Veracruz","id":"12","address":"Cuauhtemoc 4191, Veracruz, Veracruz, 91700, Mexico","state":"Veracruz"},"type":"Feature","geometry":{"type":"Point","coordinates":[-96.142,19.181]}},{"properties":{"church name":"Casa de Dios Veracruz","municipality":"Veracruz","id":"13","address":"Fco. Javier Mina No. 649, Veracruz, Veracruz, 91900, Mexico","state":"Veracruz"},"type":"Feature","geometry":{"type":"Point","coordinates":[-96.129,19.187]}},{"properties":{"church name":"Casa Emaus AC","municipality":"Veracruz","id":"14","address":"Nicolas Bravo 473, Veracruz, Veracruz, 91700, Mexico","state":"Veracruz"},"type":"Feature","geometry":{"type":"Point","coordinates":[-96.142,19.197]}},{"properties":{"church name":"Cong Stmo Redentor Prov De Mex A R","municipality":"Veracruz","id":"15","address":"Constitucion 207, Veracruz, Veracruz, 91700, Mexico","state":"Veracruz"},"type":"Feature","geometry":{"type":"Point","coordinates":[-96.141,19.202]}},{"properties":{"church name":"Ctna Interdenominacional De La Rep","municipality":"Veracruz","id":"16","address":"Del Peru 38, Zona Centro, Veracruz, Veracruz, 91890, Mexico","state":"Veracruz"},"type":"Feature","geometry":{"type":"Point","coordinates":[-96.15,19.195]}},{"properties":{"church name":"Garfias Vazquez Jose","municipality":"Veracruz","id":"17","address":"J P Silva, Veracruz, Veracruz, 91890, Mexico","state":"Veracruz"},"type":"Feature","geometry":{"type":"Point","coordinates":[-96.159,19.203]}},{"properties":{"church name":"Gonzalez Arvizu Isaias","municipality":"Veracruz","id":"18","address":"Pino Suarez 1747, Zona Centro, Veracruz, Veracruz, 91700, Mexico","state":"Veracruz"},"type":"Feature","geometry":{"type":"Point","coordinates":[-96.148,19.188]}},{"properties":{"church name":"H Q Computacion SA de CV","municipality":"Veracruz","id":"19","address":"Benjamin Franklin 17, Zona Centro, Veracruz, Veracruz, 91700, Mexico","state":"Veracruz"},"type":"Feature","geometry":{"type":"Point","coordinates":[-96.135,19.188]}},{"properties":{"church name":"Hernandez Aguilar Fernando","municipality":"Veracruz","id":"20","address":"Salvador Diaz Miron, Veracruz, Veracruz, 91919, Mexico","state":"Veracruz"},"type":"Feature","geometry":{"type":"Point","coordinates":[-96.134,19.171]}},{"properties":{"church name":"Hernandez Reyes Abraham","municipality":"Veracruz","id":"21","address":"Delfino Valenzuela 148, Veracruz, Veracruz, 91910, Mexico","state":"Veracruz"},"type":"Feature","geometry":{"type":"Point","coordinates":[-96.131,19.172]}},{"properties":{"church name":"Iglesia Bautista Berea","municipality":"Veracruz","id":"22","address":"S Bolivar 941, Veracruz, Veracruz, 91910, Mexico","state":"Veracruz"},"type":"Feature","geometry":{"type":"Point","coordinates":[-96.13,19.175]}},{"properties":{"church name":"Iglesia del Perpetuo Socorro","municipality":"Veracruz","id":"23","address":"Fraternidad 1250, Veracruz, Veracruz, Mexico","state":"Veracruz"},"type":"Feature","geometry":{"type":"Point","coordinates":[-96.153,19.189]}},{"properties":{"church name":"Iglesia Metodista de Mexico Ar","municipality":"Veracruz","id":"24","address":"Ricardo Flores Magon 730, Veracruz, Veracruz, 91700, Mexico","state":"Veracruz"},"type":"Feature","geometry":{"type":"Point","coordinates":[-96.127,19.183]}},{"properties":{"church name":"Inmar Iglesia D Haz El Divino R P Ver","municipality":"Veracruz","id":"25","address":"Netzahualcoyotl 2054, Zona Centro, Veracruz, Veracruz, 91700, Mexico","state":"Veracruz"},"type":"Feature","geometry":{"type":"Point","coordinates":[-96.143,19.193]}},{"properties":{"church name":"Inpm El Buen Pastor","municipality":"Veracruz","id":"26","address":"20 De Noviembre 245, Veracruz, Veracruz, 91700, Mexico","state":"Veracruz"},"type":"Feature","geometry":{"type":"Point","coordinates":[-96.134,19.192]}},{"properties":{"church name":"La Iglesia de Jesucristo Sud en Mex Ar","municipality":"Veracruz","id":"27","address":"Madero 117, Veracruz, Veracruz, 91700, Mexico","state":"Veracruz"},"type":"Feature","geometry":{"type":"Point","coordinates":[-96.142,19.201]}},{"properties":{"church name":"Lopez Alvarez R","municipality":"Veracruz","id":"28","address":"Mario Molina 173, Veracruz, Veracruz, 91700, Mexico","state":"Veracruz"},"type":"Feature","geometry":{"type":"Point","coordinates":[-96.138,19.2]}},{"properties":{"church name":"Lopez Espinoza Enrique","municipality":"Veracruz","id":"29","address":"Av Central S-n, Veracruz, Veracruz, 91700, Mexico","state":"Veracruz"},"type":"Feature","geometry":{"type":"Point","coordinates":[-96.163,19.205]}},{"properties":{"church name":"Martinez Garcia Pedro","municipality":"Veracruz","id":"30","address":"Av Cuauhtemoc 2338, Veracruz, Veracruz, 91756, Mexico","state":"Veracruz"},"type":"Feature","geometry":{"type":"Point","coordinates":[-96.152,19.195]}},{"properties":{"church name":"Medina Pina Pedro","municipality":"Veracruz","id":"31","address":"Av Guadalupe Victoria 4605, Veracruz, Veracruz, 91700, Mexico","state":"Veracruz"},"type":"Feature","geometry":{"type":"Point","coordinates":[-96.138,19.177]}},{"properties":{"church name":"Parroquia Stella Maris","municipality":"Veracruz","id":"32","address":"Flores Magon 1359, Veracruz, Veracruz, 3020","state":"Veracruz"},"type":"Feature","geometry":{"type":"Point","coordinates":[-96.124,19.178]}},{"properties":{"church name":"Pquia La Asuncion","municipality":"Veracruz","id":"33","address":"Independencia 173, Veracruz, Veracruz, 91700","state":"Veracruz"},"type":"Feature","geometry":{"type":"Point","coordinates":[-96.138,19.2]}},{"properties":{"church name":"Ramirez Mayer Ruben","municipality":"Veracruz","id":"34","address":"Jose Azueta 827, Veracruz, Veracruz, 91700","state":"Veracruz"},"type":"Feature","geometry":{"type":"Point","coordinates":[-96.13,19.189]}},{"properties":{"church name":"Tabernaculo Bautista Biblico De Ver","municipality":"Veracruz","id":"35","address":"Rafael Garcia Auly 364, Veracruz, Veracruz, Mexico","state":"Veracruz"},"type":"Feature","geometry":{"type":"Point","coordinates":[-96.125,19.171]}},{"properties":{"church name":"Rico Ortiz M","municipality":"Veracruz","id":"36","address":"Juan Soto 1154, Veracruz, Veracruz, 91700, Mexico","state":"Veracruz"},"type":"Feature","geometry":{"type":"Point","coordinates":[-96.146,19.187]}},{"properties":{"church name":"Uribe Mendoza Agustin","municipality":"Veracruz","id":"37","address":"Velazquez De La Cadena 557, Veracruz, Veracruz, 91850, Mexico","state":"Veracruz"},"type":"Feature","geometry":{"type":"Point","coordinates":[-96.148,19.183]}},{"properties":{"church name":"Arq Jal Ar Rect N Sra La Piedad","municipality":"Xalapa","id":"38","address":"20 De Noviembre, Xalapa, Veracruz, 91000, Mexico","state":"Veracruz"},"type":"Feature","geometry":{"type":"Point","coordinates":[-96.914,19.532]}},{"properties":{"church name":"Arqd De Xalapa Ar P Sta Ma Gpe","municipality":"Xalapa","id":"39","address":"Martires De Xalapa, Xalapa, Veracruz, 91080, Mexico","state":"Veracruz"},"type":"Feature","geometry":{"type":"Point","coordinates":[-96.924,19.52]}},{"properties":{"church name":"Arzobispado De Xal Tribunal E","municipality":"Xalapa","id":"40","address":"Manuel Avila Camacho 73, Xalapa, Veracruz, 91000, Mexico","state":"Veracruz"},"type":"Feature","geometry":{"type":"Point","coordinates":[-96.929,19.529]}},{"properties":{"church name":"Bonilla Martinez Jose","municipality":"Xalapa","id":"41","address":"Revolucion, Xalapa, Veracruz, 91157, Mexico","state":"Veracruz"},"type":"Feature","geometry":{"type":"Point","coordinates":[-96.921,19.57]}},{"properties":{"church name":"Iglesia Bautista Emmanuel","municipality":"Xalapa","id":"42","address":"Chiapas 8, Xalapa, Veracruz, 91050, Mexico","state":"Veracruz"},"type":"Feature","geometry":{"type":"Point","coordinates":[-96.942,19.529]}},{"properties":{"church name":"Iglesia De J De Santos De Los U D","municipality":"Xalapa","id":"43","address":"Rafael Murillo Vidal 6, Xalapa, Veracruz, 91060, Mexico","state":"Veracruz"},"type":"Feature","geometry":{"type":"Point","coordinates":[-96.917,19.528]}},{"properties":{"church name":"Iglesia Metodista de Mexico","municipality":"Xalapa","id":"44","address":"Julio Rebolledo 18, Xalapa, Veracruz, 91050, Mexico","state":"Veracruz"},"type":"Feature","geometry":{"type":"Point","coordinates":[-96.934,19.535]}},{"properties":{"church name":"Iglesias C E Mensajeros del Reino","municipality":"Xalapa","id":"45","address":"Sonora 78, Xalapa, Veracruz, 91130, Mexico","state":"Veracruz"},"type":"Feature","geometry":{"type":"Point","coordinates":[-96.928,19.551]}},{"properties":{"church name":"Jose B Campos Aguayo","municipality":"Xalapa","id":"46","address":"Gustavo A Rodriguez 86, Xalapa, Veracruz, 91000, Mexico","state":"Veracruz"},"type":"Feature","geometry":{"type":"Point","coordinates":[-96.927,19.538]}},{"properties":{"church name":"Miepi Ar Templo Bethsan","municipality":"Xalapa","id":"47","address":"Rio Bravo 419, Xalapa, Veracruz, 91158, Mexico","state":"Veracruz"},"type":"Feature","geometry":{"type":"Point","coordinates":[-96.91,19.561]}},{"properties":{"church name":"Misioneras del Sagrado Corazon De Jesus Jalapa","municipality":"Xalapa","id":"48","address":"Martires De Xalapa 112, Xalapa, Veracruz, 91080, Mexico","state":"Veracruz"},"type":"Feature","geometry":{"type":"Point","coordinates":[-96.923,19.518]}},{"properties":{"church name":"Parroquia De La Resureccion del Senor","municipality":"Xalapa","id":"49","address":"Prol Villahermosa 863, Xalapa, Veracruz, 91558, Mexico","state":"Veracruz"},"type":"Feature","geometry":{"type":"Point","coordinates":[-96.929,19.555]}},{"properties":{"church name":"Parroquia San Antonio De Padua","municipality":"Xalapa","id":"50","address":"Ignacio De La Llave S N, Xalapa, Veracruz, 91050, Mexico","state":"Veracruz"},"type":"Feature","geometry":{"type":"Point","coordinates":[-96.935,19.53]}},{"properties":{"church name":"Parroquia del Espiritu Santo","municipality":"Xalapa","id":"51","address":"Seccion 2 36, Xalapa, Veracruz, 91180, Mexico","state":"Veracruz"},"type":"Feature","geometry":{"type":"Point","coordinates":[-96.905,19.53]}},{"properties":{"church name":"Perea Manzo Rafael","municipality":"Xalapa","id":"52","address":"Pablo Casals 27, Xalapa, Veracruz, 91160, Mexico","state":"Veracruz"},"type":"Feature","geometry":{"type":"Point","coordinates":[-96.914,19.545]}},{"properties":{"church name":"Rico Navarrete Vicente","municipality":"Xalapa","id":"53","address":"Manuel Avila Camacho 56, Xalapa, Veracruz, 91000, Mexico","state":"Veracruz"},"type":"Feature","geometry":{"type":"Point","coordinates":[-96.929,19.529]}},{"properties":{"church name":"Templo Evangelico","municipality":"Xalapa","id":"54","address":"Revolucion 169, Xalapa, Veracruz, 91000, Mexico","state":"Veracruz"},"type":"Feature","geometry":{"type":"Point","coordinates":[-96.924,19.532]}}],"is_temporal":false,"author":{"url":"","metadata":"","contact_name":"","contact_address":"","source":"","contact_phone":""},"source":"","pagination":{"sort":null,"start":0,"total":55,"limit":1000000},"state":"complete","tags":"","published":"2011-12-06T01:46:43Z","id":184718}