{"type":"FeatureCollection","data_type":"Dataset","url_type":null,"permissions":[{"permissions":{"download":true,"view":true},"group_id":"everyone"}],"classification":null,"title":"Beer by Location","count":50,"stream_id":184985,"contributor":{"url":"http://geocommons.com/users/32947","name":"sarge130"},"data_attributes":null,"calculation_params":null,"icon_link":null,"link":"http://geocommons.com/overlays/184985.json","extent":[-157.858,21.3069,-70.2553,64.6441],"geometry_types":["point"],"unique_name":null,"name":"Beer by Location","feature_count":50,"description":"","next_feature":null,"is_raster":false,"short_classification":"Y","stats":{},"features":[{"properties":{"city":"Huntsville","geo_score":0.857,"id":"a6hfw817jctz","geo_precision":"city","brewery":"Old Towne Amber Ale","state":"Alabama"},"type":"Feature","geometry":{"type":"Point","coordinates":[-86.556439,34.718428]}},{"properties":{"city":"Fairbanks","geo_score":0.857,"id":"a6hfw89gme5j","geo_precision":"city","brewery":"Silver Gulch Fairbanks Lager","state":"Alaska"},"type":"Feature","geometry":{"type":"Point","coordinates":[-147.522052,64.644047]}},{"properties":{"city":"Tempe","geo_score":0.857,"id":"a6hfw84d35h7","geo_precision":"city","brewery":"Four Peaks 8th Street Ale","state":"Arizona"},"type":"Feature","geometry":{"type":"Point","coordinates":[-111.90931,33.414768]}},{"properties":{"city":"Little Rock","geo_score":0.857,"id":"a6hfw81b5xcm","geo_precision":"city","brewery":"Diamond Bear Rocktoberfest","state":"Arkansas"},"type":"Feature","geometry":{"type":"Point","coordinates":[-92.289595,34.746481]}},{"properties":{"city":"San Diego","geo_score":0.857,"id":"a6hfw7zi7u44","geo_precision":"city","brewery":"Stone Arrogant Bastard","state":"California"},"type":"Feature","geometry":{"type":"Point","coordinates":[-117.157255,32.715329]}},{"properties":{"city":"Fort Collins","geo_score":0.753,"id":"a6hfw8evz4kt","geo_precision":"city","brewery":"New Belgium Fat Tire","state":"Colorado"},"type":"Feature","geometry":{"type":"Point","coordinates":[-108.685164,39.149614]}},{"properties":{"city":"Olde Burnside Ten Penny Ale","geo_score":0.764,"id":"a6hfw855xp77","geo_precision":"city","brewery":"Olde Burnside Ten Penny Ale","state":"Connecticut"},"type":"Feature","geometry":{"type":"Point","coordinates":[-72.607034,41.779822]}},{"properties":{"city":"Milton","geo_score":0.857,"id":"a6hfw89h7l4t","geo_precision":"city","brewery":"Dogfish Head 60 Minute IPA","state":"Delaware"},"type":"Feature","geometry":{"type":"Point","coordinates":[-75.322223,38.692714]}},{"properties":{"city":"Jacksonville","geo_score":0.857,"id":"a6hfw86n30kn","geo_precision":"city","brewery":"Landshark Lager","state":"Florida"},"type":"Feature","geometry":{"type":"Point","coordinates":[-81.655651,30.332184]}},{"properties":{"city":"Atlanta","geo_score":0.857,"id":"a6hfw8f7wmaj","geo_precision":"city","brewery":"Red Brick Pale Ale","state":"Georgia"},"type":"Feature","geometry":{"type":"Point","coordinates":[-84.387982,33.748995]}},{"properties":{"city":"Honolulu","geo_score":0.857,"id":"a6hfw84znql9","geo_precision":"city","brewery":"Firerock Pale Ale","state":"Hawaii"},"type":"Feature","geometry":{"type":"Point","coordinates":[-157.858333,21.306944]}},{"properties":{"city":"Ponderay","geo_score":0.857,"id":"a6hfw8f0n4pj","geo_precision":"city","brewery":"Laughing Dog Alphadog","state":"Idaho"},"type":"Feature","geometry":{"type":"Point","coordinates":[-116.731899,48.411377]}},{"properties":{"city":"Chicago","geo_score":0.857,"id":"a6hfw85ucxr7","geo_precision":"city","brewery":"Goose Island 312 Urban Wheat Ale","state":"Illinois"},"type":"Feature","geometry":{"type":"Point","coordinates":[-87.650052,41.850033]}},{"properties":{"city":"Munster","geo_score":0.857,"id":"a6hfw87mojhn","geo_precision":"city","brewery":"Three Floyds Alpha King Pale Ale","state":"Indiana"},"type":"Feature","geometry":{"type":"Point","coordinates":[-87.502585,41.550535]}},{"properties":{"city":"Amana","geo_score":0.857,"id":"a6hfw85pdsq9","geo_precision":"city","brewery":"Millstream Windmill Wheat","state":"Iowa"},"type":"Feature","geometry":{"type":"Point","coordinates":[-91.913869,41.812242]}},{"properties":{"city":"Topeka","geo_score":0.857,"id":"a6hfw8ekv2mw","geo_precision":"city","brewery":"Blind Tiger Amber","state":"Kansas"},"type":"Feature","geometry":{"type":"Point","coordinates":[-95.678037,39.048334]}},{"properties":{"city":"Louisville","geo_score":0.857,"id":"a6hfw84ub8zz","geo_precision":"city","brewery":"Blue Grass American Pale Ale","state":"Kentucky"},"type":"Feature","geometry":{"type":"Point","coordinates":[-85.759407,38.254238]}},{"properties":{"city":"New Orlean","geo_score":0.843,"id":"a6hfw87ahnjo","geo_precision":"city","brewery":"Abita Amber","state":"Louisiana"},"type":"Feature","geometry":{"type":"Point","coordinates":[-89.930956,30.068812]}},{"properties":{"city":"Portland","geo_score":0.857,"id":"a6hfw8djuwje","geo_precision":"city","brewery":"Allagash White","state":"Maine"},"type":"Feature","geometry":{"type":"Point","coordinates":[-70.255326,43.661471]}},{"properties":{"city":"Baltimore","geo_score":0.857,"id":"a6hfw838bzmz","geo_precision":"city","brewery":"Clipper City Heavy Seas","state":"Maryland"},"type":"Feature","geometry":{"type":"Point","coordinates":[-76.612189,39.290385]}},{"properties":{"city":"Westminster","geo_score":0.816,"id":"a6hfw86u2xbs","geo_precision":"city","brewery":"Wachusett Green Monsta","state":"Massachusetts"},"type":"Feature","geometry":{"type":"Point","coordinates":[-70.782825,42.566762]}},{"properties":{"city":"Grand Rapids","geo_score":0.857,"id":"a6hfw8cqq6a0","geo_precision":"city","brewery":"Founders Dirty Bastard","state":"Michigan"},"type":"Feature","geometry":{"type":"Point","coordinates":[-85.668086,42.96336]}},{"properties":{"city":"New Ulm","geo_score":0.857,"id":"a6hfw81ao5a5","geo_precision":"city","brewery":"Grainbelt Nordeast","state":"Minnesota"},"type":"Feature","geometry":{"type":"Point","coordinates":[-94.511407,44.259924]}},{"properties":{"city":"Kiln","geo_score":0.786,"id":"a6hfw8bzap1b","geo_precision":"city","brewery":"Lazy Magnolia Southern Gold","state":"Mississippi"},"type":"Feature","geometry":{"type":"Point","coordinates":[-89.008943,31.962098]}},{"properties":{"city":"O'Fallon","geo_score":0.857,"id":"a6hfw83thslc","geo_precision":"city","brewery":"O'Fallon Gold","state":"Missouri"},"type":"Feature","geometry":{"type":"Point","coordinates":[-90.742745,38.823944]}},{"properties":{"city":"Missoula","geo_score":0.857,"id":"a6hfw8chrjwr","geo_precision":"city","brewery":"Trout Slayer","state":"Montana"},"type":"Feature","geometry":{"type":"Point","coordinates":[-113.993998,46.872146]}},{"properties":{"city":"Lincoln","geo_score":0.857,"id":"a6hfw8249r19","geo_precision":"city","brewery":"Empyrean Third Stone Brown","state":"Nebraska"},"type":"Feature","geometry":{"type":"Point","coordinates":[-96.66696,40.800001]}},{"properties":{"city":"Las Vegas","geo_score":0.857,"id":"a6hfw8723f88","geo_precision":"city","brewery":"Big Dog's Tailwagger Wheat","state":"Nevada"},"type":"Feature","geometry":{"type":"Point","coordinates":[-115.137223,36.174971]}},{"properties":{"city":"Portsmouth","geo_score":0.857,"id":"a6hfw8ahzy9t","geo_precision":"city","brewery":"Smuttynose Old Brown Dog Ale","state":"New Hampshire"},"type":"Feature","geometry":{"type":"Point","coordinates":[-71.013202,43.005895]}},{"properties":{"city":"Cherry Hill","geo_score":0.857,"id":"a6hfw80rvbky","geo_precision":"city","brewery":"Flying Fish Exit 4","state":"New Jersey"},"type":"Feature","geometry":{"type":"Point","coordinates":[-75.030726,39.934835]}},{"properties":{"city":"Santa Fe","geo_score":0.857,"id":"a6hfw8ajm92c","geo_precision":"city","brewery":"Santa Fe Pale Ale","state":"New Mexico"},"type":"Feature","geometry":{"type":"Point","coordinates":[-106.073414,35.625075]}},{"properties":{"city":"Brooklyn","geo_score":0.857,"id":"a6hfw80rsw0q","geo_precision":"city","brewery":"Brooklyn Lager","state":"New York"},"type":"Feature","geometry":{"type":"Point","coordinates":[-78.748363,42.433118]}},{"properties":{"city":"Asheville","geo_score":0.857,"id":"a6hfw84f9l3p","geo_precision":"city","brewery":"Highland Gaelic Ale","state":"North Carolina"},"type":"Feature","geometry":{"type":"Point","coordinates":[-82.554015,35.600945]}},{"properties":{"city":"Fargo","geo_score":0.857,"id":"a6hfw89f6zyy","geo_precision":"city","brewery":"Fargo Brewing Company","state":"North Dakota"},"type":"Feature","geometry":{"type":"Point","coordinates":[-96.990615,46.92536]}},{"properties":{"city":"Lakewood","geo_score":0.857,"id":"a6hfw84gbkr2","geo_precision":"city","brewery":"Buckeye Hippie IPA","state":"Ohio"},"type":"Feature","geometry":{"type":"Point","coordinates":[-81.637249,41.514849]}},{"properties":{"city":"Oklahoma City","geo_score":0.857,"id":"a6hfw89p0jtl","geo_precision":"city","brewery":"Huebert Old Tyme Lager","state":"Oklahoma"},"type":"Feature","geometry":{"type":"Point","coordinates":[-97.516428,35.46756]}},{"properties":{"city":"Government Camp","geo_score":0.857,"id":"a6hfw8eputbm","geo_precision":"city","brewery":"Mount Hood Ice Axe IPA","state":"Oregon"},"type":"Feature","geometry":{"type":"Point","coordinates":[-121.739004,45.297173]}},{"properties":{"city":"Pottsville","geo_score":0.843,"id":"a6hfw7znj57o","geo_precision":"city","brewery":"Yuengling Lager","state":"Pennsylvania"},"type":"Feature","geometry":{"type":"Point","coordinates":[-79.740606,41.256171]}},{"properties":{"city":"Newport","geo_score":0.857,"id":"a6hfw8buja4p","geo_precision":"city","brewery":"Coastal Extreme Hurricane Amber Ale","state":"Rhode Island"},"type":"Feature","geometry":{"type":"Point","coordinates":[-71.327084,41.487552]}},{"properties":{"city":"Greenville","geo_score":0.857,"id":"a6hfw8fqn7mc","geo_precision":"city","brewery":"Blue Ridge Kurli Blonde Ale","state":"South Carolina"},"type":"Feature","geometry":{"type":"Point","coordinates":[-82.402871,34.848567]}},{"properties":{"city":"Walla Walla","geo_score":0.771,"id":"a6hfw83krvy1","geo_precision":"city","brewery":"Firehouse Red","state":"South Dakota"},"type":"Feature","geometry":{"type":"Point","coordinates":[-98.786491,45.722199]}},{"properties":{"city":"Nashville","geo_score":0.857,"id":"a6hfw8foe5ld","geo_precision":"city","brewery":"Yazoo Dos Perros","state":"Tennessee"},"type":"Feature","geometry":{"type":"Point","coordinates":[-86.784443,36.16589]}},{"properties":{"city":"Shiner","geo_score":0.857,"id":"a6hfw7zcuifz","geo_precision":"city","brewery":"Shiner Bock","state":"Texas"},"type":"Feature","geometry":{"type":"Point","coordinates":[-97.153946,29.42254]}},{"properties":{"city":"Park City","geo_score":0.857,"id":"a6hfw83gnf2c","geo_precision":"city","brewery":"Wasatch Polygamy Porter","state":"Utah"},"type":"Feature","geometry":{"type":"Point","coordinates":[-111.448892,40.71188]}},{"properties":{"city":"South Burlington","geo_score":0.743,"id":"a6hfw82ow8xa","geo_precision":"city","brewery":"Magic Hat #9","state":"Vermont"},"type":"Feature","geometry":{"type":"Point","coordinates":[-72.575941,44.21006]}},{"properties":{"city":"Alexandria","geo_score":0.857,"id":"a6hfw8fb3wyw","geo_precision":"city","brewery":"Shenandoah Big Meadow Pale Ale","state":"Virginia"},"type":"Feature","geometry":{"type":"Point","coordinates":[-77.046921,38.804836]}},{"properties":{"city":"Seattle","geo_score":0.857,"id":"a6hfw80su0cn","geo_precision":"city","brewery":"Pike Naughty Nellie","state":"Washington"},"type":"Feature","geometry":{"type":"Point","coordinates":[-122.332071,47.60621]}},{"properties":{"city":"Martinsburg","geo_score":0.857,"id":"a6hfw81ifjr3","geo_precision":"city","brewery":"Mountaineer Nut Brown","state":"West Virginia"},"type":"Feature","geometry":{"type":"Point","coordinates":[-77.951924,39.444061]}},{"properties":{"city":"Chippewa Falls","geo_score":0.747,"id":"a6hfw8ffamnx","geo_precision":"city","brewery":"Leinenkugel Sunset Wheat","state":"Wisconsin"},"type":"Feature","geometry":{"type":"Point","coordinates":[-89.234838,43.089719]}},{"properties":{"city":"Jackson","geo_score":0.857,"id":"a6hfw86mqthc","geo_precision":"city","brewery":"Snake River Lager","state":"Wyoming"},"type":"Feature","geometry":{"type":"Point","coordinates":[-110.739266,43.452793]}}],"is_temporal":false,"author":{"url":"","metadata":"","contact_name":"","contact_address":"","source":"","contact_phone":""},"source":"","pagination":{"sort":null,"start":0,"total":50,"limit":1000000},"state":"complete","tags":"","published":"2014-08-13T04:37:56-04:00","id":184985}