{"type":"FeatureCollection","data_type":"Dataset","url_type":null,"permissions":[{"permissions":{"download":true,"view":true},"group_id":"everyone"}],"classification":null,"title":"OfficeLocations","count":18,"stream_id":185004,"contributor":{"url":"http://geocommons.com/users/37024","name":"anjanaschroeder"},"data_attributes":null,"calculation_params":null,"icon_link":null,"link":"http://geocommons.com/overlays/185004.json","extent":[-86.3104,41.8979,-82.9471,44.2804],"geometry_types":["point"],"unique_name":null,"name":"OfficeLocations","feature_count":18,"description":"","next_feature":null,"is_raster":false,"short_classification":"Y","stats":{},"features":[{"properties":{"city":"Allegan","zip":"49010","county":"Allegan","geo_score":0.868,"street":"3255 122nd Ave., Suite 300","id":"a6364bbxs2gp","geo_precision":"street","state":"Michigan"},"type":"Feature","geometry":{"type":"Point","coordinates":[-85.780896,42.580721]}},{"properties":{"city":"Standish","zip":"48658","county":"Arenac/Bay","geo_score":0.867,"street":"3709 Deep River Road","id":"a6364ba0g2bn","geo_precision":"range","state":"Michigan"},"type":"Feature","geometry":{"type":"Point","coordinates":[-83.986802,43.975483]}},{"properties":{"city":"Beulah","zip":"49617","county":"Benzie","geo_score":0.339,"street":"448 Court Plaza, PO Box 114","id":"a6364b90z13x","geo_precision":"street","state":"Michigan"},"type":"Feature","geometry":{"type":"Point","coordinates":[-85.582369,43.801379]}},{"properties":{"city":"Benton Harbor","zip":"49023","county":"Berrien","geo_score":0.543,"street":"401 Eighth Street, PO Box 1407","id":"a6364b12e9qg","geo_precision":"street","state":"Michigan"},"type":"Feature","geometry":{"type":"Point","coordinates":[-85.622169,42.449774]}},{"properties":{"city":"Cassopolis","zip":"49031","county":"Cass","geo_score":0.61,"street":"325 M62","id":"a6364bbs0yoe","geo_precision":"range","state":"Michigan"},"type":"Feature","geometry":{"type":"Point","coordinates":[-85.235623,42.092754]}},{"properties":{"city":"Traverse City","zip":"49685","county":"Grand Traverse/Leelanau","geo_score":0.347,"street":"701 S. Elmwood, Suite 19","id":"a6364b0kyywo","geo_precision":"street","state":"Michigan"},"type":"Feature","geometry":{"type":"Point","coordinates":[-86.283991,44.280443]}},{"properties":{"city":"Bad Axe","zip":"48413","county":"Huron","geo_score":0.902,"street":"1911 Sand Beach Road","id":"a6364b1beve0","geo_precision":"range","state":"Michigan"},"type":"Feature","geometry":{"type":"Point","coordinates":[-82.947075,43.803731]}},{"properties":{"city":"Lansing","zip":"48909","county":"Ingham","geo_score":0.347,"street":"5303 S. Cedar Street","id":"a6364bc414s6","geo_precision":"street","state":"Michigan"},"type":"Feature","geometry":{"type":"Point","coordinates":[-84.544857,42.725446]}},{"properties":{"city":"Ionia","zip":"48846","county":"Ionia/Montcalm","geo_score":0.496,"street":"920 E. Lincoln","id":"a6364bberqan","geo_precision":"street","state":"Michigan"},"type":"Feature","geometry":{"type":"Point","coordinates":[-85.065679,42.98739]}},{"properties":{"city":"Sparta","zip":"49345","county":"Kent","geo_score":0.494,"street":"536 S. State Street","id":"a6364bdymz3o","geo_precision":"street","state":"Michigan"},"type":"Feature","geometry":{"type":"Point","coordinates":[-85.710098,43.16079]}},{"properties":{"city":"Lapeer","zip":"48446","county":"Lapeer/Sanilac","geo_score":0.919,"street":"1505 Suncrest Drive","id":"a6364bbn71ba","geo_precision":"range","state":"Michigan"},"type":"Feature","geometry":{"type":"Point","coordinates":[-83.333569,43.064967]}},{"properties":{"city":"Adrian","zip":"49221","county":"Lenawee","geo_score":0.49,"street":"1040 S. Winter Street, Suite 3013","id":"a6364b1pxso0","geo_precision":"street","state":"Michigan"},"type":"Feature","geometry":{"type":"Point","coordinates":[-84.038606,41.897894]}},{"properties":{"city":"Manistee","zip":"49660","county":"Manistee","geo_score":0.793,"street":"1672 US 31 South","id":"a6364b6twhdq","geo_precision":"range","state":"Michigan"},"type":"Feature","geometry":{"type":"Point","coordinates":[-86.310385,44.224606]}},{"properties":{"city":"Monroe","zip":"48161","county":"Monroe","geo_score":0.497,"street":"1051 S. Telegraph","id":"a6364b89eiov","geo_precision":"street","state":"Michigan"},"type":"Feature","geometry":{"type":"Point","coordinates":[-83.416767,41.919686]}},{"properties":{"city":"Hart","zip":"49420","county":"Oceana","geo_score":0.501,"street":"4081 W. Polk Road","id":"a6364bacjecn","geo_precision":"street","state":"Michigan"},"type":"Feature","geometry":{"type":"Point","coordinates":[-86.288074,43.687031]}},{"properties":{"city":"Holland","zip":"49424","county":"Ottawa","geo_score":1.0,"street":"12185 James Street","id":"a6364b33hvpz","geo_precision":"range","state":"Michigan"},"type":"Feature","geometry":{"type":"Point","coordinates":[-86.084005,42.812075]}},{"properties":{"city":"Caro","zip":"48723","county":"Tuscola","geo_score":0.913,"street":"1365 Cleaver Road","id":"a6364b8e0ala","geo_precision":"range","state":"Michigan"},"type":"Feature","geometry":{"type":"Point","coordinates":[-83.387794,43.505244]}},{"properties":{"city":"Hartford","zip":"49057","county":"Van Buren","geo_score":0.429,"street":"57150 C.R. 681, PO Box 7","id":"a6364betf64d","geo_precision":"street","state":"Michigan"},"type":"Feature","geometry":{"type":"Point","coordinates":[-86.255417,42.456713]}}],"is_temporal":false,"author":{"url":"","metadata":null,"contact_name":null,"contact_address":null,"source":null,"contact_phone":null},"source":"","pagination":{"sort":null,"start":0,"total":18,"limit":1000000},"state":"complete","tags":"","published":"2014-08-13T04:39:15-04:00","id":185004}