{"type":"FeatureCollection","data_type":"Dataset","url_type":null,"permissions":[{"permissions":{"download":true,"view":true},"group_id":"everyone"}],"classification":null,"title":"test","count":163,"stream_id":18519,"contributor":{"url":"http://geocommons.com/users/9684","name":"joseph.lam"},"data_attributes":null,"calculation_params":null,"icon_link":null,"link":"http://geocommons.com/overlays/18519.json","extent":[-122.421,25.9779,-72.6371,47.6516],"geometry_types":["point"],"unique_name":null,"name":"test","feature_count":163,"description":"","next_feature":null,"is_raster":false,"short_classification":"Y","stats":{"zipcode":{"max":null,"min":null,"median":null},"product rating":{"max":3.9,"mean":2.64171779141104,"variance":0.30466863591608,"stdev":0.551967966385804,"min":1.0,"median":2.6},"geo_score":{"max":0.714,"mean":0.692098159509201,"variance":0.0152517927743695,"stdev":0.123498148870214,"min":0.0,"median":0.714}},"features":[{"properties":{"product rating":2.9,"zipcode":"10012","geo_score":0.714,"id":"a6na43h809cr","geo_precision":"zip"},"type":"Feature","geometry":{"type":"Point","coordinates":[-73.991582,40.729124]}},{"properties":{"product rating":2.8,"zipcode":"10013","geo_score":0.714,"id":"a6na43jgn9d6","geo_precision":"zip"},"type":"Feature","geometry":{"type":"Point","coordinates":[-73.99625,40.716491]}},{"properties":{"product rating":3.7,"zipcode":"10018","geo_score":0.714,"id":"a6na43itn6wx","geo_precision":"zip"},"type":"Feature","geometry":{"type":"Point","coordinates":[-73.993172,40.755332]}},{"properties":{"product rating":3.3,"zipcode":"10023","geo_score":0.714,"id":"a6na43swui6s","geo_precision":"zip"},"type":"Feature","geometry":{"type":"Point","coordinates":[-73.982213,40.776765]}},{"properties":{"product rating":2.3,"zipcode":"10023","geo_score":0.714,"id":"a6na43omtge9","geo_precision":"zip"},"type":"Feature","geometry":{"type":"Point","coordinates":[-73.982213,40.776765]}},{"properties":{"product rating":3.0,"zipcode":"11720","geo_score":0.714,"id":"a6na43kznn15","geo_precision":"zip"},"type":"Feature","geometry":{"type":"Point","coordinates":[-72.637078,40.922326]}},{"properties":{"product rating":3.0,"zipcode":"11768","geo_score":0.714,"id":"a6na43tiqcoj","geo_precision":"zip"},"type":"Feature","geometry":{"type":"Point","coordinates":[-73.401507,40.930654]}},{"properties":{"product rating":3.0,"zipcode":"12134","geo_score":0.714,"id":"a6na43saqaif","geo_precision":"zip"},"type":"Feature","geometry":{"type":"Point","coordinates":[-74.153743,43.256183]}},{"properties":{"product rating":2.7,"zipcode":"15061","geo_score":0.714,"id":"a6na43qsrp2y","geo_precision":"zip"},"type":"Feature","geometry":{"type":"Point","coordinates":[-80.327814,40.656366]}},{"properties":{"product rating":2.1,"zipcode":"16827","geo_score":0.714,"id":"a6na43u9cobd","geo_precision":"zip"},"type":"Feature","geometry":{"type":"Point","coordinates":[-77.8025,40.793951]}},{"properties":{"product rating":2.8,"zipcode":"20002","geo_score":0.714,"id":"a6na43fvxs55","geo_precision":"zip"},"type":"Feature","geometry":{"type":"Point","coordinates":[-76.982147,38.908218]}},{"properties":{"product rating":3.6,"zipcode":"20010","geo_score":0.714,"id":"a6na43qjqc4s","geo_precision":"zip"},"type":"Feature","geometry":{"type":"Point","coordinates":[-77.030248,38.932711]}},{"properties":{"product rating":2.8,"zipcode":"20024","geo_score":0.714,"id":"a6na43jk78ky","geo_precision":"zip"},"type":"Feature","geometry":{"type":"Point","coordinates":[-77.022948,38.876494]}},{"properties":{"product rating":3.2,"zipcode":"20037","geo_score":0.714,"id":"a6na43kf7a1p","geo_precision":"zip"},"type":"Feature","geometry":{"type":"Point","coordinates":[-77.061781,38.918903]}},{"properties":{"product rating":2.3,"zipcode":"20037","geo_score":0.714,"id":"a6na43p66jh7","geo_precision":"zip"},"type":"Feature","geometry":{"type":"Point","coordinates":[-77.061781,38.918903]}},{"properties":{"product rating":2.3,"zipcode":"21046","geo_score":0.714,"id":"a6na43u9t82d","geo_precision":"zip"},"type":"Feature","geometry":{"type":"Point","coordinates":[-76.834945,39.175406]}},{"properties":{"product rating":3.1,"zipcode":"22030","geo_score":0.714,"id":"a6na43ohfb46","geo_precision":"zip"},"type":"Feature","geometry":{"type":"Point","coordinates":[-77.363875,38.87289]}},{"properties":{"product rating":3.0,"zipcode":"23185","geo_score":0.714,"id":"a6na43le6w3m","geo_precision":"zip"},"type":"Feature","geometry":{"type":"Point","coordinates":[-76.670511,37.267091]}},{"properties":{"product rating":2.5,"zipcode":"24450","geo_score":0.714,"id":"a6na43tcljis","geo_precision":"zip"},"type":"Feature","geometry":{"type":"Point","coordinates":[-79.364481,37.892076]}},{"properties":{"product rating":2.9,"zipcode":"25314","geo_score":0.714,"id":"a6na43n1h5m2","geo_precision":"zip"},"type":"Feature","geometry":{"type":"Point","coordinates":[-81.739013,38.241487]}},{"properties":{"product rating":2.9,"zipcode":"27609","geo_score":0.714,"id":"a6na43esg2jb","geo_precision":"zip"},"type":"Feature","geometry":{"type":"Point","coordinates":[-78.518056,35.96154]}},{"properties":{"product rating":2.9,"zipcode":"28120","geo_score":0.714,"id":"a6na43oqs149","geo_precision":"zip"},"type":"Feature","geometry":{"type":"Point","coordinates":[-81.010631,35.384859]}},{"properties":{"product rating":2.9,"zipcode":"28302","geo_score":0.714,"id":"a6na43px4sn1","geo_precision":"zip"},"type":"Feature","geometry":{"type":"Point","coordinates":[-78.908828,35.034307]}},{"properties":{"product rating":3.1,"zipcode":"30307","geo_score":0.714,"id":"a6na43ttot42","geo_precision":"zip"},"type":"Feature","geometry":{"type":"Point","coordinates":[-84.357375,33.762855]}},{"properties":{"product rating":2.7,"zipcode":"30360","geo_score":0.714,"id":"a6na43j2fpe1","geo_precision":"zip"},"type":"Feature","geometry":{"type":"Point","coordinates":[-84.277772,33.931069]}},{"properties":{"product rating":3.0,"zipcode":"30360","geo_score":0.714,"id":"a6na43g50rac","geo_precision":"zip"},"type":"Feature","geometry":{"type":"Point","coordinates":[-84.277772,33.931069]}},{"properties":{"product rating":2.5,"zipcode":"30606","geo_score":0.714,"id":"a6na43quc4op","geo_precision":"zip"},"type":"Feature","geometry":{"type":"Point","coordinates":[-83.43064,33.951348]}},{"properties":{"product rating":2.7,"zipcode":"30683","geo_score":0.714,"id":"a6na43mr31zb","geo_precision":"zip"},"type":"Feature","geometry":{"type":"Point","coordinates":[-83.292152,33.930735]}},{"properties":{"product rating":2.8,"zipcode":"31825","geo_score":0.714,"id":"a6na43k6to3r","geo_precision":"zip"},"type":"Feature","geometry":{"type":"Point","coordinates":[-84.718627,32.074331]}},{"properties":{"product rating":3.2,"zipcode":"32210","geo_score":0.714,"id":"a6na43iykjwi","geo_precision":"zip"},"type":"Feature","geometry":{"type":"Point","coordinates":[-81.770099,30.245795]}},{"properties":{"product rating":2.4,"zipcode":"32507","geo_score":0.714,"id":"a6na43qnkbc1","geo_precision":"zip"},"type":"Feature","geometry":{"type":"Point","coordinates":[-87.345252,30.359088]}},{"properties":{"product rating":2.2,"zipcode":"32940","geo_score":0.714,"id":"a6na43f6ldwc","geo_precision":"zip"},"type":"Feature","geometry":{"type":"Point","coordinates":[-80.697829,28.216262]}},{"properties":{"product rating":3.4,"zipcode":"33009","geo_score":0.714,"id":"a6na43mfgyku","geo_precision":"zip"},"type":"Feature","geometry":{"type":"Point","coordinates":[-80.165046,25.977869]}},{"properties":{"product rating":2.3,"zipcode":"33432","geo_score":0.714,"id":"a6na43lqkcmu","geo_precision":"zip"},"type":"Feature","geometry":{"type":"Point","coordinates":[-80.126155,26.353411]}},{"properties":{"product rating":2.2,"zipcode":"33445","geo_score":0.714,"id":"a6na43su5zal","geo_precision":"zip"},"type":"Feature","geometry":{"type":"Point","coordinates":[-80.100015,26.548504]}},{"properties":{"product rating":2.3,"zipcode":"33917","geo_score":0.714,"id":"a6na43o5bbxw","geo_precision":"zip"},"type":"Feature","geometry":{"type":"Point","coordinates":[-81.844716,26.648211]}},{"properties":{"product rating":2.0,"zipcode":"36614","geo_score":0.714,"id":"a6na43q5j6eu","geo_precision":"zip"},"type":"Feature","geometry":{"type":"Point","coordinates":[-88.211103,30.601892]}},{"properties":{"product rating":3.4,"zipcode":"39759","geo_score":0.714,"id":"a6na43reziq1","geo_precision":"zip"},"type":"Feature","geometry":{"type":"Point","coordinates":[-88.800053,33.525399]}},{"properties":{"product rating":3.2,"zipcode":"45231","geo_score":0.714,"id":"a6na43fn9r8v","geo_precision":"zip"},"type":"Feature","geometry":{"type":"Point","coordinates":[-84.494943,39.240336]}},{"properties":{"product rating":2.3,"zipcode":"47458","geo_score":0.714,"id":"a6na43sk3a22","geo_precision":"zip"},"type":"Feature","geometry":{"type":"Point","coordinates":[-86.501543,39.173234]}},{"properties":{"product rating":3.2,"zipcode":"53216","geo_score":0.714,"id":"a6na43rga1fa","geo_precision":"zip"},"type":"Feature","geometry":{"type":"Point","coordinates":[-87.976988,43.086244]}},{"properties":{"product rating":2.5,"zipcode":"59868","geo_score":0.714,"id":"a6na43lo9vcg","geo_precision":"zip"},"type":"Feature","geometry":{"type":"Point","coordinates":[-113.548481,47.300776]}},{"properties":{"product rating":2.2,"zipcode":"60194","geo_score":0.714,"id":"a6na43f5aacs","geo_precision":"zip"},"type":"Feature","geometry":{"type":"Point","coordinates":[-88.116655,42.028926]}},{"properties":{"product rating":2.7,"zipcode":"60610","geo_score":0.714,"id":"a6na43rk4o1n","geo_precision":"zip"},"type":"Feature","geometry":{"type":"Point","coordinates":[-87.68732,41.811929]}},{"properties":{"product rating":3.0,"zipcode":"63105","geo_score":0.714,"id":"a6na43qk8w4t","geo_precision":"zip"},"type":"Feature","geometry":{"type":"Point","coordinates":[-90.323726,38.642552]}},{"properties":{"product rating":2.6,"zipcode":"70124","geo_score":0.714,"id":"a6na43shjs59","geo_precision":"zip"},"type":"Feature","geometry":{"type":"Point","coordinates":[-90.108128,30.004647]}},{"properties":{"product rating":3.1,"zipcode":"71106","geo_score":0.714,"id":"a6na43pqukgf","geo_precision":"zip"},"type":"Feature","geometry":{"type":"Point","coordinates":[-93.711612,32.39117]}},{"properties":{"product rating":3.0,"zipcode":"75098","geo_score":0.714,"id":"a6na43fxyxp3","geo_precision":"zip"},"type":"Feature","geometry":{"type":"Point","coordinates":[-96.528045,32.9579]}},{"properties":{"product rating":1.9,"zipcode":"75209","geo_score":0.714,"id":"a6na43k4jqqs","geo_precision":"zip"},"type":"Feature","geometry":{"type":"Point","coordinates":[-96.821668,32.93068]}},{"properties":{"product rating":3.3,"zipcode":"75225","geo_score":0.714,"id":"a6na43idyxqf","geo_precision":"zip"},"type":"Feature","geometry":{"type":"Point","coordinates":[-96.771829,32.851127]}},{"properties":{"product rating":3.2,"zipcode":"75225","geo_score":0.714,"id":"a6na43g4gdja","geo_precision":"zip"},"type":"Feature","geometry":{"type":"Point","coordinates":[-96.771829,32.851127]}},{"properties":{"product rating":2.5,"zipcode":"75238","geo_score":0.714,"id":"a6na43poo84q","geo_precision":"zip"},"type":"Feature","geometry":{"type":"Point","coordinates":[-96.704725,32.878923]}},{"properties":{"product rating":2.2,"zipcode":"75246","geo_score":0.714,"id":"a6na43os3bxu","geo_precision":"zip"},"type":"Feature","geometry":{"type":"Point","coordinates":[-96.773179,32.793328]}},{"properties":{"product rating":2.6,"zipcode":"77003","geo_score":0.714,"id":"a6na43t5dgtd","geo_precision":"zip"},"type":"Feature","geometry":{"type":"Point","coordinates":[-95.434241,29.83399]}},{"properties":{"product rating":2.5,"zipcode":"77003","geo_score":0.714,"id":"a6na43fz0z98","geo_precision":"zip"},"type":"Feature","geometry":{"type":"Point","coordinates":[-95.434241,29.83399]}},{"properties":{"product rating":2.2,"zipcode":"77004","geo_score":0.714,"id":"a6na43hm5ia2","geo_precision":"zip"},"type":"Feature","geometry":{"type":"Point","coordinates":[-95.434241,29.83399]}},{"properties":{"product rating":2.4,"zipcode":"77004","geo_score":0.714,"id":"a6na43l3uua2","geo_precision":"zip"},"type":"Feature","geometry":{"type":"Point","coordinates":[-95.434241,29.83399]}},{"properties":{"product rating":3.7,"zipcode":"77005","geo_score":0.714,"id":"a6na43eq08mq","geo_precision":"zip"},"type":"Feature","geometry":{"type":"Point","coordinates":[-95.434241,29.83399]}},{"properties":{"product rating":3.4,"zipcode":"77005","geo_score":0.714,"id":"a6na43jc3n9m","geo_precision":"zip"},"type":"Feature","geometry":{"type":"Point","coordinates":[-95.434241,29.83399]}},{"properties":{"product rating":2.2,"zipcode":"77005","geo_score":0.714,"id":"a6na43n6w8k2","geo_precision":"zip"},"type":"Feature","geometry":{"type":"Point","coordinates":[-95.434241,29.83399]}},{"properties":{"product rating":2.4,"zipcode":"77006","geo_score":0.714,"id":"a6na43qxjb34","geo_precision":"zip"},"type":"Feature","geometry":{"type":"Point","coordinates":[-95.434241,29.83399]}},{"properties":{"product rating":2.8,"zipcode":"77006","geo_score":0.714,"id":"a6na43h4s9eo","geo_precision":"zip"},"type":"Feature","geometry":{"type":"Point","coordinates":[-95.434241,29.83399]}},{"properties":{"product rating":2.6,"zipcode":"77007","geo_score":0.714,"id":"a6na43mxpgcc","geo_precision":"zip"},"type":"Feature","geometry":{"type":"Point","coordinates":[-95.434241,29.83399]}},{"properties":{"product rating":2.3,"zipcode":"77007","geo_score":0.714,"id":"a6na43u556pq","geo_precision":"zip"},"type":"Feature","geometry":{"type":"Point","coordinates":[-95.434241,29.83399]}},{"properties":{"product rating":3.2,"zipcode":"77007","geo_score":0.714,"id":"a6na43ghmnhf","geo_precision":"zip"},"type":"Feature","geometry":{"type":"Point","coordinates":[-95.434241,29.83399]}},{"properties":{"product rating":2.9,"zipcode":"77007","geo_score":0.714,"id":"a6na43u8ohiv","geo_precision":"zip"},"type":"Feature","geometry":{"type":"Point","coordinates":[-95.434241,29.83399]}},{"properties":{"product rating":3.7,"zipcode":"77007","geo_score":0.714,"id":"a6na43lc83oh","geo_precision":"zip"},"type":"Feature","geometry":{"type":"Point","coordinates":[-95.434241,29.83399]}},{"properties":{"product rating":2.4,"zipcode":"77008","geo_score":0.714,"id":"a6na43fz4gvt","geo_precision":"zip"},"type":"Feature","geometry":{"type":"Point","coordinates":[-95.434241,29.83399]}},{"properties":{"product rating":3.1,"zipcode":"77008","geo_score":0.714,"id":"a6na43ffnfc3","geo_precision":"zip"},"type":"Feature","geometry":{"type":"Point","coordinates":[-95.434241,29.83399]}},{"properties":{"product rating":3.4,"zipcode":"77008","geo_score":0.714,"id":"a6na43rxn10t","geo_precision":"zip"},"type":"Feature","geometry":{"type":"Point","coordinates":[-95.434241,29.83399]}},{"properties":{"product rating":2.4,"zipcode":"77008","geo_score":0.714,"id":"a6na43ma2kzf","geo_precision":"zip"},"type":"Feature","geometry":{"type":"Point","coordinates":[-95.434241,29.83399]}},{"properties":{"product rating":3.0,"zipcode":"77009","geo_score":0.714,"id":"a6na43mnho3d","geo_precision":"zip"},"type":"Feature","geometry":{"type":"Point","coordinates":[-95.434241,29.83399]}},{"properties":{"product rating":2.5,"zipcode":"77019","geo_score":0.714,"id":"a6na43qytb16","geo_precision":"zip"},"type":"Feature","geometry":{"type":"Point","coordinates":[-95.434241,29.83399]}},{"properties":{"product rating":2.6,"zipcode":"77019","geo_score":0.714,"id":"a6na43mpsi45","geo_precision":"zip"},"type":"Feature","geometry":{"type":"Point","coordinates":[-95.434241,29.83399]}},{"properties":{"product rating":3.3,"zipcode":"77019","geo_score":0.714,"id":"a6na43nphlgh","geo_precision":"zip"},"type":"Feature","geometry":{"type":"Point","coordinates":[-95.434241,29.83399]}},{"properties":{"product rating":2.6,"zipcode":"77019","geo_score":0.714,"id":"a6na43im6rrb","geo_precision":"zip"},"type":"Feature","geometry":{"type":"Point","coordinates":[-95.434241,29.83399]}},{"properties":{"product rating":2.7,"zipcode":"77019","geo_score":0.714,"id":"a6na43g44swe","geo_precision":"zip"},"type":"Feature","geometry":{"type":"Point","coordinates":[-95.434241,29.83399]}},{"properties":{"product rating":1.3,"zipcode":"77019","geo_score":0.714,"id":"a6na43rpiwji","geo_precision":"zip"},"type":"Feature","geometry":{"type":"Point","coordinates":[-95.434241,29.83399]}},{"properties":{"product rating":3.0,"zipcode":"77024","geo_score":0.714,"id":"a6na43n4ajw3","geo_precision":"zip"},"type":"Feature","geometry":{"type":"Point","coordinates":[-95.503553,29.789672]}},{"properties":{"product rating":3.4,"zipcode":"77024","geo_score":0.714,"id":"a6na43okv9wl","geo_precision":"zip"},"type":"Feature","geometry":{"type":"Point","coordinates":[-95.503553,29.789672]}},{"properties":{"product rating":2.2,"zipcode":"77025","geo_score":0.714,"id":"a6na43p1t6l4","geo_precision":"zip"},"type":"Feature","geometry":{"type":"Point","coordinates":[-95.434241,29.83399]}},{"properties":{"product rating":2.2,"zipcode":"77025","geo_score":0.714,"id":"a6na43spjw7x","geo_precision":"zip"},"type":"Feature","geometry":{"type":"Point","coordinates":[-95.434241,29.83399]}},{"properties":{"product rating":2.2,"zipcode":"77027","geo_score":0.714,"id":"a6na43rt6e5q","geo_precision":"zip"},"type":"Feature","geometry":{"type":"Point","coordinates":[-95.303129,29.688374]}},{"properties":{"product rating":2.3,"zipcode":"77027","geo_score":0.714,"id":"a6na43t6g9ke","geo_precision":"zip"},"type":"Feature","geometry":{"type":"Point","coordinates":[-95.303129,29.688374]}},{"properties":{"product rating":3.3,"zipcode":"77027","geo_score":0.714,"id":"a6na43fp65ir","geo_precision":"zip"},"type":"Feature","geometry":{"type":"Point","coordinates":[-95.303129,29.688374]}},{"properties":{"product rating":1.5,"zipcode":"77030","geo_score":0.714,"id":"a6na43txpjp7","geo_precision":"zip"},"type":"Feature","geometry":{"type":"Point","coordinates":[-95.434241,29.83399]}},{"properties":{"product rating":2.9,"zipcode":"77030","geo_score":0.714,"id":"a6na43lk1cd2","geo_precision":"zip"},"type":"Feature","geometry":{"type":"Point","coordinates":[-95.434241,29.83399]}},{"properties":{"product rating":2.0,"zipcode":"77030","geo_score":0.714,"id":"a6na43rz58qp","geo_precision":"zip"},"type":"Feature","geometry":{"type":"Point","coordinates":[-95.434241,29.83399]}},{"properties":{"product rating":1.7,"zipcode":"77030","geo_score":0.714,"id":"a6na43icggie","geo_precision":"zip"},"type":"Feature","geometry":{"type":"Point","coordinates":[-95.434241,29.83399]}},{"properties":{"product rating":2.3,"zipcode":"77030","geo_score":0.714,"id":"a6na43j2em6z","geo_precision":"zip"},"type":"Feature","geometry":{"type":"Point","coordinates":[-95.434241,29.83399]}},{"properties":{"product rating":3.0,"zipcode":"77036","geo_score":0.714,"id":"a6na43fdn6s6","geo_precision":"zip"},"type":"Feature","geometry":{"type":"Point","coordinates":[-95.434241,29.83399]}},{"properties":{"product rating":2.8,"zipcode":"77040","geo_score":0.714,"id":"a6na43illlza","geo_precision":"zip"},"type":"Feature","geometry":{"type":"Point","coordinates":[-95.46355,30.006888]}},{"properties":{"product rating":2.4,"zipcode":"77042","geo_score":0.714,"id":"a6na43g08k6x","geo_precision":"zip"},"type":"Feature","geometry":{"type":"Point","coordinates":[-95.434241,29.83399]}},{"properties":{"product rating":2.3,"zipcode":"77054","geo_score":0.714,"id":"a6na43scei6q","geo_precision":"zip"},"type":"Feature","geometry":{"type":"Point","coordinates":[-95.391466,29.67543]}},{"properties":{"product rating":3.0,"zipcode":"77054","geo_score":0.714,"id":"a6na43jsc6dl","geo_precision":"zip"},"type":"Feature","geometry":{"type":"Point","coordinates":[-95.391466,29.67543]}},{"properties":{"product rating":1.5,"zipcode":"77055","geo_score":0.714,"id":"a6na43tdwg05","geo_precision":"zip"},"type":"Feature","geometry":{"type":"Point","coordinates":[-95.434241,29.83399]}},{"properties":{"product rating":2.1,"zipcode":"77055","geo_score":0.714,"id":"a6na43qgg38f","geo_precision":"zip"},"type":"Feature","geometry":{"type":"Point","coordinates":[-95.434241,29.83399]}},{"properties":{"product rating":2.2,"zipcode":"77055","geo_score":0.714,"id":"a6na43mdtmle","geo_precision":"zip"},"type":"Feature","geometry":{"type":"Point","coordinates":[-95.434241,29.83399]}},{"properties":{"product rating":3.0,"zipcode":"77055","geo_score":0.714,"id":"a6na43qhchlg","geo_precision":"zip"},"type":"Feature","geometry":{"type":"Point","coordinates":[-95.434241,29.83399]}},{"properties":{"product rating":2.6,"zipcode":"77055","geo_score":0.714,"id":"a6na43ke1dfr","geo_precision":"zip"},"type":"Feature","geometry":{"type":"Point","coordinates":[-95.434241,29.83399]}},{"properties":{"product rating":2.0,"zipcode":"77056","geo_score":0.714,"id":"a6na43f52spq","geo_precision":"zip"},"type":"Feature","geometry":{"type":"Point","coordinates":[-95.207161,29.698579]}},{"properties":{"product rating":2.6,"zipcode":"77056","geo_score":0.714,"id":"a6na43i2k6ev","geo_precision":"zip"},"type":"Feature","geometry":{"type":"Point","coordinates":[-95.207161,29.698579]}},{"properties":{"product rating":2.9,"zipcode":"77057","geo_score":0.714,"id":"a6na43igq4s3","geo_precision":"zip"},"type":"Feature","geometry":{"type":"Point","coordinates":[-95.434241,29.83399]}},{"properties":{"product rating":1.8,"zipcode":"77057","geo_score":0.714,"id":"a6na43q1j46l","geo_precision":"zip"},"type":"Feature","geometry":{"type":"Point","coordinates":[-95.434241,29.83399]}},{"properties":{"product rating":2.4,"zipcode":"77057","geo_score":0.714,"id":"a6na43r06sjk","geo_precision":"zip"},"type":"Feature","geometry":{"type":"Point","coordinates":[-95.434241,29.83399]}},{"properties":{"product rating":2.9,"zipcode":"77057","geo_score":0.714,"id":"a6na43l7rk2m","geo_precision":"zip"},"type":"Feature","geometry":{"type":"Point","coordinates":[-95.434241,29.83399]}},{"properties":{"product rating":2.8,"zipcode":"77057","geo_score":0.714,"id":"a6na43gxskyo","geo_precision":"zip"},"type":"Feature","geometry":{"type":"Point","coordinates":[-95.434241,29.83399]}},{"properties":{"product rating":2.7,"zipcode":"77057","geo_score":0.714,"id":"a6na43ouf4cr","geo_precision":"zip"},"type":"Feature","geometry":{"type":"Point","coordinates":[-95.434241,29.83399]}},{"properties":{"product rating":3.2,"zipcode":"77061","geo_score":0.714,"id":"a6na43nudvne","geo_precision":"zip"},"type":"Feature","geometry":{"type":"Point","coordinates":[-95.28316,29.65688]}},{"properties":{"product rating":2.8,"zipcode":"77061","geo_score":0.714,"id":"a6na43nymiw0","geo_precision":"zip"},"type":"Feature","geometry":{"type":"Point","coordinates":[-95.28316,29.65688]}},{"properties":{"product rating":2.1,"zipcode":"77070","geo_score":0.714,"id":"a6na43j2ad18","geo_precision":"zip"},"type":"Feature","geometry":{"type":"Point","coordinates":[-95.434241,29.83399]}},{"properties":{"product rating":1.9,"zipcode":"77072","geo_score":0.714,"id":"a6na43n7smgq","geo_precision":"zip"},"type":"Feature","geometry":{"type":"Point","coordinates":[-95.434241,29.83399]}},{"properties":{"product rating":2.3,"zipcode":"77077","geo_score":0.714,"id":"a6na43uiwywj","geo_precision":"zip"},"type":"Feature","geometry":{"type":"Point","coordinates":[-95.434241,29.83399]}},{"properties":{"product rating":2.3,"zipcode":"77077","geo_score":0.714,"id":"a6na43tmxjcx","geo_precision":"zip"},"type":"Feature","geometry":{"type":"Point","coordinates":[-95.434241,29.83399]}},{"properties":{"product rating":2.2,"zipcode":"77080","geo_score":0.714,"id":"a6na43kgar3b","geo_precision":"zip"},"type":"Feature","geometry":{"type":"Point","coordinates":[-95.434241,29.83399]}},{"properties":{"product rating":1.4,"zipcode":"77081","geo_score":0.714,"id":"a6na43is6hev","geo_precision":"zip"},"type":"Feature","geometry":{"type":"Point","coordinates":[-95.306914,29.68193]}},{"properties":{"product rating":2.5,"zipcode":"77082","geo_score":0.714,"id":"a6na43pit71e","geo_precision":"zip"},"type":"Feature","geometry":{"type":"Point","coordinates":[-95.434241,29.83399]}},{"properties":{"product rating":3.7,"zipcode":"77083","geo_score":0.714,"id":"a6na43el1men","geo_precision":"zip"},"type":"Feature","geometry":{"type":"Point","coordinates":[-95.434241,29.83399]}},{"properties":{"product rating":2.3,"zipcode":"77083","geo_score":0.714,"id":"a6na43kuf5xy","geo_precision":"zip"},"type":"Feature","geometry":{"type":"Point","coordinates":[-95.434241,29.83399]}},{"properties":{"product rating":2.6,"zipcode":"77083","geo_score":0.714,"id":"a6na43rcqp2m","geo_precision":"zip"},"type":"Feature","geometry":{"type":"Point","coordinates":[-95.434241,29.83399]}},{"properties":{"product rating":1.7,"zipcode":"77083","geo_score":0.714,"id":"a6na43tvorbi","geo_precision":"zip"},"type":"Feature","geometry":{"type":"Point","coordinates":[-95.434241,29.83399]}},{"properties":{"product rating":2.6,"zipcode":"77094","geo_score":0.714,"id":"a6na43pf3tjd","geo_precision":"zip"},"type":"Feature","geometry":{"type":"Point","coordinates":[-95.434241,29.83399]}},{"properties":{"product rating":2.9,"zipcode":"77096","geo_score":0.714,"id":"a6na43sxhpir","geo_precision":"zip"},"type":"Feature","geometry":{"type":"Point","coordinates":[-95.434241,29.83399]}},{"properties":{"product rating":2.9,"zipcode":"77096","geo_score":0.714,"id":"a6na43hij34a","geo_precision":"zip"},"type":"Feature","geometry":{"type":"Point","coordinates":[-95.434241,29.83399]}},{"properties":{"product rating":3.3,"zipcode":"77096","geo_score":0.714,"id":"a6na43oroezn","geo_precision":"zip"},"type":"Feature","geometry":{"type":"Point","coordinates":[-95.434241,29.83399]}},{"properties":{"product rating":1.8,"zipcode":"77098","geo_score":0.714,"id":"a6na43qfer3y","geo_precision":"zip"},"type":"Feature","geometry":{"type":"Point","coordinates":[-95.434241,29.83399]}},{"properties":{"product rating":1.0,"zipcode":"77370","geo_score":0.714,"id":"a6na43siyeqg","geo_precision":"zip"},"type":"Feature","geometry":{"type":"Point","coordinates":[-95.262155,29.998831]}},{"properties":{"product rating":3.9,"zipcode":"77379","geo_score":0.714,"id":"a6na43iz51i0","geo_precision":"zip"},"type":"Feature","geometry":{"type":"Point","coordinates":[-95.427994,30.127439]}},{"properties":{"product rating":2.5,"zipcode":"77379","geo_score":0.714,"id":"a6na43txp6pk","geo_precision":"zip"},"type":"Feature","geometry":{"type":"Point","coordinates":[-95.427994,30.127439]}},{"properties":{"product rating":3.6,"zipcode":"77401","geo_score":0.714,"id":"a6na43qkjnu9","geo_precision":"zip"},"type":"Feature","geometry":{"type":"Point","coordinates":[-95.434241,29.83399]}},{"properties":{"product rating":2.3,"zipcode":"77407","geo_score":0.0,"id":"a6na43o1mrdr","geo_precision":"unmatched"},"type":"Feature","geometry":null},{"properties":{"product rating":2.4,"zipcode":"77450","geo_score":0.714,"id":"a6na43ldu8iu","geo_precision":"zip"},"type":"Feature","geometry":{"type":"Point","coordinates":[-95.434241,29.83399]}},{"properties":{"product rating":3.2,"zipcode":"77478","geo_score":0.714,"id":"a6na43en1xzb","geo_precision":"zip"},"type":"Feature","geometry":{"type":"Point","coordinates":[-95.756462,29.525461]}},{"properties":{"product rating":2.5,"zipcode":"77478","geo_score":0.714,"id":"a6na43pc2a99","geo_precision":"zip"},"type":"Feature","geometry":{"type":"Point","coordinates":[-95.756462,29.525461]}},{"properties":{"product rating":3.2,"zipcode":"77479","geo_score":0.714,"id":"a6na43ujl6vv","geo_precision":"zip"},"type":"Feature","geometry":{"type":"Point","coordinates":[-95.666778,29.552921]}},{"properties":{"product rating":3.7,"zipcode":"77479","geo_score":0.714,"id":"a6na43ljwwfw","geo_precision":"zip"},"type":"Feature","geometry":{"type":"Point","coordinates":[-95.666778,29.552921]}},{"properties":{"product rating":2.5,"zipcode":"77479","geo_score":0.714,"id":"a6na43ew4zz5","geo_precision":"zip"},"type":"Feature","geometry":{"type":"Point","coordinates":[-95.666778,29.552921]}},{"properties":{"product rating":1.6,"zipcode":"77479","geo_score":0.714,"id":"a6na43riu9og","geo_precision":"zip"},"type":"Feature","geometry":{"type":"Point","coordinates":[-95.666778,29.552921]}},{"properties":{"product rating":3.0,"zipcode":"77479","geo_score":0.714,"id":"a6na43h5pp52","geo_precision":"zip"},"type":"Feature","geometry":{"type":"Point","coordinates":[-95.666778,29.552921]}},{"properties":{"product rating":2.0,"zipcode":"77494","geo_score":0.714,"id":"a6na43fmr1ep","geo_precision":"zip"},"type":"Feature","geometry":{"type":"Point","coordinates":[-95.434241,29.83399]}},{"properties":{"product rating":2.8,"zipcode":"77494","geo_score":0.714,"id":"a6na43p5e1l6","geo_precision":"zip"},"type":"Feature","geometry":{"type":"Point","coordinates":[-95.434241,29.83399]}},{"properties":{"product rating":2.7,"zipcode":"77494","geo_score":0.714,"id":"a6na43mxqljp","geo_precision":"zip"},"type":"Feature","geometry":{"type":"Point","coordinates":[-95.434241,29.83399]}},{"properties":{"product rating":2.8,"zipcode":"77498","geo_score":0.0,"id":"a6na43secrj0","geo_precision":"unmatched"},"type":"Feature","geometry":null},{"properties":{"product rating":3.7,"zipcode":"77498","geo_score":0.0,"id":"a6na43nq4bgt","geo_precision":"unmatched"},"type":"Feature","geometry":null},{"properties":{"product rating":1.8,"zipcode":"77659","geo_score":0.714,"id":"a6na43hhzief","geo_precision":"zip"},"type":"Feature","geometry":{"type":"Point","coordinates":[-94.411302,30.121046]}},{"properties":{"product rating":2.7,"zipcode":"77845","geo_score":0.714,"id":"a6na43laktgm","geo_precision":"zip"},"type":"Feature","geometry":{"type":"Point","coordinates":[-96.293826,30.579234]}},{"properties":{"product rating":2.2,"zipcode":"78056","geo_score":0.714,"id":"a6na43p8prhb","geo_precision":"zip"},"type":"Feature","geometry":{"type":"Point","coordinates":[-98.938654,29.511723]}},{"properties":{"product rating":1.6,"zipcode":"78703","geo_score":0.714,"id":"a6na43rrqkgq","geo_precision":"zip"},"type":"Feature","geometry":{"type":"Point","coordinates":[-97.766351,30.290107]}},{"properties":{"product rating":3.4,"zipcode":"78703","geo_score":0.714,"id":"a6na43r30evw","geo_precision":"zip"},"type":"Feature","geometry":{"type":"Point","coordinates":[-97.766351,30.290107]}},{"properties":{"product rating":2.0,"zipcode":"78705","geo_score":0.714,"id":"a6na43ku86kl","geo_precision":"zip"},"type":"Feature","geometry":{"type":"Point","coordinates":[-97.736932,30.293057]}},{"properties":{"product rating":2.9,"zipcode":"78705","geo_score":0.714,"id":"a6na43ibct6d","geo_precision":"zip"},"type":"Feature","geometry":{"type":"Point","coordinates":[-97.736932,30.293057]}},{"properties":{"product rating":3.2,"zipcode":"78759","geo_score":0.714,"id":"a6na43tj4ab7","geo_precision":"zip"},"type":"Feature","geometry":{"type":"Point","coordinates":[-97.750611,30.395586]}},{"properties":{"product rating":2.4,"zipcode":"78759","geo_score":0.714,"id":"a6na43qwbtm5","geo_precision":"zip"},"type":"Feature","geometry":{"type":"Point","coordinates":[-97.750611,30.395586]}},{"properties":{"product rating":2.6,"zipcode":"78950","geo_score":0.714,"id":"a6na43frrl7a","geo_precision":"zip"},"type":"Feature","geometry":{"type":"Point","coordinates":[-96.546638,29.871061]}},{"properties":{"product rating":3.1,"zipcode":"92057","geo_score":0.714,"id":"a6na43tayzo2","geo_precision":"zip"},"type":"Feature","geometry":{"type":"Point","coordinates":[-116.846046,33.016928]}},{"properties":{"product rating":3.2,"zipcode":"92143","geo_score":0.714,"id":"a6na43u56bl0","geo_precision":"zip"},"type":"Feature","geometry":{"type":"Point","coordinates":[-116.846046,33.016928]}},{"properties":{"product rating":1.8,"zipcode":"93010","geo_score":0.714,"id":"a6na43naxzc0","geo_precision":"zip"},"type":"Feature","geometry":{"type":"Point","coordinates":[-119.084253,34.307783]}},{"properties":{"product rating":2.9,"zipcode":"94109","geo_score":0.714,"id":"a6na43gpafbp","geo_precision":"zip"},"type":"Feature","geometry":{"type":"Point","coordinates":[-122.420782,37.795219]}},{"properties":{"product rating":1.6,"zipcode":"94404","geo_score":0.714,"id":"a6na43e206ze","geo_precision":"zip"},"type":"Feature","geometry":{"type":"Point","coordinates":[-122.269978,37.553774]}},{"properties":{"product rating":3.3,"zipcode":"95826","geo_score":0.714,"id":"a6na43jdi1xx","geo_precision":"zip"},"type":"Feature","geometry":{"type":"Point","coordinates":[-121.385459,38.547639]}},{"properties":{"product rating":2.1,"zipcode":"96367","geo_score":0.0,"id":"a6na43n9w0al","geo_precision":"unmatched"},"type":"Feature","geometry":null},{"properties":{"product rating":2.5,"zipcode":"96367","geo_score":0.0,"id":"a6na43l1av05","geo_precision":"unmatched"},"type":"Feature","geometry":null},{"properties":{"product rating":2.1,"zipcode":"99019","geo_score":0.714,"id":"a6na43n5vzmt","geo_precision":"zip"},"type":"Feature","geometry":{"type":"Point","coordinates":[-117.085845,47.651635]}}],"is_temporal":false,"author":{"url":"","metadata":"","contact_name":"","contact_address":"","source":"","contact_phone":""},"source":"","pagination":{"sort":null,"start":0,"total":163,"limit":1000000},"state":"complete","tags":"test","published":"2014-08-11T00:27:58-04:00","id":18519}