{"type":"FeatureCollection","data_type":"Dataset","url_type":null,"permissions":[{"permissions":{"download":true,"view":true},"group_id":"everyone"}],"classification":null,"title":"worstbeers","count":50,"stream_id":185211,"contributor":{"url":"http://geocommons.com/users/32947","name":"sarge130"},"data_attributes":null,"calculation_params":null,"icon_link":null,"link":"http://geocommons.com/overlays/185211.json","extent":[-115.137,32.0656,-75.6316,43.8546],"geometry_types":["point"],"unique_name":null,"name":"worstbeers","feature_count":50,"description":"","next_feature":null,"is_raster":false,"short_classification":"Y","stats":{"rating":{"max":1.38,"mean":1.2456,"variance":0.0119965714285714,"stdev":0.109528861167144,"min":0.94,"median":1.28}},"features":[{"properties":{"rating":0.94,"city":"Milwaukee","geo_score":0.857,"beer":"Olde English 800 3.2","id":"a638sy6b8tix","geo_precision":"city","state":"Wisconsin"},"type":"Feature","geometry":{"type":"Point","coordinates":[-87.906474,43.038903]}},{"properties":{"rating":1.03,"city":"St. Louis","geo_score":0.0,"beer":"Natural Ice","id":"a638syb4tvp9","geo_precision":"unmatched","state":"Missouri"},"type":"Feature","geometry":null},{"properties":{"rating":1.03,"city":"St. Louis","geo_score":0.0,"beer":"Natural Light","id":"a638sycrvu3l","geo_precision":"unmatched","state":"Missouri"},"type":"Feature","geometry":null},{"properties":{"rating":1.05,"city":"Milwaukee","geo_score":0.857,"beer":"Milwaukees Best","id":"a638sy0o2wug","geo_precision":"city","state":"Wisconsin"},"type":"Feature","geometry":{"type":"Point","coordinates":[-87.906474,43.038903]}},{"properties":{"rating":1.06,"city":"St. Louis","geo_score":0.0,"beer":"Michelob Ultra","id":"a638sxztqxe8","geo_precision":"unmatched","state":"Missouri"},"type":"Feature","geometry":null},{"properties":{"rating":1.1,"city":"St. Louis","geo_score":0.0,"beer":"Budweiser Select 55","id":"a638syct5f86","geo_precision":"unmatched","state":"Missouri"},"type":"Feature","geometry":null},{"properties":{"rating":1.11,"city":"Guelph","geo_score":0.595,"beer":"Sleeman Clear","id":"a638sy7cc018","geo_precision":"city","state":"Ontario"},"type":"Feature","geometry":{"type":"Point","coordinates":[-110.186478,33.180613]}},{"properties":{"rating":1.11,"city":"Golden","geo_score":0.857,"beer":"Coors Aspen Edge","id":"a638sybkvu10","geo_precision":"city","state":"Colorado"},"type":"Feature","geometry":{"type":"Point","coordinates":[-105.245659,39.718539]}},{"properties":{"rating":1.12,"city":"St. Louis","geo_score":0.0,"beer":"Busch Ice","id":"a638sy9c3z2y","geo_precision":"unmatched","state":"Missouri"},"type":"Feature","geometry":null},{"properties":{"rating":1.13,"city":"St. Louis","geo_score":0.0,"beer":"Bud Light Chelada","id":"a638sy3dmqpp","geo_precision":"unmatched","state":"Missouri"},"type":"Feature","geometry":null},{"properties":{"rating":1.17,"city":"St. Louis","geo_score":0.0,"beer":"Bud Light","id":"a638sy0qawwo","geo_precision":"unmatched","state":"Missouri"},"type":"Feature","geometry":null},{"properties":{"rating":1.17,"city":"St. Louis","geo_score":0.0,"beer":"Busch Light","id":"a638sy812yrv","geo_precision":"unmatched","state":"Missouri"},"type":"Feature","geometry":null},{"properties":{"rating":1.18,"city":"Milwaukee","geo_score":0.857,"beer":"Milwaukees Best Light","id":"a638syfhcngq","geo_precision":"city","state":"Wisconsin"},"type":"Feature","geometry":{"type":"Point","coordinates":[-87.906474,43.038903]}},{"properties":{"rating":1.18,"city":"Milwaukee","geo_score":0.857,"beer":"Miller Genuine Draft Light 64 (MGD Light 64)","id":"a638syct54c3","geo_precision":"city","state":"Wisconsin"},"type":"Feature","geometry":{"type":"Point","coordinates":[-87.906474,43.038903]}},{"properties":{"rating":1.19,"city":"Las Vegas","geo_score":0.857,"beer":"Camo Genuine Ale","id":"a638sy8byovl","geo_precision":"city","state":"Nevada"},"type":"Feature","geometry":{"type":"Point","coordinates":[-115.137223,36.174971]}},{"properties":{"rating":1.19,"city":"Milwaukee","geo_score":0.857,"beer":"General Generic Beer","id":"a638sy40xcz4","geo_precision":"city","state":"Wisconsin"},"type":"Feature","geometry":{"type":"Point","coordinates":[-87.906474,43.038903]}},{"properties":{"rating":1.2,"city":"Golden","geo_score":0.857,"beer":"Keystone Light","id":"a638sy3ej7n6","geo_precision":"city","state":"Colorado"},"type":"Feature","geometry":{"type":"Point","coordinates":[-105.245659,39.718539]}},{"properties":{"rating":1.22,"city":"St. Louis","geo_score":0.0,"beer":"Busch Beer","id":"a638syb9fmy8","geo_precision":"unmatched","state":"Missouri"},"type":"Feature","geometry":null},{"properties":{"rating":1.23,"city":"Milwaukee","geo_score":0.857,"beer":"Old Milwaukee Ice","id":"a638sy2sug7b","geo_precision":"city","state":"Wisconsin"},"type":"Feature","geometry":{"type":"Point","coordinates":[-87.906474,43.038903]}},{"properties":{"rating":1.24,"city":"Golden","geo_score":0.857,"beer":"Keystone Premium","id":"a638sy08l7jn","geo_precision":"city","state":"Colorado"},"type":"Feature","geometry":{"type":"Point","coordinates":[-105.245659,39.718539]}},{"properties":{"rating":1.24,"city":"St. Louis","geo_score":0.0,"beer":"Hurricane High Gravity Lager","id":"a638syb0u4bu","geo_precision":"unmatched","state":"Missouri"},"type":"Feature","geometry":null},{"properties":{"rating":1.25,"city":"London","geo_score":0.714,"beer":"Labatt Sterling","id":"a638syfzq7fk","geo_precision":"city","state":"Ontario"},"type":"Feature","geometry":{"type":"Point","coordinates":[-86.050237,32.273198]}},{"properties":{"rating":1.26,"city":"Golden","geo_score":0.857,"beer":"Budweiser Chelada","id":"a638syee2gdc","geo_precision":"city","state":"Colorado"},"type":"Feature","geometry":{"type":"Point","coordinates":[-105.245659,39.718539]}},{"properties":{"rating":1.26,"city":"Milwaukee","geo_score":0.857,"beer":"Milwaukees Best Ice","id":"a638sy7d2f2h","geo_precision":"city","state":"Wisconsin"},"type":"Feature","geometry":{"type":"Point","coordinates":[-87.906474,43.038903]}},{"properties":{"rating":1.27,"city":"Toronto","geo_score":0.633,"beer":"Molson Kick","id":"a638sy9rolev","geo_precision":"city","state":"Ontario"},"type":"Feature","geometry":{"type":"Point","coordinates":[-86.768002,33.594533]}},{"properties":{"rating":1.28,"city":"St. Louis","geo_score":0.0,"beer":"Camo Silver Ice High Gravity Lager","id":"a638sy3gzxuk","geo_precision":"unmatched","state":"Missouri"},"type":"Feature","geometry":null},{"properties":{"rating":1.29,"city":"Cave Creek","geo_score":0.73,"beer":"Cave Creek Chili Beer","id":"a638sxzrvumz","geo_precision":"city","state":"Arizona"},"type":"Feature","geometry":{"type":"Point","coordinates":[-112.5607,32.065623]}},{"properties":{"rating":1.3,"city":"Golden","geo_score":0.857,"beer":"Bud Ice","id":"a638sy5lp2yw","geo_precision":"city","state":"Colorado"},"type":"Feature","geometry":{"type":"Point","coordinates":[-105.245659,39.718539]}},{"properties":{"rating":1.3,"city":"Mexico City","geo_score":0.657,"beer":"Corona Light","id":"a638syg6og4k","geo_precision":"city","state":"Mexico"},"type":"Feature","geometry":{"type":"Point","coordinates":[-88.09669,37.225052]}},{"properties":{"rating":1.31,"city":"Golden","geo_score":0.857,"beer":"Coors Light","id":"a638sy6pylh6","geo_precision":"city","state":"Colorado"},"type":"Feature","geometry":{"type":"Point","coordinates":[-105.245659,39.718539]}},{"properties":{"rating":1.31,"city":"Tuborg","geo_score":0.633,"beer":"Tuborg T-Beer","id":"a638sy21r6cv","geo_precision":"city","state":"Romania"},"type":"Feature","geometry":{"type":"Point","coordinates":[-75.631594,39.748724]}},{"properties":{"rating":1.31,"city":"Milwaukee","geo_score":0.857,"beer":"Icehouse Light","id":"a638sy8o40md","geo_precision":"city","state":"Wisconsin"},"type":"Feature","geometry":{"type":"Point","coordinates":[-87.906474,43.038903]}},{"properties":{"rating":1.32,"city":"Tuborg","geo_score":0.633,"beer":"Tuborg T-Beer Citrus/ Lemon","id":"a638sy2ucoj1","geo_precision":"city","state":"Romania"},"type":"Feature","geometry":{"type":"Point","coordinates":[-75.631594,39.748724]}},{"properties":{"rating":1.33,"city":"Milwaukee","geo_score":0.857,"beer":"Old Milwaukee","id":"a638sy9jreox","geo_precision":"city","state":"Wisconsin"},"type":"Feature","geometry":{"type":"Point","coordinates":[-87.906474,43.038903]}},{"properties":{"rating":1.33,"city":"Woodridge","geo_score":0.857,"beer":"St. Ides Premium Malt Liquor","id":"a638sy1cba2k","geo_precision":"city","state":"Illinois"},"type":"Feature","geometry":{"type":"Point","coordinates":[-88.041731,41.736788]}},{"properties":{"rating":1.33,"city":"Montreal","geo_score":0.714,"beer":"Molson Ultra","id":"a638sy3pcw06","geo_precision":"city","state":"Quebec"},"type":"Feature","geometry":{"type":"Point","coordinates":[-94.348548,35.117596]}},{"properties":{"rating":1.34,"city":"La Crosse","geo_score":0.857,"beer":"Beer 30 Light","id":"a638sycjiu50","geo_precision":"city","state":"Wisconsin"},"type":"Feature","geometry":{"type":"Point","coordinates":[-91.132072,43.85456]}},{"properties":{"rating":1.34,"city":"Guelph","geo_score":0.595,"beer":"B-40 Bull Max 8%","id":"a638syd8r1gh","geo_precision":"city","state":"Ontario"},"type":"Feature","geometry":{"type":"Point","coordinates":[-110.186478,33.180613]}},{"properties":{"rating":1.34,"city":"Golden","geo_score":0.857,"beer":"Keystone Ice","id":"a638sy8gcukr","geo_precision":"city","state":"Colorado"},"type":"Feature","geometry":{"type":"Point","coordinates":[-105.245659,39.718539]}},{"properties":{"rating":1.34,"city":"Woodridge","geo_score":0.857,"beer":"Jacob Best Ice","id":"a638syegmnuy","geo_precision":"city","state":"Illinois"},"type":"Feature","geometry":{"type":"Point","coordinates":[-88.041731,41.736788]}},{"properties":{"rating":1.35,"city":"Milwaukee","geo_score":0.857,"beer":"Olde English 800","id":"a638sy7mjrf3","geo_precision":"city","state":"Wisconsin"},"type":"Feature","geometry":{"type":"Point","coordinates":[-87.906474,43.038903]}},{"properties":{"rating":1.35,"city":"St. Louis","geo_score":0.0,"beer":"Rock Green Light","id":"a638sycwmh45","geo_precision":"unmatched","state":"Missouri"},"type":"Feature","geometry":null},{"properties":{"rating":1.35,"city":"St. Louis","geo_score":0.0,"beer":"King Cobra Malt Liquor","id":"a638sybb9i31","geo_precision":"unmatched","state":"Missouri"},"type":"Feature","geometry":null},{"properties":{"rating":1.35,"city":"Milwaukee","geo_score":0.857,"beer":"Miller Lite Ice","id":"a638syed2lhy","geo_precision":"city","state":"Wisconsin"},"type":"Feature","geometry":{"type":"Point","coordinates":[-87.906474,43.038903]}},{"properties":{"rating":1.35,"city":"Milwaukee","geo_score":0.857,"beer":"Old Milwaukee Light","id":"a638sy5rnflq","geo_precision":"city","state":"Wisconsin"},"type":"Feature","geometry":{"type":"Point","coordinates":[-87.906474,43.038903]}},{"properties":{"rating":1.36,"city":"Milwaukee","geo_score":0.857,"beer":"Miller Genuine Draft Light (MGD Light)","id":"a638sy9b08yw","geo_precision":"city","state":"Wisconsin"},"type":"Feature","geometry":{"type":"Point","coordinates":[-87.906474,43.038903]}},{"properties":{"rating":1.36,"city":"Milwaukee","geo_score":0.857,"beer":"Miller Lite","id":"a638sybyqxre","geo_precision":"city","state":"Wisconsin"},"type":"Feature","geometry":{"type":"Point","coordinates":[-87.906474,43.038903]}},{"properties":{"rating":1.36,"city":"Milwaukee","geo_score":0.857,"beer":"Schlitz Malt Liquor OML","id":"a638sy76z7q3","geo_precision":"city","state":"Wisconsin"},"type":"Feature","geometry":{"type":"Point","coordinates":[-87.906474,43.038903]}},{"properties":{"rating":1.37,"city":"Waterloo","geo_score":0.714,"beer":"PC 2.5 g Low Carb","id":"a638sya9g1jo","geo_precision":"city","state":"Ontario"},"type":"Feature","geometry":{"type":"Point","coordinates":[-92.342963,42.492764]}},{"properties":{"rating":1.38,"city":"St. Louis","geo_score":0.0,"beer":"Tequiza","id":"a638sy3x8wyq","geo_precision":"unmatched","state":"Missouri"},"type":"Feature","geometry":null}],"is_temporal":false,"author":{"url":"","metadata":"","contact_name":"","contact_address":"","source":"","contact_phone":""},"source":"","pagination":{"sort":null,"start":0,"total":50,"limit":1000000},"state":"complete","tags":"","published":"2014-08-13T05:22:11-04:00","id":185211}