{"type":"FeatureCollection","data_type":"Dataset","url_type":null,"permissions":[{"permissions":{"download":true,"view":true},"group_id":"everyone"}],"classification":null,"title":"FINAL MARKETING","count":163,"stream_id":18576,"contributor":{"url":"http://geocommons.com/users/9684","name":"joseph.lam"},"data_attributes":null,"calculation_params":null,"icon_link":null,"link":"http://geocommons.com/overlays/18576.json","extent":[-122.421,25.9779,-72.6371,47.6516],"geometry_types":["point"],"unique_name":null,"name":"FINAL MARKETING","feature_count":163,"description":"","next_feature":null,"is_raster":false,"short_classification":"Y","stats":{"zipcode":{"max":null,"min":null,"median":null},"product rating":{"max":3.9,"mean":2.64171779141104,"variance":0.30466863591608,"stdev":0.551967966385804,"min":1.0,"median":2.6},"geo_score":{"max":0.714,"mean":0.692098159509201,"variance":0.0152517927743695,"stdev":0.123498148870214,"min":0.0,"median":0.714}},"features":[{"properties":{"product rating":2.9,"zipcode":"10012","geo_score":0.714,"id":"a648ojporgbh","geo_precision":"zip"},"type":"Feature","geometry":{"type":"Point","coordinates":[-73.991582,40.729124]}},{"properties":{"product rating":2.8,"zipcode":"10013","geo_score":0.714,"id":"a648ojlppeqi","geo_precision":"zip"},"type":"Feature","geometry":{"type":"Point","coordinates":[-73.99625,40.716491]}},{"properties":{"product rating":3.7,"zipcode":"10018","geo_score":0.714,"id":"a648ojj42gi3","geo_precision":"zip"},"type":"Feature","geometry":{"type":"Point","coordinates":[-73.993172,40.755332]}},{"properties":{"product rating":3.3,"zipcode":"10023","geo_score":0.714,"id":"a648ojklsby8","geo_precision":"zip"},"type":"Feature","geometry":{"type":"Point","coordinates":[-73.982213,40.776765]}},{"properties":{"product rating":2.3,"zipcode":"10023","geo_score":0.714,"id":"a648ojylaan9","geo_precision":"zip"},"type":"Feature","geometry":{"type":"Point","coordinates":[-73.982213,40.776765]}},{"properties":{"product rating":3.0,"zipcode":"11720","geo_score":0.714,"id":"a648ojwjm028","geo_precision":"zip"},"type":"Feature","geometry":{"type":"Point","coordinates":[-72.637078,40.922326]}},{"properties":{"product rating":3.0,"zipcode":"11768","geo_score":0.714,"id":"a648ojo7fl0c","geo_precision":"zip"},"type":"Feature","geometry":{"type":"Point","coordinates":[-73.401507,40.930654]}},{"properties":{"product rating":3.0,"zipcode":"12134","geo_score":0.714,"id":"a648ojytjl6c","geo_precision":"zip"},"type":"Feature","geometry":{"type":"Point","coordinates":[-74.153743,43.256183]}},{"properties":{"product rating":2.7,"zipcode":"15061","geo_score":0.714,"id":"a648ojx10tzx","geo_precision":"zip"},"type":"Feature","geometry":{"type":"Point","coordinates":[-80.327814,40.656366]}},{"properties":{"product rating":2.1,"zipcode":"16827","geo_score":0.714,"id":"a648ojlp2cpn","geo_precision":"zip"},"type":"Feature","geometry":{"type":"Point","coordinates":[-77.8025,40.793951]}},{"properties":{"product rating":2.8,"zipcode":"20002","geo_score":0.714,"id":"a648ojm2a4ax","geo_precision":"zip"},"type":"Feature","geometry":{"type":"Point","coordinates":[-76.982147,38.908218]}},{"properties":{"product rating":3.6,"zipcode":"20010","geo_score":0.714,"id":"a648ojq9d3a4","geo_precision":"zip"},"type":"Feature","geometry":{"type":"Point","coordinates":[-77.030248,38.932711]}},{"properties":{"product rating":2.8,"zipcode":"20024","geo_score":0.714,"id":"a648ojye6wqv","geo_precision":"zip"},"type":"Feature","geometry":{"type":"Point","coordinates":[-77.022948,38.876494]}},{"properties":{"product rating":3.2,"zipcode":"20037","geo_score":0.714,"id":"a648ojx21x9f","geo_precision":"zip"},"type":"Feature","geometry":{"type":"Point","coordinates":[-77.061781,38.918903]}},{"properties":{"product rating":2.3,"zipcode":"20037","geo_score":0.714,"id":"a648ojrhhz6y","geo_precision":"zip"},"type":"Feature","geometry":{"type":"Point","coordinates":[-77.061781,38.918903]}},{"properties":{"product rating":2.3,"zipcode":"21046","geo_score":0.714,"id":"a648ojiwvinj","geo_precision":"zip"},"type":"Feature","geometry":{"type":"Point","coordinates":[-76.834945,39.175406]}},{"properties":{"product rating":3.1,"zipcode":"22030","geo_score":0.714,"id":"a648ojvhkzxg","geo_precision":"zip"},"type":"Feature","geometry":{"type":"Point","coordinates":[-77.363875,38.87289]}},{"properties":{"product rating":3.0,"zipcode":"23185","geo_score":0.714,"id":"a648ojiqmun3","geo_precision":"zip"},"type":"Feature","geometry":{"type":"Point","coordinates":[-76.670511,37.267091]}},{"properties":{"product rating":2.5,"zipcode":"24450","geo_score":0.714,"id":"a648ojsaelro","geo_precision":"zip"},"type":"Feature","geometry":{"type":"Point","coordinates":[-79.364481,37.892076]}},{"properties":{"product rating":2.9,"zipcode":"25314","geo_score":0.714,"id":"a648ojr7y4ih","geo_precision":"zip"},"type":"Feature","geometry":{"type":"Point","coordinates":[-81.739013,38.241487]}},{"properties":{"product rating":2.9,"zipcode":"27609","geo_score":0.714,"id":"a648ojoawd8m","geo_precision":"zip"},"type":"Feature","geometry":{"type":"Point","coordinates":[-78.518056,35.96154]}},{"properties":{"product rating":2.9,"zipcode":"28120","geo_score":0.714,"id":"a648ojsph9lq","geo_precision":"zip"},"type":"Feature","geometry":{"type":"Point","coordinates":[-81.010631,35.384859]}},{"properties":{"product rating":2.9,"zipcode":"28302","geo_score":0.714,"id":"a648ojuimi7x","geo_precision":"zip"},"type":"Feature","geometry":{"type":"Point","coordinates":[-78.908828,35.034307]}},{"properties":{"product rating":3.1,"zipcode":"30307","geo_score":0.714,"id":"a648ojufkg2q","geo_precision":"zip"},"type":"Feature","geometry":{"type":"Point","coordinates":[-84.357375,33.762855]}},{"properties":{"product rating":2.7,"zipcode":"30360","geo_score":0.714,"id":"a648ojth6blo","geo_precision":"zip"},"type":"Feature","geometry":{"type":"Point","coordinates":[-84.277772,33.931069]}},{"properties":{"product rating":3.0,"zipcode":"30360","geo_score":0.714,"id":"a648ojnysy7q","geo_precision":"zip"},"type":"Feature","geometry":{"type":"Point","coordinates":[-84.277772,33.931069]}},{"properties":{"product rating":2.5,"zipcode":"30606","geo_score":0.714,"id":"a648ojsd2vf0","geo_precision":"zip"},"type":"Feature","geometry":{"type":"Point","coordinates":[-83.43064,33.951348]}},{"properties":{"product rating":2.7,"zipcode":"30683","geo_score":0.714,"id":"a648ojiy7e7q","geo_precision":"zip"},"type":"Feature","geometry":{"type":"Point","coordinates":[-83.292152,33.930735]}},{"properties":{"product rating":2.8,"zipcode":"31825","geo_score":0.714,"id":"a648ojt424pt","geo_precision":"zip"},"type":"Feature","geometry":{"type":"Point","coordinates":[-84.718627,32.074331]}},{"properties":{"product rating":3.2,"zipcode":"32210","geo_score":0.714,"id":"a648ojjv9goq","geo_precision":"zip"},"type":"Feature","geometry":{"type":"Point","coordinates":[-81.770099,30.245795]}},{"properties":{"product rating":2.4,"zipcode":"32507","geo_score":0.714,"id":"a648ojxywkpn","geo_precision":"zip"},"type":"Feature","geometry":{"type":"Point","coordinates":[-87.345252,30.359088]}},{"properties":{"product rating":2.2,"zipcode":"32940","geo_score":0.714,"id":"a648ojqgl682","geo_precision":"zip"},"type":"Feature","geometry":{"type":"Point","coordinates":[-80.697829,28.216262]}},{"properties":{"product rating":3.4,"zipcode":"33009","geo_score":0.714,"id":"a648ojoohs44","geo_precision":"zip"},"type":"Feature","geometry":{"type":"Point","coordinates":[-80.165046,25.977869]}},{"properties":{"product rating":2.3,"zipcode":"33432","geo_score":0.714,"id":"a648ojty73oi","geo_precision":"zip"},"type":"Feature","geometry":{"type":"Point","coordinates":[-80.126155,26.353411]}},{"properties":{"product rating":2.2,"zipcode":"33445","geo_score":0.714,"id":"a648ojte6hr2","geo_precision":"zip"},"type":"Feature","geometry":{"type":"Point","coordinates":[-80.100015,26.548504]}},{"properties":{"product rating":2.3,"zipcode":"33917","geo_score":0.714,"id":"a648ojja8sb0","geo_precision":"zip"},"type":"Feature","geometry":{"type":"Point","coordinates":[-81.844716,26.648211]}},{"properties":{"product rating":2.0,"zipcode":"36614","geo_score":0.714,"id":"a648ojldcy4c","geo_precision":"zip"},"type":"Feature","geometry":{"type":"Point","coordinates":[-88.211103,30.601892]}},{"properties":{"product rating":3.4,"zipcode":"39759","geo_score":0.714,"id":"a648ojptqbr6","geo_precision":"zip"},"type":"Feature","geometry":{"type":"Point","coordinates":[-88.800053,33.525399]}},{"properties":{"product rating":3.2,"zipcode":"45231","geo_score":0.714,"id":"a648ojnrwmj3","geo_precision":"zip"},"type":"Feature","geometry":{"type":"Point","coordinates":[-84.494943,39.240336]}},{"properties":{"product rating":2.3,"zipcode":"47458","geo_score":0.714,"id":"a648ojjimaj7","geo_precision":"zip"},"type":"Feature","geometry":{"type":"Point","coordinates":[-86.501543,39.173234]}},{"properties":{"product rating":3.2,"zipcode":"53216","geo_score":0.714,"id":"a648ojjst6zf","geo_precision":"zip"},"type":"Feature","geometry":{"type":"Point","coordinates":[-87.976988,43.086244]}},{"properties":{"product rating":2.5,"zipcode":"59868","geo_score":0.714,"id":"a648ojw4zxsb","geo_precision":"zip"},"type":"Feature","geometry":{"type":"Point","coordinates":[-113.548481,47.300776]}},{"properties":{"product rating":2.2,"zipcode":"60194","geo_score":0.714,"id":"a648ojqwzdkb","geo_precision":"zip"},"type":"Feature","geometry":{"type":"Point","coordinates":[-88.116655,42.028926]}},{"properties":{"product rating":2.7,"zipcode":"60610","geo_score":0.714,"id":"a648ojl9l7kb","geo_precision":"zip"},"type":"Feature","geometry":{"type":"Point","coordinates":[-87.68732,41.811929]}},{"properties":{"product rating":3.0,"zipcode":"63105","geo_score":0.714,"id":"a648ojkporh6","geo_precision":"zip"},"type":"Feature","geometry":{"type":"Point","coordinates":[-90.323726,38.642552]}},{"properties":{"product rating":2.6,"zipcode":"70124","geo_score":0.714,"id":"a648ojuq2ar1","geo_precision":"zip"},"type":"Feature","geometry":{"type":"Point","coordinates":[-90.108128,30.004647]}},{"properties":{"product rating":3.1,"zipcode":"71106","geo_score":0.714,"id":"a648ojkmr60t","geo_precision":"zip"},"type":"Feature","geometry":{"type":"Point","coordinates":[-93.711612,32.39117]}},{"properties":{"product rating":3.0,"zipcode":"75098","geo_score":0.714,"id":"a648ojyz9ci3","geo_precision":"zip"},"type":"Feature","geometry":{"type":"Point","coordinates":[-96.528045,32.9579]}},{"properties":{"product rating":1.9,"zipcode":"75209","geo_score":0.714,"id":"a648ojwvlxug","geo_precision":"zip"},"type":"Feature","geometry":{"type":"Point","coordinates":[-96.821668,32.93068]}},{"properties":{"product rating":3.3,"zipcode":"75225","geo_score":0.714,"id":"a648ojrr2x29","geo_precision":"zip"},"type":"Feature","geometry":{"type":"Point","coordinates":[-96.771829,32.851127]}},{"properties":{"product rating":3.2,"zipcode":"75225","geo_score":0.714,"id":"a648ojr1msxr","geo_precision":"zip"},"type":"Feature","geometry":{"type":"Point","coordinates":[-96.771829,32.851127]}},{"properties":{"product rating":2.5,"zipcode":"75238","geo_score":0.714,"id":"a648ojwdmxkx","geo_precision":"zip"},"type":"Feature","geometry":{"type":"Point","coordinates":[-96.704725,32.878923]}},{"properties":{"product rating":2.2,"zipcode":"75246","geo_score":0.714,"id":"a648ojqngykt","geo_precision":"zip"},"type":"Feature","geometry":{"type":"Point","coordinates":[-96.773179,32.793328]}},{"properties":{"product rating":2.6,"zipcode":"77003","geo_score":0.714,"id":"a648ojo2f2jg","geo_precision":"zip"},"type":"Feature","geometry":{"type":"Point","coordinates":[-95.434241,29.83399]}},{"properties":{"product rating":2.5,"zipcode":"77003","geo_score":0.714,"id":"a648ojkx8mnm","geo_precision":"zip"},"type":"Feature","geometry":{"type":"Point","coordinates":[-95.434241,29.83399]}},{"properties":{"product rating":2.2,"zipcode":"77004","geo_score":0.714,"id":"a648ojuzxmhn","geo_precision":"zip"},"type":"Feature","geometry":{"type":"Point","coordinates":[-95.434241,29.83399]}},{"properties":{"product rating":2.4,"zipcode":"77004","geo_score":0.714,"id":"a648ojs6b7pq","geo_precision":"zip"},"type":"Feature","geometry":{"type":"Point","coordinates":[-95.434241,29.83399]}},{"properties":{"product rating":3.7,"zipcode":"77005","geo_score":0.714,"id":"a648ojlct4l7","geo_precision":"zip"},"type":"Feature","geometry":{"type":"Point","coordinates":[-95.434241,29.83399]}},{"properties":{"product rating":3.4,"zipcode":"77005","geo_score":0.714,"id":"a648ojy8991w","geo_precision":"zip"},"type":"Feature","geometry":{"type":"Point","coordinates":[-95.434241,29.83399]}},{"properties":{"product rating":2.2,"zipcode":"77005","geo_score":0.714,"id":"a648ojn82f7h","geo_precision":"zip"},"type":"Feature","geometry":{"type":"Point","coordinates":[-95.434241,29.83399]}},{"properties":{"product rating":2.4,"zipcode":"77006","geo_score":0.714,"id":"a648ojt8e4n2","geo_precision":"zip"},"type":"Feature","geometry":{"type":"Point","coordinates":[-95.434241,29.83399]}},{"properties":{"product rating":2.8,"zipcode":"77006","geo_score":0.714,"id":"a648ojnfxqw9","geo_precision":"zip"},"type":"Feature","geometry":{"type":"Point","coordinates":[-95.434241,29.83399]}},{"properties":{"product rating":2.6,"zipcode":"77007","geo_score":0.714,"id":"a648ojkmuoxv","geo_precision":"zip"},"type":"Feature","geometry":{"type":"Point","coordinates":[-95.434241,29.83399]}},{"properties":{"product rating":2.3,"zipcode":"77007","geo_score":0.714,"id":"a648ojol3sxf","geo_precision":"zip"},"type":"Feature","geometry":{"type":"Point","coordinates":[-95.434241,29.83399]}},{"properties":{"product rating":3.2,"zipcode":"77007","geo_score":0.714,"id":"a648ojs7oik5","geo_precision":"zip"},"type":"Feature","geometry":{"type":"Point","coordinates":[-95.434241,29.83399]}},{"properties":{"product rating":2.9,"zipcode":"77007","geo_score":0.714,"id":"a648ojnlw3k1","geo_precision":"zip"},"type":"Feature","geometry":{"type":"Point","coordinates":[-95.434241,29.83399]}},{"properties":{"product rating":3.7,"zipcode":"77007","geo_score":0.714,"id":"a648ojn1pf0d","geo_precision":"zip"},"type":"Feature","geometry":{"type":"Point","coordinates":[-95.434241,29.83399]}},{"properties":{"product rating":2.4,"zipcode":"77008","geo_score":0.714,"id":"a648ojxdedlp","geo_precision":"zip"},"type":"Feature","geometry":{"type":"Point","coordinates":[-95.434241,29.83399]}},{"properties":{"product rating":3.1,"zipcode":"77008","geo_score":0.714,"id":"a648ojklkiia","geo_precision":"zip"},"type":"Feature","geometry":{"type":"Point","coordinates":[-95.434241,29.83399]}},{"properties":{"product rating":3.4,"zipcode":"77008","geo_score":0.714,"id":"a648ojo5q6ed","geo_precision":"zip"},"type":"Feature","geometry":{"type":"Point","coordinates":[-95.434241,29.83399]}},{"properties":{"product rating":2.4,"zipcode":"77008","geo_score":0.714,"id":"a648ojkdt7s0","geo_precision":"zip"},"type":"Feature","geometry":{"type":"Point","coordinates":[-95.434241,29.83399]}},{"properties":{"product rating":3.0,"zipcode":"77009","geo_score":0.714,"id":"a648ojw35hrj","geo_precision":"zip"},"type":"Feature","geometry":{"type":"Point","coordinates":[-95.434241,29.83399]}},{"properties":{"product rating":2.5,"zipcode":"77019","geo_score":0.714,"id":"a648ojsuw7e9","geo_precision":"zip"},"type":"Feature","geometry":{"type":"Point","coordinates":[-95.434241,29.83399]}},{"properties":{"product rating":2.6,"zipcode":"77019","geo_score":0.714,"id":"a648ojng9zcd","geo_precision":"zip"},"type":"Feature","geometry":{"type":"Point","coordinates":[-95.434241,29.83399]}},{"properties":{"product rating":3.3,"zipcode":"77019","geo_score":0.714,"id":"a648ojxojmrd","geo_precision":"zip"},"type":"Feature","geometry":{"type":"Point","coordinates":[-95.434241,29.83399]}},{"properties":{"product rating":2.6,"zipcode":"77019","geo_score":0.714,"id":"a648ojpzkzqx","geo_precision":"zip"},"type":"Feature","geometry":{"type":"Point","coordinates":[-95.434241,29.83399]}},{"properties":{"product rating":2.7,"zipcode":"77019","geo_score":0.714,"id":"a648ojwqxaeh","geo_precision":"zip"},"type":"Feature","geometry":{"type":"Point","coordinates":[-95.434241,29.83399]}},{"properties":{"product rating":1.3,"zipcode":"77019","geo_score":0.714,"id":"a648ojx1nspc","geo_precision":"zip"},"type":"Feature","geometry":{"type":"Point","coordinates":[-95.434241,29.83399]}},{"properties":{"product rating":3.0,"zipcode":"77024","geo_score":0.714,"id":"a648ojwt75xr","geo_precision":"zip"},"type":"Feature","geometry":{"type":"Point","coordinates":[-95.503553,29.789672]}},{"properties":{"product rating":3.4,"zipcode":"77024","geo_score":0.714,"id":"a648ojrtjb9b","geo_precision":"zip"},"type":"Feature","geometry":{"type":"Point","coordinates":[-95.503553,29.789672]}},{"properties":{"product rating":2.2,"zipcode":"77025","geo_score":0.714,"id":"a648ojy1ce0y","geo_precision":"zip"},"type":"Feature","geometry":{"type":"Point","coordinates":[-95.434241,29.83399]}},{"properties":{"product rating":2.2,"zipcode":"77025","geo_score":0.714,"id":"a648ojp2jx1x","geo_precision":"zip"},"type":"Feature","geometry":{"type":"Point","coordinates":[-95.434241,29.83399]}},{"properties":{"product rating":2.2,"zipcode":"77027","geo_score":0.714,"id":"a648ojo42gyj","geo_precision":"zip"},"type":"Feature","geometry":{"type":"Point","coordinates":[-95.303129,29.688374]}},{"properties":{"product rating":2.3,"zipcode":"77027","geo_score":0.714,"id":"a648ojwjd3ym","geo_precision":"zip"},"type":"Feature","geometry":{"type":"Point","coordinates":[-95.303129,29.688374]}},{"properties":{"product rating":3.3,"zipcode":"77027","geo_score":0.714,"id":"a648ojrik96s","geo_precision":"zip"},"type":"Feature","geometry":{"type":"Point","coordinates":[-95.303129,29.688374]}},{"properties":{"product rating":1.5,"zipcode":"77030","geo_score":0.714,"id":"a648ojx1nij5","geo_precision":"zip"},"type":"Feature","geometry":{"type":"Point","coordinates":[-95.434241,29.83399]}},{"properties":{"product rating":2.9,"zipcode":"77030","geo_score":0.714,"id":"a648ojrj8xuw","geo_precision":"zip"},"type":"Feature","geometry":{"type":"Point","coordinates":[-95.434241,29.83399]}},{"properties":{"product rating":2.0,"zipcode":"77030","geo_score":0.714,"id":"a648ojk1ivuf","geo_precision":"zip"},"type":"Feature","geometry":{"type":"Point","coordinates":[-95.434241,29.83399]}},{"properties":{"product rating":1.7,"zipcode":"77030","geo_score":0.714,"id":"a648ojnp77x9","geo_precision":"zip"},"type":"Feature","geometry":{"type":"Point","coordinates":[-95.434241,29.83399]}},{"properties":{"product rating":2.3,"zipcode":"77030","geo_score":0.714,"id":"a648ojqesluj","geo_precision":"zip"},"type":"Feature","geometry":{"type":"Point","coordinates":[-95.434241,29.83399]}},{"properties":{"product rating":3.0,"zipcode":"77036","geo_score":0.714,"id":"a648ojv1skge","geo_precision":"zip"},"type":"Feature","geometry":{"type":"Point","coordinates":[-95.434241,29.83399]}},{"properties":{"product rating":2.8,"zipcode":"77040","geo_score":0.714,"id":"a648ojw7pkkd","geo_precision":"zip"},"type":"Feature","geometry":{"type":"Point","coordinates":[-95.46355,30.006888]}},{"properties":{"product rating":2.4,"zipcode":"77042","geo_score":0.714,"id":"a648ojl9yynb","geo_precision":"zip"},"type":"Feature","geometry":{"type":"Point","coordinates":[-95.434241,29.83399]}},{"properties":{"product rating":2.3,"zipcode":"77054","geo_score":0.714,"id":"a648ojm40nzf","geo_precision":"zip"},"type":"Feature","geometry":{"type":"Point","coordinates":[-95.391466,29.67543]}},{"properties":{"product rating":3.0,"zipcode":"77054","geo_score":0.714,"id":"a648ojungoh6","geo_precision":"zip"},"type":"Feature","geometry":{"type":"Point","coordinates":[-95.391466,29.67543]}},{"properties":{"product rating":1.5,"zipcode":"77055","geo_score":0.714,"id":"a648ojyn7xv9","geo_precision":"zip"},"type":"Feature","geometry":{"type":"Point","coordinates":[-95.434241,29.83399]}},{"properties":{"product rating":2.1,"zipcode":"77055","geo_score":0.714,"id":"a648ojlpuqqe","geo_precision":"zip"},"type":"Feature","geometry":{"type":"Point","coordinates":[-95.434241,29.83399]}},{"properties":{"product rating":2.2,"zipcode":"77055","geo_score":0.714,"id":"a648ojxmcso5","geo_precision":"zip"},"type":"Feature","geometry":{"type":"Point","coordinates":[-95.434241,29.83399]}},{"properties":{"product rating":3.0,"zipcode":"77055","geo_score":0.714,"id":"a648ojlcxtty","geo_precision":"zip"},"type":"Feature","geometry":{"type":"Point","coordinates":[-95.434241,29.83399]}},{"properties":{"product rating":2.6,"zipcode":"77055","geo_score":0.714,"id":"a648ojj8osa8","geo_precision":"zip"},"type":"Feature","geometry":{"type":"Point","coordinates":[-95.434241,29.83399]}},{"properties":{"product rating":2.0,"zipcode":"77056","geo_score":0.714,"id":"a648ojnzpood","geo_precision":"zip"},"type":"Feature","geometry":{"type":"Point","coordinates":[-95.207161,29.698579]}},{"properties":{"product rating":2.6,"zipcode":"77056","geo_score":0.714,"id":"a648ojwwy3i9","geo_precision":"zip"},"type":"Feature","geometry":{"type":"Point","coordinates":[-95.207161,29.698579]}},{"properties":{"product rating":2.9,"zipcode":"77057","geo_score":0.714,"id":"a648ojth093h","geo_precision":"zip"},"type":"Feature","geometry":{"type":"Point","coordinates":[-95.434241,29.83399]}},{"properties":{"product rating":1.8,"zipcode":"77057","geo_score":0.714,"id":"a648ojyse5ju","geo_precision":"zip"},"type":"Feature","geometry":{"type":"Point","coordinates":[-95.434241,29.83399]}},{"properties":{"product rating":2.4,"zipcode":"77057","geo_score":0.714,"id":"a648ojj6fyqd","geo_precision":"zip"},"type":"Feature","geometry":{"type":"Point","coordinates":[-95.434241,29.83399]}},{"properties":{"product rating":2.9,"zipcode":"77057","geo_score":0.714,"id":"a648ojxkob2a","geo_precision":"zip"},"type":"Feature","geometry":{"type":"Point","coordinates":[-95.434241,29.83399]}},{"properties":{"product rating":2.8,"zipcode":"77057","geo_score":0.714,"id":"a648ojv255wl","geo_precision":"zip"},"type":"Feature","geometry":{"type":"Point","coordinates":[-95.434241,29.83399]}},{"properties":{"product rating":2.7,"zipcode":"77057","geo_score":0.714,"id":"a648ojqkuc2y","geo_precision":"zip"},"type":"Feature","geometry":{"type":"Point","coordinates":[-95.434241,29.83399]}},{"properties":{"product rating":3.2,"zipcode":"77061","geo_score":0.714,"id":"a648ojjqhlpj","geo_precision":"zip"},"type":"Feature","geometry":{"type":"Point","coordinates":[-95.28316,29.65688]}},{"properties":{"product rating":2.8,"zipcode":"77061","geo_score":0.714,"id":"a648ojs98ide","geo_precision":"zip"},"type":"Feature","geometry":{"type":"Point","coordinates":[-95.28316,29.65688]}},{"properties":{"product rating":2.1,"zipcode":"77070","geo_score":0.714,"id":"a648ojsy301i","geo_precision":"zip"},"type":"Feature","geometry":{"type":"Point","coordinates":[-95.434241,29.83399]}},{"properties":{"product rating":1.9,"zipcode":"77072","geo_score":0.714,"id":"a648ojtq41ya","geo_precision":"zip"},"type":"Feature","geometry":{"type":"Point","coordinates":[-95.434241,29.83399]}},{"properties":{"product rating":2.3,"zipcode":"77077","geo_score":0.714,"id":"a648ojkn7lec","geo_precision":"zip"},"type":"Feature","geometry":{"type":"Point","coordinates":[-95.434241,29.83399]}},{"properties":{"product rating":2.3,"zipcode":"77077","geo_score":0.714,"id":"a648ojrb7zuq","geo_precision":"zip"},"type":"Feature","geometry":{"type":"Point","coordinates":[-95.434241,29.83399]}},{"properties":{"product rating":2.2,"zipcode":"77080","geo_score":0.714,"id":"a648ojjchjcz","geo_precision":"zip"},"type":"Feature","geometry":{"type":"Point","coordinates":[-95.434241,29.83399]}},{"properties":{"product rating":1.4,"zipcode":"77081","geo_score":0.714,"id":"a648ojoh82lr","geo_precision":"zip"},"type":"Feature","geometry":{"type":"Point","coordinates":[-95.306914,29.68193]}},{"properties":{"product rating":2.5,"zipcode":"77082","geo_score":0.714,"id":"a648ojvvcg97","geo_precision":"zip"},"type":"Feature","geometry":{"type":"Point","coordinates":[-95.434241,29.83399]}},{"properties":{"product rating":3.7,"zipcode":"77083","geo_score":0.714,"id":"a648ojv9cj71","geo_precision":"zip"},"type":"Feature","geometry":{"type":"Point","coordinates":[-95.434241,29.83399]}},{"properties":{"product rating":2.3,"zipcode":"77083","geo_score":0.714,"id":"a648ojubzrqc","geo_precision":"zip"},"type":"Feature","geometry":{"type":"Point","coordinates":[-95.434241,29.83399]}},{"properties":{"product rating":2.6,"zipcode":"77083","geo_score":0.714,"id":"a648ojl0m34d","geo_precision":"zip"},"type":"Feature","geometry":{"type":"Point","coordinates":[-95.434241,29.83399]}},{"properties":{"product rating":1.7,"zipcode":"77083","geo_score":0.714,"id":"a648ojyn43dq","geo_precision":"zip"},"type":"Feature","geometry":{"type":"Point","coordinates":[-95.434241,29.83399]}},{"properties":{"product rating":2.6,"zipcode":"77094","geo_score":0.714,"id":"a648ojr6g9ht","geo_precision":"zip"},"type":"Feature","geometry":{"type":"Point","coordinates":[-95.434241,29.83399]}},{"properties":{"product rating":2.9,"zipcode":"77096","geo_score":0.714,"id":"a648ojkdnrse","geo_precision":"zip"},"type":"Feature","geometry":{"type":"Point","coordinates":[-95.434241,29.83399]}},{"properties":{"product rating":2.9,"zipcode":"77096","geo_score":0.714,"id":"a648ojwfhf4i","geo_precision":"zip"},"type":"Feature","geometry":{"type":"Point","coordinates":[-95.434241,29.83399]}},{"properties":{"product rating":3.3,"zipcode":"77096","geo_score":0.714,"id":"a648ojw878l4","geo_precision":"zip"},"type":"Feature","geometry":{"type":"Point","coordinates":[-95.434241,29.83399]}},{"properties":{"product rating":1.8,"zipcode":"77098","geo_score":0.714,"id":"a648ojvtdnmr","geo_precision":"zip"},"type":"Feature","geometry":{"type":"Point","coordinates":[-95.434241,29.83399]}},{"properties":{"product rating":1.0,"zipcode":"77370","geo_score":0.714,"id":"a648ojuypelf","geo_precision":"zip"},"type":"Feature","geometry":{"type":"Point","coordinates":[-95.262155,29.998831]}},{"properties":{"product rating":3.9,"zipcode":"77379","geo_score":0.714,"id":"a648ojm8qo38","geo_precision":"zip"},"type":"Feature","geometry":{"type":"Point","coordinates":[-95.427994,30.127439]}},{"properties":{"product rating":2.5,"zipcode":"77379","geo_score":0.714,"id":"a648ojyguqse","geo_precision":"zip"},"type":"Feature","geometry":{"type":"Point","coordinates":[-95.427994,30.127439]}},{"properties":{"product rating":3.6,"zipcode":"77401","geo_score":0.714,"id":"a648ojmbyl6j","geo_precision":"zip"},"type":"Feature","geometry":{"type":"Point","coordinates":[-95.434241,29.83399]}},{"properties":{"product rating":2.3,"zipcode":"77407","geo_score":0.0,"id":"a648ojs7vwk8","geo_precision":"unmatched"},"type":"Feature","geometry":null},{"properties":{"product rating":2.4,"zipcode":"77450","geo_score":0.714,"id":"a648ojklfb4l","geo_precision":"zip"},"type":"Feature","geometry":{"type":"Point","coordinates":[-95.434241,29.83399]}},{"properties":{"product rating":3.2,"zipcode":"77478","geo_score":0.714,"id":"a648ojpnapwl","geo_precision":"zip"},"type":"Feature","geometry":{"type":"Point","coordinates":[-95.756462,29.525461]}},{"properties":{"product rating":2.5,"zipcode":"77478","geo_score":0.714,"id":"a648ojpjy51x","geo_precision":"zip"},"type":"Feature","geometry":{"type":"Point","coordinates":[-95.756462,29.525461]}},{"properties":{"product rating":3.2,"zipcode":"77479","geo_score":0.714,"id":"a648ojmg55gk","geo_precision":"zip"},"type":"Feature","geometry":{"type":"Point","coordinates":[-95.666778,29.552921]}},{"properties":{"product rating":3.7,"zipcode":"77479","geo_score":0.714,"id":"a648ojsmhli8","geo_precision":"zip"},"type":"Feature","geometry":{"type":"Point","coordinates":[-95.666778,29.552921]}},{"properties":{"product rating":2.5,"zipcode":"77479","geo_score":0.714,"id":"a648ojmumuxe","geo_precision":"zip"},"type":"Feature","geometry":{"type":"Point","coordinates":[-95.666778,29.552921]}},{"properties":{"product rating":1.6,"zipcode":"77479","geo_score":0.714,"id":"a648ojmvfa2q","geo_precision":"zip"},"type":"Feature","geometry":{"type":"Point","coordinates":[-95.666778,29.552921]}},{"properties":{"product rating":3.0,"zipcode":"77479","geo_score":0.714,"id":"a648ojpoeebq","geo_precision":"zip"},"type":"Feature","geometry":{"type":"Point","coordinates":[-95.666778,29.552921]}},{"properties":{"product rating":2.0,"zipcode":"77494","geo_score":0.714,"id":"a648ojjewk5g","geo_precision":"zip"},"type":"Feature","geometry":{"type":"Point","coordinates":[-95.434241,29.83399]}},{"properties":{"product rating":2.8,"zipcode":"77494","geo_score":0.714,"id":"a648ojl3fm8n","geo_precision":"zip"},"type":"Feature","geometry":{"type":"Point","coordinates":[-95.434241,29.83399]}},{"properties":{"product rating":2.7,"zipcode":"77494","geo_score":0.714,"id":"a648ojv2z68n","geo_precision":"zip"},"type":"Feature","geometry":{"type":"Point","coordinates":[-95.434241,29.83399]}},{"properties":{"product rating":2.8,"zipcode":"77498","geo_score":0.0,"id":"a648ojlroubx","geo_precision":"unmatched"},"type":"Feature","geometry":null},{"properties":{"product rating":3.7,"zipcode":"77498","geo_score":0.0,"id":"a648ojmxo4hm","geo_precision":"unmatched"},"type":"Feature","geometry":null},{"properties":{"product rating":1.8,"zipcode":"77659","geo_score":0.714,"id":"a648ojotmqfy","geo_precision":"zip"},"type":"Feature","geometry":{"type":"Point","coordinates":[-94.411302,30.121046]}},{"properties":{"product rating":2.7,"zipcode":"77845","geo_score":0.714,"id":"a648ojr6ovgo","geo_precision":"zip"},"type":"Feature","geometry":{"type":"Point","coordinates":[-96.293826,30.579234]}},{"properties":{"product rating":2.2,"zipcode":"78056","geo_score":0.714,"id":"a648ojsw9zga","geo_precision":"zip"},"type":"Feature","geometry":{"type":"Point","coordinates":[-98.938654,29.511723]}},{"properties":{"product rating":1.6,"zipcode":"78703","geo_score":0.714,"id":"a648ojyfggp0","geo_precision":"zip"},"type":"Feature","geometry":{"type":"Point","coordinates":[-97.766351,30.290107]}},{"properties":{"product rating":3.4,"zipcode":"78703","geo_score":0.714,"id":"a648ojpcgdu4","geo_precision":"zip"},"type":"Feature","geometry":{"type":"Point","coordinates":[-97.766351,30.290107]}},{"properties":{"product rating":2.0,"zipcode":"78705","geo_score":0.714,"id":"a648ojpcrnsf","geo_precision":"zip"},"type":"Feature","geometry":{"type":"Point","coordinates":[-97.736932,30.293057]}},{"properties":{"product rating":2.9,"zipcode":"78705","geo_score":0.714,"id":"a648ojj48xqg","geo_precision":"zip"},"type":"Feature","geometry":{"type":"Point","coordinates":[-97.736932,30.293057]}},{"properties":{"product rating":3.2,"zipcode":"78759","geo_score":0.714,"id":"a648ojnirg3w","geo_precision":"zip"},"type":"Feature","geometry":{"type":"Point","coordinates":[-97.750611,30.395586]}},{"properties":{"product rating":2.4,"zipcode":"78759","geo_score":0.714,"id":"a648ojlefjq8","geo_precision":"zip"},"type":"Feature","geometry":{"type":"Point","coordinates":[-97.750611,30.395586]}},{"properties":{"product rating":2.6,"zipcode":"78950","geo_score":0.714,"id":"a648ojkes8ro","geo_precision":"zip"},"type":"Feature","geometry":{"type":"Point","coordinates":[-96.546638,29.871061]}},{"properties":{"product rating":3.1,"zipcode":"92057","geo_score":0.714,"id":"a648ojsk6k9i","geo_precision":"zip"},"type":"Feature","geometry":{"type":"Point","coordinates":[-116.846046,33.016928]}},{"properties":{"product rating":3.2,"zipcode":"92143","geo_score":0.714,"id":"a648ojo3dc2m","geo_precision":"zip"},"type":"Feature","geometry":{"type":"Point","coordinates":[-116.846046,33.016928]}},{"properties":{"product rating":1.8,"zipcode":"93010","geo_score":0.714,"id":"a648ojoazjlh","geo_precision":"zip"},"type":"Feature","geometry":{"type":"Point","coordinates":[-119.084253,34.307783]}},{"properties":{"product rating":2.9,"zipcode":"94109","geo_score":0.714,"id":"a648ojvwg4gc","geo_precision":"zip"},"type":"Feature","geometry":{"type":"Point","coordinates":[-122.420782,37.795219]}},{"properties":{"product rating":1.6,"zipcode":"94404","geo_score":0.714,"id":"a648ojs5knot","geo_precision":"zip"},"type":"Feature","geometry":{"type":"Point","coordinates":[-122.269978,37.553774]}},{"properties":{"product rating":3.3,"zipcode":"95826","geo_score":0.714,"id":"a648ojrse8ns","geo_precision":"zip"},"type":"Feature","geometry":{"type":"Point","coordinates":[-121.385459,38.547639]}},{"properties":{"product rating":2.1,"zipcode":"96367","geo_score":0.0,"id":"a648ojw4vr5v","geo_precision":"unmatched"},"type":"Feature","geometry":null},{"properties":{"product rating":2.5,"zipcode":"96367","geo_score":0.0,"id":"a648ojwojhfa","geo_precision":"unmatched"},"type":"Feature","geometry":null},{"properties":{"product rating":2.1,"zipcode":"99019","geo_score":0.714,"id":"a648ojlp5737","geo_precision":"zip"},"type":"Feature","geometry":{"type":"Point","coordinates":[-117.085845,47.651635]}}],"is_temporal":false,"author":{"url":"","metadata":"","contact_name":"","contact_address":"","source":"","contact_phone":""},"source":"","pagination":{"sort":null,"start":0,"total":163,"limit":1000000},"state":"complete","tags":"final,marketing","published":"2014-08-11T00:31:13-04:00","id":18576}