{"type":"FeatureCollection","data_type":"Dataset","url_type":null,"permissions":[{"permissions":{"download":true,"view":true},"group_id":"everyone"}],"classification":null,"title":"State Unemployment Rates for October 2011","count":51,"stream_id":185849,"contributor":{"url":"http://geocommons.com/users/36418","name":"kevin032691"},"data_attributes":null,"calculation_params":null,"icon_link":null,"link":"http://geocommons.com/overlays/185849.json","extent":[-157.858,21.3069,-69.8038,58.3736],"geometry_types":["point"],"unique_name":null,"name":"State Unemployment Rates for October 2011","feature_count":51,"description":"This data set includes individual state unemployment rates for October of the year 2011. This information was derived from the National Conference of State Legislatures website. They give credit for their source of statistics to the U.S. Dept. of Labor, Bureau of Labor Statistics.","next_feature":null,"is_raster":false,"short_classification":"Y","stats":{"GeocodeScore":{"max":0.857,"mean":0.85013725490196,"variance":0.000750760784313726,"stdev":0.0274000143122905,"min":0.69,"median":0.857},"rate":{"max":13.4,"mean":8.17843137254902,"variance":4.00252549019608,"stdev":2.00063127292264,"min":3.5,"median":8.2}},"features":[{"properties":{"name":"city:","city":"Montgomery","GeocodePrecision":"city","GeocodeScore":0.857,"rate":9.3,"id":"a6cb716jp6gc","state":"Alabama"},"type":"Feature","geometry":{"type":"Point","coordinates":[-86.299969,32.366805]}},{"properties":{"name":"city:","city":"Juneau","GeocodePrecision":"city","GeocodeScore":0.857,"rate":7.4,"id":"a6cb70w11378","state":"Alaska"},"type":"Feature","geometry":{"type":"Point","coordinates":[-134.523946,58.373561]}},{"properties":{"name":"city:","city":"Phoenix","GeocodePrecision":"city","GeocodeScore":0.857,"rate":9.0,"id":"a6cb7162pf6o","state":"Arizona"},"type":"Feature","geometry":{"type":"Point","coordinates":[-112.074037,33.448377]}},{"properties":{"name":"city:","city":"Little Rock","GeocodePrecision":"city","GeocodeScore":0.857,"rate":8.2,"id":"a6cb716ut2si","state":"Arkansas"},"type":"Feature","geometry":{"type":"Point","coordinates":[-92.289595,34.746481]}},{"properties":{"name":"city:","city":"Sacramento","GeocodePrecision":"city","GeocodeScore":0.857,"rate":11.7,"id":"a6cb70ygv561","state":"California"},"type":"Feature","geometry":{"type":"Point","coordinates":[-121.4944,38.581572]}},{"properties":{"name":"city:","city":"Denver","GeocodePrecision":"city","GeocodeScore":0.857,"rate":8.1,"id":"a6cb70v7sdxy","state":"Colorado"},"type":"Feature","geometry":{"type":"Point","coordinates":[-104.984703,39.739154]}},{"properties":{"name":"city:","city":"Hartford","GeocodePrecision":"city","GeocodeScore":0.857,"rate":8.7,"id":"a6cb70upbkt6","state":"Connecticut"},"type":"Feature","geometry":{"type":"Point","coordinates":[-72.685093,41.763711]}},{"properties":{"name":"city:","city":"Dover","GeocodePrecision":"city","GeocodeScore":0.857,"rate":7.9,"id":"a6cb70zgze79","state":"Delaware"},"type":"Feature","geometry":{"type":"Point","coordinates":[-75.49549,39.156376]}},{"properties":{"name":"city:","city":"Tallahassee","GeocodePrecision":"city","GeocodeScore":0.857,"rate":10.3,"id":"a6cb70vpwrat","state":"Florida"},"type":"Feature","geometry":{"type":"Point","coordinates":[-84.280733,30.438256]}},{"properties":{"name":"city:","city":"Atlanta","GeocodePrecision":"city","GeocodeScore":0.857,"rate":10.2,"id":"a6cb70tdmubk","state":"Georgia"},"type":"Feature","geometry":{"type":"Point","coordinates":[-84.387982,33.748995]}},{"properties":{"name":"city:","city":"Honolulu","GeocodePrecision":"city","GeocodeScore":0.857,"rate":6.5,"id":"a6cb70wyjaoc","state":"Hawaii"},"type":"Feature","geometry":{"type":"Point","coordinates":[-157.858333,21.306944]}},{"properties":{"name":"city:","city":"Boise","GeocodePrecision":"city","GeocodeScore":0.857,"rate":8.8,"id":"a6cb71268npl","state":"Idaho"},"type":"Feature","geometry":{"type":"Point","coordinates":[-116.203451,43.6135]}},{"properties":{"name":"city:","city":"Springfield","GeocodePrecision":"city","GeocodeScore":0.818,"rate":10.1,"id":"a6cb70tx6ghg","state":"Illinois"},"type":"Feature","geometry":{"type":"Point","coordinates":[-90.045117,41.612532]}},{"properties":{"name":"city:","city":"Indianapolis","GeocodePrecision":"city","GeocodeScore":0.857,"rate":9.0,"id":"a6cb70wozm5f","state":"Indiana"},"type":"Feature","geometry":{"type":"Point","coordinates":[-86.158042,39.768377]}},{"properties":{"name":"city:","city":"Des Moines","GeocodePrecision":"city","GeocodeScore":0.857,"rate":6.0,"id":"a6cb718kxk95","state":"Iowa"},"type":"Feature","geometry":{"type":"Point","coordinates":[-93.609106,41.600545]}},{"properties":{"name":"city:","city":"Topeka","GeocodePrecision":"city","GeocodeScore":0.857,"rate":6.7,"id":"a6cb715367cy","state":"Kansas"},"type":"Feature","geometry":{"type":"Point","coordinates":[-95.678037,39.048334]}},{"properties":{"name":"city:","city":"Frankfort","GeocodePrecision":"city","GeocodeScore":0.857,"rate":9.6,"id":"a6cb70wk83co","state":"Kentucky"},"type":"Feature","geometry":{"type":"Point","coordinates":[-84.869708,38.228115]}},{"properties":{"name":"city:","city":"Baton Rouge","GeocodePrecision":"city","GeocodeScore":0.857,"rate":7.0,"id":"a6cb715hkyjx","state":"Louisiana"},"type":"Feature","geometry":{"type":"Point","coordinates":[-91.154551,30.450746]}},{"properties":{"name":"city:","city":"Augusta","GeocodePrecision":"city","GeocodeScore":0.857,"rate":7.3,"id":"a6cb70y3055v","state":"Maine"},"type":"Feature","geometry":{"type":"Point","coordinates":[-69.803773,44.351642]}},{"properties":{"name":"city:","city":"Annapolis","GeocodePrecision":"city","GeocodeScore":0.857,"rate":7.2,"id":"a6cb7147nbq9","state":"Maryland"},"type":"Feature","geometry":{"type":"Point","coordinates":[-76.492183,38.978445]}},{"properties":{"name":"city:","city":"Boston","GeocodePrecision":"city","GeocodeScore":0.857,"rate":7.3,"id":"a6cb7177i7my","state":"Massachusetts"},"type":"Feature","geometry":{"type":"Point","coordinates":[-71.059773,42.358431]}},{"properties":{"name":"city:","city":"Lansing","GeocodePrecision":"city","GeocodeScore":0.857,"rate":10.6,"id":"a6cb715i4v8u","state":"Michigan"},"type":"Feature","geometry":{"type":"Point","coordinates":[-84.555535,42.732535]}},{"properties":{"name":"city:","city":"Saint Paul","GeocodePrecision":"city","GeocodeScore":0.857,"rate":6.4,"id":"a6cb70uyamdw","state":"Minnesota"},"type":"Feature","geometry":{"type":"Point","coordinates":[-93.093274,44.94441]}},{"properties":{"name":"city:","city":"Jackson","GeocodePrecision":"city","GeocodeScore":0.857,"rate":10.6,"id":"a6cb711j2rd0","state":"Mississippi"},"type":"Feature","geometry":{"type":"Point","coordinates":[-90.18481,32.298757]}},{"properties":{"name":"city:","city":"Jefferson City","GeocodePrecision":"city","GeocodeScore":0.857,"rate":8.5,"id":"a6cb712wpdhh","state":"Missouri"},"type":"Feature","geometry":{"type":"Point","coordinates":[-92.165194,38.494029]}},{"properties":{"name":"city:","city":"Helena","GeocodePrecision":"city","GeocodeScore":0.857,"rate":7.6,"id":"a6cb70v3c51j","state":"Montana"},"type":"Feature","geometry":{"type":"Point","coordinates":[-112.197616,46.70934]}},{"properties":{"name":"city:","city":"Lincoln","GeocodePrecision":"city","GeocodeScore":0.857,"rate":4.2,"id":"a6cb70vl9ob2","state":"Nebraska"},"type":"Feature","geometry":{"type":"Point","coordinates":[-96.66696,40.800001]}},{"properties":{"name":"city:","city":"Carson City","GeocodePrecision":"city","GeocodeScore":0.857,"rate":13.4,"id":"a6cb70tb3ft6","state":"Nevada"},"type":"Feature","geometry":{"type":"Point","coordinates":[-119.73074,39.154485]}},{"properties":{"name":"city:","city":"Concord","GeocodePrecision":"city","GeocodeScore":0.857,"rate":5.3,"id":"a6cb711wzdvb","state":"New Hampshire"},"type":"Feature","geometry":{"type":"Point","coordinates":[-71.537572,43.208137]}},{"properties":{"name":"city:","city":"Trenton","GeocodePrecision":"city","GeocodeScore":0.857,"rate":9.1,"id":"a6cb70sk8jgo","state":"New Jersey"},"type":"Feature","geometry":{"type":"Point","coordinates":[-74.742939,40.217053]}},{"properties":{"name":"city:","city":"Santa Fe","GeocodePrecision":"city","GeocodeScore":0.857,"rate":6.6,"id":"a6cb715w7bx1","state":"New Mexico"},"type":"Feature","geometry":{"type":"Point","coordinates":[-106.073414,35.625075]}},{"properties":{"name":"city:","city":"Albany","GeocodePrecision":"city","GeocodeScore":0.857,"rate":7.9,"id":"a6cb7169o014","state":"New York"},"type":"Feature","geometry":{"type":"Point","coordinates":[-73.756232,42.652579]}},{"properties":{"name":"city:","city":"Raleigh","GeocodePrecision":"city","GeocodeScore":0.857,"rate":10.4,"id":"a6cb715ijj69","state":"North Carolina"},"type":"Feature","geometry":{"type":"Point","coordinates":[-78.638615,35.772096]}},{"properties":{"name":"city:","city":"Bismarck","GeocodePrecision":"city","GeocodeScore":0.857,"rate":3.5,"id":"a6cb712ws6z6","state":"North Dakota"},"type":"Feature","geometry":{"type":"Point","coordinates":[-100.769066,46.810594]}},{"properties":{"name":"city:","city":"Columbus","GeocodePrecision":"city","GeocodeScore":0.776,"rate":9.0,"id":"a6cb71498y6m","state":"Ohio"},"type":"Feature","geometry":{"type":"Point","coordinates":[-82.695724,39.998397]}},{"properties":{"name":"city:","city":"Oklahoma City","GeocodePrecision":"city","GeocodeScore":0.857,"rate":6.1,"id":"a6cb70y5fehz","state":"Oklahoma"},"type":"Feature","geometry":{"type":"Point","coordinates":[-97.516428,35.46756]}},{"properties":{"name":"city:","city":"Salem","GeocodePrecision":"city","GeocodeScore":0.857,"rate":9.5,"id":"a6cb70yex852","state":"Oregon"},"type":"Feature","geometry":{"type":"Point","coordinates":[-122.921721,44.90472]}},{"properties":{"name":"city:","city":"Harrisburg","GeocodePrecision":"city","GeocodeScore":0.857,"rate":8.1,"id":"a6cb70t2w5te","state":"Pennsylvania"},"type":"Feature","geometry":{"type":"Point","coordinates":[-76.884418,40.2737]}},{"properties":{"name":"city:","city":"Providence","GeocodePrecision":"city","GeocodeScore":0.857,"rate":10.4,"id":"a6cb71046cku","state":"Rhode Island"},"type":"Feature","geometry":{"type":"Point","coordinates":[-71.412834,41.823989]}},{"properties":{"name":"city:","city":"Columbia","GeocodePrecision":"city","GeocodeScore":0.857,"rate":10.5,"id":"a6cb70s6dhnr","state":"South Carolina"},"type":"Feature","geometry":{"type":"Point","coordinates":[-81.024864,33.987454]}},{"properties":{"name":"city:","city":"Pierre","GeocodePrecision":"city","GeocodeScore":0.857,"rate":4.5,"id":"a6cb711brmfn","state":"South Dakota"},"type":"Feature","geometry":{"type":"Point","coordinates":[-100.094195,44.334073]}},{"properties":{"name":"city:","city":"Nashville","GeocodePrecision":"city","GeocodeScore":0.857,"rate":9.6,"id":"a6cb70yj79c1","state":"Tennessee"},"type":"Feature","geometry":{"type":"Point","coordinates":[-86.784443,36.16589]}},{"properties":{"name":"city:","city":"Austin","GeocodePrecision":"city","GeocodeScore":0.857,"rate":8.4,"id":"a6cb712xjm0b","state":"Texas"},"type":"Feature","geometry":{"type":"Point","coordinates":[-97.743061,30.267153]}},{"properties":{"name":"city:","city":"Salt Lake City","GeocodePrecision":"city","GeocodeScore":0.857,"rate":7.0,"id":"a6cb716nv98h","state":"Utah"},"type":"Feature","geometry":{"type":"Point","coordinates":[-111.891047,40.760779]}},{"properties":{"name":"city:","city":"Montpelier","GeocodePrecision":"city","GeocodeScore":0.794,"rate":5.6,"id":"a6cb70zlr4yd","state":"Vermont"},"type":"Feature","geometry":{"type":"Point","coordinates":[-72.607888,44.257004]}},{"properties":{"name":"city:","city":"Richmond","GeocodePrecision":"city","GeocodeScore":0.857,"rate":6.4,"id":"a6cb715cxwua","state":"Virginia"},"type":"Feature","geometry":{"type":"Point","coordinates":[-77.460262,37.553758]}},{"properties":{"name":"city:","city":"Olympia","GeocodePrecision":"city","GeocodeScore":0.857,"rate":9.0,"id":"a6cb714gdqmk","state":"Washington"},"type":"Feature","geometry":{"type":"Point","coordinates":[-122.900695,47.037874]}},{"properties":{"name":"city:","city":"Washington D.C.","GeocodePrecision":"city","GeocodeScore":0.69,"rate":11.0,"id":"a6cb70w0l0bx","state":"Washington D.C."},"type":"Feature","geometry":{"type":"Point","coordinates":[-77.036366,38.895112]}},{"properties":{"name":"city:","city":"Charleston","GeocodePrecision":"city","GeocodeScore":0.857,"rate":8.2,"id":"a6cb7157gi8g","state":"West Virginia"},"type":"Feature","geometry":{"type":"Point","coordinates":[-81.632624,38.34982]}},{"properties":{"name":"city:","city":"Madison","GeocodePrecision":"city","GeocodeScore":0.857,"rate":7.7,"id":"a6cb70wdfxtm","state":"Wisconsin"},"type":"Feature","geometry":{"type":"Point","coordinates":[-89.40123,43.073052]}},{"properties":{"name":"city:","city":"Cheyenne","GeocodePrecision":"city","GeocodeScore":0.857,"rate":5.7,"id":"a6cb70ti2xki","state":"Wyoming"},"type":"Feature","geometry":{"type":"Point","coordinates":[-104.820246,41.139981]}}],"is_temporal":false,"author":{"url":"http://geocommons.com/overlays/185763.html","metadata":"","contact_name":"Lindsay","contact_address":"","source":"Lindsay","contact_phone":""},"source":"http://geocommons.com/overlays/185763.html","pagination":{"sort":null,"start":0,"total":51,"limit":1000000},"state":"complete","tags":"","published":"2014-08-13T06:18:32-04:00","id":185849}