{"type":"FeatureCollection","data_type":"Dataset","url_type":null,"permissions":[{"permissions":{"download":true,"view":true},"group_id":"everyone"}],"classification":null,"title":"October 2009 calls","count":73,"stream_id":18595,"contributor":{"url":"http://geocommons.com/users/8961","name":"rkreicker@hensleylegal.com"},"data_attributes":null,"calculation_params":null,"icon_link":null,"link":"http://geocommons.com/overlays/18595.json","extent":[-87.4101,38.2934,-84.8655,41.7187],"geometry_types":["point"],"unique_name":null,"name":"October 2009 calls","feature_count":73,"description":"","next_feature":null,"is_raster":false,"short_classification":"Y","stats":{"hits":{"max":133.0,"mean":4.57534246575342,"variance":254.414383561644,"stdev":15.9503725210932,"min":1.0,"median":1.0},"geo_score":{"max":0.857,"mean":0.850410958904109,"variance":0.00109438432267884,"stdev":0.0330814800557479,"min":0.611,"median":0.857}},"features":[{"properties":{"hits":27.0,"city":"Anderson","geo_score":0.857,"id":"a6dfl764gk5f","geo_precision":"city","state":"IN"},"type":"Feature","geometry":{"type":"Point","coordinates":[-85.766164,40.141033]}},{"properties":{"hits":1.0,"city":"Auburn","geo_score":0.857,"id":"a6dfl74x52ek","geo_precision":"city","state":"IN"},"type":"Feature","geometry":{"type":"Point","coordinates":[-85.027689,41.377758]}},{"properties":{"hits":2.0,"city":"Avon","geo_score":0.857,"id":"a6dfl78xbmzz","geo_precision":"city","state":"IN"},"type":"Feature","geometry":{"type":"Point","coordinates":[-86.488881,39.721434]}},{"properties":{"hits":1.0,"city":"Batesville","geo_score":0.857,"id":"a6dfl7drssuk","geo_precision":"city","state":"IN"},"type":"Feature","geometry":{"type":"Point","coordinates":[-85.229151,39.19017]}},{"properties":{"hits":2.0,"city":"Beech Grove","geo_score":0.857,"id":"a6dfl7e3ao5o","geo_precision":"city","state":"IN"},"type":"Feature","geometry":{"type":"Point","coordinates":[-86.093293,39.713893]}},{"properties":{"hits":6.0,"city":"Bloomington","geo_score":0.857,"id":"a6dfl72z91gl","geo_precision":"city","state":"IN"},"type":"Feature","geometry":{"type":"Point","coordinates":[-86.435094,39.07881]}},{"properties":{"hits":2.0,"city":"Brownsburg","geo_score":0.857,"id":"a6dfl79miva9","geo_precision":"city","state":"IN"},"type":"Feature","geometry":{"type":"Point","coordinates":[-86.470429,39.807038]}},{"properties":{"hits":1.0,"city":"Camby","geo_score":0.857,"id":"a6dfl7c39sb2","geo_precision":"city","state":"IN"},"type":"Feature","geometry":{"type":"Point","coordinates":[-86.30309,39.6533]}},{"properties":{"hits":1.0,"city":"Clayton","geo_score":0.857,"id":"a6dfl73b03nz","geo_precision":"city","state":"IN"},"type":"Feature","geometry":{"type":"Point","coordinates":[-86.495365,39.711088]}},{"properties":{"hits":1.0,"city":"Cloverdale","geo_score":0.857,"id":"a6dfl73qjq5r","geo_precision":"city","state":"IN"},"type":"Feature","geometry":{"type":"Point","coordinates":[-86.782523,39.658826]}},{"properties":{"hits":2.0,"city":"Columbus","geo_score":0.857,"id":"a6dfl7fhqgpf","geo_precision":"city","state":"IN"},"type":"Feature","geometry":{"type":"Point","coordinates":[-85.891338,39.191447]}},{"properties":{"hits":1.0,"city":"Connersville","geo_score":0.857,"id":"a6dfl77lvfib","geo_precision":"city","state":"IN"},"type":"Feature","geometry":{"type":"Point","coordinates":[-85.168099,39.656933]}},{"properties":{"hits":3.0,"city":"Crawfordsville","geo_score":0.857,"id":"a6dfl7axq6s4","geo_precision":"city","state":"IN"},"type":"Feature","geometry":{"type":"Point","coordinates":[-86.893538,40.042425]}},{"properties":{"hits":1.0,"city":"Cumberland","geo_score":0.857,"id":"a6dfl7dwnbjo","geo_precision":"city","state":"IN"},"type":"Feature","geometry":{"type":"Point","coordinates":[-85.957204,39.776153]}},{"properties":{"hits":1.0,"city":"Danville","geo_score":0.857,"id":"a6dfl72evqgh","geo_precision":"city","state":"IN"},"type":"Feature","geometry":{"type":"Point","coordinates":[-86.530319,39.766794]}},{"properties":{"hits":2.0,"city":"Eaton","geo_score":0.857,"id":"a6dfl7aqzif2","geo_precision":"city","state":"IN"},"type":"Feature","geometry":{"type":"Point","coordinates":[-85.338738,40.252982]}},{"properties":{"hits":1.0,"city":"Edinburgh","geo_score":0.857,"id":"a6dfl7fyx5jq","geo_precision":"city","state":"IN"},"type":"Feature","geometry":{"type":"Point","coordinates":[-86.099838,39.430795]}},{"properties":{"hits":4.0,"city":"Elkhart","geo_score":0.857,"id":"a6dfl73r877x","geo_precision":"city","state":"IN"},"type":"Feature","geometry":{"type":"Point","coordinates":[-85.937024,41.71873]}},{"properties":{"hits":1.0,"city":"Elwood","geo_score":0.857,"id":"a6dfl79eln9e","geo_precision":"city","state":"IN"},"type":"Feature","geometry":{"type":"Point","coordinates":[-85.719657,40.27843]}},{"properties":{"hits":1.0,"city":"Fillmore","geo_score":0.857,"id":"a6dfl724p0ol","geo_precision":"city","state":"IN"},"type":"Feature","geometry":{"type":"Point","coordinates":[-86.73796,39.652271]}},{"properties":{"hits":4.0,"city":"Fishers","geo_score":0.857,"id":"a6dfl72z23wz","geo_precision":"city","state":"IN"},"type":"Feature","geometry":{"type":"Point","coordinates":[-85.964894,39.967406]}},{"properties":{"hits":3.0,"city":"Franklin","geo_score":0.857,"id":"a6dfl7142edv","geo_precision":"city","state":"IN"},"type":"Feature","geometry":{"type":"Point","coordinates":[-86.068718,39.469172]}},{"properties":{"hits":1.0,"city":"Frankton","geo_score":0.857,"id":"a6dfl7410bcw","geo_precision":"city","state":"IN"},"type":"Feature","geometry":{"type":"Point","coordinates":[-85.786049,40.213173]}},{"properties":{"hits":13.0,"city":"Ft. Wayne","geo_score":0.611,"id":"a6dfl75c5oua","geo_precision":"street","state":"IN"},"type":"Feature","geometry":{"type":"Point","coordinates":[-85.142417,41.077777]}},{"properties":{"hits":1.0,"city":"Gary","geo_score":0.857,"id":"a6dfl700yiku","geo_precision":"city","state":"IN"},"type":"Feature","geometry":{"type":"Point","coordinates":[-87.319937,41.590686]}},{"properties":{"hits":1.0,"city":"Georgetown","geo_score":0.857,"id":"a6dfl742t2kf","geo_precision":"city","state":"IN"},"type":"Feature","geometry":{"type":"Point","coordinates":[-84.865519,41.231994]}},{"properties":{"hits":3.0,"city":"Goshen","geo_score":0.857,"id":"a6dfl71g1o6g","geo_precision":"city","state":"IN"},"type":"Feature","geometry":{"type":"Point","coordinates":[-85.858059,41.584839]}},{"properties":{"hits":1.0,"city":"Green Castle","geo_score":0.791,"id":"a6dfl7crlvtr","geo_precision":"street","state":"IN"},"type":"Feature","geometry":{"type":"Point","coordinates":[-87.000497,39.651768]}},{"properties":{"hits":3.0,"city":"Greenfield","geo_score":0.857,"id":"a6dfl7br0czb","geo_precision":"city","state":"IN"},"type":"Feature","geometry":{"type":"Point","coordinates":[-85.775403,39.821787]}},{"properties":{"hits":2.0,"city":"Greensburg","geo_score":0.857,"id":"a6dfl7cen77l","geo_precision":"city","state":"IN"},"type":"Feature","geometry":{"type":"Point","coordinates":[-85.491781,39.299802]}},{"properties":{"hits":2.0,"city":"Greenwood","geo_score":0.857,"id":"a6dfl73sfwj6","geo_precision":"city","state":"IN"},"type":"Feature","geometry":{"type":"Point","coordinates":[-86.100454,39.491246]}},{"properties":{"hits":3.0,"city":"Huntingburg","geo_score":0.857,"id":"a6dfl7bw6kd5","geo_precision":"city","state":"IN"},"type":"Feature","geometry":{"type":"Point","coordinates":[-86.952413,38.298972]}},{"properties":{"hits":133.0,"city":"Indianapolis","geo_score":0.857,"id":"a6dfl78pw6pm","geo_precision":"city","state":"IN"},"type":"Feature","geometry":{"type":"Point","coordinates":[-86.13216,39.775092]}},{"properties":{"hits":2.0,"city":"Ingails","geo_score":0.81,"id":"a6dfl74h40f5","geo_precision":"city","state":"IN"},"type":"Feature","geometry":{"type":"Point","coordinates":[-85.798078,39.95729]}},{"properties":{"hits":1.0,"city":"Knightstown","geo_score":0.857,"id":"a6dfl76g6508","geo_precision":"city","state":"IN"},"type":"Feature","geometry":{"type":"Point","coordinates":[-85.474444,39.836197]}},{"properties":{"hits":1.0,"city":"Knox","geo_score":0.857,"id":"a6dfl71rsc4x","geo_precision":"city","state":"IN"},"type":"Feature","geometry":{"type":"Point","coordinates":[-86.608249,41.280907]}},{"properties":{"hits":11.0,"city":"Kokomo","geo_score":0.857,"id":"a6dfl7076k9x","geo_precision":"city","state":"IN"},"type":"Feature","geometry":{"type":"Point","coordinates":[-86.171054,40.506851]}},{"properties":{"hits":4.0,"city":"Lafayette","geo_score":0.857,"id":"a6dfl70ogzi3","geo_precision":"city","state":"IN"},"type":"Feature","geometry":{"type":"Point","coordinates":[-86.830286,40.39905]}},{"properties":{"hits":2.0,"city":"Lebanon","geo_score":0.857,"id":"a6dfl75iry20","geo_precision":"city","state":"IN"},"type":"Feature","geometry":{"type":"Point","coordinates":[-86.490381,40.050302]}},{"properties":{"hits":1.0,"city":"Linton","geo_score":0.857,"id":"a6dfl7fs9h0d","geo_precision":"city","state":"IN"},"type":"Feature","geometry":{"type":"Point","coordinates":[-87.126965,39.04963]}},{"properties":{"hits":1.0,"city":"Marion","geo_score":0.857,"id":"a6dfl73l428k","geo_precision":"city","state":"IN"},"type":"Feature","geometry":{"type":"Point","coordinates":[-85.636731,40.519756]}},{"properties":{"hits":3.0,"city":"Martinsville","geo_score":0.857,"id":"a6dfl76r1v65","geo_precision":"city","state":"IN"},"type":"Feature","geometry":{"type":"Point","coordinates":[-86.466792,39.477625]}},{"properties":{"hits":1.0,"city":"Mishawaka","geo_score":0.857,"id":"a6dfl79etp0x","geo_precision":"city","state":"IN"},"type":"Feature","geometry":{"type":"Point","coordinates":[-86.287884,41.61536]}},{"properties":{"hits":2.0,"city":"Mitchell","geo_score":0.857,"id":"a6dfl7fl9k4o","geo_precision":"city","state":"IN"},"type":"Feature","geometry":{"type":"Point","coordinates":[-86.50326,38.803928]}},{"properties":{"hits":2.0,"city":"Monticello","geo_score":0.857,"id":"a6dfl79eoakr","geo_precision":"city","state":"IN"},"type":"Feature","geometry":{"type":"Point","coordinates":[-86.749521,40.779211]}},{"properties":{"hits":1.0,"city":"Mooreland","geo_score":0.857,"id":"a6dfl771l0vi","geo_precision":"city","state":"IN"},"type":"Feature","geometry":{"type":"Point","coordinates":[-85.293037,40.01641]}},{"properties":{"hits":2.0,"city":"Mooresville","geo_score":0.857,"id":"a6dfl72kk9ms","geo_precision":"city","state":"IN"},"type":"Feature","geometry":{"type":"Point","coordinates":[-86.437089,39.50942]}},{"properties":{"hits":29.0,"city":"Muncie","geo_score":0.857,"id":"a6dfl77737dx","geo_precision":"city","state":"IN"},"type":"Feature","geometry":{"type":"Point","coordinates":[-85.389874,40.142124]}},{"properties":{"hits":1.0,"city":"Nappanee","geo_score":0.857,"id":"a6dfl7av0py9","geo_precision":"city","state":"IN"},"type":"Feature","geometry":{"type":"Point","coordinates":[-85.972724,41.574743]}},{"properties":{"hits":1.0,"city":"Nashville","geo_score":0.857,"id":"a6dfl70jwn03","geo_precision":"city","state":"IN"},"type":"Feature","geometry":{"type":"Point","coordinates":[-86.226228,39.180583]}},{"properties":{"hits":1.0,"city":"New Albany","geo_score":0.857,"id":"a6dfl7cm7cd8","geo_precision":"city","state":"IN"},"type":"Feature","geometry":{"type":"Point","coordinates":[-85.837911,38.293355]}},{"properties":{"hits":1.0,"city":"New Castle","geo_score":0.857,"id":"a6dfl75ys9au","geo_precision":"city","state":"IN"},"type":"Feature","geometry":{"type":"Point","coordinates":[-85.366926,39.92487]}},{"properties":{"hits":1.0,"city":"New Market","geo_score":0.857,"id":"a6dfl710vy5a","geo_precision":"city","state":"IN"},"type":"Feature","geometry":{"type":"Point","coordinates":[-86.920609,39.952351]}},{"properties":{"hits":3.0,"city":"Noblesville","geo_score":0.857,"id":"a6dfl7d8vek1","geo_precision":"city","state":"IN"},"type":"Feature","geometry":{"type":"Point","coordinates":[-85.999521,40.073328]}},{"properties":{"hits":1.0,"city":"Orestes","geo_score":0.857,"id":"a6dfl7b0uwzi","geo_precision":"city","state":"IN"},"type":"Feature","geometry":{"type":"Point","coordinates":[-85.72808,40.271524]}},{"properties":{"hits":1.0,"city":"Orleans","geo_score":0.857,"id":"a6dfl75raiaq","geo_precision":"city","state":"IN"},"type":"Feature","geometry":{"type":"Point","coordinates":[-86.451946,38.586595]}},{"properties":{"hits":1.0,"city":"Parker City","geo_score":0.857,"id":"a6dfl7b71ow0","geo_precision":"city","state":"IN"},"type":"Feature","geometry":{"type":"Point","coordinates":[-85.173858,40.174184]}},{"properties":{"hits":1.0,"city":"Pendleton","geo_score":0.857,"id":"a6dfl79tni7m","geo_precision":"city","state":"IN"},"type":"Feature","geometry":{"type":"Point","coordinates":[-85.757678,40.107304]}},{"properties":{"hits":2.0,"city":"Peru","geo_score":0.857,"id":"a6dfl73tytg9","geo_precision":"city","state":"IN"},"type":"Feature","geometry":{"type":"Point","coordinates":[-86.07581,40.73991]}},{"properties":{"hits":2.0,"city":"Plainfield","geo_score":0.857,"id":"a6dfl771p6xi","geo_precision":"city","state":"IN"},"type":"Feature","geometry":{"type":"Point","coordinates":[-86.423412,39.729892]}},{"properties":{"hits":1.0,"city":"Portland","geo_score":0.857,"id":"a6dfl6zix5r1","geo_precision":"city","state":"IN"},"type":"Feature","geometry":{"type":"Point","coordinates":[-84.983015,40.431634]}},{"properties":{"hits":1.0,"city":"Rensselaer","geo_score":0.857,"id":"a6dfl7ednkf8","geo_precision":"city","state":"IN"},"type":"Feature","geometry":{"type":"Point","coordinates":[-87.10368,40.994793]}},{"properties":{"hits":1.0,"city":"Richmond","geo_score":0.857,"id":"a6dfl70e1p5c","geo_precision":"city","state":"IN"},"type":"Feature","geometry":{"type":"Point","coordinates":[-85.010442,39.84081]}},{"properties":{"hits":1.0,"city":"Ridgeville","geo_score":0.857,"id":"a6dfl7ertxmw","geo_precision":"city","state":"IN"},"type":"Feature","geometry":{"type":"Point","coordinates":[-85.048286,40.167082]}},{"properties":{"hits":1.0,"city":"Seymour","geo_score":0.857,"id":"a6dfl7c668a5","geo_precision":"city","state":"IN"},"type":"Feature","geometry":{"type":"Point","coordinates":[-86.010789,38.944827]}},{"properties":{"hits":2.0,"city":"Sheridan","geo_score":0.857,"id":"a6dfl7falkyk","geo_precision":"city","state":"IN"},"type":"Feature","geometry":{"type":"Point","coordinates":[-86.185273,40.129468]}},{"properties":{"hits":5.0,"city":"South Bend","geo_score":0.735,"id":"a6dfl70y7dgv","geo_precision":"street","state":"IN"},"type":"Feature","geometry":{"type":"Point","coordinates":[-86.372149,41.714963]}},{"properties":{"hits":4.0,"city":"Terre Haute","geo_score":0.857,"id":"a6dfl71bxzsw","geo_precision":"city","state":"IN"},"type":"Feature","geometry":{"type":"Point","coordinates":[-87.410094,39.433602]}},{"properties":{"hits":1.0,"city":"Union City","geo_score":0.857,"id":"a6dfl7f0wfut","geo_precision":"city","state":"IN"},"type":"Feature","geometry":{"type":"Point","coordinates":[-85.006297,40.166457]}},{"properties":{"hits":2.0,"city":"Wabash","geo_score":0.857,"id":"a6dfl730ip27","geo_precision":"city","state":"IN"},"type":"Feature","geometry":{"type":"Point","coordinates":[-85.791823,40.801867]}},{"properties":{"hits":2.0,"city":"Whiteland","geo_score":0.857,"id":"a6dfl7fo2hla","geo_precision":"city","state":"IN"},"type":"Feature","geometry":{"type":"Point","coordinates":[-86.08434,39.50607]}},{"properties":{"hits":2.0,"city":"Winchester","geo_score":0.857,"id":"a6dfl7as84yg","geo_precision":"city","state":"IN"},"type":"Feature","geometry":{"type":"Point","coordinates":[-84.984682,40.159854]}},{"properties":{"hits":1.0,"city":"Wingate","geo_score":0.857,"id":"a6dfl72xjldu","geo_precision":"city","state":"IN"},"type":"Feature","geometry":{"type":"Point","coordinates":[-86.964894,40.118361]}}],"is_temporal":false,"author":{"url":"","metadata":"","contact_name":"","contact_address":"","source":"","contact_phone":""},"source":"","pagination":{"sort":null,"start":0,"total":73,"limit":1000000},"state":"complete","tags":"","published":"2014-08-11T00:31:30-04:00","id":18595}