{"type":"FeatureCollection","data_type":"Dataset","url_type":null,"permissions":[{"permissions":{"download":true,"view":true},"group_id":"everyone"}],"classification":null,"title":"pinellasvotingprecincts2011","count":376,"stream_id":185925,"contributor":{"url":"http://geocommons.com/users/34241","name":"bshersey"},"data_attributes":null,"calculation_params":null,"icon_link":null,"link":"http://geocommons.com/overlays/185925.json","extent":[-82.8462,27.6757,-82.6016,28.2879],"geometry_types":["point"],"unique_name":null,"name":"pinellasvotingprecincts2011","feature_count":376,"description":"","next_feature":null,"is_raster":false,"short_classification":"Y","stats":{"precinct":{"max":713,"mean":366.026595744681,"variance":33306.9432907801,"stdev":182.501899416911,"min":101,"median":323}},"features":[{"properties":{"city":"Belleair Beach City Hall","precinct":421,"geo_score":0.856,"marker":null,"citystatezip":"Belleair Beach FL 33786","street":"444 Causeway Blvd","id":"a6g02xwtbjt5","geo_precision":"range","location":"444 Causeway Blvd Belleair Beach FL 33786"},"type":"Feature","geometry":{"type":"Point","coordinates":[-82.838147,27.917044]}},{"properties":{"city":"Belleair Beach City Hall","precinct":422,"geo_score":0.856,"marker":null,"citystatezip":"Belleair Beach FL 33786","street":"444 Causeway Blvd","id":"a6g02xi6zp2m","geo_precision":"range","location":"444 Causeway Blvd Belleair Beach FL 33786"},"type":"Feature","geometry":{"type":"Point","coordinates":[-82.838147,27.917044]}},{"properties":{"city":"Belleair Bluffs City Hall","precinct":358,"geo_score":0.744,"marker":null,"citystatezip":"Belleair Bluffs FL 33770","street":"2747 Sunset Blvd","id":"a6g02xjjp3mq","geo_precision":"range","location":"2747 Sunset Blvd Belleair Bluffs FL 33770"},"type":"Feature","geometry":{"type":"Point","coordinates":[-82.820426,27.917652]}},{"properties":{"city":"Belleair Town Hall","precinct":371,"geo_score":0.822,"marker":null,"citystatezip":"Belleair FL 33756","street":"901 Ponce de Leon Blvd","id":"a6g02xljuq40","geo_precision":"range","location":"901 Ponce de Leon Blvd Belleair FL 33756"},"type":"Feature","geometry":{"type":"Point","coordinates":[-82.803441,27.935174]}},{"properties":{"city":"Belleair Town Hall","precinct":372,"geo_score":0.822,"marker":null,"citystatezip":"Belleair FL 33756","street":"901 Ponce de Leon Blvd","id":"a6g02xnyfl07","geo_precision":"range","location":"901 Ponce de Leon Blvd Belleair FL 33756"},"type":"Feature","geometry":{"type":"Point","coordinates":[-82.803441,27.935174]}},{"properties":{"city":"Clearwater Shuffleboard Club","precinct":526,"geo_score":0.954,"marker":"small_blue","citystatezip":"Clearwater FL 33755","street":"1020 Calumet St","id":"a6g02xp86hn0","geo_precision":"range","location":"1020 Calumet St Clearwater FL 33755"},"type":"Feature","geometry":{"type":"Point","coordinates":[-82.795483,27.987121]}},{"properties":{"city":"Clearwater Shuffleboard Club","precinct":527,"geo_score":0.954,"marker":"small_blue","citystatezip":"Clearwater FL 33755","street":"1020 Calumet St","id":"a6g02xsj1zpt","geo_precision":"range","location":"1020 Calumet St Clearwater FL 33755"},"type":"Feature","geometry":{"type":"Point","coordinates":[-82.795483,27.987121]}},{"properties":{"city":"Polish Center","precinct":518,"geo_score":0.758,"marker":"small_blue","citystatezip":"Clearwater FL 33755","street":"1521 N Saturn Ave","id":"a6g02xwg4agj","geo_precision":"street","location":"1521 N Saturn Ave Clearwater FL 33755"},"type":"Feature","geometry":{"type":"Point","coordinates":[-82.765022,27.980549]}},{"properties":{"city":"Polish Center","precinct":529,"geo_score":0.758,"marker":"small_blue","citystatezip":"Clearwater FL 33755","street":"1521 N Saturn Ave","id":"a6g02xqykeci","geo_precision":"street","location":"1521 N Saturn Ave Clearwater FL 33755"},"type":"Feature","geometry":{"type":"Point","coordinates":[-82.765022,27.980549]}},{"properties":{"city":"Polish Center","precinct":542,"geo_score":0.758,"marker":"small_blue","citystatezip":"Clearwater FL 33755","street":"1521 N Saturn Ave","id":"a6g02xq00ybo","geo_precision":"street","location":"1521 N Saturn Ave Clearwater FL 33755"},"type":"Feature","geometry":{"type":"Point","coordinates":[-82.765022,27.980549]}},{"properties":{"city":"Kings Highway Recreation Center","precinct":528,"geo_score":0.957,"marker":"small_blue","citystatezip":"Clearwater FL 33755","street":"1751 Kings Hwy","id":"a6g02xqtzce6","geo_precision":"range","location":"1751 Kings Hwy Clearwater FL 33755"},"type":"Feature","geometry":{"type":"Point","coordinates":[-82.779512,27.985669]}},{"properties":{"city":"Kings Highway Recreation Center","precinct":569,"geo_score":0.957,"marker":"small_blue","citystatezip":"Clearwater FL 33755","street":"1751 Kings Hwy","id":"a6g02xjf6eab","geo_precision":"range","location":"1751 Kings Hwy Clearwater FL 33755"},"type":"Feature","geometry":{"type":"Point","coordinates":[-82.779512,27.985669]}},{"properties":{"city":"St. Paul's Lutheran Church","precinct":513,"geo_score":0.951,"marker":"small_blue","citystatezip":"Clearwater FL 33755","street":"407 S Saturn Ave","id":"a6g02xj5yf4u","geo_precision":"range","location":"407 S Saturn Ave Clearwater FL 33755"},"type":"Feature","geometry":{"type":"Point","coordinates":[-82.764855,27.961478]}},{"properties":{"city":"Fred Cournoyer Recreation Center","precinct":519,"geo_score":0.951,"marker":"small_blue","citystatezip":"Clearwater FL 33755","street":"714 N Saturn Ave","id":"a6g02xobp5ce","geo_precision":"range","location":"714 N Saturn Ave Clearwater FL 33755"},"type":"Feature","geometry":{"type":"Point","coordinates":[-82.764992,27.973186]}},{"properties":{"city":"Central Christian Church of Clwr.","precinct":508,"geo_score":0.957,"marker":"small_blue","citystatezip":"Clearwater FL 33756","street":"1200 S Keene Rd","id":"a6g02xtdrdbc","geo_precision":"range","location":"1200 S Keene Rd Clearwater FL 33756"},"type":"Feature","geometry":{"type":"Point","coordinates":[-82.762549,27.954738]}},{"properties":{"city":"Ross Norton Recreation Center","precinct":500,"geo_score":0.463,"marker":"small_blue","citystatezip":"Clearwater FL 33756","street":"1426 S M L King Jr. Ave","id":"a6g02xxqg4zt","geo_precision":"street","location":"1426 S M L King Jr. Ave Clearwater FL 33756"},"type":"Feature","geometry":{"type":"Point","coordinates":[-82.646431,27.720333]}},{"properties":{"city":"Ross Norton Recreation Center","precinct":501,"geo_score":0.463,"marker":"small_blue","citystatezip":"Clearwater FL 33756","street":"1426 S M L King Jr. Ave","id":"a6g02xrw6kvz","geo_precision":"street","location":"1426 S M L King Jr. Ave Clearwater FL 33756"},"type":"Feature","geometry":{"type":"Point","coordinates":[-82.646431,27.720333]}},{"properties":{"city":"Lakeview Baptist Church","precinct":368,"geo_score":0.951,"marker":"small_blue","citystatezip":"Clearwater FL 33756","street":"1430 Belleair Rd","id":"a6g02xkjxolq","geo_precision":"range","location":"1430 Belleair Rd Clearwater FL 33756"},"type":"Feature","geometry":{"type":"Point","coordinates":[-82.778095,27.938818]}},{"properties":{"city":"Lakeview Baptist Church","precinct":502,"geo_score":0.951,"marker":"small_blue","citystatezip":"Clearwater FL 33756","street":"1430 Belleair Rd","id":"a6g02xqxko4b","geo_precision":"range","location":"1430 Belleair Rd Clearwater FL 33756"},"type":"Feature","geometry":{"type":"Point","coordinates":[-82.778095,27.938818]}},{"properties":{"city":"Seventh Day Adventist Church","precinct":509,"geo_score":0.951,"marker":"small_blue","citystatezip":"Clearwater FL 33756","street":"1445 Lakeview Rd","id":"a6g02xstsr6c","geo_precision":"range","location":"1445 Lakeview Rd Clearwater FL 33756"},"type":"Feature","geometry":{"type":"Point","coordinates":[-82.777513,27.949787]}},{"properties":{"city":"The Salvation Army, The Joy Center","precinct":507,"geo_score":0.92,"marker":"small_blue","citystatezip":"Clearwater FL 33756","street":"1521 Druid Rd E","id":"a6g02xng58hn","geo_precision":"range","location":"1521 Druid Rd E Clearwater FL 33756"},"type":"Feature","geometry":{"type":"Point","coordinates":[-82.774287,27.957054]}},{"properties":{"city":"Highland Presbyterian Church","precinct":367,"geo_score":0.947,"marker":"small_blue","citystatezip":"Clearwater FL 33756","street":"1885 S Highland Ave","id":"a6g02xxqjfl7","geo_precision":"range","location":"1885 S Highland Ave Clearwater FL 33756"},"type":"Feature","geometry":{"type":"Point","coordinates":[-82.774955,27.928006]}},{"properties":{"city":"St. Cecelia Catholic Church","precinct":511,"geo_score":0.854,"marker":"small_blue","citystatezip":"Clearwater FL 33756","street":"820 Jasmine Way","id":"a6g02xt9n6dr","geo_precision":"street","location":"820 Jasmine Way Clearwater FL 33756"},"type":"Feature","geometry":{"type":"Point","coordinates":[-82.795537,27.956335]}},{"properties":{"city":"St. Cecelia Catholic Church","precinct":512,"geo_score":0.854,"marker":"small_blue","citystatezip":"Clearwater FL 33756","street":"820 Jasmine Way","id":"a6g02xv8vps7","geo_precision":"street","location":"820 Jasmine Way Clearwater FL 33756"},"type":"Feature","geometry":{"type":"Point","coordinates":[-82.795537,27.956335]}},{"properties":{"city":"Cypress Meadows Community Church","precinct":621,"geo_score":0.94,"marker":"small_blue","citystatezip":"Clearwater FL 33759","street":"2180 N McMullen Booth Rd","id":"a6g02xwj99vd","geo_precision":"range","location":"2180 N McMullen Booth Rd Clearwater FL 33759"},"type":"Feature","geometry":{"type":"Point","coordinates":[-82.708866,27.99963]}},{"properties":{"city":"Wood Valley Boys &amp; Girls Club","precinct":609,"geo_score":0.896,"marker":"small_blue","citystatezip":"Clearwater FL 33759","street":"2816 Park Trail Ln","id":"a6g02xkttap3","geo_precision":"range","location":"2816 Park Trail Ln Clearwater FL 33759"},"type":"Feature","geometry":{"type":"Point","coordinates":[-82.721049,27.975397]}},{"properties":{"city":"Sylvan Abbey United Methodist Ch","precinct":610,"geo_score":0.877,"marker":"small_blue","citystatezip":"Clearwater FL 33759","street":"2817 Sunset Point Rd","id":"a6g02xisnaqg","geo_precision":"range","location":"2817 Sunset Point Rd Clearwater FL 33759"},"type":"Feature","geometry":{"type":"Point","coordinates":[-82.721234,27.990803]}},{"properties":{"city":"Wellington Apartments","precinct":646,"geo_score":0.963,"marker":"small_blue","citystatezip":"Clearwater FL 33759","street":"2900 Drew St","id":"a6g02xug5a8v","geo_precision":"range","location":"2900 Drew St Clearwater FL 33759"},"type":"Feature","geometry":{"type":"Point","coordinates":[-82.711242,27.967933]}},{"properties":{"city":"Fire Station #40","precinct":636,"geo_score":0.954,"marker":"small_blue","citystatezip":"Clearwater FL 33760","street":"2990 Whitney Rd","id":"a6g02xjs5b3a","geo_precision":"range","location":"2990 Whitney Rd Clearwater FL 33760"},"type":"Feature","geometry":{"type":"Point","coordinates":[-82.717977,27.923608]}},{"properties":{"city":"Cove Cay - Village Four","precinct":604,"geo_score":0.856,"marker":"small_blue","citystatezip":"Clearwater FL 33760","street":"3500 Cove Cay Dr","id":"a6g02xl0t7ot","geo_precision":"street","location":"3500 Cove Cay Dr Clearwater FL 33760"},"type":"Feature","geometry":{"type":"Point","coordinates":[-82.727747,27.932544]}},{"properties":{"city":"High Point Neighborhood Family Center","precinct":601,"geo_score":0.366,"marker":"small_blue","citystatezip":"Clearwater FL 33760","street":"5812 150 Ave N","id":"a6g02xwgvj90","geo_precision":"street","location":"5812 150 Ave N Clearwater FL 33760"},"type":"Feature","geometry":{"type":"Point","coordinates":[-82.776297,27.932434]}},{"properties":{"city":"Countryside Baptist Church","precinct":622,"geo_score":0.818,"marker":"small_blue","citystatezip":"Clearwater FL 33761","street":"2525 N McMullen Booth Rd","id":"a6g02xlueln4","geo_precision":"range","location":"2525 N McMullen Booth Rd Clearwater FL 33761"},"type":"Feature","geometry":{"type":"Point","coordinates":[-82.708917,28.013021]}},{"properties":{"city":"Countryside Recreation Center","precinct":600,"geo_score":0.943,"marker":"small_blue","citystatezip":"Clearwater FL 33761","street":"2640 Sabal Springs Dr","id":"a6g02xkb5acp","geo_precision":"range","location":"2640 Sabal Springs Dr Clearwater FL 33761"},"type":"Feature","geometry":{"type":"Point","coordinates":[-82.724827,28.021772]}},{"properties":{"city":"Countryside Recreation Center","precinct":613,"geo_score":0.943,"marker":"small_blue","citystatezip":"Clearwater FL 33761","street":"2640 Sabal Springs Dr","id":"a6g02xq0w40c","geo_precision":"range","location":"2640 Sabal Springs Dr Clearwater FL 33761"},"type":"Feature","geometry":{"type":"Point","coordinates":[-82.724827,28.021772]}},{"properties":{"city":"Heritage United Methodist Church","precinct":611,"geo_score":0.951,"marker":"small_blue","citystatezip":"Clearwater FL 33761","street":"2680 Landmark Dr","id":"a6g02xv119tu","geo_precision":"range","location":"2680 Landmark Dr Clearwater FL 33761"},"type":"Feature","geometry":{"type":"Point","coordinates":[-82.716424,28.018367]}},{"properties":{"city":"Heritage United Methodist Church","precinct":645,"geo_score":0.951,"marker":"small_blue","citystatezip":"Clearwater FL 33761","street":"2680 Landmark Dr","id":"a6g02xoxlk1m","geo_precision":"range","location":"2680 Landmark Dr Clearwater FL 33761"},"type":"Feature","geometry":{"type":"Point","coordinates":[-82.716424,28.018367]}},{"properties":{"city":"Clearwater Countryside Library","precinct":634,"geo_score":0.92,"marker":"small_blue","citystatezip":"Clearwater FL 33761","street":"2741 State Road 580","id":"a6g02xhvlkub","geo_precision":"range","location":"2741 State Road 580 Clearwater FL 33761"},"type":"Feature","geometry":{"type":"Point","coordinates":[-82.71345,28.019717]}},{"properties":{"city":"All Saints Catholic Church","precinct":628,"geo_score":0.957,"marker":"small_blue","citystatezip":"Clearwater FL 33761","street":"2801 Curlew Rd","id":"a6g02xhz3vwo","geo_precision":"range","location":"2801 Curlew Rd Clearwater FL 33761"},"type":"Feature","geometry":{"type":"Point","coordinates":[-82.722612,28.048959]}},{"properties":{"city":"Northwood Presbyterian Church","precinct":612,"geo_score":0.92,"marker":"small_blue","citystatezip":"Clearwater FL 33761","street":"2875 State Road 580","id":"a6g02xr240dr","geo_precision":"range","location":"2875 State Road 580 Clearwater FL 33761"},"type":"Feature","geometry":{"type":"Point","coordinates":[-82.717383,28.019547]}},{"properties":{"city":"Northwood Presbyterian Church","precinct":652,"geo_score":0.92,"marker":"small_blue","citystatezip":"Clearwater FL 33761","street":"2875 State Road 580","id":"a6g02xsuexsf","geo_precision":"range","location":"2875 State Road 580 Clearwater FL 33761"},"type":"Feature","geometry":{"type":"Point","coordinates":[-82.717383,28.019547]}},{"properties":{"city":"Northwood Presbyterian Church","precinct":653,"geo_score":0.92,"marker":"small_blue","citystatezip":"Clearwater FL 33761","street":"2875 State Road 580","id":"a6g02xlvuy6w","geo_precision":"range","location":"2875 State Road 580 Clearwater FL 33761"},"type":"Feature","geometry":{"type":"Point","coordinates":[-82.717383,28.019547]}},{"properties":{"city":"Doral Village","precinct":543,"geo_score":0.991,"marker":"small_blue","citystatezip":"Clearwater FL 33761","street":"29250 US Hwy. 19 N","id":"a6g02xwq0t1n","geo_precision":"range","location":"29250 US Hwy. 19 N Clearwater FL 33761"},"type":"Feature","geometry":{"type":"Point","coordinates":[-82.738271,28.040492]}},{"properties":{"city":"Doral Village","precinct":555,"geo_score":0.991,"marker":"small_blue","citystatezip":"Clearwater FL 33761","street":"29250 US Hwy. 19 N","id":"a6g02xk48a2j","geo_precision":"range","location":"29250 US Hwy. 19 N Clearwater FL 33761"},"type":"Feature","geometry":{"type":"Point","coordinates":[-82.738271,28.040492]}},{"properties":{"city":"Safety Harbor Fire Station #53","precinct":635,"geo_score":0.94,"marker":"small_blue","citystatezip":"Clearwater FL 33761","street":"3095 N McMullen Booth Rd","id":"a6g02xnf70hy","geo_precision":"range","location":"3095 N McMullen Booth Rd Clearwater FL 33761"},"type":"Feature","geometry":{"type":"Point","coordinates":[-82.709055,28.034063]}},{"properties":{"city":"Safety Harbor Fire Station #53","precinct":655,"geo_score":0.94,"marker":"small_blue","citystatezip":"Clearwater FL 33761","street":"3095 N McMullen Booth Rd","id":"a6g02xugyj3y","geo_precision":"range","location":"3095 N McMullen Booth Rd Clearwater FL 33761"},"type":"Feature","geometry":{"type":"Point","coordinates":[-82.709055,28.034063]}},{"properties":{"city":"Bethel Lutheran Church","precinct":618,"geo_score":0.94,"marker":"small_blue","citystatezip":"Clearwater FL 33761","street":"3166 N McMullen Booth Rd","id":"a6g02xs9lgok","geo_precision":"range","location":"3166 N McMullen Booth Rd Clearwater FL 33761"},"type":"Feature","geometry":{"type":"Point","coordinates":[-82.709094,28.038354]}},{"properties":{"city":"Bethel Lutheran Church","precinct":637,"geo_score":0.94,"marker":"small_blue","citystatezip":"Clearwater FL 33761","street":"3166 N McMullen Booth Rd","id":"a6g02xwzcboj","geo_precision":"range","location":"3166 N McMullen Booth Rd Clearwater FL 33761"},"type":"Feature","geometry":{"type":"Point","coordinates":[-82.709094,28.038354]}},{"properties":{"city":"Bethel Lutheran Church","precinct":643,"geo_score":0.94,"marker":"small_blue","citystatezip":"Clearwater FL 33761","street":"3166 N McMullen Booth Rd","id":"a6g02xkxl0u4","geo_precision":"range","location":"3166 N McMullen Booth Rd Clearwater FL 33761"},"type":"Feature","geometry":{"type":"Point","coordinates":[-82.709094,28.038354]}},{"properties":{"city":"Feather Sound Community Church","precinct":602,"geo_score":0.943,"marker":"small_blue","citystatezip":"Clearwater FL 33762","street":"13880 Feather Sound Dr","id":"a6g02xoz27nk","geo_precision":"range","location":"13880 Feather Sound Dr Clearwater FL 33762"},"type":"Feature","geometry":{"type":"Point","coordinates":[-82.672933,27.89762]}},{"properties":{"city":"The Lakes Homeowners Association","precinct":193,"geo_score":0.957,"marker":"small_blue","citystatezip":"Clearwater FL 33762","street":"4591 Lake Blvd","id":"a6g02xmceg15","geo_precision":"range","location":"4591 Lake Blvd Clearwater FL 33762"},"type":"Feature","geometry":{"type":"Point","coordinates":[-82.696194,27.866377]}},{"properties":{"city":"The Lakes Homeowners Association","precinct":656,"geo_score":0.957,"marker":"small_blue","citystatezip":"Clearwater FL 33762","street":"4591 Lake Blvd","id":"a6g02xvb08fi","geo_precision":"range","location":"4591 Lake Blvd Clearwater FL 33762"},"type":"Feature","geometry":{"type":"Point","coordinates":[-82.696194,27.866377]}},{"properties":{"city":"On Top of the World East","precinct":533,"geo_score":0.885,"marker":"small_blue","citystatezip":"Clearwater FL 33763","street":"2069 World Parkway Blvd","id":"a6g02xiftfoq","geo_precision":"range","location":"2069 World Parkway Blvd Clearwater FL 33763"},"type":"Feature","geometry":{"type":"Point","coordinates":[-82.738201,27.99598]}},{"properties":{"city":"On Top of the World East","precinct":534,"geo_score":0.885,"marker":"small_blue","citystatezip":"Clearwater FL 33763","street":"2069 World Parkway Blvd","id":"a6g02xj90vd3","geo_precision":"range","location":"2069 World Parkway Blvd Clearwater FL 33763"},"type":"Feature","geometry":{"type":"Point","coordinates":[-82.738201,27.99598]}},{"properties":{"city":"St. Michael Archangel Catholic Ch","precinct":532,"geo_score":0.613,"marker":"small_blue","citystatezip":"Clearwater FL 33763","street":"2281 State Road 580","id":"a6g02xtajguy","geo_precision":"street","location":"2281 State Road 580 Clearwater FL 33763"},"type":"Feature","geometry":{"type":"Point","coordinates":[-82.742539,28.019367]}},{"properties":{"city":"St. Michael Archangel Catholic Ch","precinct":556,"geo_score":0.613,"marker":"small_blue","citystatezip":"Clearwater FL 33763","street":"2281 State Road 580","id":"a6g02xxf2x54","geo_precision":"street","location":"2281 State Road 580 Clearwater FL 33763"},"type":"Feature","geometry":{"type":"Point","coordinates":[-82.742539,28.019367]}},{"properties":{"city":"Global Family Fellowship","precinct":537,"geo_score":0.754,"marker":"small_blue","citystatezip":"Clearwater FL 33763","street":"2289 N Hercules Ave","id":"a6g02xud6v4t","geo_precision":"street","location":"2289 N Hercules Ave Clearwater FL 33763"},"type":"Feature","geometry":{"type":"Point","coordinates":[-82.754842,28.000905]}},{"properties":{"city":"On Top of the World West","precinct":536,"geo_score":0.887,"marker":"small_blue","citystatezip":"Clearwater FL 33763","street":"2291 World Parkway Blvd W","id":"a6g02xo8kdat","geo_precision":"range","location":"2291 World Parkway Blvd W Clearwater FL 33763"},"type":"Feature","geometry":{"type":"Point","coordinates":[-82.742434,27.99962]}},{"properties":{"city":"Twin Palms Mobile Home Court, Inc.","precinct":350,"geo_score":0.345,"marker":"small_blue","citystatezip":"Clearwater FL 33764","street":"14300 66 St N","id":"a6g02xtp13b1","geo_precision":"street","location":"14300 66 St N Clearwater FL 33764"},"type":"Feature","geometry":{"type":"Point","coordinates":[-82.761534,27.996485]}},{"properties":{"city":"St. John's Episcopal Church","precinct":379,"geo_score":0.763,"marker":"small_blue","citystatezip":"Clearwater FL 33764","street":"1676 S Belcher Rd","id":"a6g02xnrl96y","geo_precision":"street","location":"1676 S Belcher Rd Clearwater FL 33764"},"type":"Feature","geometry":{"type":"Point","coordinates":[-82.74595,27.932491]}},{"properties":{"city":"St. John's Episcopal Church","precinct":514,"geo_score":0.763,"marker":"small_blue","citystatezip":"Clearwater FL 33764","street":"1676 S Belcher Rd","id":"a6g02xr8duxu","geo_precision":"street","location":"1676 S Belcher Rd Clearwater FL 33764"},"type":"Feature","geometry":{"type":"Point","coordinates":[-82.74595,27.932491]}},{"properties":{"city":"Temple B'nai Israel","precinct":365,"geo_score":0.758,"marker":"small_blue","citystatezip":"Clearwater FL 33764","street":"1685 S Belcher Rd","id":"a6g02xy2ibj5","geo_precision":"street","location":"1685 S Belcher Rd Clearwater FL 33764"},"type":"Feature","geometry":{"type":"Point","coordinates":[-82.745956,27.931065]}},{"properties":{"city":"Hope Presbyterian Church","precinct":366,"geo_score":0.78,"marker":"small_blue","citystatezip":"Clearwater FL 33764","street":"1698 S Belcher Rd","id":"a6g02xn6kk63","geo_precision":"street","location":"1698 S Belcher Rd Clearwater FL 33764"},"type":"Feature","geometry":{"type":"Point","coordinates":[-82.74595,27.932491]}},{"properties":{"city":"Hope Presbyterian Church","precinct":374,"geo_score":0.78,"marker":"small_blue","citystatezip":"Clearwater FL 33764","street":"1698 S Belcher Rd","id":"a6g02xhs331t","geo_precision":"street","location":"1698 S Belcher Rd Clearwater FL 33764"},"type":"Feature","geometry":{"type":"Point","coordinates":[-82.74595,27.932491]}},{"properties":{"city":"Bay Aristocrat","precinct":605,"geo_score":0.991,"marker":"small_blue","citystatezip":"Clearwater FL 33764","street":"18675 US Hwy 19 N","id":"a6g02xjodcws","geo_precision":"range","location":"18675 US Hwy 19 N Clearwater FL 33764"},"type":"Feature","geometry":{"type":"Point","coordinates":[-82.730273,27.940342]}},{"properties":{"city":"Bay Aristocrat","precinct":650,"geo_score":0.991,"marker":"small_blue","citystatezip":"Clearwater FL 33764","street":"18675 US Hwy 19 N","id":"a6g02xsupy9n","geo_precision":"range","location":"18675 US Hwy 19 N Clearwater FL 33764"},"type":"Feature","geometry":{"type":"Point","coordinates":[-82.730273,27.940342]}},{"properties":{"city":"First Church of the Nazarene","precinct":503,"geo_score":0.954,"marker":"small_blue","citystatezip":"Clearwater FL 33764","street":"1875 Nursery Rd","id":"a6g02xvcs3z6","geo_precision":"range","location":"1875 Nursery Rd Clearwater FL 33764"},"type":"Feature","geometry":{"type":"Point","coordinates":[-82.759935,27.942347]}},{"properties":{"city":"First Church of the Nazarene","precinct":504,"geo_score":0.954,"marker":"small_blue","citystatezip":"Clearwater FL 33764","street":"1875 Nursery Rd","id":"a6g02xni3vqz","geo_precision":"range","location":"1875 Nursery Rd Clearwater FL 33764"},"type":"Feature","geometry":{"type":"Point","coordinates":[-82.759935,27.942347]}},{"properties":{"city":"Friendship United Methodist Church","precinct":505,"geo_score":0.763,"marker":"small_blue","citystatezip":"Clearwater FL 33764","street":"2039 Druid Rd E","id":"a6g02xw6m6fc","geo_precision":"street","location":"2039 Druid Rd E Clearwater FL 33764"},"type":"Feature","geometry":{"type":"Point","coordinates":[-82.7461,27.956833]}},{"properties":{"city":"Friendship United Methodist Church","precinct":506,"geo_score":0.763,"marker":"small_blue","citystatezip":"Clearwater FL 33764","street":"2039 Druid Rd E","id":"a6g02xtft0md","geo_precision":"street","location":"2039 Druid Rd E Clearwater FL 33764"},"type":"Feature","geometry":{"type":"Point","coordinates":[-82.7461,27.956833]}},{"properties":{"city":"Bible Fellowship Church","precinct":603,"geo_score":0.769,"marker":"small_blue","citystatezip":"Clearwater FL 33764","street":"4670 E. Bay Dr","id":"a6g02xrr96rv","geo_precision":"street","location":"4670 E. Bay Dr Clearwater FL 33764"},"type":"Feature","geometry":{"type":"Point","coordinates":[-82.735002,27.916325]}},{"properties":{"city":"Our Savior Lutheran Church","precinct":351,"geo_score":0.771,"marker":"small_blue","citystatezip":"Clearwater FL 33764","street":"4825 E. Bay Dr","id":"a6g02xiza2px","geo_precision":"street","location":"4825 E. Bay Dr Clearwater FL 33764"},"type":"Feature","geometry":{"type":"Point","coordinates":[-82.73302,27.916294]}},{"properties":{"city":"Our Savior Lutheran Church","precinct":651,"geo_score":0.771,"marker":"small_blue","citystatezip":"Clearwater FL 33764","street":"4825 E. Bay Dr","id":"a6g02xwkhylb","geo_precision":"street","location":"4825 E. Bay Dr Clearwater FL 33764"},"type":"Feature","geometry":{"type":"Point","coordinates":[-82.73302,27.916294]}},{"properties":{"city":"Salvation Army","precinct":530,"geo_score":0.922,"marker":"small_blue","citystatezip":"Clearwater FL 33765","street":"1625 N Belcher Rd","id":"a6g02xsp6ow8","geo_precision":"range","location":"1625 N Belcher Rd Clearwater FL 33765"},"type":"Feature","geometry":{"type":"Point","coordinates":[-82.746293,27.981592]}},{"properties":{"city":"Salvation Army","precinct":531,"geo_score":0.922,"marker":"small_blue","citystatezip":"Clearwater FL 33765","street":"1625 N Belcher Rd","id":"a6g02xr4gvdr","geo_precision":"range","location":"1625 N Belcher Rd Clearwater FL 33765"},"type":"Feature","geometry":{"type":"Point","coordinates":[-82.746293,27.981592]}},{"properties":{"city":"Trinity Presbyterian Church","precinct":515,"geo_score":0.954,"marker":"small_blue","citystatezip":"Clearwater FL 33765","street":"2001 Rainbow Dr","id":"a6g02xuw2m21","geo_precision":"range","location":"2001 Rainbow Dr Clearwater FL 33765"},"type":"Feature","geometry":{"type":"Point","coordinates":[-82.754497,27.962453]}},{"properties":{"city":"JCC Suncoast","precinct":535,"geo_score":0.945,"marker":"small_blue","citystatezip":"Clearwater FL 33765","street":"2075 Sunnydale Blvd","id":"a6g02xwzxgx8","geo_precision":"range","location":"2075 Sunnydale Blvd Clearwater FL 33765"},"type":"Feature","geometry":{"type":"Point","coordinates":[-82.751497,27.987071]}},{"properties":{"city":"JCC Suncoast","precinct":557,"geo_score":0.945,"marker":"small_blue","citystatezip":"Clearwater FL 33765","street":"2075 Sunnydale Blvd","id":"a6g02xuyporj","geo_precision":"range","location":"2075 Sunnydale Blvd Clearwater FL 33765"},"type":"Feature","geometry":{"type":"Point","coordinates":[-82.751497,27.987071]}},{"properties":{"city":"First Christian Church of Clwr.","precinct":517,"geo_score":0.963,"marker":"small_blue","citystatezip":"Clearwater FL 33765","street":"2299 Drew St.","id":"a6g02xtngtws","geo_precision":"range","location":"2299 Drew St. Clearwater FL 33765"},"type":"Feature","geometry":{"type":"Point","coordinates":[-82.742578,27.967935]}},{"properties":{"city":"Clearwater Community Sailing Center","precinct":521,"geo_score":0.767,"marker":"small_blue","citystatezip":"Clearwater FL 33767","street":"1001 Gulf Blvd","id":"a6g02xnfblq3","geo_precision":"range","location":"1001 Gulf Blvd Clearwater FL 33767"},"type":"Feature","geometry":{"type":"Point","coordinates":[-82.822274,27.964518]}},{"properties":{"city":"St. Brendan Catholic Church","precinct":523,"geo_score":0.763,"marker":"small_blue","citystatezip":"Clearwater FL 33767","street":"245 Dory Passage","id":"a6g02xvgyuob","geo_precision":"range","location":"245 Dory Passage Clearwater FL 33767"},"type":"Feature","geometry":{"type":"Point","coordinates":[-82.818266,27.979415]}},{"properties":{"city":"Clearwater Beach Rec. Center","precinct":522,"geo_score":0.792,"marker":"small_blue","citystatezip":"Clearwater FL 33767","street":"69 Bay Esplanade","id":"a6g02xkl53t1","geo_precision":"range","location":"69 Bay Esplanade Clearwater FL 33767"},"type":"Feature","geometry":{"type":"Point","coordinates":[-82.825504,27.984879]}},{"properties":{"city":"Kapok Special Events","precinct":606,"geo_score":0.832,"marker":"small_blue","citystatezip":"Cleawater FL 33759","street":"923 N McMullen Booth Rd","id":"a6g02xrz58wb","geo_precision":"range","location":"923 N McMullen Booth Rd Cleawater FL 33759"},"type":"Feature","geometry":{"type":"Point","coordinates":[-82.70892,27.97521]}},{"properties":{"city":"Kapok Special Events","precinct":607,"geo_score":0.832,"marker":"small_blue","citystatezip":"Cleawater FL 33759","street":"923 N McMullen Booth Rd","id":"a6g02xnv9nnv","geo_precision":"range","location":"923 N McMullen Booth Rd Cleawater FL 33759"},"type":"Feature","geometry":{"type":"Point","coordinates":[-82.70892,27.97521]}},{"properties":{"city":"Kapok Special Events","precinct":608,"geo_score":0.832,"marker":"small_blue","citystatezip":"Cleawater FL 33759","street":"923 N McMullen Booth Rd","id":"a6g02xi3q5mi","geo_precision":"range","location":"923 N McMullen Booth Rd Cleawater FL 33759"},"type":"Feature","geometry":{"type":"Point","coordinates":[-82.70892,27.97521]}},{"properties":{"city":"Crystal Beach Civic Center","precinct":563,"geo_score":0.946,"marker":null,"citystatezip":"Crystal Beach FL 34681","street":"517 Crystal Beach Ave","id":"a6g02xtuvrhx","geo_precision":"range","location":"517 Crystal Beach Ave Crystal Beach FL 34681"},"type":"Feature","geometry":{"type":"Point","coordinates":[-82.778822,28.091236]}},{"properties":{"city":"The Columbian Corp. of Dunedin Inc.","precinct":545,"geo_score":0.932,"marker":null,"citystatezip":"Dunedin FL 34698","street":"1251 San Christopher Dr.","id":"a6g02xmsruu4","geo_precision":"range","location":"1251 San Christopher Dr. Dunedin FL 34698"},"type":"Feature","geometry":{"type":"Point","coordinates":[-82.773413,28.023159]}},{"properties":{"city":"The Columbian Corp. of Dunedin Inc.","precinct":550,"geo_score":0.932,"marker":null,"citystatezip":"Dunedin FL 34698","street":"1251 San Christopher Dr.","id":"a6g02xxhm94t","geo_precision":"range","location":"1251 San Christopher Dr. Dunedin FL 34698"},"type":"Feature","geometry":{"type":"Point","coordinates":[-82.773413,28.023159]}},{"properties":{"city":"Alliance Church of Dunedin","precinct":554,"geo_score":0.938,"marker":null,"citystatezip":"Dunedin FL 34698","street":"1289 Michigan Blvd","id":"a6g02xoi4wxp","geo_precision":"range","location":"1289 Michigan Blvd Dunedin FL 34698"},"type":"Feature","geometry":{"type":"Point","coordinates":[-82.768225,28.037763]}},{"properties":{"city":"Faith Lutheran Church","precinct":549,"geo_score":0.94,"marker":null,"citystatezip":"Dunedin FL 34698","street":"1620 Pinehurst Rd","id":"a6g02xw8ubxc","geo_precision":"range","location":"1620 Pinehurst Rd Dunedin FL 34698"},"type":"Feature","geometry":{"type":"Point","coordinates":[-82.771641,28.026923]}},{"properties":{"city":"Dunedin Community Center","precinct":553,"geo_score":0.94,"marker":null,"citystatezip":"Dunedin FL 34698","street":"1920 Pinehurst Rd.","id":"a6g02xhtohji","geo_precision":"range","location":"1920 Pinehurst Rd. Dunedin FL 34698"},"type":"Feature","geometry":{"type":"Point","coordinates":[-82.771745,28.036943]}},{"properties":{"city":"Clearwater Community Church","precinct":544,"geo_score":0.945,"marker":null,"citystatezip":"Dunedin FL 34698","street":"2897 Belcher Rd","id":"a6g02xiy29uv","geo_precision":"range","location":"2897 Belcher Rd Dunedin FL 34698"},"type":"Feature","geometry":{"type":"Point","coordinates":[-82.746916,28.026719]}},{"properties":{"city":"Clearwater Community Church","precinct":548,"geo_score":0.945,"marker":null,"citystatezip":"Dunedin FL 34698","street":"2897 Belcher Rd","id":"a6g02xjcbmab","geo_precision":"range","location":"2897 Belcher Rd Dunedin FL 34698"},"type":"Feature","geometry":{"type":"Point","coordinates":[-82.746916,28.026719]}},{"properties":{"city":"First Presbyterian Church","precinct":539,"geo_score":0.943,"marker":null,"citystatezip":"Dunedin FL 34698","street":"455 Scotland St.","id":"a6g02xk8553r","geo_precision":"range","location":"455 Scotland St. Dunedin FL 34698"},"type":"Feature","geometry":{"type":"Point","coordinates":[-82.786869,28.010402]}},{"properties":{"city":"First Presbyterian Church","precinct":540,"geo_score":0.943,"marker":null,"citystatezip":"Dunedin FL 34698","street":"455 Scotland St.","id":"a6g02xnmaxc9","geo_precision":"range","location":"455 Scotland St. Dunedin FL 34698"},"type":"Feature","geometry":{"type":"Point","coordinates":[-82.786869,28.010402]}},{"properties":{"city":"Mease Manor","precinct":546,"geo_score":0.943,"marker":null,"citystatezip":"Dunedin FL 34698","street":"700 Mease Plaza","id":"a6g02xxz26sg","geo_precision":"range","location":"700 Mease Plaza Dunedin FL 34698"},"type":"Feature","geometry":{"type":"Point","coordinates":[-82.781112,28.01585]}},{"properties":{"city":"St. Andrew's Presbyterian Church","precinct":551,"geo_score":0.938,"marker":null,"citystatezip":"Dunedin FL 34698","street":"705 Michigan Blvd","id":"a6g02xj4wws4","geo_precision":"range","location":"705 Michigan Blvd Dunedin FL 34698"},"type":"Feature","geometry":{"type":"Point","coordinates":[-82.780944,28.037812]}},{"properties":{"city":"St. Andrew's Presbyterian Church","precinct":552,"geo_score":0.938,"marker":null,"citystatezip":"Dunedin FL 34698","street":"705 Michigan Blvd","id":"a6g02xvu7oxt","geo_precision":"range","location":"705 Michigan Blvd Dunedin FL 34698"},"type":"Feature","geometry":{"type":"Point","coordinates":[-82.780944,28.037812]}},{"properties":{"city":"St. Andrew's Presbyterian Church","precinct":561,"geo_score":0.938,"marker":null,"citystatezip":"Dunedin FL 34698","street":"705 Michigan Blvd","id":"a6g02xtg8k0l","geo_precision":"range","location":"705 Michigan Blvd Dunedin FL 34698"},"type":"Feature","geometry":{"type":"Point","coordinates":[-82.780944,28.037812]}},{"properties":{"city":"Dunedin Assembly of God Church","precinct":538,"geo_score":0.94,"marker":null,"citystatezip":"Dunedin FL 34698","street":"885 Lake Haven Rd.","id":"a6g02xu5lv33","geo_precision":"range","location":"885 Lake Haven Rd. Dunedin FL 34698"},"type":"Feature","geometry":{"type":"Point","coordinates":[-82.76943,28.015937]}},{"properties":{"city":"Trinity Church of the Nazarene","precinct":209,"geo_score":0.439,"marker":null,"citystatezip":"Gulfport FL 33707","street":"1000 55 St S","id":"a6g02xv1t4n3","geo_precision":"street","location":"1000 55 St S Gulfport FL 33707"},"type":"Feature","geometry":{"type":"Point","coordinates":[-82.699687,27.748306]}},{"properties":{"city":"Trinity Church of the Nazarene","precinct":210,"geo_score":0.439,"marker":null,"citystatezip":"Gulfport FL 33707","street":"1000 55 St S","id":"a6g02xryspja","geo_precision":"street","location":"1000 55 St S Gulfport FL 33707"},"type":"Feature","geometry":{"type":"Point","coordinates":[-82.699687,27.748306]}},{"properties":{"city":"Gulfport Presbyterian Church","precinct":206,"geo_score":0.415,"marker":null,"citystatezip":"Gulfport FL 33707","street":"5313 27 Ave S","id":"a6g02xvsbncs","geo_precision":"street","location":"5313 27 Ave S Gulfport FL 33707"},"type":"Feature","geometry":{"type":"Point","coordinates":[-82.699687,27.748306]}},{"properties":{"city":"Gulfport Public Library","precinct":207,"geo_score":0.415,"marker":null,"citystatezip":"Gulfport FL 33707","street":"5501 28 Ave S","id":"a6g02xvlopes","geo_precision":"street","location":"5501 28 Ave S Gulfport FL 33707"},"type":"Feature","geometry":{"type":"Point","coordinates":[-82.699687,27.748306]}},{"properties":{"city":"Gulfport Recreation Center","precinct":208,"geo_score":0.778,"marker":null,"citystatezip":"Gulfport FL 33707","street":"5730 Shore Blvd S","id":"a6g02xoc0fol","geo_precision":"range","location":"5730 Shore Blvd S Gulfport FL 33707"},"type":"Feature","geometry":{"type":"Point","coordinates":[-82.711081,27.737774]}},{"properties":{"city":"Gulfport Recreation Center","precinct":217,"geo_score":0.778,"marker":null,"citystatezip":"Gulfport FL 33707","street":"5730 Shore Blvd S","id":"a6g02xpjgead","geo_precision":"range","location":"5730 Shore Blvd S Gulfport FL 33707"},"type":"Feature","geometry":{"type":"Point","coordinates":[-82.711081,27.737774]}},{"properties":{"city":"Most Holy Name Catholic Church","precinct":200,"geo_score":0.415,"marker":null,"citystatezip":"Gulfport FL 33707","street":"5800 15 Ave S","id":"a6g02xjc26ap","geo_precision":"street","location":"5800 15 Ave S Gulfport FL 33707"},"type":"Feature","geometry":{"type":"Point","coordinates":[-82.699687,27.748306]}},{"properties":{"city":"Most Holy Name Catholic Church","precinct":211,"geo_score":0.415,"marker":null,"citystatezip":"Gulfport FL 33707","street":"5800 15 Ave S","id":"a6g02xlrcnfj","geo_precision":"street","location":"5800 15 Ave S Gulfport FL 33707"},"type":"Feature","geometry":{"type":"Point","coordinates":[-82.699687,27.748306]}},{"properties":{"city":"Most Holy Name Catholic Church","precinct":240,"geo_score":0.415,"marker":null,"citystatezip":"Gulfport FL 33707","street":"5800 15 Ave S","id":"a6g02xshv5kk","geo_precision":"street","location":"5800 15 Ave S Gulfport FL 33707"},"type":"Feature","geometry":{"type":"Point","coordinates":[-82.699687,27.748306]}},{"properties":{"city":"Lions Club of Gulfport Florida","precinct":218,"geo_score":0.788,"marker":null,"citystatezip":"Gulfport FL 33711","street":"4630 Tifton Dr S","id":"a6g02xrkvzt1","geo_precision":"range","location":"4630 Tifton Dr S Gulfport FL 33711"},"type":"Feature","geometry":{"type":"Point","coordinates":[-82.697659,27.740113]}},{"properties":{"city":"Indian Rocks Beach City Hall","precinct":420,"geo_score":0.96,"marker":null,"citystatezip":"Indian Rocks Beach FL 33785","street":"1507 Bay Palm Blvd","id":"a6g02xm6bn8k","geo_precision":"range","location":"1507 Bay Palm Blvd Indian Rocks Beach FL 33785"},"type":"Feature","geometry":{"type":"Point","coordinates":[-82.846201,27.897464]}},{"properties":{"city":"Indian Shores Town Hall","precinct":419,"geo_score":0.741,"marker":null,"citystatezip":"Indian Shores FL 33785","street":"19305 Gulf Blvd","id":"a6g02xu8kjb8","geo_precision":"range","location":"19305 Gulf Blvd Indian Shores FL 33785"},"type":"Feature","geometry":{"type":"Point","coordinates":[-82.843038,27.847585]}},{"properties":{"city":"Kenneth City Community Hall","precinct":262,"geo_score":0.345,"marker":null,"citystatezip":"Kenneth City FL 33709","street":"4600 58 St N","id":"a6g02xn2ndqt","geo_precision":"street","location":"4600 58 St N Kenneth City FL 33709"},"type":"Feature","geometry":{"type":"Point","coordinates":[-82.761534,27.996485]}},{"properties":{"city":"Kenneth City Community Hall","precinct":264,"geo_score":0.345,"marker":null,"citystatezip":"Kenneth City FL 33709","street":"4600 58 St N","id":"a6g02xhwxf8i","geo_precision":"street","location":"4600 58 St N Kenneth City FL 33709"},"type":"Feature","geometry":{"type":"Point","coordinates":[-82.761534,27.996485]}},{"properties":{"city":"Pinecrest Place","precinct":356,"geo_score":0.317,"marker":"small_green","citystatezip":"Largo FL 33770","street":"1150 8 Ave SW","id":"a6g02xr1kbcy","geo_precision":"street","location":"1150 8 Ave SW Largo FL 33770"},"type":"Feature","geometry":{"type":"Point","coordinates":[-82.776297,27.932434]}},{"properties":{"city":"St. Paul United Methodist Church","precinct":361,"geo_score":0.933,"marker":"small_green","citystatezip":"Largo FL 33770","street":"1199 Highland Ave","id":"a6g02xv0197r","geo_precision":"range","location":"1199 Highland Ave Largo FL 33770"},"type":"Feature","geometry":{"type":"Point","coordinates":[-82.774959,27.92764]}},{"properties":{"city":"St. Paul United Methodist Church","precinct":373,"geo_score":0.933,"marker":"small_green","citystatezip":"Largo FL 33770","street":"1199 Highland Ave","id":"a6g02xxst1up","geo_precision":"range","location":"1199 Highland Ave Largo FL 33770"},"type":"Feature","geometry":{"type":"Point","coordinates":[-82.774959,27.92764]}},{"properties":{"city":"Christ Presbyterian Church","precinct":355,"geo_score":0.94,"marker":"small_green","citystatezip":"Largo FL 33770","street":"3115 Dryer Ave","id":"a6g02xitc4uh","geo_precision":"range","location":"3115 Dryer Ave Largo FL 33770"},"type":"Feature","geometry":{"type":"Point","coordinates":[-82.819187,27.902232]}},{"properties":{"city":"Highland Recreation Complex","precinct":362,"geo_score":0.907,"marker":"small_green","citystatezip":"Largo FL 33770","street":"400 N Highland Ave","id":"a6g02xq8cwzy","geo_precision":"range","location":"400 N Highland Ave Largo FL 33770"},"type":"Feature","geometry":{"type":"Point","coordinates":[-82.774901,27.920605]}},{"properties":{"city":"The Barrington Retirement Community","precinct":331,"geo_score":0.931,"marker":"small_green","citystatezip":"Largo FL 33770","street":"901 Seminole Blvd","id":"a6g02xqommds","geo_precision":"range","location":"901 Seminole Blvd Largo FL 33770"},"type":"Feature","geometry":{"type":"Point","coordinates":[-82.787285,27.907602]}},{"properties":{"city":"Fairway Village Mobile Home Park","precinct":370,"geo_score":0.837,"marker":"small_green","citystatezip":"Largo FL 33771","street":"1100 S Belcher Rd .","id":"a6g02xu9thjh","geo_precision":"street","location":"1100 S Belcher Rd . Largo FL 33771"},"type":"Feature","geometry":{"type":"Point","coordinates":[-82.745879,27.908648]}},{"properties":{"city":"New Testament Baptist Church","precinct":291,"geo_score":0.935,"marker":"small_green","citystatezip":"Largo FL 33771","street":"2050 S Belcher Rd","id":"a6g02xkzirit","geo_precision":"range","location":"2050 S Belcher Rd Largo FL 33771"},"type":"Feature","geometry":{"type":"Point","coordinates":[-82.745795,27.89766]}},{"properties":{"city":"New Testament Baptist Church","precinct":347,"geo_score":0.935,"marker":"small_green","citystatezip":"Largo FL 33771","street":"2050 S Belcher Rd","id":"a6g02xtqmnrw","geo_precision":"range","location":"2050 S Belcher Rd Largo FL 33771"},"type":"Feature","geometry":{"type":"Point","coordinates":[-82.745795,27.89766]}},{"properties":{"city":"New Testament Baptist Church","precinct":360,"geo_score":0.935,"marker":"small_green","citystatezip":"Largo FL 33771","street":"2050 S Belcher Rd","id":"a6g02xlz2iuu","geo_precision":"range","location":"2050 S Belcher Rd Largo FL 33771"},"type":"Feature","geometry":{"type":"Point","coordinates":[-82.745795,27.89766]}},{"properties":{"city":"The Historic Largo Feed Store","precinct":353,"geo_score":0.93,"marker":"small_green","citystatezip":"Largo FL 33771","street":"295 Central Park Dr","id":"a6g02xi8vk47","geo_precision":"range","location":"295 Central Park Dr Largo FL 33771"},"type":"Feature","geometry":{"type":"Point","coordinates":[-82.784748,27.912958]}},{"properties":{"city":"The Historic Largo Feed Store","precinct":354,"geo_score":0.93,"marker":"small_green","citystatezip":"Largo FL 33771","street":"295 Central Park Dr","id":"a6g02xmz1qmm","geo_precision":"range","location":"295 Central Park Dr Largo FL 33771"},"type":"Feature","geometry":{"type":"Point","coordinates":[-82.784748,27.912958]}},{"properties":{"city":"The Historic Largo Feed Store","precinct":359,"geo_score":0.93,"marker":"small_green","citystatezip":"Largo FL 33771","street":"295 Central Park Dr","id":"a6g02xqxu39k","geo_precision":"range","location":"295 Central Park Dr Largo FL 33771"},"type":"Feature","geometry":{"type":"Point","coordinates":[-82.784748,27.912958]}},{"properties":{"city":"East Bay Oaks Mobile Home Park","precinct":352,"geo_score":0.937,"marker":"small_green","citystatezip":"Largo FL 33771","street":"601 Starkey Rd","id":"a6g02xsoakq9","geo_precision":"range","location":"601 Starkey Rd Largo FL 33771"},"type":"Feature","geometry":{"type":"Point","coordinates":[-82.762428,27.913925]}},{"properties":{"city":"Ranchero Village Co-op, Inc.","precinct":293,"geo_score":0.935,"marker":"small_green","citystatezip":"Largo FL 33771","street":"7100 Ulmerton Rd","id":"a6g02xpx1zu1","geo_precision":"range","location":"7100 Ulmerton Rd Largo FL 33771"},"type":"Feature","geometry":{"type":"Point","coordinates":[-82.735643,27.893943]}},{"properties":{"city":"Orange Lake Civic Center","precinct":327,"geo_score":0.47,"marker":"small_green","citystatezip":"Largo FL 33773","street":"11803 104 St","id":"a6g02xstkj9i","geo_precision":"street","location":"11803 104 St Largo FL 33773"},"type":"Feature","geometry":{"type":"Point","coordinates":[-82.782913,27.869004]}},{"properties":{"city":"Election Service Center","precinct":258,"geo_score":0.815,"marker":"small_green","citystatezip":"Largo FL 33773","street":"13001 Starkey Rd","id":"a6g02xslu33n","geo_precision":"range","location":"13001 Starkey Rd Largo FL 33773"},"type":"Feature","geometry":{"type":"Point","coordinates":[-82.762369,27.892801]}},{"properties":{"city":"Election Service Center","precinct":295,"geo_score":0.815,"marker":"small_green","citystatezip":"Largo FL 33773","street":"13001 Starkey Rd","id":"a6g02xtxuut7","geo_precision":"range","location":"13001 Starkey Rd Largo FL 33773"},"type":"Feature","geometry":{"type":"Point","coordinates":[-82.762369,27.892801]}},{"properties":{"city":"Minnreg Building","precinct":282,"geo_score":0.476,"marker":"small_green","citystatezip":"Largo FL 33773","street":"6340 126 Ave","id":"a6g02xkdaj46","geo_precision":"street","location":"6340 126 Ave Largo FL 33773"},"type":"Feature","geometry":{"type":"Point","coordinates":[-82.713828,27.886436]}},{"properties":{"city":"Minnreg Building","precinct":298,"geo_score":0.476,"marker":"small_green","citystatezip":"Largo FL 33773","street":"6340 126 Ave","id":"a6g02xk2oa8l","geo_precision":"street","location":"6340 126 Ave Largo FL 33773"},"type":"Feature","geometry":{"type":"Point","coordinates":[-82.713828,27.886436]}},{"properties":{"city":"Lighthouse of Pinellas","precinct":292,"geo_score":0.957,"marker":"small_green","citystatezip":"Largo FL 33773","street":"6925 112th Cir N","id":"a6g02xxoduio","geo_precision":"range","location":"6925 112th Cir N Largo FL 33773"},"type":"Feature","geometry":{"type":"Point","coordinates":[-82.734312,27.874057]}},{"properties":{"city":"New Hope Church of Christ","precinct":319,"geo_score":0.47,"marker":"small_green","citystatezip":"Largo FL 33774","street":"11025 131 St","id":"a6g02xiyq63m","geo_precision":"street","location":"11025 131 St Largo FL 33774"},"type":"Feature","geometry":{"type":"Point","coordinates":[-82.819991,27.865634]}},{"properties":{"city":"New Hope Church of Christ","precinct":326,"geo_score":0.47,"marker":"small_green","citystatezip":"Largo FL 33774","street":"11025 131 St","id":"a6g02xooah2d","geo_precision":"street","location":"11025 131 St Largo FL 33774"},"type":"Feature","geometry":{"type":"Point","coordinates":[-82.819991,27.865634]}},{"properties":{"city":"Christ the King Lutheran Church","precinct":322,"geo_score":0.935,"marker":"small_green","citystatezip":"Largo FL 33774","street":"11220 Oakhurst Rd","id":"a6g02xwzp926","geo_precision":"range","location":"11220 Oakhurst Rd Largo FL 33774"},"type":"Feature","geometry":{"type":"Point","coordinates":[-82.832381,27.875755]}},{"properties":{"city":"Christ the King Lutheran Church","precinct":343,"geo_score":0.935,"marker":"small_green","citystatezip":"Largo FL 33774","street":"11220 Oakhurst Rd","id":"a6g02xi2bsu6","geo_precision":"range","location":"11220 Oakhurst Rd Largo FL 33774"},"type":"Feature","geometry":{"type":"Point","coordinates":[-82.832381,27.875755]}},{"properties":{"city":"Heritage Village","precinct":323,"geo_score":0.47,"marker":"small_green","citystatezip":"Largo FL 33774","street":"11909 125 St","id":"a6g02xqo77ji","geo_precision":"street","location":"11909 125 St Largo FL 33774"},"type":"Feature","geometry":{"type":"Point","coordinates":[-82.811737,27.880253]}},{"properties":{"city":"Pinellas CountyParks&amp;Conservation","precinct":328,"geo_score":0.837,"marker":"small_green","citystatezip":"Largo FL 33774","street":"12520 Ulmerton Rd","id":"a6g02xjtal7o","geo_precision":"range","location":"12520 Ulmerton Rd Largo FL 33774"},"type":"Feature","geometry":{"type":"Point","coordinates":[-82.813146,27.882449]}},{"properties":{"city":"Pinellas CountyParks&amp;Conservation","precinct":329,"geo_score":0.837,"marker":"small_green","citystatezip":"Largo FL 33774","street":"12520 Ulmerton Rd","id":"a6g02xxi7w18","geo_precision":"range","location":"12520 Ulmerton Rd Largo FL 33774"},"type":"Feature","geometry":{"type":"Point","coordinates":[-82.813146,27.882449]}},{"properties":{"city":"Pinellas CountyParks&amp;Conservation","precinct":330,"geo_score":0.837,"marker":"small_green","citystatezip":"Largo FL 33774","street":"12520 Ulmerton Rd","id":"a6g02xk6e7oi","geo_precision":"range","location":"12520 Ulmerton Rd Largo FL 33774"},"type":"Feature","geometry":{"type":"Point","coordinates":[-82.813146,27.882449]}},{"properties":{"city":"Anona United Methodist Church","precinct":341,"geo_score":0.93,"marker":"small_green","citystatezip":"Largo FL 33774","street":"13233 Indian Rocks Rd","id":"a6g02xq7lxee","geo_precision":"range","location":"13233 Indian Rocks Rd Largo FL 33774"},"type":"Feature","geometry":{"type":"Point","coordinates":[-82.832381,27.891104]}},{"properties":{"city":"Anona United Methodist Church","precinct":344,"geo_score":0.93,"marker":"small_green","citystatezip":"Largo FL 33774","street":"13233 Indian Rocks Rd","id":"a6g02xlyek29","geo_precision":"range","location":"13233 Indian Rocks Rd Largo FL 33774"},"type":"Feature","geometry":{"type":"Point","coordinates":[-82.832381,27.891104]}},{"properties":{"city":"Anona United Methodist Church","precinct":357,"geo_score":0.93,"marker":"small_green","citystatezip":"Largo FL 33774","street":"13233 Indian Rocks Rd","id":"a6g02xstbity","geo_precision":"range","location":"13233 Indian Rocks Rd Largo FL 33774"},"type":"Feature","geometry":{"type":"Point","coordinates":[-82.832381,27.891104]}},{"properties":{"city":"Gulf Coast Church","precinct":342,"geo_score":0.931,"marker":"small_green","citystatezip":"Largo FL 33774","street":"13301 Walsingham Rd","id":"a6g02xtmre2o","geo_precision":"range","location":"13301 Walsingham Rd Largo FL 33774"},"type":"Feature","geometry":{"type":"Point","coordinates":[-82.822512,27.88034]}},{"properties":{"city":"Palm Garden of Largo","precinct":254,"geo_score":0.937,"marker":"small_green","citystatezip":"Largo FL 33777","street":"10500 Starkey Rd","id":"a6g02xvsmeez","geo_precision":"range","location":"10500 Starkey Rd Largo FL 33777"},"type":"Feature","geometry":{"type":"Point","coordinates":[-82.762334,27.867794]}},{"properties":{"city":"Bardmoor Community Center","precinct":276,"geo_score":0.931,"marker":"small_green","citystatezip":"Largo FL 33777","street":"8345 Bardmoor Blvd","id":"a6g02xv8s7qb","geo_precision":"range","location":"8345 Bardmoor Blvd Largo FL 33777"},"type":"Feature","geometry":{"type":"Point","coordinates":[-82.757947,27.860224]}},{"properties":{"city":"Bardmoor Community Center","precinct":284,"geo_score":0.931,"marker":"small_green","citystatezip":"Largo FL 33777","street":"8345 Bardmoor Blvd","id":"a6g02xj6y3ko","geo_precision":"range","location":"8345 Bardmoor Blvd Largo FL 33777"},"type":"Feature","geometry":{"type":"Point","coordinates":[-82.757947,27.860224]}},{"properties":{"city":"Palm Hill Country Club","precinct":346,"geo_score":0.75,"marker":"small_green","citystatezip":"Largo FL 33778","street":"1800 Seminole Blvd","id":"a6g02xxzc1rb","geo_precision":"street","location":"1800 Seminole Blvd Largo FL 33778"},"type":"Feature","geometry":{"type":"Point","coordinates":[-82.787139,27.900819]}},{"properties":{"city":"Greater Ridgecrest Branch YMCA","precinct":345,"geo_score":0.47,"marker":"small_green","citystatezip":"Largo FL 33778","street":"1801 119 St","id":"a6g02xobzxem","geo_precision":"street","location":"1801 119 St Largo FL 33778"},"type":"Feature","geometry":{"type":"Point","coordinates":[-82.803902,27.865465]}},{"properties":{"city":"Madeira Beach Municipal Building","precinct":302,"geo_score":0.788,"marker":null,"citystatezip":"Madeira Beach FL 33708","street":"300 Municipal Dr","id":"a6g02xk37dje","geo_precision":"range","location":"300 Municipal Dr Madeira Beach FL 33708"},"type":"Feature","geometry":{"type":"Point","coordinates":[-82.801678,27.802067]}},{"properties":{"city":"Madeira Beach Municipal Building","precinct":415,"geo_score":0.788,"marker":null,"citystatezip":"Madeira Beach FL 33708","street":"300 Municipal Dr","id":"a6g02xntn7fk","geo_precision":"range","location":"300 Municipal Dr Madeira Beach FL 33708"},"type":"Feature","geometry":{"type":"Point","coordinates":[-82.801678,27.802067]}},{"properties":{"city":"N Redington Beach Public Works Bldg","precinct":417,"geo_score":0.503,"marker":null,"citystatezip":"North Redington Beach FL 33708","street":"190 173 Ave","id":"a6g02xt55zt9","geo_precision":"street","location":"190 173 Ave North Redington Beach FL 33708"},"type":"Feature","geometry":{"type":"Point","coordinates":[-82.805753,27.809582]}},{"properties":{"city":"East Lake Woodlands Country Club","precinct":632,"geo_score":0.733,"marker":null,"citystatezip":"Oldsmar FL 34677","street":"1055 East Lake Woodlands Pkwy","id":"a6g02xk2d8jw","geo_precision":"street","location":"1055 East Lake Woodlands Pkwy Oldsmar FL 34677"},"type":"Feature","geometry":{"type":"Point","coordinates":[-82.684049,28.063795]}},{"properties":{"city":"East Lake Woodlands Country Club","precinct":642,"geo_score":0.733,"marker":null,"citystatezip":"Oldsmar FL 34677","street":"1055 East Lake Woodlands Pkwy","id":"a6g02xvqrv76","geo_precision":"street","location":"1055 East Lake Woodlands Pkwy Oldsmar FL 34677"},"type":"Feature","geometry":{"type":"Point","coordinates":[-82.684049,28.063795]}},{"properties":{"city":"Gull Aire Village Clubhouse","precinct":626,"geo_score":0.914,"marker":null,"citystatezip":"Oldsmar FL 34677","street":"151 B Gull Aire Blvd","id":"a6g02xt0rpyy","geo_precision":"range","location":"151 B Gull Aire Blvd Oldsmar FL 34677"},"type":"Feature","geometry":{"type":"Point","coordinates":[-82.700026,28.047071]}},{"properties":{"city":"Gull Aire Village Clubhouse","precinct":631,"geo_score":0.914,"marker":null,"citystatezip":"Oldsmar FL 34677","street":"151 B Gull Aire Blvd","id":"a6g02xm241lw","geo_precision":"range","location":"151 B Gull Aire Blvd Oldsmar FL 34677"},"type":"Feature","geometry":{"type":"Point","coordinates":[-82.700026,28.047071]}},{"properties":{"city":"Oldsmar Fire Station","precinct":629,"geo_score":0.948,"marker":null,"citystatezip":"Oldsmar FL 34677","street":"225 Pine Ave N","id":"a6g02xjfldtz","geo_precision":"range","location":"225 Pine Ave N Oldsmar FL 34677"},"type":"Feature","geometry":{"type":"Point","coordinates":[-82.671997,28.042577]}},{"properties":{"city":"Oldsmar Fire Station","precinct":647,"geo_score":0.948,"marker":null,"citystatezip":"Oldsmar FL 34677","street":"225 Pine Ave N","id":"a6g02xtcqihr","geo_precision":"range","location":"225 Pine Ave N Oldsmar FL 34677"},"type":"Feature","geometry":{"type":"Point","coordinates":[-82.671997,28.042577]}},{"properties":{"city":"Oldsmar Library","precinct":627,"geo_score":0.933,"marker":null,"citystatezip":"Oldsmar FL 34677","street":"400 St. Petersburg Dr E","id":"a6g02xnjz1po","geo_precision":"range","location":"400 St. Petersburg Dr E Oldsmar FL 34677"},"type":"Feature","geometry":{"type":"Point","coordinates":[-82.661304,28.033373]}},{"properties":{"city":"Oldsmar Library","precinct":630,"geo_score":0.933,"marker":null,"citystatezip":"Oldsmar FL 34677","street":"400 St. Petersburg Dr E","id":"a6g02xoortf2","geo_precision":"range","location":"400 St. Petersburg Dr E Oldsmar FL 34677"},"type":"Feature","geometry":{"type":"Point","coordinates":[-82.661304,28.033373]}},{"properties":{"city":"Harbor Hall","precinct":560,"geo_score":0.951,"marker":"small_purple","citystatezip":"Palm Harbor FL 34683","street":"1190 Georgia Ave","id":"a6g02xuur3lo","geo_precision":"range","location":"1190 Georgia Ave Palm Harbor FL 34683"},"type":"Feature","geometry":{"type":"Point","coordinates":[-82.765148,28.077167]}},{"properties":{"city":"Harbor Hall","precinct":562,"geo_score":0.951,"marker":"small_purple","citystatezip":"Palm Harbor FL 34683","street":"1190 Georgia Ave","id":"a6g02xxpx5bz","geo_precision":"range","location":"1190 Georgia Ave Palm Harbor FL 34683"},"type":"Feature","geometry":{"type":"Point","coordinates":[-82.765148,28.077167]}},{"properties":{"city":"Palm Harbor Community Activity Ctr.","precinct":566,"geo_score":0.496,"marker":"small_purple","citystatezip":"Palm Harbor FL 34683","street":"1500 16 St","id":"a6g02xt0fll4","geo_precision":"street","location":"1500 16 St Palm Harbor FL 34683"},"type":"Feature","geometry":{"type":"Point","coordinates":[-82.757801,28.073604]}},{"properties":{"city":"Palm Harbor Community Activity Ctr.","precinct":571,"geo_score":0.496,"marker":"small_purple","citystatezip":"Palm Harbor FL 34683","street":"1500 16 St","id":"a6g02xrl4nd6","geo_precision":"street","location":"1500 16 St Palm Harbor FL 34683"},"type":"Feature","geometry":{"type":"Point","coordinates":[-82.757801,28.073604]}},{"properties":{"city":"Palm Harbor United Methodist Church","precinct":565,"geo_score":0.759,"marker":"small_purple","citystatezip":"Palm Harbor FL 34683","street":"1551 Belcher Rd","id":"a6g02xq8h8y1","geo_precision":"street","location":"1551 Belcher Rd Palm Harbor FL 34683"},"type":"Feature","geometry":{"type":"Point","coordinates":[-82.747188,28.05601]}},{"properties":{"city":"Pleasant Valley Baptist Church","precinct":567,"geo_score":0.754,"marker":"small_purple","citystatezip":"Palm Harbor FL 34683","street":"1700 Klosterman Rd","id":"a6g02xpofjks","geo_precision":"street","location":"1700 Klosterman Rd Palm Harbor FL 34683"},"type":"Feature","geometry":{"type":"Point","coordinates":[-82.778846,28.122839]}},{"properties":{"city":"Curlew United Methodist Church","precinct":570,"geo_score":0.949,"marker":"small_purple","citystatezip":"Palm Harbor FL 34683","street":"2210 Cathedral Dr","id":"a6g02xlmdlp2","geo_precision":"range","location":"2210 Cathedral Dr Palm Harbor FL 34683"},"type":"Feature","geometry":{"type":"Point","coordinates":[-82.745129,28.052437]}},{"properties":{"city":"Palm Harbor Library","precinct":564,"geo_score":0.949,"marker":"small_purple","citystatezip":"Palm Harbor FL 34683","street":"2330 Nebraska Ave","id":"a6g02xtnsjch","geo_precision":"range","location":"2330 Nebraska Ave Palm Harbor FL 34683"},"type":"Feature","geometry":{"type":"Point","coordinates":[-82.742776,28.078936]}},{"properties":{"city":"Baywood Village","precinct":568,"geo_score":0.949,"marker":"small_purple","citystatezip":"Palm Harbor FL 34683","street":"309 Westwinds Dr","id":"a6g02xnk29tb","geo_precision":"range","location":"309 Westwinds Dr Palm Harbor FL 34683"},"type":"Feature","geometry":{"type":"Point","coordinates":[-82.773151,28.119784]}},{"properties":{"city":"Palm Harbor Fire Station #65","precinct":614,"geo_score":0.96,"marker":"small_purple","citystatezip":"Palm Harbor FL 34684","street":"250 W. Lake Rd","id":"a6g02xn4dpdq","geo_precision":"range","location":"250 W. Lake Rd Palm Harbor FL 34684"},"type":"Feature","geometry":{"type":"Point","coordinates":[-82.734552,28.061332]}},{"properties":{"city":"St. Luke Catholic Church","precinct":617,"geo_score":0.951,"marker":"small_purple","citystatezip":"Palm Harbor FL 34684","street":"2757 Alderman Rd","id":"a6g02xmu9pbe","geo_precision":"range","location":"2757 Alderman Rd Palm Harbor FL 34684"},"type":"Feature","geometry":{"type":"Point","coordinates":[-82.736771,28.093585]}},{"properties":{"city":"St. Luke Catholic Church","precinct":654,"geo_score":0.951,"marker":"small_purple","citystatezip":"Palm Harbor FL 34684","street":"2757 Alderman Rd","id":"a6g02xkbfdci","geo_precision":"range","location":"2757 Alderman Rd Palm Harbor FL 34684"},"type":"Feature","geometry":{"type":"Point","coordinates":[-82.736771,28.093585]}},{"properties":{"city":"Highland Lakes Club","precinct":616,"geo_score":0.949,"marker":"small_purple","citystatezip":"Palm Harbor FL 34684","street":"3300 MacGregor Dr","id":"a6g02xoc99bd","geo_precision":"range","location":"3300 MacGregor Dr Palm Harbor FL 34684"},"type":"Feature","geometry":{"type":"Point","coordinates":[-82.725623,28.081654]}},{"properties":{"city":"Highland Lakes Club","precinct":638,"geo_score":0.949,"marker":"small_purple","citystatezip":"Palm Harbor FL 34684","street":"3300 MacGregor Dr","id":"a6g02xvpgfgp","geo_precision":"range","location":"3300 MacGregor Dr Palm Harbor FL 34684"},"type":"Feature","geometry":{"type":"Point","coordinates":[-82.725623,28.081654]}},{"properties":{"city":"Stratford Ct. Sunrise Senior Living","precinct":641,"geo_score":0.945,"marker":"small_purple","citystatezip":"Palm Harbor FL 34684","street":"45 Katherine Blvd","id":"a6g02xk086go","geo_precision":"range","location":"45 Katherine Blvd Palm Harbor FL 34684"},"type":"Feature","geometry":{"type":"Point","coordinates":[-82.712584,28.064278]}},{"properties":{"city":"Coral Oaks","precinct":615,"geo_score":0.862,"marker":"small_purple","citystatezip":"Palm Harbor FL 34684","street":"900 W. Lake Rd","id":"a6g02xp73eex","geo_precision":"street","location":"900 W. Lake Rd Palm Harbor FL 34684"},"type":"Feature","geometry":{"type":"Point","coordinates":[-82.734641,28.066502]}},{"properties":{"city":"Lutheran Church of the Resurrection","precinct":633,"geo_score":0.922,"marker":"small_purple","citystatezip":"Palm Harbor FL 34685","street":"1555 Windmill Pointe Rd","id":"a6g02xmdprgr","geo_precision":"range","location":"1555 Windmill Pointe Rd Palm Harbor FL 34685"},"type":"Feature","geometry":{"type":"Point","coordinates":[-82.696123,28.099976]}},{"properties":{"city":"Lutheran Church of the Resurrection","precinct":639,"geo_score":0.922,"marker":"small_purple","citystatezip":"Palm Harbor FL 34685","street":"1555 Windmill Pointe Rd","id":"a6g02xv8fa6s","geo_precision":"range","location":"1555 Windmill Pointe Rd Palm Harbor FL 34685"},"type":"Feature","geometry":{"type":"Point","coordinates":[-82.696123,28.099976]}},{"properties":{"city":"East Lake United Methodist Church","precinct":644,"geo_score":0.854,"marker":"small_purple","citystatezip":"Palm Harbor FL 34685","street":"2801 East Lake Rd","id":"a6g02xj4syec","geo_precision":"street","location":"2801 East Lake Rd Palm Harbor FL 34685"},"type":"Feature","geometry":{"type":"Point","coordinates":[-82.698948,28.089461]}},{"properties":{"city":"Sunset Palms Mobile Home Park","precinct":191,"geo_score":0.958,"marker":"small_green","citystatezip":"Pinellas Park FL 33781","street":"3401 Gandy Blvd","id":"a6g02xszoaqo","geo_precision":"range","location":"3401 Gandy Blvd Pinellas Park FL 33781"},"type":"Feature","geometry":{"type":"Point","coordinates":[-82.679643,27.84283]}},{"properties":{"city":"Crystal Lakes Manor","precinct":164,"geo_score":0.542,"marker":"small_green","citystatezip":"Pinellas Park FL 33781","street":"4100 62 Ave","id":"a6g02xugi269","geo_precision":"street","location":"4100 62 Ave Pinellas Park FL 33781"},"type":"Feature","geometry":{"type":"Point","coordinates":[-82.685221,27.826711]}},{"properties":{"city":"Crystal Lakes Manor","precinct":270,"geo_score":0.542,"marker":"small_green","citystatezip":"Pinellas Park FL 33781","street":"4100 62 Ave","id":"a6g02xui9zgp","geo_precision":"street","location":"4100 62 Ave Pinellas Park FL 33781"},"type":"Feature","geometry":{"type":"Point","coordinates":[-82.685221,27.826711]}},{"properties":{"city":"Park Place Wesleyan Church","precinct":174,"geo_score":0.505,"marker":"small_green","citystatezip":"Pinellas Park FL 33781","street":"4400 70 Ave","id":"a6g02xoc1eq4","geo_precision":"street","location":"4400 70 Ave Pinellas Park FL 33781"},"type":"Feature","geometry":{"type":"Point","coordinates":[-82.67967,27.835635]}},{"properties":{"city":"Park Place Wesleyan Church","precinct":271,"geo_score":0.505,"marker":"small_green","citystatezip":"Pinellas Park FL 33781","street":"4400 70 Ave","id":"a6g02xsc08fz","geo_precision":"street","location":"4400 70 Ave Pinellas Park FL 33781"},"type":"Feature","geometry":{"type":"Point","coordinates":[-82.67967,27.835635]}},{"properties":{"city":"McKee Lake Alliance Church","precinct":269,"geo_score":0.542,"marker":"small_green","citystatezip":"Pinellas Park FL 33781","street":"5972 62 Ave","id":"a6g02xqiybbm","geo_precision":"street","location":"5972 62 Ave Pinellas Park FL 33781"},"type":"Feature","geometry":{"type":"Point","coordinates":[-82.685221,27.826711]}},{"properties":{"city":"McKee Lake Alliance Church","precinct":272,"geo_score":0.542,"marker":"small_green","citystatezip":"Pinellas Park FL 33781","street":"5972 62 Ave","id":"a6g02xmpk624","geo_precision":"street","location":"5972 62 Ave Pinellas Park FL 33781"},"type":"Feature","geometry":{"type":"Point","coordinates":[-82.685221,27.826711]}},{"properties":{"city":"Public Works/Tech Services Bldg.","precinct":285,"geo_score":0.521,"marker":"small_green","citystatezip":"Pinellas Park FL 33781","street":"6051 78 Ave","id":"a6g02xksbjyb","geo_precision":"street","location":"6051 78 Ave Pinellas Park FL 33781"},"type":"Feature","geometry":{"type":"Point","coordinates":[-82.682726,27.842888]}},{"properties":{"city":"Pinellas Park City Auditorium","precinct":277,"geo_score":0.498,"marker":"small_green","citystatezip":"Pinellas Park FL 33781","street":"7690 59 St","id":"a6g02xsotbbs","geo_precision":"street","location":"7690 59 St Pinellas Park FL 33781"},"type":"Feature","geometry":{"type":"Point","coordinates":[-82.713984,27.832314]}},{"properties":{"city":"Pinellas Park City Auditorium","precinct":278,"geo_score":0.498,"marker":"small_green","citystatezip":"Pinellas Park FL 33781","street":"7690 59 St","id":"a6g02xkm37fo","geo_precision":"street","location":"7690 59 St Pinellas Park FL 33781"},"type":"Feature","geometry":{"type":"Point","coordinates":[-82.713984,27.832314]}},{"properties":{"city":"Pinellas Park City Auditorium","precinct":279,"geo_score":0.498,"marker":"small_green","citystatezip":"Pinellas Park FL 33781","street":"7690 59 St","id":"a6g02xrtxlh5","geo_precision":"street","location":"7690 59 St Pinellas Park FL 33781"},"type":"Feature","geometry":{"type":"Point","coordinates":[-82.713984,27.832314]}},{"properties":{"city":"German American Club","precinct":259,"geo_score":0.498,"marker":"small_green","citystatezip":"Pinellas Park FL 33781","street":"8098 66 St","id":"a6g02xvngmau","geo_precision":"street","location":"8098 66 St Pinellas Park FL 33781"},"type":"Feature","geometry":{"type":"Point","coordinates":[-82.728462,27.828245]}},{"properties":{"city":"German American Club","precinct":273,"geo_score":0.498,"marker":"small_green","citystatezip":"Pinellas Park FL 33781","street":"8098 66 St","id":"a6g02xy2c6jd","geo_precision":"street","location":"8098 66 St Pinellas Park FL 33781"},"type":"Feature","geometry":{"type":"Point","coordinates":[-82.728462,27.828245]}},{"properties":{"city":"Plantation Gardens Apartments","precinct":281,"geo_score":0.505,"marker":"small_green","citystatezip":"Pinellas Park FL 33782","street":"5501 110 Ave","id":"a6g02xpk3wev","geo_precision":"street","location":"5501 110 Ave Pinellas Park FL 33782"},"type":"Feature","geometry":{"type":"Point","coordinates":[-82.712482,27.871881]}},{"properties":{"city":"Forbes Recreation Center","precinct":280,"geo_score":0.521,"marker":"small_green","citystatezip":"Pinellas Park FL 33782","street":"6401 94 Ave","id":"a6g02xo9cgvu","geo_precision":"street","location":"6401 94 Ave Pinellas Park FL 33782"},"type":"Feature","geometry":{"type":"Point","coordinates":[-82.692073,27.857767]}},{"properties":{"city":"Forbes Recreation Center","precinct":286,"geo_score":0.521,"marker":"small_green","citystatezip":"Pinellas Park FL 33782","street":"6401 94 Ave","id":"a6g02xq6e6j3","geo_precision":"street","location":"6401 94 Ave Pinellas Park FL 33782"},"type":"Feature","geometry":{"type":"Point","coordinates":[-82.692073,27.857767]}},{"properties":{"city":"Clearwater Cascade","precinct":290,"geo_score":0.498,"marker":"small_green","citystatezip":"Pinellas Park FL 33782","street":"9790 66 St","id":"a6g02xl14hwb","geo_precision":"street","location":"9790 66 St Pinellas Park FL 33782"},"type":"Feature","geometry":{"type":"Point","coordinates":[-82.728724,27.850101]}},{"properties":{"city":"Mainlands of Tamarac - Unit #4","precinct":192,"geo_score":0.947,"marker":"small_green","citystatezip":"Pinellas Park FL 33782","street":"9950 Mainlands Blvd E","id":"a6g02xqybds1","geo_precision":"range","location":"9950 Mainlands Blvd E Pinellas Park FL 33782"},"type":"Feature","geometry":{"type":"Point","coordinates":[-82.682743,27.862058]}},{"properties":{"city":"Mainlands of Tamarac - Unit #4","precinct":194,"geo_score":0.947,"marker":"small_green","citystatezip":"Pinellas Park FL 33782","street":"9950 Mainlands Blvd E","id":"a6g02xv8gjjj","geo_precision":"range","location":"9950 Mainlands Blvd E Pinellas Park FL 33782"},"type":"Feature","geometry":{"type":"Point","coordinates":[-82.682743,27.862058]}},{"properties":{"city":"Redington Beach Town Hall","precinct":416,"geo_score":0.512,"marker":"small_green","citystatezip":"Redington Beach FL 33708","street":"105 164 Ave","id":"a6g02xpko50l","geo_precision":"street","location":"105 164 Ave Redington Beach FL 33708"},"type":"Feature","geometry":{"type":"Point","coordinates":[-82.805753,27.809582]}},{"properties":{"city":"Redington Shores Town Hall","precinct":418,"geo_score":0.559,"marker":null,"citystatezip":"Redington Shores FL 33708","street":"17425 Gulf Blvd","id":"a6g02xsz613p","geo_precision":"street","location":"17425 Gulf Blvd Redington Shores FL 33708"},"type":"Feature","geometry":{"type":"Point","coordinates":[-82.812331,27.818046]}},{"properties":{"city":"Briar Creek MHP - Clubhouse 1","precinct":623,"geo_score":0.947,"marker":null,"citystatezip":"Safety Harbor FL 34695","street":"100 Briar Creek Blvd","id":"a6g02xj5vg67","geo_precision":"range","location":"100 Briar Creek Blvd Safety Harbor FL 34695"},"type":"Feature","geometry":{"type":"Point","coordinates":[-82.703443,28.036839]}},{"properties":{"city":"Safety Harbor Public Library","precinct":624,"geo_score":0.345,"marker":null,"citystatezip":"Safety Harbor FL 34695","street":"101 2 St N","id":"a6g02xtnik1n","geo_precision":"street","location":"101 2 St N Safety Harbor FL 34695"},"type":"Feature","geometry":{"type":"Point","coordinates":[-82.712933,28.28793]}},{"properties":{"city":"Espiritu Santo Catholic Church","precinct":625,"geo_score":0.929,"marker":null,"citystatezip":"Safety Harbor FL 34695","street":"2405 Philippe Pkwy","id":"a6g02xngsh77","geo_precision":"range","location":"2405 Philippe Pkwy Safety Harbor FL 34695"},"type":"Feature","geometry":{"type":"Point","coordinates":[-82.684091,28.009926]}},{"properties":{"city":"Safety Harbor Community Center","precinct":620,"geo_score":0.683,"marker":null,"citystatezip":"Safety Harbor FL 34695","street":"650 9 Ave S","id":"a6g02xobi2wo","geo_precision":"range","location":"650 9 Ave S Safety Harbor FL 34695"},"type":"Feature","geometry":{"type":"Point","coordinates":[-82.684142,28.006959]}},{"properties":{"city":"Faith Presbyterian Church","precinct":301,"geo_score":0.948,"marker":"small_yellow","citystatezip":"Seminole FL 33772","street":"11501 Walker Ave","id":"a6g02xrg22ot","geo_precision":"range","location":"11501 Walker Ave Seminole FL 33772"},"type":"Feature","geometry":{"type":"Point","coordinates":[-82.797786,27.824679]}},{"properties":{"city":"Faith Presbyterian Church","precinct":306,"geo_score":0.948,"marker":"small_yellow","citystatezip":"Seminole FL 33772","street":"11501 Walker Ave","id":"a6g02xwb1yza","geo_precision":"range","location":"11501 Walker Ave Seminole FL 33772"},"type":"Feature","geometry":{"type":"Point","coordinates":[-82.797786,27.824679]}},{"properties":{"city":"Seminole United Methodist Church","precinct":305,"geo_score":0.941,"marker":"small_yellow","citystatezip":"Seminole FL 33772","street":"5400 Seminole Blvd","id":"a6g02xt2u2vq","geo_precision":"range","location":"5400 Seminole Blvd Seminole FL 33772"},"type":"Feature","geometry":{"type":"Point","coordinates":[-82.787021,27.82135]}},{"properties":{"city":"Bay Ridge Baptist Church","precinct":307,"geo_score":0.479,"marker":"small_yellow","citystatezip":"Seminole FL 33772","street":"6155 113 St","id":"a6g02xqhf1i0","geo_precision":"street","location":"6155 113 St Seminole FL 33772"},"type":"Feature","geometry":{"type":"Point","coordinates":[-82.79531,27.821455]}},{"properties":{"city":"Lake Seminole Presbyterian Church","precinct":310,"geo_score":0.479,"marker":"small_yellow","citystatezip":"Seminole FL 33772","street":"8505 113 St","id":"a6g02xrzlrre","geo_precision":"street","location":"8505 113 St Seminole FL 33772"},"type":"Feature","geometry":{"type":"Point","coordinates":[-82.79531,27.821455]}},{"properties":{"city":"Seminole Recreation Center","precinct":317,"geo_score":0.479,"marker":"small_yellow","citystatezip":"Seminole FL 33772","street":"9100 113 St","id":"a6g02xn79cz3","geo_precision":"street","location":"9100 113 St Seminole FL 33772"},"type":"Feature","geometry":{"type":"Point","coordinates":[-82.79531,27.821455]}},{"properties":{"city":"Seminole Community Library at SPC","precinct":316,"geo_score":0.479,"marker":"small_yellow","citystatezip":"Seminole FL 33772","street":"9200 113 St","id":"a6g02xrkrqnc","geo_precision":"street","location":"9200 113 St Seminole FL 33772"},"type":"Feature","geometry":{"type":"Point","coordinates":[-82.79531,27.821455]}},{"properties":{"city":"Suncoast Community Church","precinct":324,"geo_score":0.574,"marker":"small_yellow","citystatezip":"Seminole FL 33774","street":"12855 110 Ave","id":"a6g02xr3yprn","geo_precision":"range","location":"12855 110 Ave Seminole FL 33774"},"type":"Feature","geometry":{"type":"Point","coordinates":[-82.801101,27.973926]}},{"properties":{"city":"Suncoast Community Church","precinct":332,"geo_score":0.574,"marker":"small_yellow","citystatezip":"Seminole FL 33774","street":"12855 110 Ave","id":"a6g02xvjlj1j","geo_precision":"range","location":"12855 110 Ave Seminole FL 33774"},"type":"Feature","geometry":{"type":"Point","coordinates":[-82.801101,27.973926]}},{"properties":{"city":"Chapel on the Hill","precinct":309,"geo_score":0.951,"marker":"small_yellow","citystatezip":"Seminole FL 33776","street":"12601 Park Blvd","id":"a6g02xmvzdd3","geo_precision":"range","location":"12601 Park Blvd Seminole FL 33776"},"type":"Feature","geometry":{"type":"Point","coordinates":[-82.81369,27.843628]}},{"properties":{"city":"Oakhurst United Methodist Church","precinct":308,"geo_score":0.951,"marker":"small_yellow","citystatezip":"Seminole FL 33776","street":"13400 Park Blvd","id":"a6g02xlmenm7","geo_precision":"range","location":"13400 Park Blvd Seminole FL 33776"},"type":"Feature","geometry":{"type":"Point","coordinates":[-82.824025,27.843712]}},{"properties":{"city":"Oakhurst United Methodist Church","precinct":315,"geo_score":0.951,"marker":"small_yellow","citystatezip":"Seminole FL 33776","street":"13400 Park Blvd","id":"a6g02xigpzsp","geo_precision":"range","location":"13400 Park Blvd Seminole FL 33776"},"type":"Feature","geometry":{"type":"Point","coordinates":[-82.824025,27.843712]}},{"properties":{"city":"Baypointe Country Club","precinct":320,"geo_score":0.944,"marker":"small_yellow","citystatezip":"Seminole FL 33776","street":"9399 Commodore Dr","id":"a6g02xvwugcg","geo_precision":"range","location":"9399 Commodore Dr Seminole FL 33776"},"type":"Feature","geometry":{"type":"Point","coordinates":[-82.838308,27.858689]}},{"properties":{"city":"Baypointe Country Club","precinct":321,"geo_score":0.944,"marker":"small_yellow","citystatezip":"Seminole FL 33776","street":"9399 Commodore Dr","id":"a6g02xoga206","geo_precision":"range","location":"9399 Commodore Dr Seminole FL 33776"},"type":"Feature","geometry":{"type":"Point","coordinates":[-82.838308,27.858689]}},{"properties":{"city":"Seminole Lake Country Club","precinct":266,"geo_score":0.789,"marker":"small_yellow","citystatezip":"Seminole FL 33777","street":"6100 Augusta Blvd","id":"a6g02xpufiij","geo_precision":"range","location":"6100 Augusta Blvd Seminole FL 33777"},"type":"Feature","geometry":{"type":"Point","coordinates":[-82.762356,27.828465]}},{"properties":{"city":"Starkey Road Baptist Church","precinct":274,"geo_score":0.782,"marker":"small_yellow","citystatezip":"Seminole FL 33777","street":"8800 Starkey Rd","id":"a6g02xm4px9u","geo_precision":"range","location":"8800 Starkey Rd Seminole FL 33777"},"type":"Feature","geometry":{"type":"Point","coordinates":[-82.762334,27.852515]}},{"properties":{"city":"Starkey Road Baptist Church","precinct":275,"geo_score":0.782,"marker":"small_yellow","citystatezip":"Seminole FL 33777","street":"8800 Starkey Rd","id":"a6g02xssz27m","geo_precision":"range","location":"8800 Starkey Rd Seminole FL 33777"},"type":"Feature","geometry":{"type":"Point","coordinates":[-82.762334,27.852515]}},{"properties":{"city":"Lutheran Church of Good Shepherd","precinct":318,"geo_score":0.448,"marker":"small_yellow","citystatezip":"Seminole FL 33778","street":"10891 102 Ave","id":"a6g02xn8ckov","geo_precision":"street","location":"10891 102 Ave Seminole FL 33778"},"type":"Feature","geometry":{"type":"Point","coordinates":[-82.787143,27.901622]}},{"properties":{"city":"Lutheran Church of Good Shepherd","precinct":325,"geo_score":0.448,"marker":"small_yellow","citystatezip":"Seminole FL 33778","street":"10891 102 Ave","id":"a6g02xsmoae8","geo_precision":"street","location":"10891 102 Ave Seminole FL 33778"},"type":"Feature","geometry":{"type":"Point","coordinates":[-82.787143,27.901622]}},{"properties":{"city":"South Pasadena City Hall","precinct":213,"geo_score":0.909,"marker":null,"citystatezip":"South Pasadena FL 33707","street":"7047 Sunset Dr S","id":"a6g02xv4rwb6","geo_precision":"range","location":"7047 Sunset Dr S South Pasadena FL 33707"},"type":"Feature","geometry":{"type":"Point","coordinates":[-82.739852,27.760928]}},{"properties":{"city":"South Pasadena City Hall","precinct":214,"geo_score":0.909,"marker":null,"citystatezip":"South Pasadena FL 33707","street":"7047 Sunset Dr S","id":"a6g02xk2bu27","geo_precision":"range","location":"7047 Sunset Dr S South Pasadena FL 33707"},"type":"Feature","geometry":{"type":"Point","coordinates":[-82.739852,27.760928]}},{"properties":{"city":"Pass-A-Grille Beach Comm. Church","precinct":219,"geo_score":0.391,"marker":null,"citystatezip":"St Pete Beach FL 33706","street":"107 16 Ave","id":"a6g02xrbwep6","geo_precision":"street","location":"107 16 Ave St Pete Beach FL 33706"},"type":"Feature","geometry":{"type":"Point","coordinates":[-82.750007,27.735656]}},{"properties":{"city":"Pass-A-Grille Beach Comm. Church","precinct":403,"geo_score":0.391,"marker":null,"citystatezip":"St Pete Beach FL 33706","street":"107 16 Ave","id":"a6g02xn1nupe","geo_precision":"street","location":"107 16 Ave St Pete Beach FL 33706"},"type":"Feature","geometry":{"type":"Point","coordinates":[-82.750007,27.735656]}},{"properties":{"city":"Westminster Presbyterian Church","precinct":141,"geo_score":0.532,"marker":"small_red","citystatezip":"St Petersburg FL 33701","street":"126 11 Ave NE","id":"a6g02xuscsw2","geo_precision":"zip","location":"126 11 Ave NE St Petersburg FL 33701"},"type":"Feature","geometry":{"type":"Point","coordinates":[-82.64092,27.775654]}},{"properties":{"city":"Peterborough Apartments","precinct":135,"geo_score":0.535,"marker":"small_red","citystatezip":"St Petersburg FL 33701","street":"440 4 Ave N","id":"a6g02xpb7njp","geo_precision":"zip","location":"440 4 Ave N St Petersburg FL 33701"},"type":"Feature","geometry":{"type":"Point","coordinates":[-82.64092,27.775654]}},{"properties":{"city":"Coliseum","precinct":132,"geo_score":0.535,"marker":"small_red","citystatezip":"St Petersburg FL 33701","street":"535 4 Ave N","id":"a6g02xnysyvk","geo_precision":"zip","location":"535 4 Ave N St Petersburg FL 33701"},"type":"Feature","geometry":{"type":"Point","coordinates":[-82.64092,27.775654]}},{"properties":{"city":"Coliseum","precinct":133,"geo_score":0.535,"marker":"small_red","citystatezip":"St Petersburg FL 33701","street":"535 4 Ave N","id":"a6g02xy49ivt","geo_precision":"zip","location":"535 4 Ave N St Petersburg FL 33701"},"type":"Feature","geometry":{"type":"Point","coordinates":[-82.64092,27.775654]}},{"properties":{"city":"Coliseum","precinct":142,"geo_score":0.535,"marker":"small_red","citystatezip":"St Petersburg FL 33701","street":"535 4 Ave N","id":"a6g02xsok9ts","geo_precision":"zip","location":"535 4 Ave N St Petersburg FL 33701"},"type":"Feature","geometry":{"type":"Point","coordinates":[-82.64092,27.775654]}},{"properties":{"city":"Pinewood Co-op, Inc.","precinct":188,"geo_score":0.669,"marker":"small_red","citystatezip":"St Petersburg FL 33702","street":"10441 Gandy Blvd","id":"a6g02xqlls8g","geo_precision":"range","location":"10441 Gandy Blvd St Petersburg FL 33702"},"type":"Feature","geometry":{"type":"Point","coordinates":[-82.629569,27.866343]}},{"properties":{"city":"Pinewood Co-op, Inc.","precinct":189,"geo_score":0.669,"marker":"small_red","citystatezip":"St Petersburg FL 33702","street":"10441 Gandy Blvd","id":"a6g02xnhd81t","geo_precision":"range","location":"10441 Gandy Blvd St Petersburg FL 33702"},"type":"Feature","geometry":{"type":"Point","coordinates":[-82.629569,27.866343]}},{"properties":{"city":"Faith Covenant Church","precinct":169,"geo_score":0.532,"marker":"small_red","citystatezip":"St Petersburg FL 33702","street":"150 62 Ave NE","id":"a6g02xy6s0kk","geo_precision":"zip","location":"150 62 Ave NE St Petersburg FL 33702"},"type":"Feature","geometry":{"type":"Point","coordinates":[-82.631509,27.863201]}},{"properties":{"city":"Riviera United Methodist Church","precinct":170,"geo_score":0.533,"marker":"small_red","citystatezip":"St Petersburg FL 33702","street":"175 62 Ave N","id":"a6g02xuu97t3","geo_precision":"zip","location":"175 62 Ave N St Petersburg FL 33702"},"type":"Feature","geometry":{"type":"Point","coordinates":[-82.631509,27.863201]}},{"properties":{"city":"First Baptist Church/St. Petersburg","precinct":190,"geo_score":0.791,"marker":"small_red","citystatezip":"St Petersburg FL 33702","street":"1900 Gandy Blvd","id":"a6g02xo0yj8n","geo_precision":"range","location":"1900 Gandy Blvd St Petersburg FL 33702"},"type":"Feature","geometry":{"type":"Point","coordinates":[-82.662188,27.852662]}},{"properties":{"city":"Epiphany Ukrainian Catholic Church","precinct":187,"geo_score":0.533,"marker":"small_red","citystatezip":"St Petersburg FL 33702","street":"434 90 Ave N","id":"a6g02xqyipf8","geo_precision":"zip","location":"434 90 Ave N St Petersburg FL 33702"},"type":"Feature","geometry":{"type":"Point","coordinates":[-82.631509,27.863201]}},{"properties":{"city":"Epiphany Ukrainian Catholic Church","precinct":197,"geo_score":0.533,"marker":"small_red","citystatezip":"St Petersburg FL 33702","street":"434 90 Ave N","id":"a6g02xqso0l5","geo_precision":"zip","location":"434 90 Ave N St Petersburg FL 33702"},"type":"Feature","geometry":{"type":"Point","coordinates":[-82.631509,27.863201]}},{"properties":{"city":"First Church of Christ, Scientist","precinct":184,"geo_score":0.293,"marker":"small_red","citystatezip":"St Petersburg FL 33702","street":"6333 1 St NE","id":"a6g02xu45cmc","geo_precision":"street","location":"6333 1 St NE St Petersburg FL 33702"},"type":"Feature","geometry":{"type":"Point","coordinates":[-82.761534,27.996485]}},{"properties":{"city":"Willis S. Johns Recreation Center","precinct":182,"geo_score":0.638,"marker":"small_red","citystatezip":"St Petersburg FL 33702","street":"6635 M L King St N","id":"a6g02xmvrlgh","geo_precision":"range","location":"6635 M L King St N St Petersburg FL 33702"},"type":"Feature","geometry":{"type":"Point","coordinates":[-82.64635,27.708408]}},{"properties":{"city":"Americana Cove","precinct":183,"geo_score":0.293,"marker":"small_red","citystatezip":"St Petersburg FL 33702","street":"7201 1 St NE","id":"a6g02xi08dih","geo_precision":"street","location":"7201 1 St NE St Petersburg FL 33702"},"type":"Feature","geometry":{"type":"Point","coordinates":[-82.761534,27.996485]}},{"properties":{"city":"Americana Cove","precinct":185,"geo_score":0.293,"marker":"small_red","citystatezip":"St Petersburg FL 33702","street":"7201 1 St NE","id":"a6g02xssa88y","geo_precision":"street","location":"7201 1 St NE St Petersburg FL 33702"},"type":"Feature","geometry":{"type":"Point","coordinates":[-82.761534,27.996485]}},{"properties":{"city":"St. James United Methodist Church","precinct":186,"geo_score":0.533,"marker":"small_red","citystatezip":"St Petersburg FL 33702","street":"845 87 Ave N","id":"a6g02xmfyjlu","geo_precision":"zip","location":"845 87 Ave N St Petersburg FL 33702"},"type":"Feature","geometry":{"type":"Point","coordinates":[-82.631509,27.863201]}},{"properties":{"city":"St. James United Methodist Church","precinct":196,"geo_score":0.533,"marker":"small_red","citystatezip":"St Petersburg FL 33702","street":"845 87 Ave N","id":"a6g02xhx040v","geo_precision":"zip","location":"845 87 Ave N St Petersburg FL 33702"},"type":"Feature","geometry":{"type":"Point","coordinates":[-82.631509,27.863201]}},{"properties":{"city":"North Branch Library","precinct":181,"geo_score":0.533,"marker":"small_red","citystatezip":"St Petersburg FL 33702","street":"861 70 Ave N","id":"a6g02xq65uli","geo_precision":"zip","location":"861 70 Ave N St Petersburg FL 33702"},"type":"Feature","geometry":{"type":"Point","coordinates":[-82.631509,27.863201]}},{"properties":{"city":"Roberts Recreation Center","precinct":166,"geo_score":0.515,"marker":"small_red","citystatezip":"St Petersburg FL 33703","street":"1246 50 Ave N","id":"a6g02xly59g3","geo_precision":"zip","location":"1246 50 Ave N St Petersburg FL 33703"},"type":"Feature","geometry":{"type":"Point","coordinates":[-82.741212,27.725307]}},{"properties":{"city":"Roberts Recreation Center","precinct":167,"geo_score":0.515,"marker":"small_red","citystatezip":"St Petersburg FL 33703","street":"1246 50 Ave N","id":"a6g02xk0jllw","geo_precision":"zip","location":"1246 50 Ave N St Petersburg FL 33703"},"type":"Feature","geometry":{"type":"Point","coordinates":[-82.741212,27.725307]}},{"properties":{"city":"Roberts Recreation Center","precinct":168,"geo_score":0.515,"marker":"small_red","citystatezip":"St Petersburg FL 33703","street":"1246 50 Ave N","id":"a6g02xxq3wvy","geo_precision":"zip","location":"1246 50 Ave N St Petersburg FL 33703"},"type":"Feature","geometry":{"type":"Point","coordinates":[-82.741212,27.725307]}},{"properties":{"city":"Northeast Presbyterian Church","precinct":158,"geo_score":0.805,"marker":"small_red","citystatezip":"St Petersburg FL 33703","street":"4400 Shore Acres Blvd NE","id":"a6g02xoszh8p","geo_precision":"range","location":"4400 Shore Acres Blvd NE St Petersburg FL 33703"},"type":"Feature","geometry":{"type":"Point","coordinates":[-82.609113,27.812185]}},{"properties":{"city":"Northeast Presbyterian Church","precinct":159,"geo_score":0.805,"marker":"small_red","citystatezip":"St Petersburg FL 33703","street":"4400 Shore Acres Blvd NE","id":"a6g02xru6i4h","geo_precision":"range","location":"4400 Shore Acres Blvd NE St Petersburg FL 33703"},"type":"Feature","geometry":{"type":"Point","coordinates":[-82.609113,27.812185]}},{"properties":{"city":"Lutheran Church of the Cross","precinct":156,"geo_score":0.794,"marker":"small_red","citystatezip":"St Petersburg FL 33703","street":"4545 Chancellor St NE","id":"a6g02xi3xdoh","geo_precision":"range","location":"4545 Chancellor St NE St Petersburg FL 33703"},"type":"Feature","geometry":{"type":"Point","coordinates":[-82.601639,27.813533]}},{"properties":{"city":"Lutheran Church of the Cross","precinct":157,"geo_score":0.794,"marker":"small_red","citystatezip":"St Petersburg FL 33703","street":"4545 Chancellor St NE","id":"a6g02xwild9w","geo_precision":"range","location":"4545 Chancellor St NE St Petersburg FL 33703"},"type":"Feature","geometry":{"type":"Point","coordinates":[-82.601639,27.813533]}},{"properties":{"city":"St. Raphael's Catholic Church","precinct":155,"geo_score":0.823,"marker":"small_red","citystatezip":"St Petersburg FL 33704","street":"1376 Snell Isle Blvd NE","id":"a6g02xjbq0tg","geo_precision":"range","location":"1376 Snell Isle Blvd NE St Petersburg FL 33704"},"type":"Feature","geometry":{"type":"Point","coordinates":[-82.609946,27.801857]}},{"properties":{"city":"Sunken Gardens","precinct":140,"geo_score":0.298,"marker":"small_red","citystatezip":"St Petersburg FL 33704","street":"1825 4 St N","id":"a6g02xuxsoos","geo_precision":"street","location":"1825 4 St N St Petersburg FL 33704"},"type":"Feature","geometry":{"type":"Point","coordinates":[-82.761534,27.996485]}},{"properties":{"city":"Sunken Gardens","precinct":160,"geo_score":0.298,"marker":"small_red","citystatezip":"St Petersburg FL 33704","street":"1825 4 St N","id":"a6g02xm4y45q","geo_precision":"street","location":"1825 4 St N St Petersburg FL 33704"},"type":"Feature","geometry":{"type":"Point","coordinates":[-82.761534,27.996485]}},{"properties":{"city":"St. Bede's Episcopal Church","precinct":143,"geo_score":0.298,"marker":"small_red","citystatezip":"St Petersburg FL 33704","street":"2500 16 St N","id":"a6g02xnvwrtr","geo_precision":"street","location":"2500 16 St N St Petersburg FL 33704"},"type":"Feature","geometry":{"type":"Point","coordinates":[-82.761534,27.996485]}},{"properties":{"city":"St. Bede's Episcopal Church","precinct":146,"geo_score":0.298,"marker":"small_red","citystatezip":"St Petersburg FL 33704","street":"2500 16 St N","id":"a6g02xwv8nv4","geo_precision":"street","location":"2500 16 St N St Petersburg FL 33704"},"type":"Feature","geometry":{"type":"Point","coordinates":[-82.761534,27.996485]}},{"properties":{"city":"Woodlawn Presbyterian Church","precinct":147,"geo_score":0.298,"marker":"small_red","citystatezip":"St Petersburg FL 33704","street":"2612 12 St N","id":"a6g02xi22uox","geo_precision":"street","location":"2612 12 St N St Petersburg FL 33704"},"type":"Feature","geometry":{"type":"Point","coordinates":[-82.761534,27.996485]}},{"properties":{"city":"American Baptist Church-Beatitudes","precinct":148,"geo_score":0.298,"marker":"small_red","citystatezip":"St Petersburg FL 33704","street":"2812 8 St N","id":"a6g02xswzspu","geo_precision":"street","location":"2812 8 St N St Petersburg FL 33704"},"type":"Feature","geometry":{"type":"Point","coordinates":[-82.761534,27.996485]}},{"properties":{"city":"Wesley United Methodist Church","precinct":162,"geo_score":0.533,"marker":"small_red","citystatezip":"St Petersburg FL 33704","street":"301 37 Ave N","id":"a6g02xnumb9e","geo_precision":"zip","location":"301 37 Ave N St Petersburg FL 33704"},"type":"Feature","geometry":{"type":"Point","coordinates":[-82.63077,27.798053]}},{"properties":{"city":"Dwight H. Jones Neighborhood Center","precinct":131,"geo_score":0.719,"marker":"small_red","citystatezip":"St Petersburg FL 33705","street":"1035 Burlington Ave N","id":"a6g02xn5b3kw","geo_precision":"range","location":"1035 Burlington Ave N St Petersburg FL 33705"},"type":"Feature","geometry":{"type":"Point","coordinates":[-82.648902,27.773912]}},{"properties":{"city":"Dwight H. Jones Neighborhood Center","precinct":136,"geo_score":0.719,"marker":"small_red","citystatezip":"St Petersburg FL 33705","street":"1035 Burlington Ave N","id":"a6g02xhvoeae","geo_precision":"range","location":"1035 Burlington Ave N St Petersburg FL 33705"},"type":"Feature","geometry":{"type":"Point","coordinates":[-82.648902,27.773912]}},{"properties":{"city":"Dwight H. Jones Neighborhood Center","precinct":149,"geo_score":0.719,"marker":"small_red","citystatezip":"St Petersburg FL 33705","street":"1035 Burlington Ave N","id":"a6g02xrbvk6x","geo_precision":"range","location":"1035 Burlington Ave N St Petersburg FL 33705"},"type":"Feature","geometry":{"type":"Point","coordinates":[-82.648902,27.773912]}},{"properties":{"city":"Mt. Zion AME Church","precinct":128,"geo_score":0.53,"marker":"small_red","citystatezip":"St Petersburg FL 33705","street":"1045 16 St S","id":"a6g02xpfhk84","geo_precision":"zip","location":"1045 16 St S St Petersburg FL 33705"},"type":"Feature","geometry":{"type":"Point","coordinates":[-82.64182,27.743555]}},{"properties":{"city":"St. Pete Religious Society/Friends","precinct":118,"geo_score":0.627,"marker":"small_red","citystatezip":"St Petersburg FL 33705","street":"130 19 Ave SE","id":"a6g02xihuw6s","geo_precision":"range","location":"130 19 Ave SE St Petersburg FL 33705"},"type":"Feature","geometry":{"type":"Point","coordinates":[-82.637779,27.734487]}},{"properties":{"city":"St. Pete Religious Society/Friends","precinct":120,"geo_score":0.627,"marker":"small_red","citystatezip":"St Petersburg FL 33705","street":"130 19 Ave SE","id":"a6g02xo5n5ix","geo_precision":"range","location":"130 19 Ave SE St Petersburg FL 33705"},"type":"Feature","geometry":{"type":"Point","coordinates":[-82.637779,27.734487]}},{"properties":{"city":"Lakeview Presbyterian Church","precinct":115,"geo_score":0.634,"marker":"small_red","citystatezip":"St Petersburg FL 33705","street":"1310 22 Ave S","id":"a6g02xv5ffsp","geo_precision":"range","location":"1310 22 Ave S St Petersburg FL 33705"},"type":"Feature","geometry":{"type":"Point","coordinates":[-82.637779,27.734487]}},{"properties":{"city":"Frank Pierce Recreation Center","precinct":116,"geo_score":0.531,"marker":"small_red","citystatezip":"St Petersburg FL 33705","street":"2000 7 St S","id":"a6g02xupl8q8","geo_precision":"zip","location":"2000 7 St S St Petersburg FL 33705"},"type":"Feature","geometry":{"type":"Point","coordinates":[-82.64182,27.743555]}},{"properties":{"city":"Coquina Key Neighborhood Assoc.","precinct":109,"geo_score":0.801,"marker":"small_red","citystatezip":"St Petersburg FL 33705","street":"3850 Pompano Dr SE","id":"a6g02xju0lod","geo_precision":"range","location":"3850 Pompano Dr SE St Petersburg FL 33705"},"type":"Feature","geometry":{"type":"Point","coordinates":[-82.636068,27.734441]}},{"properties":{"city":"Coquina Key Neighborhood Assoc.","precinct":110,"geo_score":0.801,"marker":"small_red","citystatezip":"St Petersburg FL 33705","street":"3850 Pompano Dr SE","id":"a6g02xj1i8vc","geo_precision":"range","location":"3850 Pompano Dr SE St Petersburg FL 33705"},"type":"Feature","geometry":{"type":"Point","coordinates":[-82.636068,27.734441]}},{"properties":{"city":"Coquina Key Neighborhood Assoc.","precinct":111,"geo_score":0.801,"marker":"small_red","citystatezip":"St Petersburg FL 33705","street":"3850 Pompano Dr SE","id":"a6g02xpomgii","geo_precision":"range","location":"3850 Pompano Dr SE St Petersburg FL 33705"},"type":"Feature","geometry":{"type":"Point","coordinates":[-82.636068,27.734441]}},{"properties":{"city":"Coquina Key Neighborhood Assoc.","precinct":121,"geo_score":0.801,"marker":"small_red","citystatezip":"St Petersburg FL 33705","street":"3850 Pompano Dr SE","id":"a6g02xj3kyfi","geo_precision":"range","location":"3850 Pompano Dr SE St Petersburg FL 33705"},"type":"Feature","geometry":{"type":"Point","coordinates":[-82.636068,27.734441]}},{"properties":{"city":"Lakewood United Methodist Church","precinct":103,"geo_score":0.796,"marker":"small_red","citystatezip":"St Petersburg FL 33705","street":"5995 M L King St S","id":"a6g02xulxnm2","geo_precision":"range","location":"5995 M L King St S St Petersburg FL 33705"},"type":"Feature","geometry":{"type":"Point","coordinates":[-82.646378,27.713649]}},{"properties":{"city":"Lakewood United Methodist Church","precinct":104,"geo_score":0.796,"marker":"small_red","citystatezip":"St Petersburg FL 33705","street":"5995 M L King St S","id":"a6g02xuy5t2t","geo_precision":"range","location":"5995 M L King St S St Petersburg FL 33705"},"type":"Feature","geometry":{"type":"Point","coordinates":[-82.646378,27.713649]}},{"properties":{"city":"Campbell Park Recreation Center","precinct":119,"geo_score":0.531,"marker":"small_red","citystatezip":"St Petersburg FL 33705","street":"601 14 St S","id":"a6g02xn388qj","geo_precision":"zip","location":"601 14 St S St Petersburg FL 33705"},"type":"Feature","geometry":{"type":"Point","coordinates":[-82.64182,27.743555]}},{"properties":{"city":"Campbell Park Recreation Center","precinct":127,"geo_score":0.531,"marker":"small_red","citystatezip":"St Petersburg FL 33705","street":"601 14 St S","id":"a6g02xij8ajc","geo_precision":"zip","location":"601 14 St S St Petersburg FL 33705"},"type":"Feature","geometry":{"type":"Point","coordinates":[-82.64182,27.743555]}},{"properties":{"city":"Campbell Park Recreation Center","precinct":134,"geo_score":0.531,"marker":"small_red","citystatezip":"St Petersburg FL 33705","street":"601 14 St S","id":"a6g02xsbzcen","geo_precision":"zip","location":"601 14 St S St Petersburg FL 33705"},"type":"Feature","geometry":{"type":"Point","coordinates":[-82.64182,27.743555]}},{"properties":{"city":"Westminster Suncoast","precinct":102,"geo_score":0.796,"marker":"small_red","citystatezip":"St Petersburg FL 33705","street":"6909 M L King St S","id":"a6g02xnjsz9w","geo_precision":"range","location":"6909 M L King St S St Petersburg FL 33705"},"type":"Feature","geometry":{"type":"Point","coordinates":[-82.646345,27.706615]}},{"properties":{"city":"Bay Vista Center","precinct":117,"geo_score":0.531,"marker":"small_red","citystatezip":"St Petersburg FL 33705","street":"7000 4 St S","id":"a6g02xiw5zni","geo_precision":"zip","location":"7000 4 St S St Petersburg FL 33705"},"type":"Feature","geometry":{"type":"Point","coordinates":[-82.64182,27.743555]}},{"properties":{"city":"Pasadena Community Church","precinct":215,"geo_score":0.495,"marker":"small_red","citystatezip":"St Petersburg FL 33707","street":"227 70 St S","id":"a6g02xibcoxp","geo_precision":"zip","location":"227 70 St S St Petersburg FL 33707"},"type":"Feature","geometry":{"type":"Point","coordinates":[-82.732601,27.770583]}},{"properties":{"city":"Pasadena Community Church","precinct":220,"geo_score":0.495,"marker":"small_red","citystatezip":"St Petersburg FL 33707","street":"227 70 St S","id":"a6g02xpa6s5a","geo_precision":"zip","location":"227 70 St S St Petersburg FL 33707"},"type":"Feature","geometry":{"type":"Point","coordinates":[-82.732601,27.770583]}},{"properties":{"city":"Pasadena Community Church","precinct":221,"geo_score":0.495,"marker":"small_red","citystatezip":"St Petersburg FL 33707","street":"227 70 St S","id":"a6g02xovuno0","geo_precision":"zip","location":"227 70 St S St Petersburg FL 33707"},"type":"Feature","geometry":{"type":"Point","coordinates":[-82.732601,27.770583]}},{"properties":{"city":"Pasadena Community Church","precinct":232,"geo_score":0.495,"marker":"small_red","citystatezip":"St Petersburg FL 33707","street":"227 70 St S","id":"a6g02xre0eey","geo_precision":"zip","location":"227 70 St S St Petersburg FL 33707"},"type":"Feature","geometry":{"type":"Point","coordinates":[-82.732601,27.770583]}},{"properties":{"city":"Terrace Park of Five Towns","precinct":265,"geo_score":0.495,"marker":"small_red","citystatezip":"St Petersburg FL 33709","street":"6022 80 St","id":"a6g02xigs0gd","geo_precision":"zip","location":"6022 80 St St Petersburg FL 33709"},"type":"Feature","geometry":{"type":"Point","coordinates":[-82.7201,27.815581]}},{"properties":{"city":"Terrace Park of Five Towns","precinct":267,"geo_score":0.501,"marker":"small_red","citystatezip":"St Petersburg FL 33709","street":"7950 58 Ave N","id":"a6g02xuueydg","geo_precision":"zip","location":"7950 58 Ave N St Petersburg FL 33709"},"type":"Feature","geometry":{"type":"Point","coordinates":[-82.7201,27.815581]}},{"properties":{"city":"Trinity United Church of Christ","precinct":238,"geo_score":0.298,"marker":"small_red","citystatezip":"St Petersburg FL 33710","street":"1150 49 St N","id":"a6g02xvebsbz","geo_precision":"street","location":"1150 49 St N St Petersburg FL 33710"},"type":"Feature","geometry":{"type":"Point","coordinates":[-82.761534,27.996485]}},{"properties":{"city":"St. Stefanos Greek Orthodox Church","precinct":243,"geo_score":0.298,"marker":"small_red","citystatezip":"St Petersburg FL 33710","street":"3600 76 St N","id":"a6g02xowvlca","geo_precision":"street","location":"3600 76 St N St Petersburg FL 33710"},"type":"Feature","geometry":{"type":"Point","coordinates":[-82.761534,27.996485]}},{"properties":{"city":"St. Stefanos Greek Orthodox Church","precinct":251,"geo_score":0.298,"marker":"small_red","citystatezip":"St Petersburg FL 33710","street":"3600 76 St N","id":"a6g02xunf3c1","geo_precision":"street","location":"3600 76 St N St Petersburg FL 33710"},"type":"Feature","geometry":{"type":"Point","coordinates":[-82.761534,27.996485]}},{"properties":{"city":"Fifth Avenue Baptist Church","precinct":228,"geo_score":0.533,"marker":"small_red","citystatezip":"St Petersburg FL 33710","street":"4901 5 Ave N","id":"a6g02xjkvs5b","geo_precision":"zip","location":"4901 5 Ave N St Petersburg FL 33710"},"type":"Feature","geometry":{"type":"Point","coordinates":[-82.699621,27.788853]}},{"properties":{"city":"Palm Lake Christian Church","precinct":236,"geo_score":0.532,"marker":"small_red","citystatezip":"St Petersburg FL 33710","street":"5401 22 Ave N","id":"a6g02xvdggdr","geo_precision":"zip","location":"5401 22 Ave N St Petersburg FL 33710"},"type":"Feature","geometry":{"type":"Point","coordinates":[-82.699621,27.788853]}},{"properties":{"city":"Palm Lake Christian Church","precinct":244,"geo_score":0.532,"marker":"small_red","citystatezip":"St Petersburg FL 33710","street":"5401 22 Ave N","id":"a6g02xmyuroz","geo_precision":"zip","location":"5401 22 Ave N St Petersburg FL 33710"},"type":"Feature","geometry":{"type":"Point","coordinates":[-82.699621,27.788853]}},{"properties":{"city":"Palm Lake Christian Church","precinct":249,"geo_score":0.532,"marker":"small_red","citystatezip":"St Petersburg FL 33710","street":"5401 22 Ave N","id":"a6g02xwklxio","geo_precision":"zip","location":"5401 22 Ave N St Petersburg FL 33710"},"type":"Feature","geometry":{"type":"Point","coordinates":[-82.699621,27.788853]}},{"properties":{"city":"St. Vincent's Episcopal Church","precinct":242,"geo_score":0.533,"marker":"small_red","citystatezip":"St Petersburg FL 33710","street":"5441 9 Ave N","id":"a6g02xq6t4p2","geo_precision":"zip","location":"5441 9 Ave N St Petersburg FL 33710"},"type":"Feature","geometry":{"type":"Point","coordinates":[-82.699621,27.788853]}},{"properties":{"city":"Unity of St. Petersburg","precinct":222,"geo_score":0.533,"marker":"small_red","citystatezip":"St Petersburg FL 33710","street":"6168 1 Ave N","id":"a6g02xkwicj5","geo_precision":"zip","location":"6168 1 Ave N St Petersburg FL 33710"},"type":"Feature","geometry":{"type":"Point","coordinates":[-82.699621,27.788853]}},{"properties":{"city":"Unity of St. Petersburg","precinct":223,"geo_score":0.533,"marker":"small_red","citystatezip":"St Petersburg FL 33710","street":"6168 1 Ave N","id":"a6g02xy1kpwk","geo_precision":"zip","location":"6168 1 Ave N St Petersburg FL 33710"},"type":"Feature","geometry":{"type":"Point","coordinates":[-82.699621,27.788853]}},{"properties":{"city":"Pilgrim Congregational Church","precinct":231,"geo_score":0.796,"marker":"small_red","citystatezip":"St Petersburg FL 33710","street":"6315 Central Ave","id":"a6g02xv9e4ky","geo_precision":"range","location":"6315 Central Ave St Petersburg FL 33710"},"type":"Feature","geometry":{"type":"Point","coordinates":[-82.722601,27.77086]}},{"properties":{"city":"Pilgrim Congregational Church","precinct":234,"geo_score":0.796,"marker":"small_red","citystatezip":"St Petersburg FL 33710","street":"6315 Central Ave","id":"a6g02xxrq959","geo_precision":"range","location":"6315 Central Ave St Petersburg FL 33710"},"type":"Feature","geometry":{"type":"Point","coordinates":[-82.722601,27.77086]}},{"properties":{"city":"Walter P. Fuller Recreation Center","precinct":252,"geo_score":0.532,"marker":"small_red","citystatezip":"St Petersburg FL 33710","street":"7891 26 Ave N","id":"a6g02xl3tofk","geo_precision":"zip","location":"7891 26 Ave N St Petersburg FL 33710"},"type":"Feature","geometry":{"type":"Point","coordinates":[-82.699621,27.788853]}},{"properties":{"city":"Azalea Baptist Church","precinct":233,"geo_score":0.532,"marker":"small_red","citystatezip":"St Petersburg FL 33710","street":"7900 22 Ave N","id":"a6g02xlycrvt","geo_precision":"zip","location":"7900 22 Ave N St Petersburg FL 33710"},"type":"Feature","geometry":{"type":"Point","coordinates":[-82.699621,27.788853]}},{"properties":{"city":"Prayer Tower Church of God","precinct":205,"geo_score":0.53,"marker":"small_red","citystatezip":"St Petersburg FL 33711","street":"1137 37 St S","id":"a6g02xt0iphz","geo_precision":"zip","location":"1137 37 St S St Petersburg FL 33711"},"type":"Feature","geometry":{"type":"Point","coordinates":[-82.690035,27.733448]}},{"properties":{"city":"Bethel Metropolitan Baptist Church","precinct":203,"geo_score":0.47,"marker":"small_red","citystatezip":"St Petersburg FL 33711","street":"3455 26 Ave S","id":"a6g02xk1y09u","geo_precision":"range","location":"3455 26 Ave S St Petersburg FL 33711"},"type":"Feature","geometry":{"type":"Point","coordinates":[-82.637779,27.734486]}},{"properties":{"city":"Bethel Metropolitan Baptist Church","precinct":204,"geo_score":0.47,"marker":"small_red","citystatezip":"St Petersburg FL 33711","street":"3455 26 Ave S","id":"a6g02xwji4x2","geo_precision":"range","location":"3455 26 Ave S St Petersburg FL 33711"},"type":"Feature","geometry":{"type":"Point","coordinates":[-82.637779,27.734486]}},{"properties":{"city":"Florida National Guard Armory","precinct":202,"geo_score":0.47,"marker":"small_red","citystatezip":"St Petersburg FL 33711","street":"3601 38 Ave S","id":"a6g02xv1bqc9","geo_precision":"range","location":"3601 38 Ave S St Petersburg FL 33711"},"type":"Feature","geometry":{"type":"Point","coordinates":[-82.637779,27.734485]}},{"properties":{"city":"Florida National Guard Armory","precinct":230,"geo_score":0.47,"marker":"small_red","citystatezip":"St Petersburg FL 33711","street":"3601 38 Ave S","id":"a6g02xv5r5u7","geo_precision":"range","location":"3601 38 Ave S St Petersburg FL 33711"},"type":"Feature","geometry":{"type":"Point","coordinates":[-82.637779,27.734485]}},{"properties":{"city":"St. Bartholomew's Episcopal Church","precinct":123,"geo_score":0.53,"marker":"small_red","citystatezip":"St Petersburg FL 33711","street":"3747 34 St S","id":"a6g02xkqdq26","geo_precision":"zip","location":"3747 34 St S St Petersburg FL 33711"},"type":"Feature","geometry":{"type":"Point","coordinates":[-82.690035,27.733448]}},{"properties":{"city":"St. Bartholomew's Episcopal Church","precinct":235,"geo_score":0.53,"marker":"small_red","citystatezip":"St Petersburg FL 33711","street":"3747 34 St S","id":"a6g02xnq3njd","geo_precision":"zip","location":"3747 34 St S St Petersburg FL 33711"},"type":"Feature","geometry":{"type":"Point","coordinates":[-82.690035,27.733448]}},{"properties":{"city":"Fifth Avenue Church of Christ","precinct":227,"geo_score":0.47,"marker":"small_red","citystatezip":"St Petersburg FL 33711","street":"4200 5 Ave S","id":"a6g02xlo7hls","geo_precision":"range","location":"4200 5 Ave S St Petersburg FL 33711"},"type":"Feature","geometry":{"type":"Point","coordinates":[-82.637779,27.734489]}},{"properties":{"city":"Fifth Avenue Church of Christ","precinct":253,"geo_score":0.47,"marker":"small_red","citystatezip":"St Petersburg FL 33711","street":"4200 5 Ave S","id":"a6g02xq7axer","geo_precision":"range","location":"4200 5 Ave S St Petersburg FL 33711"},"type":"Feature","geometry":{"type":"Point","coordinates":[-82.637779,27.734489]}},{"properties":{"city":"Childs Park Recreation Center","precinct":224,"geo_score":0.47,"marker":"small_red","citystatezip":"St Petersburg FL 33711","street":"4301 13 Ave S","id":"a6g02xvtnnk0","geo_precision":"range","location":"4301 13 Ave S St Petersburg FL 33711"},"type":"Feature","geometry":{"type":"Point","coordinates":[-82.637779,27.734488]}},{"properties":{"city":"The Allegro at College Harbor","precinct":201,"geo_score":0.47,"marker":"small_red","citystatezip":"St Petersburg FL 33711","street":"4600 54 Ave S","id":"a6g02xsfu84c","geo_precision":"range","location":"4600 54 Ave S St Petersburg FL 33711"},"type":"Feature","geometry":{"type":"Point","coordinates":[-82.637779,27.734483]}},{"properties":{"city":"Galilee Missionary Baptist Church","precinct":226,"geo_score":0.531,"marker":"small_red","citystatezip":"St Petersburg FL 33711","street":"505 35 St S","id":"a6g02xmft6z5","geo_precision":"zip","location":"505 35 St S St Petersburg FL 33711"},"type":"Feature","geometry":{"type":"Point","coordinates":[-82.690035,27.733448]}},{"properties":{"city":"Wildwood Recreation Center","precinct":129,"geo_score":0.53,"marker":"small_red","citystatezip":"St Petersburg FL 33712","street":"1000 28 St S","id":"a6g02xpc156u","geo_precision":"zip","location":"1000 28 St S St Petersburg FL 33712"},"type":"Feature","geometry":{"type":"Point","coordinates":[-82.672426,27.735925]}},{"properties":{"city":"Wildwood Recreation Center","precinct":130,"geo_score":0.53,"marker":"small_red","citystatezip":"St Petersburg FL 33712","street":"1000 28 St S","id":"a6g02xjmtzz5","geo_precision":"zip","location":"1000 28 St S St Petersburg FL 33712"},"type":"Feature","geometry":{"type":"Point","coordinates":[-82.672426,27.735925]}},{"properties":{"city":"Blessed Trinity Catholic Church","precinct":105,"geo_score":0.47,"marker":"small_red","citystatezip":"St Petersburg FL 33712","street":"1600 54 Ave S","id":"a6g02xisksze","geo_precision":"range","location":"1600 54 Ave S St Petersburg FL 33712"},"type":"Feature","geometry":{"type":"Point","coordinates":[-82.637779,27.734483]}},{"properties":{"city":"Blessed Trinity Catholic Church","precinct":108,"geo_score":0.47,"marker":"small_red","citystatezip":"St Petersburg FL 33712","street":"1600 54 Ave S","id":"a6g02xu6umjy","geo_precision":"range","location":"1600 54 Ave S St Petersburg FL 33712"},"type":"Feature","geometry":{"type":"Point","coordinates":[-82.637779,27.734483]}},{"properties":{"city":"New Hope Baptist Church","precinct":114,"geo_score":0.53,"marker":"small_red","citystatezip":"St Petersburg FL 33712","street":"2120 19 St S","id":"a6g02xulgxfs","geo_precision":"zip","location":"2120 19 St S St Petersburg FL 33712"},"type":"Feature","geometry":{"type":"Point","coordinates":[-82.672426,27.735925]}},{"properties":{"city":"Christ Gospel Church","precinct":113,"geo_score":0.47,"marker":"small_red","citystatezip":"St Petersburg FL 33712","street":"2512 22 Ave S","id":"a6g02xw7866t","geo_precision":"range","location":"2512 22 Ave S St Petersburg FL 33712"},"type":"Feature","geometry":{"type":"Point","coordinates":[-82.637779,27.734487]}},{"properties":{"city":"St. Petersburg City Theatre","precinct":112,"geo_score":0.53,"marker":"small_red","citystatezip":"St Petersburg FL 33712","street":"4025 31 St S","id":"a6g02xm596ra","geo_precision":"zip","location":"4025 31 St S St Petersburg FL 33712"},"type":"Feature","geometry":{"type":"Point","coordinates":[-82.672426,27.735925]}},{"properties":{"city":"Pinellas Community Church","precinct":101,"geo_score":0.53,"marker":"small_red","citystatezip":"St Petersburg FL 33712","street":"5501 31 St S","id":"a6g02xtnwiai","geo_precision":"zip","location":"5501 31 St S St Petersburg FL 33712"},"type":"Feature","geometry":{"type":"Point","coordinates":[-82.672426,27.735925]}},{"properties":{"city":"Pinellas Community Church","precinct":106,"geo_score":0.53,"marker":"small_red","citystatezip":"St Petersburg FL 33712","street":"5501 31 St S","id":"a6g02xqluif4","geo_precision":"zip","location":"5501 31 St S St Petersburg FL 33712"},"type":"Feature","geometry":{"type":"Point","coordinates":[-82.672426,27.735925]}},{"properties":{"city":"Pinellas Community Church","precinct":107,"geo_score":0.53,"marker":"small_red","citystatezip":"St Petersburg FL 33712","street":"5501 31 St S","id":"a6g02xl8dun7","geo_precision":"zip","location":"5501 31 St S St Petersburg FL 33712"},"type":"Feature","geometry":{"type":"Point","coordinates":[-82.672426,27.735925]}},{"properties":{"city":"Serenity United Methodist Church","precinct":137,"geo_score":0.533,"marker":"small_red","citystatezip":"St Petersburg FL 33713","street":"2750 5 Ave N","id":"a6g02xpetphh","geo_precision":"zip","location":"2750 5 Ave N St Petersburg FL 33713"},"type":"Feature","geometry":{"type":"Point","coordinates":[-82.677321,27.789403]}},{"properties":{"city":"King of Peace Met. Community Church","precinct":138,"geo_score":0.533,"marker":"small_red","citystatezip":"St Petersburg FL 33713","street":"3150 5 Ave N","id":"a6g02xs0ukiv","geo_precision":"zip","location":"3150 5 Ave N St Petersburg FL 33713"},"type":"Feature","geometry":{"type":"Point","coordinates":[-82.677321,27.789403]}},{"properties":{"city":"King of Peace Met. Community Church","precinct":139,"geo_score":0.533,"marker":"small_red","citystatezip":"St Petersburg FL 33713","street":"3150 5 Ave N","id":"a6g02xnjnpfo","geo_precision":"zip","location":"3150 5 Ave N St Petersburg FL 33713"},"type":"Feature","geometry":{"type":"Point","coordinates":[-82.677321,27.789403]}},{"properties":{"city":"30th Avenue Baptist Church","precinct":144,"geo_score":0.532,"marker":"small_red","citystatezip":"St Petersburg FL 33713","street":"3241 30 Ave N","id":"a6g02xu1pyvt","geo_precision":"zip","location":"3241 30 Ave N St Petersburg FL 33713"},"type":"Feature","geometry":{"type":"Point","coordinates":[-82.677321,27.789403]}},{"properties":{"city":"30th Avenue Baptist Church","precinct":145,"geo_score":0.532,"marker":"small_red","citystatezip":"St Petersburg FL 33713","street":"3241 30 Ave N","id":"a6g02xrud1k6","geo_precision":"zip","location":"3241 30 Ave N St Petersburg FL 33713"},"type":"Feature","geometry":{"type":"Point","coordinates":[-82.677321,27.789403]}},{"properties":{"city":"Community Bible Baptist Church","precinct":239,"geo_score":0.532,"marker":"small_red","citystatezip":"St Petersburg FL 33713","street":"3800 17 Ave N","id":"a6g02xx205su","geo_precision":"zip","location":"3800 17 Ave N St Petersburg FL 33713"},"type":"Feature","geometry":{"type":"Point","coordinates":[-82.677321,27.789403]}},{"properties":{"city":"St. Luke's United Methodist Church","precinct":216,"geo_score":0.533,"marker":"small_red","citystatezip":"St Petersburg FL 33713","street":"4444 5 Ave N","id":"a6g02xugl21g","geo_precision":"zip","location":"4444 5 Ave N St Petersburg FL 33713"},"type":"Feature","geometry":{"type":"Point","coordinates":[-82.677321,27.789403]}},{"properties":{"city":"St. Luke's United Methodist Church","precinct":229,"geo_score":0.533,"marker":"small_red","citystatezip":"St Petersburg FL 33713","street":"4444 5 Ave N","id":"a6g02xlgnwhf","geo_precision":"zip","location":"4444 5 Ave N St Petersburg FL 33713"},"type":"Feature","geometry":{"type":"Point","coordinates":[-82.677321,27.789403]}},{"properties":{"city":"St. Petersburg Community Church","precinct":245,"geo_score":0.532,"marker":"small_red","citystatezip":"St Petersburg FL 33713","street":"4501 30 Ave N","id":"a6g02xvhc0bg","geo_precision":"zip","location":"4501 30 Ave N St Petersburg FL 33713"},"type":"Feature","geometry":{"type":"Point","coordinates":[-82.677321,27.789403]}},{"properties":{"city":"St. Petersburg Community Church","precinct":247,"geo_score":0.532,"marker":"small_red","citystatezip":"St Petersburg FL 33713","street":"4501 30 Ave N","id":"a6g02xuy3332","geo_precision":"zip","location":"4501 30 Ave N St Petersburg FL 33713"},"type":"Feature","geometry":{"type":"Point","coordinates":[-82.677321,27.789403]}},{"properties":{"city":"Clearview United Methodist Church","precinct":248,"geo_score":0.532,"marker":"small_red","citystatezip":"St Petersburg FL 33713","street":"4515 38 Ave N","id":"a6g02xpv3pbt","geo_precision":"zip","location":"4515 38 Ave N St Petersburg FL 33713"},"type":"Feature","geometry":{"type":"Point","coordinates":[-82.677321,27.789403]}},{"properties":{"city":"Clearview United Methodist Church","precinct":263,"geo_score":0.532,"marker":"small_red","citystatezip":"St Petersburg FL 33713","street":"4515 38 Ave N","id":"a6g02xi4xz05","geo_precision":"zip","location":"4515 38 Ave N St Petersburg FL 33713"},"type":"Feature","geometry":{"type":"Point","coordinates":[-82.677321,27.789403]}},{"properties":{"city":"Town Apartments North","precinct":171,"geo_score":0.532,"marker":"small_red","citystatezip":"St Petersburg FL 33714","street":"1900 61 Ave N","id":"a6g02xssqepb","geo_precision":"zip","location":"1900 61 Ave N St Petersburg FL 33714"},"type":"Feature","geometry":{"type":"Point","coordinates":[-82.68324,27.817335]}},{"properties":{"city":"Town Apartments North","precinct":172,"geo_score":0.532,"marker":"small_red","citystatezip":"St Petersburg FL 33714","street":"1900 61 Ave N","id":"a6g02xmmfvoz","geo_precision":"zip","location":"1900 61 Ave N St Petersburg FL 33714"},"type":"Feature","geometry":{"type":"Point","coordinates":[-82.68324,27.817335]}},{"properties":{"city":"Town Apartments North","precinct":173,"geo_score":0.532,"marker":"small_red","citystatezip":"St Petersburg FL 33714","street":"1900 61 Ave N","id":"a6g02xwg4dck","geo_precision":"zip","location":"1900 61 Ave N St Petersburg FL 33714"},"type":"Feature","geometry":{"type":"Point","coordinates":[-82.68324,27.817335]}},{"properties":{"city":"Town Apartments North","precinct":175,"geo_score":0.532,"marker":"small_red","citystatezip":"St Petersburg FL 33714","street":"1900 61 Ave N","id":"a6g02xi5nzc0","geo_precision":"zip","location":"1900 61 Ave N St Petersburg FL 33714"},"type":"Feature","geometry":{"type":"Point","coordinates":[-82.68324,27.817335]}},{"properties":{"city":"Town Apartments North","precinct":180,"geo_score":0.532,"marker":"small_red","citystatezip":"St Petersburg FL 33714","street":"1900 61 Ave N","id":"a6g02xo7x703","geo_precision":"zip","location":"1900 61 Ave N St Petersburg FL 33714"},"type":"Feature","geometry":{"type":"Point","coordinates":[-82.68324,27.817335]}},{"properties":{"city":"Faith Assembly","precinct":163,"geo_score":0.298,"marker":"small_red","citystatezip":"St Petersburg FL 33714","street":"3900 28 St N","id":"a6g02xqj5xac","geo_precision":"street","location":"3900 28 St N St Petersburg FL 33714"},"type":"Feature","geometry":{"type":"Point","coordinates":[-82.761534,27.996485]}},{"properties":{"city":"Lealman Family Center","precinct":288,"geo_score":0.532,"marker":"small_red","citystatezip":"St Petersburg FL 33714","street":"4255 56 Ave N","id":"a6g02xog48ux","geo_precision":"zip","location":"4255 56 Ave N St Petersburg FL 33714"},"type":"Feature","geometry":{"type":"Point","coordinates":[-82.68324,27.817335]}},{"properties":{"city":"Vietnamese Evangelical Church","precinct":165,"geo_score":0.298,"marker":"small_red","citystatezip":"St Petersburg FL 33714","street":"4344 21 St N","id":"a6g02xxm0tz1","geo_precision":"street","location":"4344 21 St N St Petersburg FL 33714"},"type":"Feature","geometry":{"type":"Point","coordinates":[-82.761534,27.996485]}},{"properties":{"city":"Warren Webster Community Center","precinct":402,"geo_score":0.801,"marker":null,"citystatezip":"St. Pete Beach FL 33706","street":"1500 Pass-A-Grille Way","id":"a6g02xsfypfo","geo_precision":"range","location":"1500 Pass-A-Grille Way St. Pete Beach FL 33706"},"type":"Feature","geometry":{"type":"Point","coordinates":[-82.735993,27.692748]}},{"properties":{"city":"St. Pete Beach Municipal Building","precinct":404,"geo_score":0.783,"marker":null,"citystatezip":"St. Pete Beach FL 33706","street":"7701 Boca Ciega Dr","id":"a6g02xkw4inb","geo_precision":"range","location":"7701 Boca Ciega Dr St. Pete Beach FL 33706"},"type":"Feature","geometry":{"type":"Point","coordinates":[-82.750002,27.744906]}},{"properties":{"city":"St. Pete Beach Municipal Building","precinct":405,"geo_score":0.783,"marker":null,"citystatezip":"St. Pete Beach FL 33706","street":"7701 Boca Ciega Dr","id":"a6g02xjmzttk","geo_precision":"range","location":"7701 Boca Ciega Dr St. Pete Beach FL 33706"},"type":"Feature","geometry":{"type":"Point","coordinates":[-82.750002,27.744906]}},{"properties":{"city":"Faith Covenant Church","precinct":161,"geo_score":0.532,"marker":"small_red","citystatezip":"St. Petersburg FL 33702","street":"150 62 Ave NE","id":"a6g02xpvr1bv","geo_precision":"zip","location":"150 62 Ave NE St. Petersburg FL 33702"},"type":"Feature","geometry":{"type":"Point","coordinates":[-82.631509,27.863201]}},{"properties":{"city":"Pasadena Baptist Church","precinct":212,"geo_score":0.495,"marker":"small_red","citystatezip":"St. Petersburg FL 33707","street":"635 64 St S","id":"a6g02xxrqwfd","geo_precision":"zip","location":"635 64 St S St. Petersburg FL 33707"},"type":"Feature","geometry":{"type":"Point","coordinates":[-82.732601,27.770583]}},{"properties":{"city":"Bay Pines Condo - Recreation Center","precinct":303,"geo_score":0.772,"marker":"small_red","citystatezip":"St. Petersburg FL 33708","street":"9801 Bay Pines Blvd","id":"a6g02xkylvsq","geo_precision":"range","location":"9801 Bay Pines Blvd St. Petersburg FL 33708"},"type":"Feature","geometry":{"type":"Point","coordinates":[-82.773341,27.813924]}},{"properties":{"city":"Clearview Oaks","precinct":261,"geo_score":0.501,"marker":"small_red","citystatezip":"St. Petersburg FL 33709","street":"5700 40 Ave N","id":"a6g02xkig3lo","geo_precision":"zip","location":"5700 40 Ave N St. Petersburg FL 33709"},"type":"Feature","geometry":{"type":"Point","coordinates":[-82.7201,27.815581]}},{"properties":{"city":"South Cross Bayou/Water Reclamation","precinct":268,"geo_score":0.501,"marker":"small_red","citystatezip":"St. Petersburg FL 33709","street":"7401 54 Ave N","id":"a6g02xt2728d","geo_precision":"zip","location":"7401 54 Ave N St. Petersburg FL 33709"},"type":"Feature","geometry":{"type":"Point","coordinates":[-82.7201,27.815581]}},{"properties":{"city":"Portuguese American Suncoast Assoc.","precinct":256,"geo_score":0.501,"marker":"small_red","citystatezip":"St. Petersburg FL 33709","street":"7808 46 Ave N","id":"a6g02xngwf1v","geo_precision":"zip","location":"7808 46 Ave N St. Petersburg FL 33709"},"type":"Feature","geometry":{"type":"Point","coordinates":[-82.7201,27.815581]}},{"properties":{"city":"Portuguese American Suncoast Assoc.","precinct":257,"geo_score":0.501,"marker":"small_red","citystatezip":"St. Petersburg FL 33709","street":"7808 46 Ave N","id":"a6g02xtu27k8","geo_precision":"zip","location":"7808 46 Ave N St. Petersburg FL 33709"},"type":"Feature","geometry":{"type":"Point","coordinates":[-82.7201,27.815581]}},{"properties":{"city":"Portuguese American Suncoast Assoc.","precinct":260,"geo_score":0.501,"marker":"small_red","citystatezip":"St. Petersburg FL 33709","street":"7808 46 Ave N","id":"a6g02xxnu6c5","geo_precision":"zip","location":"7808 46 Ave N St. Petersburg FL 33709"},"type":"Feature","geometry":{"type":"Point","coordinates":[-82.7201,27.815581]}},{"properties":{"city":"Cornerstone Community Church","precinct":250,"geo_score":0.532,"marker":"small_red","citystatezip":"St. Petersburg FL 33710","street":"6745 38 Ave N","id":"a6g02xutxnc1","geo_precision":"zip","location":"6745 38 Ave N St. Petersburg FL 33710"},"type":"Feature","geometry":{"type":"Point","coordinates":[-82.699621,27.788853]}},{"properties":{"city":"Life Path Christian Center","precinct":648,"geo_score":0.919,"marker":null,"citystatezip":"Tarpon Springs FL 34688","street":"1190 East Lake Rd S","id":"a6g02xx77y0i","geo_precision":"range","location":"1190 East Lake Rd S Tarpon Springs FL 34688"},"type":"Feature","geometry":{"type":"Point","coordinates":[-82.698029,28.165692]}},{"properties":{"city":"Life Path Christian Center","precinct":649,"geo_score":0.919,"marker":null,"citystatezip":"Tarpon Springs FL 34688","street":"1190 East Lake Rd S","id":"a6g02xs2g4kt","geo_precision":"range","location":"1190 East Lake Rd S Tarpon Springs FL 34688"},"type":"Feature","geometry":{"type":"Point","coordinates":[-82.698029,28.165692]}},{"properties":{"city":"Lakeview Community Church","precinct":640,"geo_score":0.858,"marker":null,"citystatezip":"Tarpon Springs FL 34688","street":"475 East Lake Rd N","id":"a6g02xjwztq0","geo_precision":"range","location":"475 East Lake Rd N Tarpon Springs FL 34688"},"type":"Feature","geometry":{"type":"Point","coordinates":[-82.696022,28.154513]}},{"properties":{"city":"Lakeview Community Church","precinct":711,"geo_score":0.858,"marker":null,"citystatezip":"Tarpon Springs FL 34688","street":"475 East Lake Rd N","id":"a6g02xx7rlg7","geo_precision":"range","location":"475 East Lake Rd N Tarpon Springs FL 34688"},"type":"Feature","geometry":{"type":"Point","coordinates":[-82.696022,28.154513]}},{"properties":{"city":"Tarpon Springs Heritage Museum","precinct":706,"geo_score":0.96,"marker":null,"citystatezip":"Tarpon Springs FL 34689","street":"100 Beekman Ln","id":"a6g02xpj2h6i","geo_precision":"range","location":"100 Beekman Ln Tarpon Springs FL 34689"},"type":"Feature","geometry":{"type":"Point","coordinates":[-82.76031,28.14631]}},{"properties":{"city":"First Baptist Church","precinct":705,"geo_score":0.969,"marker":null,"citystatezip":"Tarpon Springs FL 34689","street":"1021 Gulf Rd","id":"a6g02xqwtano","geo_precision":"range","location":"1021 Gulf Rd Tarpon Springs FL 34689"},"type":"Feature","geometry":{"type":"Point","coordinates":[-82.772291,28.144924]}},{"properties":{"city":"St. Nicholas Cathedral","precinct":704,"geo_score":0.953,"marker":null,"citystatezip":"Tarpon Springs FL 34689","street":"36 N Pinellas Ave","id":"a6g02xwsnbmb","geo_precision":"range","location":"36 N Pinellas Ave Tarpon Springs FL 34689"},"type":"Feature","geometry":{"type":"Point","coordinates":[-82.756639,28.146581]}},{"properties":{"city":"Quality Inn &amp; Suites","precinct":619,"geo_score":0.993,"marker":null,"citystatezip":"Tarpon Springs FL 34689","street":"38724 US Hwy 19 N","id":"a6g02xpt8n7r","geo_precision":"range","location":"38724 US Hwy 19 N Tarpon Springs FL 34689"},"type":"Feature","geometry":{"type":"Point","coordinates":[-82.740214,28.138308]}},{"properties":{"city":"Tarpon Springs Community Center","precinct":703,"geo_score":0.764,"marker":null,"citystatezip":"Tarpon Springs FL 34689","street":"400 S Walton Ave","id":"a6g02xvb5dru","geo_precision":"street","location":"400 S Walton Ave Tarpon Springs FL 34689"},"type":"Feature","geometry":{"type":"Point","coordinates":[-82.746358,28.144962]}},{"properties":{"city":"Tarpon Springs Community Center","precinct":710,"geo_score":0.764,"marker":null,"citystatezip":"Tarpon Springs FL 34689","street":"400 S Walton Ave","id":"a6g02xtuob9i","geo_precision":"street","location":"400 S Walton Ave Tarpon Springs FL 34689"},"type":"Feature","geometry":{"type":"Point","coordinates":[-82.746358,28.144962]}},{"properties":{"city":"Church on the Bayou, Presbyterian","precinct":701,"geo_score":0.831,"marker":null,"citystatezip":"Tarpon Springs FL 34689","street":"409 Whitcomb Blvd","id":"a6g02xnsn9cm","geo_precision":"range","location":"409 Whitcomb Blvd Tarpon Springs FL 34689"},"type":"Feature","geometry":{"type":"Point","coordinates":[-82.766004,28.140247]}},{"properties":{"city":"Church on the Bayou, Presbyterian","precinct":707,"geo_score":0.831,"marker":null,"citystatezip":"Tarpon Springs FL 34689","street":"409 Whitcomb Blvd","id":"a6g02xuh5uts","geo_precision":"range","location":"409 Whitcomb Blvd Tarpon Springs FL 34689"},"type":"Feature","geometry":{"type":"Point","coordinates":[-82.766004,28.140247]}},{"properties":{"city":"Tarpon Springs Manor Apartments","precinct":702,"geo_score":0.966,"marker":null,"citystatezip":"Tarpon Springs FL 34689","street":"61000 Polly Dr","id":"a6g02xnxa2zk","geo_precision":"range","location":"61000 Polly Dr Tarpon Springs FL 34689"},"type":"Feature","geometry":{"type":"Point","coordinates":[-82.743692,28.139991]}},{"properties":{"city":"St. Timothy Lutheran Church","precinct":712,"geo_score":0.958,"marker":null,"citystatezip":"Tarpon Springs FL 34689","street":"812 E Tarpon Ave","id":"a6g02xuezpj3","geo_precision":"range","location":"812 E Tarpon Ave Tarpon Springs FL 34689"},"type":"Feature","geometry":{"type":"Point","coordinates":[-82.744149,28.146237]}},{"properties":{"city":"St. Timothy Lutheran Church","precinct":713,"geo_score":0.958,"marker":null,"citystatezip":"Tarpon Springs FL 34689","street":"812 E Tarpon Ave","id":"a6g02xxz99no","geo_precision":"range","location":"812 E Tarpon Ave Tarpon Springs FL 34689"},"type":"Feature","geometry":{"type":"Point","coordinates":[-82.744149,28.146237]}},{"properties":{"city":"Island Chapel","precinct":401,"geo_score":0.944,"marker":null,"citystatezip":"Tierra Verde FL 33715","street":"1271 Pinellas Bayway S","id":"a6g02xkckdls","geo_precision":"range","location":"1271 Pinellas Bayway S Tierra Verde FL 33715"},"type":"Feature","geometry":{"type":"Point","coordinates":[-82.725792,27.675654]}},{"properties":{"city":"Treasure Island Community Center","precinct":406,"geo_score":0.78,"marker":null,"citystatezip":"Treasure Island FL 33706","street":"1 Park Pl","id":"a6g02xx46br6","geo_precision":"range","location":"1 Park Pl Treasure Island FL 33706"},"type":"Feature","geometry":{"type":"Point","coordinates":[-82.762672,27.770598]}},{"properties":{"city":"Treasure Island Community Center","precinct":407,"geo_score":0.78,"marker":null,"citystatezip":"Treasure Island FL 33706","street":"1 Park Pl","id":"a6g02xwtlqbw","geo_precision":"range","location":"1 Park Pl Treasure Island FL 33706"},"type":"Feature","geometry":{"type":"Point","coordinates":[-82.762672,27.770598]}},{"properties":{"city":"Treasure Island Community Center","precinct":408,"geo_score":0.78,"marker":null,"citystatezip":"Treasure Island FL 33706","street":"1 Park Pl","id":"a6g02xw5x2rv","geo_precision":"range","location":"1 Park Pl Treasure Island FL 33706"},"type":"Feature","geometry":{"type":"Point","coordinates":[-82.762672,27.770598]}},{"properties":{"city":"Treasure Island Community Center","precinct":409,"geo_score":0.78,"marker":null,"citystatezip":"Treasure Island FL 33706","street":"1 Park Pl","id":"a6g02xvbpwig","geo_precision":"range","location":"1 Park Pl Treasure Island FL 33706"},"type":"Feature","geometry":{"type":"Point","coordinates":[-82.762672,27.770598]}}],"is_temporal":false,"author":{"url":"","metadata":"","contact_name":"","contact_address":"","source":"","contact_phone":""},"source":"","pagination":{"sort":null,"start":0,"total":376,"limit":1000000},"state":"complete","tags":"","published":"2014-08-13T06:25:34-04:00","id":185925}