{"type":"FeatureCollection","data_type":"Dataset Analysis","url_type":null,"permissions":[{"permissions":{"download":true,"view":true},"group_id":"everyone"}],"classification":null,"title":"Filtered Features of 'crime incidents 2010 D.C.' based on 'Public Schools       '","count":90,"stream_id":186129,"contributor":{"url":"http://geocommons.com/users/34777","name":"mlmasterson"},"data_attributes":null,"calculation_params":[{"calculation":"buffer_intersect","input":{"ds1":"185802","min_distance":"25","ds2":"183788","unit":"ft","include_distance":"1","distance":"100"}}],"icon_link":null,"link":"http://geocommons.com/overlays/186129.json","extent":[-77.0702,38.8414,-76.9198,38.9524],"geometry_types":["point"],"unique_name":null,"name":"Filtered Features of 'crime incidents 2010 D.C.' based on 'Public Schools       '","feature_count":90,"description":"Dataset created by filtering features of 'crime incidents 2010 D.C.' that are within a buffer of 25 to 100 ft around the features in 'Public Schools       '","next_feature":null,"is_raster":false,"short_classification":"Y","stats":{"latitude":{"max":38.9523538537534,"mean":38.9023238913002,"variance":0.000820667071894704,"stdev":0.0286472873392003,"min":38.8414401273375,"median":38.9078358390815},"ccn":{"max":null,"min":null,"median":null},"neighborhoodcluster":{"max":null,"min":null,"median":null},"psa":{"max":null,"min":null,"median":null},"longitude":{"max":-76.9198480300405,"mean":-77.0227622673354,"variance":0.000988934964834191,"stdev":0.0314473363710536,"min":-77.0701995865807,"median":-77.0297076825741},"nid":{"max":100009219,"mean":3077577.32222222,"variance":215940638395191.0,"stdev":14694918.7951207,"min":790526,"median":879763},"ward":{"max":null,"min":null,"median":null},"distance":{"max":98.2609782580826,"mean":84.1517634546024,"variance":79.9499418205801,"stdev":8.94147313481286,"min":66.0546272226335,"median":84.05805483419}},"features":[{"properties":{"hotspot2005name":"NONE","anc":"8E","city":"WASHINGTON","latitude":38.8414401273375,"district":"SEVENTH","ccn":"10165414","blocksiteaddress":"3300 B/O WHEELER RD SE","neighborhoodcluster":"39","method":"2","lastmodifieddate":"11/15/2010 7:02:51 AM","shift":"UNK","businessimprovementdistrict":"NONE","hotspot2006name":"NONE","psa":"705","longitude":-76.9938570575796,"reportdatetime":"11/14/2010 12:00:00 AM","id":"27327","nid":924790,"hotspot2004name":"NONE","smd":"8E05","ward":"8","state":"DC","offense":"BURGLARY","distance":93.831459141482},"type":"Feature","geometry":{"type":"Point","coordinates":[-76.9938570575796,38.8414401273375]}},{"properties":{"hotspot2005name":"NONE","anc":"8E","city":"WASHINGTON","latitude":38.8424939432398,"district":"SEVENTH","ccn":"10113718","blocksiteaddress":"3200 B/O 6TH ST SE","neighborhoodcluster":"39","method":"2","lastmodifieddate":"9/13/2010 7:16:24 AM","shift":"UNK","businessimprovementdistrict":"NONE","hotspot2006name":"NONE","psa":"705","longitude":-76.9984471073532,"reportdatetime":"8/9/2010 12:00:00 AM","id":"18108","nid":879950,"hotspot2004name":"NONE","smd":"8E05","ward":"8","state":"DC","offense":"THEFT","distance":78.3906946534424},"type":"Feature","geometry":{"type":"Point","coordinates":[-76.9984471073532,38.8424939432398]}},{"properties":{"hotspot2005name":"NONE","anc":"8E","city":"WASHINGTON","latitude":38.8424939432398,"district":"SEVENTH","ccn":"10091764","blocksiteaddress":"3200 B/O 6TH ST SE","neighborhoodcluster":"39","method":"STOLEN AUTO","lastmodifieddate":"7/20/2010 7:16:00 AM","shift":"UNK","businessimprovementdistrict":"NONE","hotspot2006name":"NONE","psa":"705","longitude":-76.9984471073532,"reportdatetime":"6/30/2010 12:00:00 AM","id":"14352","nid":862242,"hotspot2004name":"NONE","smd":"8E05","ward":"8","state":"DC","offense":"STOLEN AUTO","distance":78.3906946534424},"type":"Feature","geometry":{"type":"Point","coordinates":[-76.9984471073532,38.8424939432398]}},{"properties":{"hotspot2005name":"NONE","anc":"8E","city":"WASHINGTON","latitude":38.8424939432398,"district":"SEVENTH","ccn":"10163840","blocksiteaddress":"3200 B/O 6TH ST SE","neighborhoodcluster":"39","method":"2","lastmodifieddate":"12/6/2010 10:15:38 AM","shift":"UNK","businessimprovementdistrict":"NONE","hotspot2006name":"NONE","psa":"705","longitude":-76.9984471073532,"reportdatetime":"11/11/2010 12:00:00 AM","id":"27047","nid":923545,"hotspot2004name":"NONE","smd":"8E05","ward":"8","state":"DC","offense":"BURGLARY","distance":78.3906946534424},"type":"Feature","geometry":{"type":"Point","coordinates":[-76.9984471073532,38.8424939432398]}},{"properties":{"hotspot2005name":"NONE","anc":"8E","city":"WASHINGTON","latitude":38.8424939432398,"district":"SEVENTH","ccn":"10069879","blocksiteaddress":"3200 B/O 6TH ST SE","neighborhoodcluster":"39","method":"SNATCH","lastmodifieddate":"5/24/2010 7:03:17 AM","shift":"UNK","businessimprovementdistrict":"NONE","hotspot2006name":"NONE","psa":"705","longitude":-76.9984471073532,"reportdatetime":"5/22/2010 12:00:00 AM","id":"10666","nid":844676,"hotspot2004name":"NONE","smd":"8E05","ward":"8","state":"DC","offense":"ROBBERY","distance":78.3906946534424},"type":"Feature","geometry":{"type":"Point","coordinates":[-76.9984471073532,38.8424939432398]}},{"properties":{"hotspot2005name":"NONE","anc":"8E","city":"WASHINGTON","latitude":38.8424939432398,"district":"SEVENTH","ccn":"10182799","blocksiteaddress":"3200 B/O 6TH ST SE","neighborhoodcluster":"39","method":"GUN","lastmodifieddate":"12/22/2010 7:29:49 AM","shift":"UNK","businessimprovementdistrict":"NONE","hotspot2006name":"NONE","psa":"705","longitude":-76.9984471073532,"reportdatetime":"12/20/2010 12:00:00 AM","id":"30494","nid":939211,"hotspot2004name":"NONE","smd":"8E05","ward":"8","state":"DC","offense":"ROBBERY","distance":78.3906946534424},"type":"Feature","geometry":{"type":"Point","coordinates":[-76.9984471073532,38.8424939432398]}},{"properties":{"hotspot2005name":"NONE","anc":"8E","city":"WASHINGTON","latitude":38.8424939432398,"district":"SEVENTH","ccn":"10112935","blocksiteaddress":"3200 B/O 6TH ST SE","neighborhoodcluster":"39","method":"2","lastmodifieddate":"9/13/2010 7:16:24 AM","shift":"UNK","businessimprovementdistrict":"NONE","hotspot2006name":"NONE","psa":"705","longitude":-76.9984471073532,"reportdatetime":"8/7/2010 12:00:00 AM","id":"17942","nid":879249,"hotspot2004name":"NONE","smd":"8E05","ward":"8","state":"DC","offense":"THEFT","distance":78.3906946534424},"type":"Feature","geometry":{"type":"Point","coordinates":[-76.9984471073532,38.8424939432398]}},{"properties":{"hotspot2005name":"NONE","anc":"8E","city":"WASHINGTON","latitude":38.8424939432398,"district":"SEVENTH","ccn":"10053758","blocksiteaddress":"3200 B/O 6TH ST SE","neighborhoodcluster":"39","method":"2","lastmodifieddate":"4/26/2010 7:22:07 AM","shift":"UNK","businessimprovementdistrict":"NONE","hotspot2006name":"NONE","psa":"705","longitude":-76.9984471073532,"reportdatetime":"4/23/2010 12:00:00 AM","id":"8002","nid":832109,"hotspot2004name":"NONE","smd":"8E05","ward":"8","state":"DC","offense":"BURGLARY","distance":78.3906946534424},"type":"Feature","geometry":{"type":"Point","coordinates":[-76.9984471073532,38.8424939432398]}},{"properties":{"hotspot2005name":"NONE","anc":"8E","city":"WASHINGTON","latitude":38.8424939432398,"district":"SEVENTH","ccn":"10169440","blocksiteaddress":"3200 B/O 6TH ST SE","neighborhoodcluster":"39","method":"GUN","lastmodifieddate":"11/23/2010 7:17:12 AM","shift":"UNK","businessimprovementdistrict":"NONE","hotspot2006name":"NONE","psa":"705","longitude":-76.9984471073532,"reportdatetime":"11/22/2010 12:00:00 AM","id":"28100","nid":928145,"hotspot2004name":"NONE","smd":"8E05","ward":"8","state":"DC","offense":"ADW","distance":78.3906946534424},"type":"Feature","geometry":{"type":"Point","coordinates":[-76.9984471073532,38.8424939432398]}},{"properties":{"hotspot2005name":"NONE","anc":"8E","city":"WASHINGTON","latitude":38.8424939432398,"district":"SEVENTH","ccn":"10145158","blocksiteaddress":"3200 B/O 6TH ST SE","neighborhoodcluster":"39","method":"STOLEN AUTO","lastmodifieddate":"10/7/2010 7:17:40 AM","shift":"UNK","businessimprovementdistrict":"NONE","hotspot2006name":"NONE","psa":"705","longitude":-76.9984471073532,"reportdatetime":"10/6/2010 12:00:00 AM","id":"23685","nid":908047,"hotspot2004name":"NONE","smd":"8E05","ward":"8","state":"DC","offense":"STOLEN AUTO","distance":78.3906946534424},"type":"Feature","geometry":{"type":"Point","coordinates":[-76.9984471073532,38.8424939432398]}},{"properties":{"hotspot2005name":"NONE","anc":"8A","city":"WASHINGTON","latitude":38.8571005527723,"district":"SEVENTH","ccn":"10073328","blocksiteaddress":"2300 B/O POMEROY RD SE","neighborhoodcluster":"37","method":"KNIFE","lastmodifieddate":"7/13/2010 8:54:21 AM","shift":"UNK","businessimprovementdistrict":"NONE","hotspot2006name":"NONE","psa":"703","longitude":-76.985475142199,"reportdatetime":"5/28/2010 12:00:00 AM","id":"11235","nid":847349,"hotspot2004name":"NONE","smd":"8A07","ward":"8","state":"DC","offense":"ADW","distance":97.8016398437313},"type":"Feature","geometry":{"type":"Point","coordinates":[-76.985475142199,38.8571005527723]}},{"properties":{"hotspot2005name":"NONE","anc":"8A","city":"WASHINGTON","latitude":38.8571005527723,"district":"SEVENTH","ccn":"10079997","blocksiteaddress":"2300 B/O POMEROY RD SE","neighborhoodcluster":"37","method":"2","lastmodifieddate":"6/10/2010 7:01:54 AM","shift":"UNK","businessimprovementdistrict":"NONE","hotspot2006name":"NONE","psa":"703","longitude":-76.985475142199,"reportdatetime":"6/9/2010 12:00:00 AM","id":"12362","nid":852957,"hotspot2004name":"NONE","smd":"8A07","ward":"8","state":"DC","offense":"THEFT","distance":97.8016398437313},"type":"Feature","geometry":{"type":"Point","coordinates":[-76.985475142199,38.8571005527723]}},{"properties":{"hotspot2005name":"NONE","anc":"8A","city":"WASHINGTON","latitude":38.8571005527723,"district":"SEVENTH","ccn":"10165925","blocksiteaddress":"2300 B/O POMEROY RD SE","neighborhoodcluster":"37","method":"GUN","lastmodifieddate":"11/16/2010 7:02:36 AM","shift":"UNK","businessimprovementdistrict":"NONE","hotspot2006name":"NONE","psa":"703","longitude":-76.985475142199,"reportdatetime":"11/15/2010 12:00:00 AM","id":"27451","nid":925206,"hotspot2004name":"NONE","smd":"8A07","ward":"8","state":"DC","offense":"ADW","distance":97.8016398437313},"type":"Feature","geometry":{"type":"Point","coordinates":[-76.985475142199,38.8571005527723]}},{"properties":{"hotspot2005name":"NONE","anc":"6D","city":"WASHINGTON","latitude":38.8792856623535,"district":"FIRST","ccn":"10165675","blocksiteaddress":"400 B/O I ST SW","neighborhoodcluster":"9","method":"F&amp;V","lastmodifieddate":"11/15/2010 7:02:52 AM","shift":"UNK","businessimprovementdistrict":"NONE","hotspot2006name":"NONE","psa":"104","longitude":-77.0182150195863,"reportdatetime":"11/14/2010 12:00:00 AM","id":"27389","nid":925002,"hotspot2004name":"NONE","smd":"6D01","ward":"6","state":"DC","offense":"ROBBERY","distance":89.9201964061574},"type":"Feature","geometry":{"type":"Point","coordinates":[-77.0182150195863,38.8792856623535]}},{"properties":{"hotspot2005name":"NONE","anc":"6D","city":"WASHINGTON","latitude":38.8792856623535,"district":"FIRST","ccn":"10152294","blocksiteaddress":"400 B/O I ST SW","neighborhoodcluster":"9","method":"2","lastmodifieddate":"12/10/2010 7:13:17 AM","shift":"UNK","businessimprovementdistrict":"NONE","hotspot2006name":"NONE","psa":"104","longitude":-77.0182150195863,"reportdatetime":"10/20/2010 12:00:00 AM","id":"24926","nid":913843,"hotspot2004name":"NONE","smd":"6D01","ward":"6","state":"DC","offense":"THEFT","distance":89.9201964061574},"type":"Feature","geometry":{"type":"Point","coordinates":[-77.0182150195863,38.8792856623535]}},{"properties":{"hotspot2005name":"NONE","anc":"6D","city":"WASHINGTON","latitude":38.8792856623535,"district":"FIRST","ccn":"10003027","blocksiteaddress":"400 B/O I ST SW","neighborhoodcluster":"9","method":"2","lastmodifieddate":"2/5/2010 7:19:05 AM","shift":"UNK","businessimprovementdistrict":"NONE","hotspot2006name":"NONE","psa":"104","longitude":-77.0182150195863,"reportdatetime":"1/7/2010 12:00:00 AM","id":"584","nid":792154,"hotspot2004name":"NONE","smd":"6D01","ward":"6","state":"DC","offense":"THEFT F/AUTO","distance":89.9201964061574},"type":"Feature","geometry":{"type":"Point","coordinates":[-77.0182150195863,38.8792856623535]}},{"properties":{"hotspot2005name":"NONE","anc":"6D","city":"WASHINGTON","latitude":38.8792856623535,"district":"FIRST","ccn":"10087253","blocksiteaddress":"400 B/O I ST SW","neighborhoodcluster":"9","method":"2","lastmodifieddate":"6/23/2010 7:16:44 AM","shift":"UNK","businessimprovementdistrict":"NONE","hotspot2006name":"NONE","psa":"104","longitude":-77.0182150195863,"reportdatetime":"6/22/2010 12:00:00 AM","id":"13572","nid":858743,"hotspot2004name":"NONE","smd":"6D01","ward":"6","state":"DC","offense":"THEFT","distance":89.9201964061574},"type":"Feature","geometry":{"type":"Point","coordinates":[-77.0182150195863,38.8792856623535]}},{"properties":{"hotspot2005name":"NONE","anc":"6B","city":"WASHINGTON","latitude":38.8812672530865,"district":"FIRST","ccn":"10111146","blocksiteaddress":"1000 B/O G ST SE","neighborhoodcluster":"26","method":"2","lastmodifieddate":"8/5/2010 7:11:13 AM","shift":"UNK","businessimprovementdistrict":"CAPITOL HILL BID","hotspot2006name":"NONE","psa":"106","longitude":-76.9920894139774,"reportdatetime":"8/4/2010 12:00:00 AM","id":"17653","nid":877765,"hotspot2004name":"NONE","smd":"6B04","ward":"6","state":"DC","offense":"THEFT F/AUTO","distance":69.3560881528095},"type":"Feature","geometry":{"type":"Point","coordinates":[-76.9920894139774,38.8812672530865]}},{"properties":{"hotspot2005name":"NONE","anc":"6B","city":"WASHINGTON","latitude":38.8812672530865,"district":"FIRST","ccn":"10142421","blocksiteaddress":"1000 B/O G ST SE","neighborhoodcluster":"26","method":"2","lastmodifieddate":"10/4/2010 7:24:42 AM","shift":"UNK","businessimprovementdistrict":"CAPITOL HILL BID","hotspot2006name":"NONE","psa":"106","longitude":-76.9920894139774,"reportdatetime":"10/1/2010 12:00:00 AM","id":"23248","nid":905747,"hotspot2004name":"NONE","smd":"6B04","ward":"6","state":"DC","offense":"THEFT","distance":69.3560881528095},"type":"Feature","geometry":{"type":"Point","coordinates":[-76.9920894139774,38.8812672530865]}},{"properties":{"hotspot2005name":"NONE","anc":"6B","city":"WASHINGTON","latitude":38.8812672530865,"district":"FIRST","ccn":"10071641","blocksiteaddress":"1000 B/O G ST SE","neighborhoodcluster":"26","method":"2","lastmodifieddate":"5/26/2010 7:23:24 AM","shift":"UNK","businessimprovementdistrict":"CAPITOL HILL BID","hotspot2006name":"NONE","psa":"106","longitude":-76.9920894139774,"reportdatetime":"5/25/2010 12:00:00 AM","id":"10968","nid":846035,"hotspot2004name":"NONE","smd":"6B04","ward":"6","state":"DC","offense":"BURGLARY","distance":69.3560881528095},"type":"Feature","geometry":{"type":"Point","coordinates":[-76.9920894139774,38.8812672530865]}},{"properties":{"hotspot2005name":"NONE","anc":"6B","city":"WASHINGTON","latitude":38.8812672530865,"district":"FIRST","ccn":"10103615","blocksiteaddress":"1000 B/O G ST SE","neighborhoodcluster":"26","method":"2","lastmodifieddate":"7/22/2010 7:15:17 AM","shift":"UNK","businessimprovementdistrict":"CAPITOL HILL BID","hotspot2006name":"NONE","psa":"106","longitude":-76.9920894139774,"reportdatetime":"7/21/2010 12:00:00 AM","id":"16330","nid":871393,"hotspot2004name":"NONE","smd":"6B04","ward":"6","state":"DC","offense":"THEFT","distance":69.3560881528095},"type":"Feature","geometry":{"type":"Point","coordinates":[-76.9920894139774,38.8812672530865]}},{"properties":{"hotspot2005name":"NONE","anc":"6B","city":"WASHINGTON","latitude":38.8834730423468,"district":"FIRST","ccn":"10085078","blocksiteaddress":"400 B/O 12TH ST SE","neighborhoodcluster":"26","method":"2","lastmodifieddate":"6/23/2010 7:16:39 AM","shift":"UNK","businessimprovementdistrict":"NONE","hotspot2006name":"NONE","psa":"106","longitude":-76.9902461663215,"reportdatetime":"6/18/2010 12:00:00 AM","id":"13208","nid":857032,"hotspot2004name":"NONE","smd":"6B06","ward":"6","state":"DC","offense":"THEFT","distance":90.9999773541133},"type":"Feature","geometry":{"type":"Point","coordinates":[-76.9902461663215,38.8834730423468]}},{"properties":{"hotspot2005name":"NONE","anc":"6B","city":"WASHINGTON","latitude":38.8834730423468,"district":"FIRST","ccn":"10123277","blocksiteaddress":"400 B/O 12TH ST SE","neighborhoodcluster":"26","method":"1","lastmodifieddate":"8/27/2010 7:01:24 AM","shift":"UNK","businessimprovementdistrict":"NONE","hotspot2006name":"NONE","psa":"106","longitude":-76.9902461663215,"reportdatetime":"8/26/2010 12:00:00 AM","id":"19807","nid":888960,"hotspot2004name":"NONE","smd":"6B06","ward":"6","state":"DC","offense":"THEFT F/AUTO","distance":90.9999773541133},"type":"Feature","geometry":{"type":"Point","coordinates":[-76.9902461663215,38.8834730423468]}},{"properties":{"hotspot2005name":"NONE","anc":"6B","city":"WASHINGTON","latitude":38.8834730423468,"district":"FIRST","ccn":"10138803","blocksiteaddress":"400 B/O 12TH ST SE","neighborhoodcluster":"26","method":"2","lastmodifieddate":"9/27/2010 9:27:18 AM","shift":"UNK","businessimprovementdistrict":"NONE","hotspot2006name":"NONE","psa":"106","longitude":-76.9902461663215,"reportdatetime":"9/24/2010 12:00:00 AM","id":"22572","nid":902659,"hotspot2004name":"NONE","smd":"6B06","ward":"6","state":"DC","offense":"THEFT","distance":90.9999773541133},"type":"Feature","geometry":{"type":"Point","coordinates":[-76.9902461663215,38.8834730423468]}},{"properties":{"hotspot2005name":"NONE","anc":"6C","city":"WASHINGTON","latitude":38.8930566738918,"district":"FIRST","ccn":"10067690","blocksiteaddress":"400 B/O C ST NE","neighborhoodcluster":"25","method":"2","lastmodifieddate":"5/20/2010 7:10:38 AM","shift":"UNK","businessimprovementdistrict":"CAPITOL HILL BID","hotspot2006name":"NONE","psa":"102","longitude":-77.0000034581213,"reportdatetime":"5/18/2010 12:00:00 AM","id":"10264","nid":843022,"hotspot2004name":"NONE","smd":"6C07","ward":"6","state":"DC","offense":"THEFT","distance":79.3178399454292},"type":"Feature","geometry":{"type":"Point","coordinates":[-77.0000034581213,38.8930566738918]}},{"properties":{"hotspot2005name":"NONE","anc":"7C","city":"WASHINGTON","latitude":38.8958010510745,"district":"SIXTH","ccn":"10110044","blocksiteaddress":"5600 B/O EADS ST NE","neighborhoodcluster":"31","method":"2","lastmodifieddate":"8/4/2010 7:10:47 AM","shift":"UNK","businessimprovementdistrict":"NONE","hotspot2006name":"NONE","psa":"602","longitude":-76.9198480300405,"reportdatetime":"8/2/2010 12:00:00 AM","id":"17469","nid":876839,"hotspot2004name":"NONE","smd":"7C06","ward":"7","state":"DC","offense":"BURGLARY","distance":76.0709171619996},"type":"Feature","geometry":{"type":"Point","coordinates":[-76.9198480300405,38.8958010510745]}},{"properties":{"hotspot2005name":"NONE","anc":"7C","city":"WASHINGTON","latitude":38.8958010510745,"district":"SIXTH","ccn":"10001144","blocksiteaddress":"5600 B/O EADS ST NE","neighborhoodcluster":"31","method":"CHILD 1ST","lastmodifieddate":"8/17/2010 8:50:01 AM","shift":"UNK","businessimprovementdistrict":"NONE","hotspot2006name":"NONE","psa":"602","longitude":-76.9198480300405,"reportdatetime":"1/3/2010 12:00:00 AM","id":"299","nid":790526,"hotspot2004name":"NONE","smd":"7C05","ward":"7","state":"DC","offense":"SEX ABUSE","distance":76.0709171619996},"type":"Feature","geometry":{"type":"Point","coordinates":[-76.9198480300405,38.8958010510745]}},{"properties":{"hotspot2005name":"NONE","anc":"7C","city":"WASHINGTON","latitude":38.8958010510745,"district":"SIXTH","ccn":"10134967","blocksiteaddress":"5600 B/O EADS ST NE","neighborhoodcluster":"31","method":"2","lastmodifieddate":"9/20/2010 9:33:12 AM","shift":"UNK","businessimprovementdistrict":"NONE","hotspot2006name":"NONE","psa":"602","longitude":-76.9198480300405,"reportdatetime":"9/17/2010 12:00:00 AM","id":"21878","nid":899223,"hotspot2004name":"NONE","smd":"7C05","ward":"7","state":"DC","offense":"THEFT F/AUTO","distance":76.0709171619996},"type":"Feature","geometry":{"type":"Point","coordinates":[-76.9198480300405,38.8958010510745]}},{"properties":{"hotspot2005name":"NONE","anc":"6C","city":"WASHINGTON","latitude":38.8961200817397,"district":"FIRST","ccn":"10144575","blocksiteaddress":"400 B/O E ST NE","neighborhoodcluster":"25","method":"2","lastmodifieddate":"10/20/2010 7:16:03 AM","shift":"UNK","businessimprovementdistrict":"NONE","hotspot2006name":"NONE","psa":"102","longitude":-77.0000410669533,"reportdatetime":"10/5/2010 12:00:00 AM","id":"23561","nid":907486,"hotspot2004name":"NONE","smd":"6C08","ward":"6","state":"DC","offense":"THEFT","distance":66.0546272226335},"type":"Feature","geometry":{"type":"Point","coordinates":[-77.0000410669533,38.8961200817397]}},{"properties":{"hotspot2005name":"NONE","anc":"6C","city":"WASHINGTON","latitude":38.8961200817397,"district":"FIRST","ccn":"10137595","blocksiteaddress":"400 B/O E ST NE","neighborhoodcluster":"25","method":"BICYCLE","lastmodifieddate":"12/16/2010 7:32:55 AM","shift":"UNK","businessimprovementdistrict":"NONE","hotspot2006name":"NONE","psa":"102","longitude":-77.0000410669533,"reportdatetime":"9/22/2010 12:00:00 AM","id":"22366","nid":901613,"hotspot2004name":"NONE","smd":"6C08","ward":"6","state":"DC","offense":"THEFT","distance":66.0546272226335},"type":"Feature","geometry":{"type":"Point","coordinates":[-77.0000410669533,38.8961200817397]}},{"properties":{"hotspot2005name":"NONE","anc":"6C","city":"WASHINGTON","latitude":38.8961200817397,"district":"FIRST","ccn":"10148190","blocksiteaddress":"400 B/O E ST NE","neighborhoodcluster":"25","method":"2","lastmodifieddate":"10/13/2010 7:01:51 AM","shift":"UNK","businessimprovementdistrict":"NONE","hotspot2006name":"NONE","psa":"102","longitude":-77.0000410669533,"reportdatetime":"10/12/2010 12:00:00 AM","id":"24180","nid":910357,"hotspot2004name":"NONE","smd":"6C08","ward":"6","state":"DC","offense":"THEFT","distance":66.0546272226335},"type":"Feature","geometry":{"type":"Point","coordinates":[-77.0000410669533,38.8961200817397]}},{"properties":{"hotspot2005name":"NONE","anc":"6C","city":"WASHINGTON","latitude":38.8961200817397,"district":"FIRST","ccn":"10026488","blocksiteaddress":"400 B/O E ST NE","neighborhoodcluster":"25","method":"1","lastmodifieddate":"3/17/2010 7:15:27 AM","shift":"UNK","businessimprovementdistrict":"NONE","hotspot2006name":"NONE","psa":"102","longitude":-77.0000410669533,"reportdatetime":"3/2/2010 12:00:00 AM","id":"3869","nid":810957,"hotspot2004name":"NONE","smd":"6C08","ward":"6","state":"DC","offense":"BURGLARY","distance":66.0546272226335},"type":"Feature","geometry":{"type":"Point","coordinates":[-77.0000410669533,38.8961200817397]}},{"properties":{"hotspot2005name":"NONE","anc":"6A","city":"WASHINGTON","latitude":38.8973340425089,"district":"FIRST","ccn":"10150052","blocksiteaddress":"900 B/O F ST NE","neighborhoodcluster":"25","method":"2","lastmodifieddate":"10/18/2010 7:17:26 AM","shift":"UNK","businessimprovementdistrict":"NONE","hotspot2006name":"NONE","psa":"102","longitude":-76.9932025830725,"reportdatetime":"10/15/2010 12:00:00 AM","id":"24491","nid":912072,"hotspot2004name":"NONE","smd":"6A02","ward":"6","state":"DC","offense":"THEFT F/AUTO","distance":84.884078860852},"type":"Feature","geometry":{"type":"Point","coordinates":[-76.9932025830725,38.8973340425089]}},{"properties":{"hotspot2005name":"NONE","anc":"2A","city":"WASHINGTON","latitude":38.9072429693952,"district":"SECOND","ccn":"10120233","blocksiteaddress":"2400 B/O N ST NW","neighborhoodcluster":"5","method":"1","lastmodifieddate":"9/20/2010 9:32:58 AM","shift":"UNK","businessimprovementdistrict":"NONE","hotspot2006name":"NONE","psa":"207","longitude":-77.0523353865983,"reportdatetime":"8/21/2010 12:00:00 AM","id":"19254","nid":886383,"hotspot2004name":"NONE","smd":"2A02","ward":"2","state":"DC","offense":"THEFT F/AUTO","distance":82.9129892484919},"type":"Feature","geometry":{"type":"Point","coordinates":[-77.0523353865983,38.9072429693952]}},{"properties":{"hotspot2005name":"NONE","anc":"2A","city":"WASHINGTON","latitude":38.9072429693952,"district":"SECOND","ccn":"10146114","blocksiteaddress":"2400 B/O N ST NW","neighborhoodcluster":"5","method":"OTHER","lastmodifieddate":"10/22/2010 7:11:11 AM","shift":"UNK","businessimprovementdistrict":"NONE","hotspot2006name":"NONE","psa":"207","longitude":-77.0523353865983,"reportdatetime":"10/8/2010 12:00:00 AM","id":"23812","nid":908683,"hotspot2004name":"NONE","smd":"2A02","ward":"2","state":"DC","offense":"ADW","distance":82.9129892484919},"type":"Feature","geometry":{"type":"Point","coordinates":[-77.0523353865983,38.9072429693952]}},{"properties":{"hotspot2005name":"NONE","anc":"2A","city":"WASHINGTON","latitude":38.9072429693952,"district":"SECOND","ccn":"10025409","blocksiteaddress":"2400 B/O N ST NW","neighborhoodcluster":"5","method":"2","lastmodifieddate":"3/1/2010 7:27:23 AM","shift":"UNK","businessimprovementdistrict":"NONE","hotspot2006name":"NONE","psa":"207","longitude":-77.0523353865983,"reportdatetime":"2/28/2010 12:00:00 AM","id":"3701","nid":810106,"hotspot2004name":"NONE","smd":"2A02","ward":"2","state":"DC","offense":"THEFT F/AUTO","distance":82.9129892484919},"type":"Feature","geometry":{"type":"Point","coordinates":[-77.0523353865983,38.9072429693952]}},{"properties":{"hotspot2005name":"NONE","anc":"2A","city":"WASHINGTON","latitude":38.9072429693952,"district":"SECOND","ccn":"10129106","blocksiteaddress":"2400 B/O N ST NW","neighborhoodcluster":"5","method":"2","lastmodifieddate":"9/8/2010 7:01:39 AM","shift":"UNK","businessimprovementdistrict":"NONE","hotspot2006name":"NONE","psa":"207","longitude":-77.0523353865983,"reportdatetime":"9/6/2010 12:00:00 AM","id":"20833","nid":894076,"hotspot2004name":"NONE","smd":"2A02","ward":"2","state":"DC","offense":"THEFT","distance":82.9129892484919},"type":"Feature","geometry":{"type":"Point","coordinates":[-77.0523353865983,38.9072429693952]}},{"properties":{"hotspot2005name":"NONE","anc":"2A","city":"WASHINGTON","latitude":38.9072429693952,"district":"SECOND","ccn":"10180600","blocksiteaddress":"2400 B/O N ST NW","neighborhoodcluster":"5","method":"1","lastmodifieddate":"12/17/2010 7:58:40 AM","shift":"UNK","businessimprovementdistrict":"NONE","hotspot2006name":"NONE","psa":"207","longitude":-77.0523353865983,"reportdatetime":"12/16/2010 12:00:00 AM","id":"30083","nid":937244,"hotspot2004name":"NONE","smd":"2A02","ward":"2","state":"DC","offense":"THEFT F/AUTO","distance":82.9129892484919},"type":"Feature","geometry":{"type":"Point","coordinates":[-77.0523353865983,38.9072429693952]}},{"properties":{"hotspot2005name":"NONE","anc":"2A","city":"WASHINGTON","latitude":38.9072429693952,"district":"SECOND","ccn":"10086211","blocksiteaddress":"2400 B/O N ST NW","neighborhoodcluster":"5","method":"2","lastmodifieddate":"6/23/2010 7:16:39 AM","shift":"UNK","businessimprovementdistrict":"NONE","hotspot2006name":"NONE","psa":"207","longitude":-77.0523353865983,"reportdatetime":"6/20/2010 12:00:00 AM","id":"13385","nid":857878,"hotspot2004name":"NONE","smd":"2A02","ward":"2","state":"DC","offense":"THEFT","distance":82.9129892484919},"type":"Feature","geometry":{"type":"Point","coordinates":[-77.0523353865983,38.9072429693952]}},{"properties":{"hotspot2005name":"NONE","anc":"2A","city":"WASHINGTON","latitude":38.9072429693952,"district":"SECOND","ccn":"10177768","blocksiteaddress":"2400 B/O N ST NW","neighborhoodcluster":"5","method":"1","lastmodifieddate":"1/10/2011 7:12:19 AM","shift":"UNK","businessimprovementdistrict":"NONE","hotspot2006name":"NONE","psa":"207","longitude":-77.0523353865983,"reportdatetime":"12/9/2010 12:00:00 AM","id":"29590","nid":934862,"hotspot2004name":"NONE","smd":"2A02","ward":"2","state":"DC","offense":"THEFT F/AUTO","distance":82.9129892484919},"type":"Feature","geometry":{"type":"Point","coordinates":[-77.0523353865983,38.9072429693952]}},{"properties":{"hotspot2005name":"NONE","anc":"2A","city":"WASHINGTON","latitude":38.9072429693952,"district":"SECOND","ccn":"10099384","blocksiteaddress":"2400 B/O N ST NW","neighborhoodcluster":"5","method":"2","lastmodifieddate":"9/23/2010 7:11:45 AM","shift":"UNK","businessimprovementdistrict":"NONE","hotspot2006name":"NONE","psa":"207","longitude":-77.0523353865983,"reportdatetime":"7/14/2010 12:00:00 AM","id":"15567","nid":868094,"hotspot2004name":"NONE","smd":"2A02","ward":"2","state":"DC","offense":"THEFT","distance":82.9129892484919},"type":"Feature","geometry":{"type":"Point","coordinates":[-77.0523353865983,38.9072429693952]}},{"properties":{"hotspot2005name":"NONE","anc":"2E","city":"WASHINGTON","latitude":38.9078358390815,"district":"SECOND","ccn":"10178417","blocksiteaddress":"3200 B/O O ST NW","neighborhoodcluster":"4","method":"OTHER","lastmodifieddate":"12/13/2010 7:16:43 AM","shift":"UNK","businessimprovementdistrict":"GEORGETOWN BID","hotspot2006name":"NONE","psa":"206","longitude":-77.064432028384,"reportdatetime":"12/11/2010 12:00:00 AM","id":"29679","nid":935400,"hotspot2004name":"NONE","smd":"2E03","ward":"2","state":"DC","offense":"ADW","distance":77.4998615472515},"type":"Feature","geometry":{"type":"Point","coordinates":[-77.064432028384,38.9078358390815]}},{"properties":{"hotspot2005name":"NONE","anc":"2E","city":"WASHINGTON","latitude":38.9078358390815,"district":"SECOND","ccn":"10146168","blocksiteaddress":"3200 B/O O ST NW","neighborhoodcluster":"4","method":"2","lastmodifieddate":"10/12/2010 9:36:08 AM","shift":"UNK","businessimprovementdistrict":"GEORGETOWN BID","hotspot2006name":"NONE","psa":"206","longitude":-77.064432028384,"reportdatetime":"10/8/2010 12:00:00 AM","id":"23841","nid":908768,"hotspot2004name":"NONE","smd":"2E03","ward":"2","state":"DC","offense":"THEFT","distance":77.4998615472515},"type":"Feature","geometry":{"type":"Point","coordinates":[-77.064432028384,38.9078358390815]}},{"properties":{"hotspot2005name":"NONE","anc":"2E","city":"WASHINGTON","latitude":38.9078358390815,"district":"SECOND","ccn":"10006554","blocksiteaddress":"3200 B/O O ST NW","neighborhoodcluster":"4","method":"1","lastmodifieddate":"1/27/2010 7:23:16 AM","shift":"UNK","businessimprovementdistrict":"NONE","hotspot2006name":"NONE","psa":"206","longitude":-77.064432028384,"reportdatetime":"1/15/2010 12:00:00 AM","id":"1054","nid":794971,"hotspot2004name":"NONE","smd":"2E03","ward":"2","state":"DC","offense":"THEFT","distance":77.4998615472515},"type":"Feature","geometry":{"type":"Point","coordinates":[-77.064432028384,38.9078358390815]}},{"properties":{"hotspot2005name":"NONE","anc":"2E","city":"WASHINGTON","latitude":38.9078358390815,"district":"SECOND","ccn":"10122413","blocksiteaddress":"3200 B/O O ST NW","neighborhoodcluster":"4","method":"2","lastmodifieddate":"8/27/2010 7:01:16 AM","shift":"UNK","businessimprovementdistrict":"NONE","hotspot2006name":"NONE","psa":"206","longitude":-77.064432028384,"reportdatetime":"8/25/2010 12:00:00 AM","id":"19682","nid":888308,"hotspot2004name":"NONE","smd":"2E03","ward":"2","state":"DC","offense":"BURGLARY","distance":77.4998615472515},"type":"Feature","geometry":{"type":"Point","coordinates":[-77.064432028384,38.9078358390815]}},{"properties":{"hotspot2005name":"NONE","anc":"2E","city":"WASHINGTON","latitude":38.9078358390815,"district":"SECOND","ccn":"10122439","blocksiteaddress":"3200 B/O O ST NW","neighborhoodcluster":"4","method":"ATTEMPT","lastmodifieddate":"8/27/2010 7:01:16 AM","shift":"UNK","businessimprovementdistrict":"NONE","hotspot2006name":"NONE","psa":"206","longitude":-77.064432028384,"reportdatetime":"8/25/2010 12:00:00 AM","id":"19681","nid":888303,"hotspot2004name":"NONE","smd":"2E03","ward":"2","state":"DC","offense":"BURGLARY","distance":77.4998615472515},"type":"Feature","geometry":{"type":"Point","coordinates":[-77.064432028384,38.9078358390815]}},{"properties":{"hotspot2005name":"NONE","anc":"2E","city":"WASHINGTON","latitude":38.9078358390815,"district":"SECOND","ccn":"10116071","blocksiteaddress":"3200 B/O O ST NW","neighborhoodcluster":"4","method":"2","lastmodifieddate":"8/16/2010 7:02:26 AM","shift":"UNK","businessimprovementdistrict":"NONE","hotspot2006name":"NONE","psa":"206","longitude":-77.064432028384,"reportdatetime":"8/13/2010 12:00:00 AM","id":"18545","nid":882463,"hotspot2004name":"NONE","smd":"2E03","ward":"2","state":"DC","offense":"THEFT","distance":77.4998615472515},"type":"Feature","geometry":{"type":"Point","coordinates":[-77.064432028384,38.9078358390815]}},{"properties":{"hotspot2005name":"NONE","anc":"2B","city":"WASHINGTON","latitude":38.9126075315076,"district":"SECOND","ccn":"10152458","blocksiteaddress":"1700 B/O R ST NW","neighborhoodcluster":"6","method":"2","lastmodifieddate":"10/22/2010 7:11:11 AM","shift":"UNK","businessimprovementdistrict":"NONE","hotspot2006name":"NONE","psa":"208","longitude":-77.0395717528921,"reportdatetime":"10/20/2010 12:00:00 AM","id":"24988","nid":914104,"hotspot2004name":"NONE","smd":"2B03","ward":"2","state":"DC","offense":"THEFT","distance":85.5181367564413},"type":"Feature","geometry":{"type":"Point","coordinates":[-77.0395717528921,38.9126075315076]}},{"properties":{"hotspot2005name":"NONE","anc":"2B","city":"WASHINGTON","latitude":38.9126075315076,"district":"SECOND","ccn":"10098632","blocksiteaddress":"1700 B/O R ST NW","neighborhoodcluster":"6","method":"2","lastmodifieddate":"7/16/2010 9:41:10 AM","shift":"UNK","businessimprovementdistrict":"NONE","hotspot2006name":"NONE","psa":"208","longitude":-77.0395717528921,"reportdatetime":"7/12/2010 12:00:00 AM","id":"15425","nid":867494,"hotspot2004name":"NONE","smd":"2B03","ward":"2","state":"DC","offense":"THEFT","distance":85.5181367564413},"type":"Feature","geometry":{"type":"Point","coordinates":[-77.0395717528921,38.9126075315076]}},{"properties":{"hotspot2005name":"NONE","anc":"2B","city":"WASHINGTON","latitude":38.9126075315076,"district":"SECOND","ccn":"10065826","blocksiteaddress":"1700 B/O R ST NW","neighborhoodcluster":"6","method":"2","lastmodifieddate":"5/18/2010 7:12:18 AM","shift":"UNK","businessimprovementdistrict":"NONE","hotspot2006name":"NONE","psa":"208","longitude":-77.0395717528921,"reportdatetime":"5/15/2010 12:00:00 AM","id":"10042","nid":841981,"hotspot2004name":"NONE","smd":"2B03","ward":"2","state":"DC","offense":"BURGLARY","distance":85.5181367564413},"type":"Feature","geometry":{"type":"Point","coordinates":[-77.0395717528921,38.9126075315076]}},{"properties":{"hotspot2005name":"NONE","anc":"2E","city":"WASHINGTON","latitude":38.913636845216,"district":"SECOND","ccn":"10169116","blocksiteaddress":"3500 B/O R ST NW","neighborhoodcluster":"4","method":"2","lastmodifieddate":"11/24/2010 7:21:37 AM","shift":"UNK","businessimprovementdistrict":"NONE","hotspot2006name":"NONE","psa":"206","longitude":-77.0701995865807,"reportdatetime":"11/21/2010 12:00:00 AM","id":"28020","nid":927819,"hotspot2004name":"NONE","smd":"2E01","ward":"2","state":"DC","offense":"THEFT","distance":80.3870281626353},"type":"Feature","geometry":{"type":"Point","coordinates":[-77.0701995865807,38.913636845216]}},{"properties":{"hotspot2005name":"NONE","anc":"2E","city":"WASHINGTON","latitude":38.913636845216,"district":"SECOND","ccn":"10156702","blocksiteaddress":"3500 B/O R ST NW","neighborhoodcluster":"4","method":"F&amp;V","lastmodifieddate":"11/1/2010 7:27:16 AM","shift":"UNK","businessimprovementdistrict":"NONE","hotspot2006name":"NONE","psa":"206","longitude":-77.0701995865807,"reportdatetime":"10/28/2010 12:00:00 AM","id":"25782","nid":917464,"hotspot2004name":"NONE","smd":"2E01","ward":"2","state":"DC","offense":"ROBBERY","distance":80.3870281626353},"type":"Feature","geometry":{"type":"Point","coordinates":[-77.0701995865807,38.913636845216]}},{"properties":{"hotspot2005name":"NONE","anc":"2E","city":"WASHINGTON","latitude":38.913636845216,"district":"SECOND","ccn":"10050348","blocksiteaddress":"3500 B/O R ST NW","neighborhoodcluster":"4","method":"STOLEN AUTO","lastmodifieddate":"4/21/2010 7:21:45 AM","shift":"UNK","businessimprovementdistrict":"NONE","hotspot2006name":"NONE","psa":"206","longitude":-77.0701995865807,"reportdatetime":"4/16/2010 12:00:00 AM","id":"7403","nid":829381,"hotspot2004name":"NONE","smd":"2E01","ward":"2","state":"DC","offense":"STOLEN AUTO","distance":80.3870281626353},"type":"Feature","geometry":{"type":"Point","coordinates":[-77.0701995865807,38.913636845216]}},{"properties":{"hotspot2005name":"NONE","anc":"2E","city":"WASHINGTON","latitude":38.913636845216,"district":"SECOND","ccn":"10111830","blocksiteaddress":"3500 B/O R ST NW","neighborhoodcluster":"4","method":"2","lastmodifieddate":"8/13/2010 7:16:47 AM","shift":"UNK","businessimprovementdistrict":"NONE","hotspot2006name":"NONE","psa":"206","longitude":-77.0701995865807,"reportdatetime":"8/5/2010 12:00:00 AM","id":"18454","nid":882016,"hotspot2004name":"NONE","smd":"2E01","ward":"2","state":"DC","offense":"BURGLARY","distance":80.3870281626353},"type":"Feature","geometry":{"type":"Point","coordinates":[-77.0701995865807,38.913636845216]}},{"properties":{"hotspot2005name":"NONE","anc":"2E","city":"WASHINGTON","latitude":38.913636845216,"district":"SECOND","ccn":"10015358","blocksiteaddress":"3500 B/O R ST NW","neighborhoodcluster":"4","method":"2","lastmodifieddate":"2/4/2010 7:01:48 AM","shift":"UNK","businessimprovementdistrict":"NONE","hotspot2006name":"NONE","psa":"206","longitude":-77.0701995865807,"reportdatetime":"2/3/2010 12:00:00 AM","id":"2421","nid":802310,"hotspot2004name":"NONE","smd":"2E01","ward":"2","state":"DC","offense":"THEFT","distance":80.3870281626353},"type":"Feature","geometry":{"type":"Point","coordinates":[-77.0701995865807,38.913636845216]}},{"properties":{"hotspot2005name":"NONE","anc":"1B","city":"WASHINGTON","latitude":38.9175542427364,"district":"THIRD","ccn":"10111235","blocksiteaddress":"2000 B/O 10TH ST NW","neighborhoodcluster":"3","method":"F&amp;V","lastmodifieddate":"8/16/2010 7:02:17 AM","shift":"UNK","businessimprovementdistrict":"NONE","hotspot2006name":"NONE","psa":"305","longitude":-77.0259909429462,"reportdatetime":"8/4/2010 12:00:00 AM","id":"17680","nid":877837,"hotspot2004name":"NONE","smd":"1B02","ward":"1","state":"DC","offense":"ROBBERY","distance":88.4963229226112},"type":"Feature","geometry":{"type":"Point","coordinates":[-77.0259909429462,38.9175542427364]}},{"properties":{"hotspot2005name":"NONE","anc":"1B","city":"WASHINGTON","latitude":38.9175542427364,"district":"THIRD","ccn":"10152318","blocksiteaddress":"2000 B/O 10TH ST NW","neighborhoodcluster":"3","method":"2","lastmodifieddate":"10/21/2010 7:01:27 AM","shift":"UNK","businessimprovementdistrict":"NONE","hotspot2006name":"NONE","psa":"305","longitude":-77.0259909429462,"reportdatetime":"10/20/2010 12:00:00 AM","id":"24950","nid":913929,"hotspot2004name":"NONE","smd":"1B02","ward":"1","state":"DC","offense":"THEFT","distance":88.4963229226112},"type":"Feature","geometry":{"type":"Point","coordinates":[-77.0259909429462,38.9175542427364]}},{"properties":{"hotspot2005name":"NONE","anc":"1B","city":"WASHINGTON","latitude":38.9175542427364,"district":"THIRD","ccn":"10061329","blocksiteaddress":"2000 B/O 10TH ST NW","neighborhoodcluster":"3","method":"2","lastmodifieddate":"5/7/2010 7:09:15 AM","shift":"UNK","businessimprovementdistrict":"NONE","hotspot2006name":"NONE","psa":"305","longitude":-77.0259909429462,"reportdatetime":"5/6/2010 12:00:00 AM","id":"9233","nid":838077,"hotspot2004name":"NONE","smd":"1B02","ward":"1","state":"DC","offense":"THEFT F/AUTO","distance":88.4963229226112},"type":"Feature","geometry":{"type":"Point","coordinates":[-77.0259909429462,38.9175542427364]}},{"properties":{"hotspot2005name":"NONE","anc":"1B","city":"WASHINGTON","latitude":38.9175542427364,"district":"THIRD","ccn":"10046499","blocksiteaddress":"2000 B/O 10TH ST NW","neighborhoodcluster":"3","method":"2","lastmodifieddate":"4/13/2010 7:02:11 AM","shift":"UNK","businessimprovementdistrict":"NONE","hotspot2006name":"NONE","psa":"305","longitude":-77.0259909429462,"reportdatetime":"4/9/2010 12:00:00 AM","id":"6825","nid":826462,"hotspot2004name":"NONE","smd":"1B02","ward":"1","state":"DC","offense":"THEFT","distance":88.4963229226112},"type":"Feature","geometry":{"type":"Point","coordinates":[-77.0259909429462,38.9175542427364]}},{"properties":{"hotspot2005name":"NONE","anc":"1B","city":"WASHINGTON","latitude":38.9175542427364,"district":"THIRD","ccn":"10055235","blocksiteaddress":"2000 B/O 10TH ST NW","neighborhoodcluster":"3","method":"STOLEN AUTO","lastmodifieddate":"4/28/2010 7:05:30 AM","shift":"UNK","businessimprovementdistrict":"NONE","hotspot2006name":"NONE","psa":"305","longitude":-77.0259909429462,"reportdatetime":"4/25/2010 12:00:00 AM","id":"8210","nid":833307,"hotspot2004name":"NONE","smd":"1B02","ward":"1","state":"DC","offense":"STOLEN AUTO","distance":88.4963229226112},"type":"Feature","geometry":{"type":"Point","coordinates":[-77.0259909429462,38.9175542427364]}},{"properties":{"hotspot2005name":"NONE","anc":"1B","city":"WASHINGTON","latitude":38.9175542427364,"district":"THIRD","ccn":"10153246","blocksiteaddress":"2000 B/O 10TH ST NW","neighborhoodcluster":"3","method":"2","lastmodifieddate":"10/29/2010 7:12:40 AM","shift":"UNK","businessimprovementdistrict":"NONE","hotspot2006name":"NONE","psa":"305","longitude":-77.0259909429462,"reportdatetime":"10/22/2010 12:00:00 AM","id":"25111","nid":914614,"hotspot2004name":"NONE","smd":"1B02","ward":"1","state":"DC","offense":"THEFT F/AUTO","distance":88.4963229226112},"type":"Feature","geometry":{"type":"Point","coordinates":[-77.0259909429462,38.9175542427364]}},{"properties":{"hotspot2005name":"NONE","anc":"1B","city":"WASHINGTON","latitude":38.9175542427364,"district":"THIRD","ccn":"10180487","blocksiteaddress":"2000 B/O 10TH ST NW","neighborhoodcluster":"3","method":"2","lastmodifieddate":"12/16/2010 7:32:58 AM","shift":"UNK","businessimprovementdistrict":"NONE","hotspot2006name":"NONE","psa":"305","longitude":-77.0259909429462,"reportdatetime":"12/15/2010 12:00:00 AM","id":"30059","nid":937130,"hotspot2004name":"NONE","smd":"1B02","ward":"1","state":"DC","offense":"THEFT","distance":88.4963229226112},"type":"Feature","geometry":{"type":"Point","coordinates":[-77.0259909429462,38.9175542427364]}},{"properties":{"hotspot2005name":"NONE","anc":"1B","city":"WASHINGTON","latitude":38.9175542427364,"district":"THIRD","ccn":"10013330","blocksiteaddress":"2000 B/O 10TH ST NW","neighborhoodcluster":"3","method":"STOLEN AUTO","lastmodifieddate":"2/1/2010 7:46:35 AM","shift":"UNK","businessimprovementdistrict":"NONE","hotspot2006name":"NONE","psa":"305","longitude":-77.0259909429462,"reportdatetime":"1/29/2010 12:00:00 AM","id":"2154","nid":800810,"hotspot2004name":"NONE","smd":"1B02","ward":"1","state":"DC","offense":"STOLEN AUTO","distance":88.4963229226112},"type":"Feature","geometry":{"type":"Point","coordinates":[-77.0259909429462,38.9175542427364]}},{"properties":{"hotspot2005name":"COLUMBIA RD NW &amp; EUCLID ST NW","anc":"1C","city":"WASHINGTON","latitude":38.9239155568807,"district":"THIRD","ccn":"10089913","blocksiteaddress":"2500 B/O 17TH ST NW","neighborhoodcluster":"1","method":"GUN","lastmodifieddate":"12/17/2010 7:58:38 AM","shift":"MID","businessimprovementdistrict":"NONE","hotspot2006name":"COLUMBIA RD NW &amp; EUCLID ST NW","psa":"303","longitude":-77.0390389041518,"reportdatetime":"7/19/2010 12:00:00 AM","id":"66","nid":100009215,"hotspot2004name":"NONE","smd":"1C06","ward":"1","state":"DC","offense":"HOMICIDE","distance":84.05805483419},"type":"Feature","geometry":{"type":"Point","coordinates":[-77.0390389041518,38.9239155568807]}},{"properties":{"hotspot2005name":"NONE","anc":"1C","city":"WASHINGTON","latitude":38.9239155568807,"district":"THIRD","ccn":"10113503","blocksiteaddress":"2500 B/O 17TH ST NW","neighborhoodcluster":"1","method":"STOLEN AUTO","lastmodifieddate":"8/9/2010 7:10:01 AM","shift":"UNK","businessimprovementdistrict":"NONE","hotspot2006name":"NONE","psa":"303","longitude":-77.0390389041518,"reportdatetime":"8/8/2010 12:00:00 AM","id":"18067","nid":879763,"hotspot2004name":"NONE","smd":"1C06","ward":"1","state":"DC","offense":"STOLEN AUTO","distance":84.05805483419},"type":"Feature","geometry":{"type":"Point","coordinates":[-77.0390389041518,38.9239155568807]}},{"properties":{"hotspot2005name":"NONE","anc":"1C","city":"WASHINGTON","latitude":38.9239155568807,"district":"THIRD","ccn":"10082872","blocksiteaddress":"2500 B/O 17TH ST NW","neighborhoodcluster":"1","method":"2","lastmodifieddate":"6/15/2010 7:03:03 AM","shift":"UNK","businessimprovementdistrict":"NONE","hotspot2006name":"NONE","psa":"303","longitude":-77.0390389041518,"reportdatetime":"6/14/2010 12:00:00 AM","id":"12817","nid":855246,"hotspot2004name":"NONE","smd":"1C06","ward":"1","state":"DC","offense":"THEFT","distance":84.05805483419},"type":"Feature","geometry":{"type":"Point","coordinates":[-77.0390389041518,38.9239155568807]}},{"properties":{"hotspot2005name":"NONE","anc":"1C","city":"WASHINGTON","latitude":38.9239155568807,"district":"THIRD","ccn":"10183500","blocksiteaddress":"2500 B/O 17TH ST NW","neighborhoodcluster":"1","method":"GUN","lastmodifieddate":"12/23/2010 7:49:30 AM","shift":"UNK","businessimprovementdistrict":"NONE","hotspot2006name":"NONE","psa":"303","longitude":-77.0390389041518,"reportdatetime":"12/22/2010 12:00:00 AM","id":"30621","nid":939840,"hotspot2004name":"NONE","smd":"1C06","ward":"1","state":"DC","offense":"ADW","distance":84.05805483419},"type":"Feature","geometry":{"type":"Point","coordinates":[-77.0390389041518,38.9239155568807]}},{"properties":{"hotspot2005name":"NONE","anc":"1C","city":"WASHINGTON","latitude":38.9239155568807,"district":"THIRD","ccn":"10115168","blocksiteaddress":"2500 B/O 17TH ST NW","neighborhoodcluster":"1","method":"GUN","lastmodifieddate":"12/15/2010 8:45:47 AM","shift":"EVN","businessimprovementdistrict":"NONE","hotspot2006name":"NONE","psa":"303","longitude":-77.0390389041518,"reportdatetime":"8/11/2010 12:00:00 AM","id":"70","nid":100009219,"hotspot2004name":"NONE","smd":"1C06","ward":"1","state":"DC","offense":"HOMICIDE","distance":84.05805483419},"type":"Feature","geometry":{"type":"Point","coordinates":[-77.0390389041518,38.9239155568807]}},{"properties":{"hotspot2005name":"COLUMBIA RD NW &amp; EUCLID ST NW","anc":"1C","city":"WASHINGTON","latitude":38.9239155568807,"district":"THIRD","ccn":"10015662","blocksiteaddress":"2500 B/O 17TH ST NW","neighborhoodcluster":"1","method":"STOLEN AUTO","lastmodifieddate":"2/5/2010 7:19:12 AM","shift":"UNK","businessimprovementdistrict":"NONE","hotspot2006name":"COLUMBIA RD NW &amp; EUCLID ST NW","psa":"303","longitude":-77.0390389041518,"reportdatetime":"2/4/2010 12:00:00 AM","id":"2469","nid":802540,"hotspot2004name":"NONE","smd":"1C06","ward":"1","state":"DC","offense":"STOLEN AUTO","distance":84.05805483419},"type":"Feature","geometry":{"type":"Point","coordinates":[-77.0390389041518,38.9239155568807]}},{"properties":{"hotspot2005name":"NONE","anc":"1C","city":"WASHINGTON","latitude":38.9239155568807,"district":"THIRD","ccn":"10148867","blocksiteaddress":"2500 B/O 17TH ST NW","neighborhoodcluster":"1","method":"OTHER","lastmodifieddate":"10/14/2010 7:01:53 AM","shift":"UNK","businessimprovementdistrict":"NONE","hotspot2006name":"NONE","psa":"303","longitude":-77.0390389041518,"reportdatetime":"10/13/2010 12:00:00 AM","id":"24287","nid":910923,"hotspot2004name":"NONE","smd":"1C06","ward":"1","state":"DC","offense":"ADW","distance":84.05805483419},"type":"Feature","geometry":{"type":"Point","coordinates":[-77.0390389041518,38.9239155568807]}},{"properties":{"hotspot2005name":"NONE","anc":"1C","city":"WASHINGTON","latitude":38.9239155568807,"district":"THIRD","ccn":"10109994","blocksiteaddress":"2500 B/O 17TH ST NW","neighborhoodcluster":"1","method":"ADULT 2ND","lastmodifieddate":"8/3/2010 7:04:47 AM","shift":"UNK","businessimprovementdistrict":"NONE","hotspot2006name":"NONE","psa":"303","longitude":-77.0390389041518,"reportdatetime":"5/13/2010 12:00:00 AM","id":"17450","nid":876775,"hotspot2004name":"NONE","smd":"1C06","ward":"1","state":"DC","offense":"SEX ABUSE","distance":84.05805483419},"type":"Feature","geometry":{"type":"Point","coordinates":[-77.0390389041518,38.9239155568807]}},{"properties":{"hotspot2005name":"COLUMBIA RD NW &amp; EUCLID ST NW","anc":"1C","city":"WASHINGTON","latitude":38.9239155568807,"district":"THIRD","ccn":"10144034","blocksiteaddress":"2500 B/O 17TH ST NW","neighborhoodcluster":"1","method":"2","lastmodifieddate":"10/5/2010 7:09:35 AM","shift":"UNK","businessimprovementdistrict":"NONE","hotspot2006name":"COLUMBIA RD NW &amp; EUCLID ST NW","psa":"303","longitude":-77.0390389041518,"reportdatetime":"10/4/2010 12:00:00 AM","id":"23481","nid":907092,"hotspot2004name":"NONE","smd":"1C06","ward":"1","state":"DC","offense":"THEFT F/AUTO","distance":84.05805483419},"type":"Feature","geometry":{"type":"Point","coordinates":[-77.0390389041518,38.9239155568807]}},{"properties":{"hotspot2005name":"COLUMBIA RD NW &amp; EUCLID ST NW","anc":"1C","city":"WASHINGTON","latitude":38.9239155568807,"district":"THIRD","ccn":"10133464","blocksiteaddress":"2500 B/O 17TH ST NW","neighborhoodcluster":"1","method":"2","lastmodifieddate":"9/28/2010 7:01:19 AM","shift":"UNK","businessimprovementdistrict":"NONE","hotspot2006name":"COLUMBIA RD NW &amp; EUCLID ST NW","psa":"303","longitude":-77.0390389041518,"reportdatetime":"9/14/2010 12:00:00 AM","id":"21660","nid":898163,"hotspot2004name":"NONE","smd":"1C06","ward":"1","state":"DC","offense":"THEFT","distance":84.05805483419},"type":"Feature","geometry":{"type":"Point","coordinates":[-77.0390389041518,38.9239155568807]}},{"properties":{"hotspot2005name":"NONE","anc":"1A","city":"WASHINGTON","latitude":38.9291460801832,"district":"THIRD","ccn":"10048895","blocksiteaddress":"3100 B/O 13TH ST NW","neighborhoodcluster":"2","method":"2","lastmodifieddate":"4/15/2010 7:02:06 AM","shift":"UNK","businessimprovementdistrict":"NONE","hotspot2006name":"NONE","psa":"302","longitude":-77.0297076825741,"reportdatetime":"4/14/2010 12:00:00 AM","id":"7162","nid":828300,"hotspot2004name":"NONE","smd":"1A06","ward":"1","state":"DC","offense":"THEFT F/AUTO","distance":98.2609782580826},"type":"Feature","geometry":{"type":"Point","coordinates":[-77.0297076825741,38.9291460801832]}},{"properties":{"hotspot2005name":"NONE","anc":"1A","city":"WASHINGTON","latitude":38.9291460801832,"district":"THIRD","ccn":"10073531","blocksiteaddress":"3100 B/O 13TH ST NW","neighborhoodcluster":"2","method":"ASSAULT W/INTENT","lastmodifieddate":"8/2/2010 7:23:10 AM","shift":"UNK","businessimprovementdistrict":"NONE","hotspot2006name":"NONE","psa":"302","longitude":-77.0297076825741,"reportdatetime":"5/28/2010 12:00:00 AM","id":"11267","nid":847471,"hotspot2004name":"NONE","smd":"1A06","ward":"1","state":"DC","offense":"ROBBERY","distance":98.2609782580826},"type":"Feature","geometry":{"type":"Point","coordinates":[-77.0297076825741,38.9291460801832]}},{"properties":{"hotspot2005name":"NONE","anc":"1A","city":"WASHINGTON","latitude":38.9291460801832,"district":"THIRD","ccn":"10026005","blocksiteaddress":"3100 B/O 13TH ST NW","neighborhoodcluster":"2","method":"2","lastmodifieddate":"3/3/2010 7:15:53 AM","shift":"UNK","businessimprovementdistrict":"NONE","hotspot2006name":"NONE","psa":"302","longitude":-77.0297076825741,"reportdatetime":"3/1/2010 12:00:00 AM","id":"3849","nid":810859,"hotspot2004name":"NONE","smd":"1A06","ward":"1","state":"DC","offense":"THEFT F/AUTO","distance":98.2609782580826},"type":"Feature","geometry":{"type":"Point","coordinates":[-77.0297076825741,38.9291460801832]}},{"properties":{"hotspot2005name":"NONE","anc":"1A","city":"WASHINGTON","latitude":38.9291460801832,"district":"THIRD","ccn":"10098324","blocksiteaddress":"3100 B/O 13TH ST NW","neighborhoodcluster":"2","method":"F&amp;V","lastmodifieddate":"7/13/2010 1:28:57 PM","shift":"UNK","businessimprovementdistrict":"NONE","hotspot2006name":"NONE","psa":"302","longitude":-77.0297076825741,"reportdatetime":"7/12/2010 12:00:00 AM","id":"15374","nid":867276,"hotspot2004name":"NONE","smd":"1A06","ward":"1","state":"DC","offense":"ROBBERY","distance":98.2609782580826},"type":"Feature","geometry":{"type":"Point","coordinates":[-77.0297076825741,38.9291460801832]}},{"properties":{"hotspot2005name":"NONE","anc":"1A","city":"WASHINGTON","latitude":38.9291460801832,"district":"THIRD","ccn":"10114009","blocksiteaddress":"3100 B/O 13TH ST NW","neighborhoodcluster":"2","method":"1","lastmodifieddate":"8/11/2010 9:14:43 AM","shift":"UNK","businessimprovementdistrict":"NONE","hotspot2006name":"NONE","psa":"302","longitude":-77.0297076825741,"reportdatetime":"8/9/2010 12:00:00 AM","id":"18185","nid":880382,"hotspot2004name":"NONE","smd":"1A06","ward":"1","state":"DC","offense":"THEFT","distance":98.2609782580826},"type":"Feature","geometry":{"type":"Point","coordinates":[-77.0297076825741,38.9291460801832]}},{"properties":{"hotspot2005name":"NONE","anc":"1A","city":"WASHINGTON","latitude":38.9291460801832,"district":"THIRD","ccn":"10043906","blocksiteaddress":"3100 B/O 13TH ST NW","neighborhoodcluster":"2","method":"2","lastmodifieddate":"4/14/2010 7:32:04 AM","shift":"UNK","businessimprovementdistrict":"NONE","hotspot2006name":"NONE","psa":"302","longitude":-77.0297076825741,"reportdatetime":"4/4/2010 12:00:00 AM","id":"6442","nid":824480,"hotspot2004name":"NONE","smd":"1A06","ward":"1","state":"DC","offense":"THEFT F/AUTO","distance":98.2609782580826},"type":"Feature","geometry":{"type":"Point","coordinates":[-77.0297076825741,38.9291460801832]}},{"properties":{"hotspot2005name":"NONE","anc":"1A","city":"WASHINGTON","latitude":38.9291460801832,"district":"THIRD","ccn":"10080677","blocksiteaddress":"3100 B/O 13TH ST NW","neighborhoodcluster":"2","method":"KNIFE","lastmodifieddate":"6/11/2010 7:13:05 AM","shift":"UNK","businessimprovementdistrict":"NONE","hotspot2006name":"NONE","psa":"302","longitude":-77.0297076825741,"reportdatetime":"6/10/2010 12:00:00 AM","id":"12474","nid":853529,"hotspot2004name":"NONE","smd":"1A06","ward":"1","state":"DC","offense":"ADW","distance":98.2609782580826},"type":"Feature","geometry":{"type":"Point","coordinates":[-77.0297076825741,38.9291460801832]}},{"properties":{"hotspot2005name":"NONE","anc":"1A","city":"WASHINGTON","latitude":38.9291460801832,"district":"THIRD","ccn":"10071018","blocksiteaddress":"3100 B/O 13TH ST NW","neighborhoodcluster":"2","method":"2","lastmodifieddate":"6/7/2010 7:01:55 AM","shift":"UNK","businessimprovementdistrict":"NONE","hotspot2006name":"NONE","psa":"302","longitude":-77.0297076825741,"reportdatetime":"5/2/2010 12:00:00 AM","id":"10856","nid":845544,"hotspot2004name":"NONE","smd":"1A06","ward":"1","state":"DC","offense":"THEFT F/AUTO","distance":98.2609782580826},"type":"Feature","geometry":{"type":"Point","coordinates":[-77.0297076825741,38.9291460801832]}},{"properties":{"hotspot2005name":"NONE","anc":"1A","city":"WASHINGTON","latitude":38.9291460801832,"district":"THIRD","ccn":"10059847","blocksiteaddress":"3100 B/O 13TH ST NW","neighborhoodcluster":"2","method":"2","lastmodifieddate":"5/5/2010 7:02:07 AM","shift":"UNK","businessimprovementdistrict":"NONE","hotspot2006name":"NONE","psa":"302","longitude":-77.0297076825741,"reportdatetime":"5/4/2010 12:00:00 AM","id":"8980","nid":836925,"hotspot2004name":"NONE","smd":"1A06","ward":"1","state":"DC","offense":"THEFT","distance":98.2609782580826},"type":"Feature","geometry":{"type":"Point","coordinates":[-77.0297076825741,38.9291460801832]}},{"properties":{"hotspot2005name":"NONE","anc":"1A","city":"WASHINGTON","latitude":38.9291460801832,"district":"THIRD","ccn":"10185504","blocksiteaddress":"3100 B/O 13TH ST NW","neighborhoodcluster":"2","method":"F&amp;V","lastmodifieddate":"1/20/2011 7:01:13 AM","shift":"UNK","businessimprovementdistrict":"NONE","hotspot2006name":"NONE","psa":"302","longitude":-77.0297076825741,"reportdatetime":"12/28/2010 12:00:00 AM","id":"31047","nid":941638,"hotspot2004name":"NONE","smd":"1A06","ward":"1","state":"DC","offense":"ROBBERY","distance":98.2609782580826},"type":"Feature","geometry":{"type":"Point","coordinates":[-77.0297076825741,38.9291460801832]}},{"properties":{"hotspot2005name":"NONE","anc":"1A","city":"WASHINGTON","latitude":38.9291460801832,"district":"THIRD","ccn":"10095217","blocksiteaddress":"3100 B/O 13TH ST NW","neighborhoodcluster":"2","method":"2","lastmodifieddate":"7/13/2010 8:54:23 AM","shift":"UNK","businessimprovementdistrict":"NONE","hotspot2006name":"NONE","psa":"302","longitude":-77.0297076825741,"reportdatetime":"7/6/2010 12:00:00 AM","id":"14936","nid":865241,"hotspot2004name":"NONE","smd":"1A06","ward":"1","state":"DC","offense":"THEFT F/AUTO","distance":98.2609782580826},"type":"Feature","geometry":{"type":"Point","coordinates":[-77.0297076825741,38.9291460801832]}},{"properties":{"hotspot2005name":"NONE","anc":"1A","city":"WASHINGTON","latitude":38.9291460801832,"district":"THIRD","ccn":"10128775","blocksiteaddress":"3100 B/O 13TH ST NW","neighborhoodcluster":"2","method":"1","lastmodifieddate":"9/7/2010 7:01:43 AM","shift":"UNK","businessimprovementdistrict":"NONE","hotspot2006name":"NONE","psa":"302","longitude":-77.0297076825741,"reportdatetime":"9/5/2010 12:00:00 AM","id":"20764","nid":893745,"hotspot2004name":"NONE","smd":"1A06","ward":"1","state":"DC","offense":"THEFT","distance":98.2609782580826},"type":"Feature","geometry":{"type":"Point","coordinates":[-77.0297076825741,38.9291460801832]}},{"properties":{"hotspot2005name":"NONE","anc":"1A","city":"WASHINGTON","latitude":38.9291460801832,"district":"THIRD","ccn":"10025999","blocksiteaddress":"3100 B/O 13TH ST NW","neighborhoodcluster":"2","method":"2","lastmodifieddate":"3/3/2010 7:15:48 AM","shift":"UNK","businessimprovementdistrict":"NONE","hotspot2006name":"NONE","psa":"302","longitude":-77.0297076825741,"reportdatetime":"3/1/2010 12:00:00 AM","id":"3794","nid":810577,"hotspot2004name":"NONE","smd":"1A06","ward":"1","state":"DC","offense":"THEFT F/AUTO","distance":98.2609782580826},"type":"Feature","geometry":{"type":"Point","coordinates":[-77.0297076825741,38.9291460801832]}},{"properties":{"hotspot2005name":"NONE","anc":"3C","city":"WASHINGTON","latitude":38.932542232222,"district":"SECOND","ccn":"10102386","blocksiteaddress":"3300 B/O LOWELL ST NW","neighborhoodcluster":"15","method":"2","lastmodifieddate":"9/28/2010 7:01:19 AM","shift":"UNK","businessimprovementdistrict":"NONE","hotspot2006name":"NONE","psa":"204","longitude":-77.0658225107278,"reportdatetime":"7/19/2010 12:00:00 AM","id":"16086","nid":870449,"hotspot2004name":"NONE","smd":"3C09","ward":"3","state":"DC","offense":"THEFT","distance":67.4989236379666},"type":"Feature","geometry":{"type":"Point","coordinates":[-77.0658225107278,38.932542232222]}},{"properties":{"hotspot2005name":"NONE","anc":"5A","city":"WASHINGTON","latitude":38.9523538537534,"district":"FOURTH","ccn":"10151869","blocksiteaddress":"100 B/O GALLATIN ST NE","neighborhoodcluster":"19","method":"CHILD 1ST","lastmodifieddate":"10/20/2010 7:16:04 AM","shift":"UNK","businessimprovementdistrict":"NONE","hotspot2006name":"NONE","psa":"405","longitude":-77.0073665178446,"reportdatetime":"10/19/2010 12:00:00 AM","id":"24877","nid":913609,"hotspot2004name":"NONE","smd":"5A01","ward":"5","state":"DC","offense":"SEX ABUSE","distance":77.9774746032514},"type":"Feature","geometry":{"type":"Point","coordinates":[-77.0073665178446,38.9523538537534]}},{"properties":{"hotspot2005name":"NONE","anc":"5A","city":"WASHINGTON","latitude":38.9523538537534,"district":"FOURTH","ccn":"10078793","blocksiteaddress":"100 B/O GALLATIN ST NE","neighborhoodcluster":"19","method":"2","lastmodifieddate":"6/11/2010 7:12:59 AM","shift":"UNK","businessimprovementdistrict":"NONE","hotspot2006name":"NONE","psa":"405","longitude":-77.0073665178446,"reportdatetime":"6/7/2010 12:00:00 AM","id":"12144","nid":851938,"hotspot2004name":"NONE","smd":"5A01","ward":"5","state":"DC","offense":"THEFT F/AUTO","distance":77.9774746032514},"type":"Feature","geometry":{"type":"Point","coordinates":[-77.0073665178446,38.9523538537534]}},{"properties":{"hotspot2005name":"NONE","anc":"5A","city":"WASHINGTON","latitude":38.9523538537534,"district":"FOURTH","ccn":"10002845","blocksiteaddress":"100 B/O GALLATIN ST NE","neighborhoodcluster":"19","method":"OTHER","lastmodifieddate":"3/2/2010 7:15:45 AM","shift":"UNK","businessimprovementdistrict":"NONE","hotspot2006name":"NONE","psa":"405","longitude":-77.0073665178446,"reportdatetime":"1/7/2010 12:00:00 AM","id":"561","nid":792042,"hotspot2004name":"NONE","smd":"5A01","ward":"5","state":"DC","offense":"ADW","distance":77.9774746032514},"type":"Feature","geometry":{"type":"Point","coordinates":[-77.0073665178446,38.9523538537534]}}],"is_temporal":false,"author":{"url":"","metadata":"","contact_name":"","contact_address":"","source":"","contact_phone":""},"source":"","pagination":{"sort":null,"start":0,"total":90,"limit":1000000},"state":"complete","tags":"","published":"2014-08-13T06:44:58-04:00","id":186129}