{"type":"FeatureCollection","data_type":"Dataset","url_type":null,"permissions":[{"permissions":{"download":true,"view":true},"group_id":"everyone"}],"classification":null,"title":"open source conferences map data","count":39,"stream_id":186238,"contributor":{"url":"http://geocommons.com/users/37208","name":"rsuehle"},"data_attributes":null,"calculation_params":null,"icon_link":null,"link":"http://geocommons.com/overlays/186238.json","extent":[-122.676,-37.5667,143.85,52.5167],"geometry_types":["point"],"unique_name":null,"name":"open source conferences map data","feature_count":39,"description":"","next_feature":null,"is_raster":false,"short_classification":"Y","stats":{},"features":[{"properties":{"city":"Ballarat","geo_score":1.0,"url":"http://lca2011.linux.org.au/","country":"Australia","event":"linux.conf.au","id":"a6b1bsig3qyp","geo_precision":"zip","state":null},"type":"Feature","geometry":{"type":"Point","coordinates":[143.85,-37.5666667]}},{"properties":{"city":"Geneva","geo_score":0.976,"url":"http://www.liftconference.com/lift11","country":"Switzerland","event":"LIFT","id":"a6b1bsesbnsw","geo_precision":"zip","state":null},"type":"Feature","geometry":{"type":"Point","coordinates":[6.14569187164307,46.2022156980098]}},{"properties":{"city":"Los Angeles","geo_score":0.946,"url":"http://www.socallinuxexpo.org","country":"United States","event":"Southern CA Linux Expo (SCALE)","id":"a6b1bskxpt74","geo_precision":"zip","state":"CA"},"type":"Feature","geometry":{"type":"Point","coordinates":[-118.2009079,34.3666648]}},{"properties":{"city":"Brussels","geo_score":1.0,"url":"http://fosdem.org/","country":"Belgium","event":"FOSDEM","id":"a6b1bsj5kxuy","geo_precision":"zip","state":null},"type":"Feature","geometry":{"type":"Point","coordinates":[4.35277462005615,50.8465974826927]}},{"properties":{"city":"Columbia","geo_score":1.0,"url":"http://posscon.org/","country":"United States","event":"POSSCON","id":"a6b1bsbsbuih","geo_precision":"zip","state":"SC"},"type":"Feature","geometry":{"type":"Point","coordinates":[-81.0348144,34.0007104]}},{"properties":{"city":"Chicago","geo_score":1.0,"url":"http://www.flourishconf.com","country":"United States","event":"Flourish","id":"a6b1bse8sa6a","geo_precision":"zip","state":"IL"},"type":"Feature","geometry":{"type":"Point","coordinates":[-87.6500523,41.850033]}},{"properties":{"city":"San Francisco","geo_score":1.0,"url":"http://www.gdconf.com/","country":"United States","event":"Game Developers Conference","id":"a6b1bsa5x710","geo_precision":"zip","state":"CA"},"type":"Feature","geometry":{"type":"Point","coordinates":[-122.4194155,37.7749295]}},{"properties":{"city":"Boston","geo_score":1.0,"url":"http://libreplanet.org/wiki/LibrePlanet2012","country":"United States","event":"Libre Planet","id":"a6b1bsb8sv3s","geo_precision":"zip","state":"MA"},"type":"Feature","geometry":{"type":"Point","coordinates":[-71.0597732,42.3584308]}},{"properties":{"city":"Troy","geo_score":1.0,"url":"http://www.penguicon.org/","country":"United States","event":"Penguicon","id":"a6b1bscs4vlk","geo_precision":"zip","state":"MI"},"type":"Feature","geometry":{"type":"Point","coordinates":[-83.1499304,42.6055893]}},{"properties":{"city":"Bellingham","geo_score":1.0,"url":"http://linuxfestnorthwest.org/","country":"United States","event":"LinuxFest Northwest","id":"a6b1bs86r2zy","geo_precision":"zip","state":"WA"},"type":"Feature","geometry":{"type":"Point","coordinates":[-122.4882249,48.7595529]}},{"properties":{"city":"Austin","geo_score":1.0,"url":"http://texaslinuxfest.org/","country":"United States","event":"Texas LinuxFest","id":"a6b1bsgaj5wc","geo_precision":"zip","state":"TX"},"type":"Feature","geometry":{"type":"Point","coordinates":[-97.7430608,30.267153]}},{"properties":{"city":"Boston","geo_score":1.0,"url":"http://www.redhat.com/summit","country":"United States","event":"Red Hat Summit","id":"a6b1bs6wmawm","geo_precision":"zip","state":"MA"},"type":"Feature","geometry":{"type":"Point","coordinates":[-71.0597732,42.3584308]}},{"properties":{"city":"Las Vegas","geo_score":1.0,"url":"http://www.interop.com/lasvegas/","country":"United States","event":"InterOp","id":"a6b1bsadme9l","geo_precision":"zip","state":"NV"},"type":"Feature","geometry":{"type":"Point","coordinates":[-115.137223,36.1749705]}},{"properties":{"city":"San Francisco","geo_score":1.0,"url":"http://makerfaire.com/","country":"United States","event":"Maker Faire","id":"a6b1bsfug31c","geo_precision":"zip","state":"CA"},"type":"Feature","geometry":{"type":"Point","coordinates":[-122.4194155,37.7749295]}},{"properties":{"city":"Berlin","geo_score":1.0,"url":"http://www.linuxtag.org","country":"Germany","event":"LinuxTag","id":"a6b1bs8k6wb2","geo_precision":"zip","state":null},"type":"Feature","geometry":{"type":"Point","coordinates":[13.4,52.5166667]}},{"properties":{"city":"Portland","geo_score":1.0,"url":"http://opensourcebridge.org/","country":"United States","event":"Open Source Bridge","id":"a6b1bs9fhafh","geo_precision":"zip","state":"OR"},"type":"Feature","geometry":{"type":"Point","coordinates":[-122.6762071,45.5234515]}},{"properties":{"city":"Portland","geo_score":1.0,"url":"http://www.communityleadershipsummit.com/","country":"United States","event":"Community Leadership Summit","id":"a6b1bsgp9xpo","geo_precision":"zip","state":"OR"},"type":"Feature","geometry":{"type":"Point","coordinates":[-122.6762071,45.5234515]}},{"properties":{"city":"Ottawa","geo_score":1.0,"url":"http://www.linuxsymposium.org","country":"Canada","event":"Linux Symposium","id":"a6b1bs9z695m","geo_precision":"zip","state":null},"type":"Feature","geometry":{"type":"Point","coordinates":[-75.6902861595154,45.4209405046496]}},{"properties":{"city":"Portland","geo_score":0.0,"url":"http://conferences.oreillynet.com/","country":"Portland, OR","event":"OSCON","id":"a6b1bsfidyed","geo_precision":"unmatched","state":"OR"},"type":"Feature","geometry":null},{"properties":{"city":"San Diego","geo_score":1.0,"url":"http://events.linuxfoundation.org/events/linuxcon","country":"United States","event":"LinuxCon","id":"a6b1bs7mb07c","geo_precision":"zip","state":"CA"},"type":"Feature","geometry":{"type":"Point","coordinates":[-117.1572551,32.7153292]}},{"properties":{"city":"Hammamet","geo_score":0.0,"url":"http://oss2012.org/","country":"Tunisia","event":"OSS 2011","id":"a6b1bsfcvnde","geo_precision":"unmatched","state":null},"type":"Feature","geometry":null},{"properties":{"city":"Nuremberg","geo_score":0.0,"url":"http://www.linux-kongress.org","country":"Germany","event":"Linux-Kongress","id":"a6b1bsine6uh","geo_precision":"unmatched","state":null},"type":"Feature","geometry":null},{"properties":{"city":"Baltimore","geo_score":0.943,"url":"http://gracehopper.org","country":"United States","event":"Grace Hopper (Women in Computing)","id":"a6b1bs8vmxao","geo_precision":"zip","state":"MD"},"type":"Feature","geometry":{"type":"Point","coordinates":[-76.6496931,39.4667728]}},{"properties":{"city":"Paris","geo_score":1.0,"url":"http://www.openworldforum.org/attend/program","country":"France","event":"Open World Forum","id":"a6b1bsabv49o","geo_precision":"zip","state":null},"type":"Feature","geometry":{"type":"Point","coordinates":[2.3488,48.85341]}},{"properties":{"city":"Washington","geo_score":1.0,"url":"http://gov2summit.com/","country":"United States","event":"Gov2.0 Summit","id":"a6b1bse7qoyo","geo_precision":"zip","state":"DC"},"type":"Feature","geometry":{"type":"Point","coordinates":[-120.5014693,47.5001238]}},{"properties":{"city":"Yokohama","geo_score":1.0,"url":"http://events.linuxfoundation.org/events/linuxcon-japan","country":"Japan","event":"LinuxCon Japan","id":"a6b1bs70jay1","geo_precision":"zip","state":null},"type":"Feature","geometry":{"type":"Point","coordinates":[139.65,35.45]}},{"properties":{"city":"Columbus","geo_score":1.0,"url":"http://www.ohiolinux.org/","country":"United States","event":"Ohio LinuxFest","id":"a6b1bsec29jl","geo_precision":"zip","state":"OH"},"type":"Feature","geometry":{"type":"Point","coordinates":[-82.9987942,39.9611755]}},{"properties":{"city":"New York City","geo_score":0.948,"url":"http://www.openhardwaresummit.org/","country":"United States","event":"Open Hardware Summit","id":"a6b1bs8k0pps","geo_precision":"zip","state":"NY"},"type":"Feature","geometry":{"type":"Point","coordinates":[-75.4998978,43.0003472]}},{"properties":{"city":"Salt Lake City","geo_score":0.969,"url":"http://utosc.com/","country":"United States","event":"Utah Open Source Conference","id":"a6b1bsjhkm83","geo_precision":"zip","state":"UT"},"type":"Feature","geometry":{"type":"Point","coordinates":[-111.8763236,40.6255033]}},{"properties":{"city":"San Diego","geo_score":1.0,"url":"https://events.linuxfoundation.org/events/linux-kernel-summit","country":"United States","event":"Linux Kernel Summit","id":"a6b1bs8awl2r","geo_precision":"zip","state":"CA"},"type":"Feature","geometry":{"type":"Point","coordinates":[-117.1572551,32.7153292]}},{"properties":{"city":null,"geo_score":0.0,"url":"https://www.facebook.com/mosc2012","country":"Malaysia","event":"Malaysia Open Source Conference","id":"a6b1bsjlj0t7","geo_precision":"unmatched","state":null},"type":"Feature","geometry":null},{"properties":{"city":"San Francisco","geo_score":1.0,"url":"https://events.linuxfoundation.org/events/collaboration-summit","country":"United States","event":"Collaboration Summit","id":"a6b1bsku230q","geo_precision":"zip","state":"CA"},"type":"Feature","geometry":{"type":"Point","coordinates":[-122.4194155,37.7749295]}},{"properties":{"city":"Barcelona","geo_score":1.0,"url":"https://events.linuxfoundation.org/events/linuxcon-europe","country":"Spain","event":"LinuxCon Europe","id":"a6b1bshlobj9","geo_precision":"zip","state":null},"type":"Feature","geometry":{"type":"Point","coordinates":[2.12803760957452,41.3994235991885]}},{"properties":{"city":"Detroit","geo_score":1.0,"url":"http://makerfaire.com/","country":"United States","event":"Maker Faire","id":"a6b1bs8ea0ol","geo_precision":"zip","state":"MI"},"type":"Feature","geometry":{"type":"Point","coordinates":[-83.0457538,42.331427]}},{"properties":{"city":"New York","geo_score":1.0,"url":"http://makerfaire.com/","country":"United States","event":"Maker Faire","id":"a6b1bs644xbe","geo_precision":"zip","state":"NY"},"type":"Feature","geometry":{"type":"Point","coordinates":[-75.4998978,43.0003472]}},{"properties":{"city":"Denver","geo_score":1.0,"url":"http://denver2012.drupal.org/","country":"United States","event":"DrupalCon","id":"a6b1bscliqy8","geo_precision":"zip","state":"CO"},"type":"Feature","geometry":{"type":"Point","coordinates":[-104.9847034,39.7391536]}},{"properties":{"city":"Blacksburg","geo_score":1.0,"url":"https://fedoraproject.org/wiki/FUDCon:Blacksburg_2012","country":"United States","event":"FUDCon","id":"a6b1bsaxg1wu","geo_precision":"zip","state":"VA"},"type":"Feature","geometry":{"type":"Point","coordinates":[-80.4139393,37.2295733]}},{"properties":{"city":"Bangalore","geo_score":0.952,"url":"http://www.jboss.org/events/JUDCon/2012/india.html","country":"India","event":"JUDCon","id":"a6b1bsm9n56y","geo_precision":"zip","state":null},"type":"Feature","geometry":{"type":"Point","coordinates":[77.6032912731171,12.9762266976805]}},{"properties":{"city":"Indianapolis","geo_score":1.0,"url":"http://www.indianalinux.org/cms/","country":"United States","event":"Indiana LinuxFest","id":"a6b1bsaab7d3","geo_precision":"zip","state":"IN"},"type":"Feature","geometry":{"type":"Point","coordinates":[-86.1580423,39.7683765]}}],"is_temporal":false,"author":{"url":"","metadata":"","contact_name":"","contact_address":"","source":"","contact_phone":""},"source":"","pagination":{"sort":null,"start":0,"total":39,"limit":1000000},"state":"complete","tags":"","published":"2014-08-13T06:51:45-04:00","id":186238}