{"type":"FeatureCollection","data_type":"Dataset","url_type":null,"permissions":[{"permissions":{"download":true,"view":true},"group_id":"everyone"}],"classification":null,"title":"brooks brothers location 2009","count":224,"stream_id":18650,"contributor":{"url":"http://geocommons.com/users/139","name":"Burkey"},"data_attributes":null,"calculation_params":null,"icon_link":null,"link":"http://geocommons.com/overlays/18650.json","extent":[-158.008,0.0,0.0,48.092],"geometry_types":["point"],"unique_name":null,"name":"brooks brothers location 2009","feature_count":224,"description":"","next_feature":null,"is_raster":false,"short_classification":"Y","stats":{"lon":{"max":0.0,"mean":-82.0411197544643,"variance":684.56229107757,"stdev":26.1641413212352,"min":-158.00795,"median":-81.345403},"lat":{"max":48.091989,"mean":35.06033225,"variance":106.126127494744,"stdev":10.3017536126013,"min":0.0,"median":38.690814}},"features":[{"properties":{"lon":-96.66154,"city":"ALLEN","zip":"75013","phone":"972-678-2877","id":"a6c2f51u1ipw","lat":33.130071,"address":"820 WEST STACY ROAD","storetype":"Factory/Outlet","state":"TX","location":"Allen Premium Outlets"},"type":"Feature","geometry":{"type":"Point","coordinates":[-96.66154,33.130071]}},{"properties":{"lon":-73.670986,"city":"MANHASSET","zip":"11030","phone":"516-365-3502","id":"a6c2f59w0zq4","lat":40.796569,"address":"2128 NORTHERN BLVD","storetype":"Retail","state":"NY","location":"Americana Manhasset"},"type":"Feature","geometry":{"type":"Point","coordinates":[-73.670986,40.796569]}},{"properties":{"lon":-81.345403,"city":"AURORA","zip":"44202","phone":"330-562-1122","id":"a6c2f53at6jp","lat":41.302851,"address":"549 SOUTH CHILLICOTHE RD","storetype":"Factory/Outlet","state":"OH","location":"Aurora Premium Outlets"},"type":"Feature","geometry":{"type":"Point","coordinates":[-81.345403,41.302851]}},{"properties":{"lon":-80.124179,"city":"BAL HARBOUR","zip":"33154","phone":"305-865-8686","id":"a6c2f549sh7c","lat":25.889073,"address":"9700 COLLINS AVENUE","storetype":"Retail","state":"FL","location":"Bal Harbour Shops"},"type":"Feature","geometry":{"type":"Point","coordinates":[-80.124179,25.889073]}},{"properties":{"lon":-87.914067,"city":"GLENDALE","zip":"53217","phone":"414-967-0893","id":"a6c2f545qj7a","lat":43.121049,"address":"5700 NORTH BAYSHORE DRIVE","storetype":"Retail","state":"WI","location":"Bayshore Town Center"},"type":"Feature","geometry":{"type":"Point","coordinates":[-87.914067,43.121049]}},{"properties":{"lon":-81.496613,"city":"BEACHWOOD","zip":"44122","phone":"216-292-6852","id":"a6c2f55lunbw","lat":41.501147,"address":"26300 CEDAR ROAD","storetype":"Retail","state":"OH","location":"Beachwood Place"},"type":"Feature","geometry":{"type":"Point","coordinates":[-81.496613,41.501147]}},{"properties":{"lon":-70.101479,"city":"FREEPORT","zip":"4032","phone":"207-865-1835","id":"a6c2f4zzgnda","lat":43.856632,"address":"24 BOW STREET","storetype":"Factory/Outlet","state":"ME","location":"Bow Street"},"type":"Feature","geometry":{"type":"Point","coordinates":[-70.101479,43.856632]}},{"properties":{"lon":-71.315727,"city":"NEWPORT","zip":"2840","phone":"401-847-1950","id":"a6c2f5c559qs","lat":41.490124,"address":"139 SWINBURNE ROW","storetype":"Retail - Country Club","state":"RI","location":"Brick Market II - COUNTRY CLUB"},"type":"Feature","geometry":{"type":"Point","coordinates":[-71.315727,41.490124]}},{"properties":{"lon":-73.981935,"city":"NEW YORK","zip":"10023","phone":"212-362-2374","id":"a6c2f59c2i70","lat":40.772805,"address":"1934 BROADWAY at 65th STREET","storetype":"Retail","state":"NY","location":"Broadway"},"type":"Feature","geometry":{"type":"Point","coordinates":[-73.981935,40.772805]}},{"properties":{"lon":-119.058683,"city":"Camarillo","zip":"93010","phone":"805-383-6225","id":"a6c2f5eew9e4","lat":34.215791,"address":"900 CAMARILLO CENTER DRIVE","storetype":"Factory/Outlet","state":"CA","location":"Camarillo Premium Outlets"},"type":"Feature","geometry":{"type":"Point","coordinates":[-119.058683,34.215791]}},{"properties":{"lon":-117.322796,"city":"CARLSBAD","zip":"92008","phone":"760-930-8066","id":"a6c2f50ev9yp","lat":33.126518,"address":"5610 PASEO DEL NORTE","storetype":"Factory/Outlet","state":"CA","location":"Carlsbad Premium Outlets"},"type":"Feature","geometry":{"type":"Point","coordinates":[-117.322796,33.126518]}},{"properties":{"lon":-78.308217,"city":"SMITHFIELD","zip":"27577","phone":"919-989-6328","id":"a6c2f5b6yuor","lat":35.511109,"address":"1209 INDUSTRIAL PARK DRIVE","storetype":"Factory/Outlet","state":"NC","location":"Carolina Premium Outlets"},"type":"Feature","geometry":{"type":"Point","coordinates":[-78.308217,35.511109]}},{"properties":{"lon":-104.952114,"city":"DENVER","zip":"80206","phone":"303-355-0069","id":"a6c2f5215bbf","lat":39.717958,"address":"3000 EAST FIRST AVENUE","storetype":"Retail","state":"CO","location":"Cherry Creek S/C"},"type":"Feature","geometry":{"type":"Point","coordinates":[-104.952114,39.717958]}},{"properties":{"lon":0.0,"city":"CHERRY HILL","zip":"8002","phone":"856-661-1505","id":"a6c2f5ad0bjn","lat":0.0,"address":"2000 ROUTE 38","storetype":"Retail","state":"NJ","location":"Cherry Hill Mall"},"type":"Feature","geometry":{"type":"Point","coordinates":[0.0,0.0]}},{"properties":{"lon":-88.276851,"city":"AURORA","zip":"60502","phone":"630-585-1034","id":"a6c2f55uux80","lat":41.799567,"address":"1650 PREMIUM OUTLET BLVD","storetype":"Factory/Outlet","state":"IL","location":"Chicago Premium Outlets"},"type":"Feature","geometry":{"type":"Point","coordinates":[-88.276851,41.799567]}},{"properties":{"lon":0.0,"city":"HEBRON","zip":"41048","phone":"859-767-4987","id":"a6c2f53zewep","lat":0.0,"address":"TERMINAL 2 WAREHOUSE","storetype":"Airport","state":"KY","location":"Cincinnati/Northern Kentucky Airport"},"type":"Feature","geometry":{"type":"Point","coordinates":[0.0,0.0]}},{"properties":{"lon":-93.272819,"city":"MINNEAPOLIS","zip":"55402","phone":"612-338-1718","id":"a6c2f50xeywh","lat":44.977286,"address":"40 SOUTH SEVENTH STREET","storetype":"Retail","state":"MN","location":"City Center"},"type":"Feature","geometry":{"type":"Point","coordinates":[-93.272819,44.977286]}},{"properties":{"lon":-105.159162,"city":"LAKEWOOD","zip":"80401","phone":"303-279-8871","id":"a6c2f54e44tu","lat":39.734984,"address":"14500 W COLFAX AVENUE","storetype":"Factory/Outlet","state":"CO","location":"Colorado Mills"},"type":"Feature","geometry":{"type":"Point","coordinates":[-105.159162,39.734984]}},{"properties":{"lon":-80.718768,"city":"CONCORD","zip":"28027","phone":"704-979-6060","id":"a6c2f5ebnfdh","lat":35.371414,"address":"8111 CONCORD MILLS BLVD","storetype":"Factory/Outlet","state":"NC","location":"Concord Mills"},"type":"Feature","geometry":{"type":"Point","coordinates":[-80.718768,35.371414]}},{"properties":{"lon":-77.041027,"city":"WASHINGTON","zip":"20036","phone":"202-659-4650","id":"a6c2f5b4byzj","lat":38.905832,"address":"1201 CONNECTICUT AVENUE NW","storetype":"Retail","state":"DC","location":"Connecticut Avenue"},"type":"Feature","geometry":{"type":"Point","coordinates":[-77.041027,38.905832]}},{"properties":{"lon":-86.811051,"city":"FRANKLIN","zip":"37067","phone":"615-771-6548","id":"a6c2f5527c0y","lat":35.958899,"address":"1800 GALLERIA BOULEVARD","storetype":"Retail - 346","state":"TN","location":"Cool Springs Galleria - \"346\" BROOKS BROTHERS"},"type":"Feature","geometry":{"type":"Point","coordinates":[-86.811051,35.958899]}},{"properties":{"lon":-94.592204,"city":"KANSAS CITY","zip":"64112","phone":"816-756-2600","id":"a6c2f52c8g87","lat":39.041395,"address":"424 NICHOLS ROAD","storetype":"Retail","state":"MO","location":"Country Club Plaza"},"type":"Feature","geometry":{"type":"Point","coordinates":[-94.592204,39.041395]}},{"properties":{"lon":-94.592077,"city":"KANSAS CITY","zip":"64112","phone":"816-753-8281","id":"a6c2f58dwqyi","lat":39.042201,"address":"439 WEST 47TH STREET","storetype":"Retail - Women's Only","state":"MO","location":"Country Club Plaza - WOMEN'S ONLY"},"type":"Feature","geometry":{"type":"Point","coordinates":[-94.592077,39.042201]}},{"properties":{"lon":-75.38587,"city":"KING OF PRUSSIA","zip":"19406","phone":"610-337-9888","id":"a6c2f59gf323","lat":40.086872,"address":"690 WEST DEKALB PIKE","storetype":"Retail","state":"PA","location":"Court At King Of Prussia"},"type":"Feature","geometry":{"type":"Point","coordinates":[-75.38587,40.086872]}},{"properties":{"lon":-78.678763,"city":"RALEIGH","zip":"27612","phone":"919-783-9050","id":"a6c2f4yrcw21","lat":35.841312,"address":"4325 GLENWOOD AVENUE","storetype":"Retail","state":"NC","location":"Crabtree Valley Mall"},"type":"Feature","geometry":{"type":"Point","coordinates":[-78.678763,35.841312]}},{"properties":{"lon":-75.311133,"city":"TANNERSVILLE","zip":"18372","phone":"570-629-0771","id":"a6c2f54hep8k","lat":41.048167,"address":"1000 ROUTE 611","storetype":"Factory/Outlet","state":"PA","location":"Crossings Premium Outlets"},"type":"Feature","geometry":{"type":"Point","coordinates":[-75.311133,41.048167]}},{"properties":{"lon":0.0,"city":"DALLAS","zip":"75261","phone":"972-574-3602","id":"a6c2f59rj94r","lat":0.0,"address":"2920 NORTHBOUND SERVICE ROAD","storetype":"Airport","state":"TX","location":"Dallas/Fort Worth International Airport"},"type":"Feature","geometry":{"type":"Point","coordinates":[0.0,0.0]}},{"properties":{"lon":-116.81447,"city":"CABAZON","zip":"92230","phone":"951-849-0072","id":"a6c2f57zk12j","lat":33.927492,"address":"48650 SEMINOLE DRIVE","storetype":"Factory/Outlet","state":"CA","location":"Desert Hills Premium Outlets"},"type":"Feature","geometry":{"type":"Point","coordinates":[-116.81447,33.927492]}},{"properties":{"lon":-83.347959,"city":"DETROIT","zip":"48242","phone":"734-247-5344","id":"a6c2f591f38y","lat":42.221231,"address":"15474 PINE ROAD","storetype":"Airport","state":"MI","location":"Detroit Midfield Airport"},"type":"Feature","geometry":{"type":"Point","coordinates":[-83.347959,42.221231]}},{"properties":{"lon":-80.376825,"city":"MIAMI","zip":"33172","phone":"786-845-0881","id":"a6c2f50dk107","lat":25.7829,"address":"11401 NW 12TH STREET","storetype":"Factory/Outlet","state":"FL","location":"Dolphin Mall"},"type":"Feature","geometry":{"type":"Point","coordinates":[-80.376825,25.7829]}},{"properties":{"lon":-77.404824,"city":"DULLES","zip":"20166","phone":"703-572-6194","id":"a6c2f52q84mn","lat":38.983417,"address":"B TERMINAL","storetype":"Airport","state":"VA","location":"Dulles International Airport"},"type":"Feature","geometry":{"type":"Point","coordinates":[-77.404824,38.983417]}},{"properties":{"lon":-78.696715,"city":"WILLIAMSVILLE","zip":"14221","phone":"716-634-1576","id":"a6c2f50194md","lat":42.971101,"address":"4545 TRANSIT ROAD","storetype":"Retail - 346","state":"NY","location":"Eastern Hills Mall - \"346\" BROOKS BROTHERS"},"type":"Feature","geometry":{"type":"Point","coordinates":[-78.696715,42.971101]}},{"properties":{"lon":0.0,"city":"ESSEX","zip":"5452","phone":"802-288-9368","id":"a6c2f521rlwg","lat":0.0,"address":"21 ESSEX WAY","storetype":"Factory/Outlet","state":"VT","location":"Essex Outlet Fair"},"type":"Feature","geometry":{"type":"Point","coordinates":[0.0,0.0]}},{"properties":{"lon":-80.337954,"city":"MIAMI","zip":"33176","phone":"305-259-7870","id":"a6c2f58e1bl1","lat":25.646305,"address":"8888 SOUTHWEST 136TH ST","storetype":"Retail","state":"FL","location":"Falls,The"},"type":"Feature","geometry":{"type":"Point","coordinates":[-80.337954,25.646305]}},{"properties":{"lon":-86.10976,"city":"INDIANAPOLIS","zip":"46240","phone":"317-846-1660","id":"a6c2f593sdvw","lat":39.914277,"address":"8702 KEYSTONE CROSSING","storetype":"Retail","state":"IN","location":"Fashion Mall At Keystone"},"type":"Feature","geometry":{"type":"Point","coordinates":[-86.10976,39.914277]}},{"properties":{"lon":0.0,"city":"NIAGARA FALLS","zip":"14304","phone":"716-297-5040","id":"a6c2f5aarosf","lat":0.0,"address":"1836 MILITARY ROAD","storetype":"Factory/Outlet","state":"NY","location":"Fashion Outlets Of Niagara Falls"},"type":"Feature","geometry":{"type":"Point","coordinates":[0.0,0.0]}},{"properties":{"lon":-106.032487,"city":"SANTA FE","zip":"87507","phone":"505-473-0200","id":"a6c2f4zisahh","lat":35.613951,"address":"8380 CERILLOS ROAD","storetype":"Factory/Outlet","state":"NM","location":"Fashion Outlets of Santa Fe"},"type":"Feature","geometry":{"type":"Point","coordinates":[-106.032487,35.613951]}},{"properties":{"lon":-77.573167,"city":"RICHMOND","zip":"23235","phone":"804-272-8424","id":"a6c2f53zrd64","lat":37.547678,"address":"9200 STONY POINT PARKWAY","storetype":"Retail","state":"VA","location":"Fashion Park At Stony Point"},"type":"Feature","geometry":{"type":"Point","coordinates":[-77.573167,37.547678]}},{"properties":{"lon":0.0,"city":"NEW YORK","zip":"10103","phone":"212-261-9440","id":"a6c2f536wfrd","lat":0.0,"address":"666 FIFTH AVENUE at 53rd STREET","storetype":"Retail","state":"NY","location":"Fifth Avenue - New York"},"type":"Feature","geometry":{"type":"Point","coordinates":[0.0,0.0]}},{"properties":{"lon":-121.189675,"city":"FOLSOM","zip":"95630","phone":"916-294-0717","id":"a6c2f56jfbup","lat":38.645014,"address":"13000 FOLSOM BLVD","storetype":"Factory/Outlet","state":"CA","location":"Folsom Premium Outlets"},"type":"Feature","geometry":{"type":"Point","coordinates":[-121.189675,38.645014]}},{"properties":{"lon":-80.14483,"city":"FORT LAUDERDALE","zip":"33315","phone":"954-359-2916","id":"a6c2f4yvxn84","lat":26.072093,"address":"200 TERMINAL DRIVE","storetype":"Airport","state":"FL","location":"Fort Lauderdale-Hollywood International Airport"},"type":"Feature","geometry":{"type":"Point","coordinates":[-80.14483,26.072093]}},{"properties":{"lon":-115.17416,"city":"LAS VEGAS","zip":"89109","phone":"702-369-0705","id":"a6c2f501luiq","lat":36.116475,"address":"3500 LAS VEGAS BLVD SOUTH","storetype":"Retail","state":"NV","location":"Forum Shops At Caesar's"},"type":"Feature","geometry":{"type":"Point","coordinates":[-115.17416,36.116475]}},{"properties":{"lon":-84.513121,"city":"CINCINNATI","zip":"45202","phone":"513-651-1800","id":"a6c2f51r4v47","lat":39.101239,"address":"505 VINE STREET","storetype":"Retail","state":"OH","location":"Fountain Place"},"type":"Feature","geometry":{"type":"Point","coordinates":[-84.513121,39.101239]}},{"properties":{"lon":-74.958503,"city":"PHILADELPHIA","zip":"19154","phone":"215-632-9004","id":"a6c2f4ykkqls","lat":40.091686,"address":"1643 FRANKLIN MILLS CIRCLE","storetype":"Factory/Outlet","state":"PA","location":"Franklin Mills"},"type":"Feature","geometry":{"type":"Point","coordinates":[-74.958503,40.091686]}},{"properties":{"lon":-79.794541,"city":"TARENTUM","zip":"15084","phone":"724-274-1901","id":"a6c2f555n36s","lat":40.571024,"address":"241 PITTSBURGH MILLS CIRCLE","storetype":"Retail - 346","state":"PA","location":"Galleria At Pittsburgh Mills - \"346\" BROOKS BROTHERS"},"type":"Feature","geometry":{"type":"Point","coordinates":[-79.794541,40.571024]}},{"properties":{"lon":-95.464842,"city":"HOUSTON","zip":"77056","phone":"713-877-8775","id":"a6c2f52xjo3j","lat":29.7379,"address":"5135 W ALABAMA","storetype":"Retail","state":"TX","location":"Galleria-Houston"},"type":"Feature","geometry":{"type":"Point","coordinates":[-95.464842,29.7379]}},{"properties":{"lon":-95.463638,"city":"HOUSTON","zip":"77056","phone":"713-627-2057","id":"a6c2f5dson5p","lat":29.74055,"address":"5085 WESTHEIMER","storetype":"Retail","state":"TX","location":"Galleria-Houston"},"type":"Feature","geometry":{"type":"Point","coordinates":[-95.463638,29.74055]}},{"properties":{"lon":-76.611329,"city":"BALTIMORE","zip":"21202","phone":"410-625-0971","id":"a6c2f5enaxgu","lat":39.286649,"address":"200 E PRATT STREET","storetype":"Retail","state":"MD","location":"Gallery At Harborplace"},"type":"Feature","geometry":{"type":"Point","coordinates":[-76.611329,39.286649]}},{"properties":{"lon":-80.084296,"city":"PALM BEACH GARDENS","zip":"33410","phone":"561-775-0383","id":"a6c2f537gm9t","lat":26.845197,"address":"3101 PGA BLVD","storetype":"Retail","state":"FL","location":"Gardens Of The Palm Beaches"},"type":"Feature","geometry":{"type":"Point","coordinates":[-80.084296,26.845197]}},{"properties":{"lon":-116.382969,"city":"PALM DESERT","zip":"92260","phone":"760-779-0823","id":"a6c2f56jxbly","lat":33.71969,"address":"73-595 EL PASEO","storetype":"Retail","state":"CA","location":"Gardens On El Paseo"},"type":"Feature","geometry":{"type":"Point","coordinates":[-116.382969,33.71969]}},{"properties":{"lon":-78.38793,"city":"GARLAND","zip":"28441","phone":"910-529-1612","id":"a6c2f52opmgr","lat":34.777115,"address":"15 EAST FRONT STREET","storetype":"Factory/Outlet","state":"NC","location":"Garland Clearance Center"},"type":"Feature","geometry":{"type":"Point","coordinates":[-78.38793,34.777115]}},{"properties":{"lon":-87.909454,"city":"MILWAUKEE","zip":"53207","phone":"414-489-1568","id":"a6c2f5e0sdr1","lat":42.947668,"address":"5300 SOUTH HOWELL AVENUE","storetype":"Airport","state":"WI","location":"General Mitchell International Airport"},"type":"Feature","geometry":{"type":"Point","coordinates":[-87.909454,42.947668]}},{"properties":{"lon":-121.562614,"city":"GILROY","zip":"95020","phone":"408-847-3440","id":"a6c2f5eautyr","lat":37.023023,"address":"8300 ARROYO CIRCLE","storetype":"Factory/Outlet","state":"CA","location":"Gilroy Premium Outlets"},"type":"Feature","geometry":{"type":"Point","coordinates":[-121.562614,37.023023]}},{"properties":{"lon":0.0,"city":"SANDESTIN","zip":"32550","phone":"850-269-1255","id":"a6c2f50fxhod","lat":0.0,"address":"560 GRAND BOULEVARD","storetype":"Retail - Country Club","state":"FL","location":"Grand Boulevard At Sandestin - COUNTRY CLUB"},"type":"Feature","geometry":{"type":"Point","coordinates":[0.0,0.0]}},{"properties":{"lon":-83.306629,"city":"AUBURN HILLS","zip":"48326","phone":"248-333-1811","id":"a6c2f54p0i7r","lat":42.69234,"address":"4076 BALDWIN ROAD","storetype":"Factory/Outlet","state":"MI","location":"Great Lakes Crossing"},"type":"Feature","geometry":{"type":"Point","coordinates":[-83.306629,42.69234]}},{"properties":{"lon":-121.894761,"city":"MILPITAS","zip":"95035","phone":"408-262-1200","id":"a6c2f57nhrc2","lat":37.416374,"address":"556 GREAT MALL DRIVE","storetype":"Factory/Outlet","state":"CA","location":"Great Mall"},"type":"Feature","geometry":{"type":"Point","coordinates":[-121.894761,37.416374]}},{"properties":{"lon":-74.062469,"city":"SHREWSBURY","zip":"7702","phone":"732-530-6530","id":"a6c2f50w62pb","lat":40.331692,"address":"615 BROAD STREET","storetype":"Retail","state":"NJ","location":"Grove At Shrewsbury"},"type":"Feature","geometry":{"type":"Point","coordinates":[-74.062469,40.331692]}},{"properties":{"lon":-95.34588,"city":"HOUSTON","zip":"77032","phone":"281-233-7750","id":"a6c2f4z0c0e2","lat":29.980374,"address":"3214 IGLOO","storetype":"Airport","state":"TX","location":"Houston George Bush Airport"},"type":"Feature","geometry":{"type":"Point","coordinates":[-95.34588,29.980374]}},{"properties":{"lon":-95.704339,"city":"CYPRESS","zip":"77433","phone":"281-256-2398","id":"a6c2f5ejeleq","lat":29.9738,"address":"29300 HEMPSTEAD RD","storetype":"Factory/Outlet","state":"TX","location":"Houston Premium Outlet"},"type":"Feature","geometry":{"type":"Point","coordinates":[-95.704339,29.9738]}},{"properties":{"lon":-74.419937,"city":"JACKSON","zip":"8527","phone":"732-928-4452","id":"a6c2f4yt6wh7","lat":40.162941,"address":"537 MONMOUTH ROAD","storetype":"Factory/Outlet","state":"NJ","location":"Jackson Premium Outlets"},"type":"Feature","geometry":{"type":"Point","coordinates":[-74.419937,40.162941]}},{"properties":{"lon":-74.174171,"city":"ELIZABETH","zip":"7201","phone":"908-355-2845","id":"a6c2f4ycgv6c","lat":40.663197,"address":"651 KAPOWSKI ROAD","storetype":"Factory/Outlet","state":"NJ","location":"Jersey Gardens"},"type":"Feature","geometry":{"type":"Point","coordinates":[-74.174171,40.663197]}},{"properties":{"lon":-74.092529,"city":"Tinton Falls","zip":"7753","phone":"732-493-1393","id":"a6c2f5dflsbn","lat":40.299549,"address":"1 PREMIUM OUTLET BLVD","storetype":"Factory/Outlet","state":"NJ","location":"Jersey Shore Premium Outlets"},"type":"Feature","geometry":{"type":"Point","coordinates":[-74.092529,40.299549]}},{"properties":{"lon":-93.809016,"city":"WEST DES MOINES","zip":"50266","phone":"515-223-0718","id":"a6c2f5cgf8bx","lat":41.568902,"address":"101 JORDAN CREEK PARKWAY","storetype":"Retail - 346","state":"IA","location":"Jordan Creek Town Center - \"346\" BROOKS BROTHERS"},"type":"Feature","geometry":{"type":"Point","coordinates":[-93.809016,41.568902]}},{"properties":{"lon":-82.905708,"city":"GROSSE POINTE FARMS","zip":"48236","phone":"313-886-2300","id":"a6c2f5cquviu","lat":42.394051,"address":"11 KERCHEVAL AVENUE","storetype":"Factory/Outlet","state":"MI","location":"Kercheval Avenue"},"type":"Feature","geometry":{"type":"Point","coordinates":[-82.905708,42.394051]}},{"properties":{"lon":-110.930448,"city":"TUCSON","zip":"85718","phone":"520-529-5598","id":"a6c2f5d1f4xc","lat":32.322936,"address":"2905 E SKYLINE DRIVE","storetype":"Retail - Country Club","state":"AZ","location":"La Encantada - COUNTRY CLUB"},"type":"Feature","geometry":{"type":"Point","coordinates":[-110.930448,32.322936]}},{"properties":{"lon":-110.930448,"city":"TUCSON","zip":"85718","phone":"520-615-0604","id":"a6c2f53iiotv","lat":32.322936,"address":"2905 E SKYLINE DRIVE","storetype":"Retail - Women's Only","state":"AZ","location":"La Encantada - WOMEN'S ONLY"},"type":"Feature","geometry":{"type":"Point","coordinates":[-110.930448,32.322936]}},{"properties":{"lon":-73.871799,"city":"FLUSHING","zip":"11371","phone":"718-458-2369","id":"a6c2f560cbbw","lat":40.772126,"address":"DELTA FLIGHT CENTER","storetype":"Airport","state":"NY","location":"Laguardia Airport"},"type":"Feature","geometry":{"type":"Point","coordinates":[-73.871799,40.772126]}},{"properties":{"lon":-117.041951,"city":"SAN DIEGO","zip":"92173","phone":"619-934-4580","id":"a6c2f57s3cse","lat":32.545285,"address":"4265 CAMINO DE LA PLAZA","storetype":"Factory/Outlet","state":"CA","location":"Las Americas Premium Outlets"},"type":"Feature","geometry":{"type":"Point","coordinates":[-117.041951,32.545285]}},{"properties":{"lon":-115.156855,"city":"LAS VEGAS","zip":"89106","phone":"702-380-3081","id":"a6c2f56w8cqb","lat":36.163707,"address":"905 SOUTH GRAND CENTRAL PKWY","storetype":"Factory/Outlet","state":"NV","location":"Las Vegas Premium Outlets"},"type":"Feature","geometry":{"type":"Point","coordinates":[-115.156855,36.163707]}},{"properties":{"lon":-77.536571,"city":"LEESBURG","zip":"20176","phone":"703-443-9435","id":"a6c2f50mbrsj","lat":39.109601,"address":"241 FORT EVANS ROAD, NE","storetype":"Factory/Outlet","state":"VA","location":"Leesburg Corner Premium Outlts"},"type":"Feature","geometry":{"type":"Point","coordinates":[-77.536571,39.109601]}},{"properties":{"lon":-94.829128,"city":"KANSAS CITY","zip":"66111","phone":"913-788-8763","id":"a6c2f5emv40w","lat":39.125669,"address":"1847 VILLAGE WEST PARKWAY","storetype":"Factory/Outlet","state":"KS","location":"Legends At Village West"},"type":"Feature","geometry":{"type":"Point","coordinates":[-94.829128,39.125669]}},{"properties":{"lon":-84.364767,"city":"ATLANTA","zip":"30326","phone":"404-237-7000","id":"a6c2f5bytpno","lat":33.848774,"address":"3393 PEACHTREE ROAD NE","storetype":"Retail","state":"GA","location":"Lenox Square"},"type":"Feature","geometry":{"type":"Point","coordinates":[-84.364767,33.848774]}},{"properties":{"lon":-74.010549,"city":"NEW YORK","zip":"10006","phone":"212-267-2400","id":"a6c2f56zpzb2","lat":40.70915,"address":"ONE LIBERTY PLAZA","storetype":"Retail","state":"NY","location":"Liberty Plaza"},"type":"Feature","geometry":{"type":"Point","coordinates":[-74.010549,40.70915]}},{"properties":{"lon":-74.858475,"city":"FLEMINGTON","zip":"8822","phone":"908-788-4858","id":"a6c2f56436f9","lat":40.495823,"address":"75-B LIBERTY VILLAGE PREMIUM","storetype":"Factory/Outlet","state":"NJ","location":"Liberty Village Premium Outlet"},"type":"Feature","geometry":{"type":"Point","coordinates":[-74.858475,40.495823]}},{"properties":{"lon":-86.905369,"city":"MICHIGAN CITY","zip":"46360","phone":"219-879-6777","id":"a6c2f502p1dg","lat":41.715635,"address":"411 LIGHTHOUSE PLACE","storetype":"Factory/Outlet","state":"IN","location":"Lighthouse Place Premium Outlet"},"type":"Feature","geometry":{"type":"Point","coordinates":[-86.905369,41.715635]}},{"properties":{"lon":-73.698732,"city":"LAKE GEORGE","zip":"12845","phone":"518-798-0948","id":"a6c2f4y7h0pq","lat":43.367534,"address":"1476 STATE ROUTE 9","storetype":"Factory/Outlet","state":"NY","location":"Log Jam Outlets"},"type":"Feature","geometry":{"type":"Point","coordinates":[-73.698732,43.367534]}},{"properties":{"lon":0.0,"city":"NEW YORK","zip":"10017","phone":"212-682-8800","id":"a6c2f5au2taa","lat":0.0,"address":"346 MADISON AVENUE at 44th STREET","storetype":"Retail","state":"NY","location":"Madison Avenue"},"type":"Feature","geometry":{"type":"Point","coordinates":[0.0,0.0]}},{"properties":{"lon":-73.36171,"city":"WESTPORT","zip":"6880","phone":"203-226-7678","id":"a6c2f540n9ms","lat":41.14344,"address":"136 MAIN STREET","storetype":"Retail","state":"CT","location":"Main Street"},"type":"Feature","geometry":{"type":"Point","coordinates":[-73.36171,41.14344]}},{"properties":{"lon":-72.389266,"city":"SOUTHAMPTON","zip":"11968","phone":"631-287-3936","id":"a6c2f50bdv4l","lat":40.885566,"address":"48-50 MAIN STREET","storetype":"Retail - Country Club","state":"NY","location":"Main Street - Southampton - COUNTRY CLUB"},"type":"Feature","geometry":{"type":"Point","coordinates":[-72.389266,40.885566]}},{"properties":{"lon":-73.362061,"city":"WESTPORT","zip":"6880","phone":"203-226-9893","id":"a6c2f589q6vl","lat":41.143337,"address":"125 MAIN STREET","storetype":"Retail - Women's Only","state":"CT","location":"Main Street - WOMEN'S ONLY"},"type":"Feature","geometry":{"type":"Point","coordinates":[-73.362061,41.143337]}},{"properties":{"lon":-71.176025,"city":"CHESTNUT HILL","zip":"2467","phone":"617-964-3600","id":"a6c2f554fbst","lat":42.320251,"address":"199 BOYLSTON STREET","storetype":"Retail","state":"MA","location":"Mall At Chestnut Hill"},"type":"Feature","geometry":{"type":"Point","coordinates":[-71.176025,42.320251]}},{"properties":{"lon":-86.815706,"city":"NASHVILLE","zip":"37215","phone":"615-269-5652","id":"a6c2f545cbbi","lat":36.108441,"address":"2177 GREEN HILLS VILLAGE DRIVE","storetype":"Retail","state":"TN","location":"Mall At Green Hills"},"type":"Feature","geometry":{"type":"Point","coordinates":[-86.815706,36.108441]}},{"properties":{"lon":0.0,"city":"CLINTON TOWNSHIP","zip":"48038","phone":"586-263-4058","id":"a6c2f59tye89","lat":0.0,"address":"17370 HALL ROAD","storetype":"Retail","state":"MI","location":"Mall At Partridge Creek"},"type":"Feature","geometry":{"type":"Point","coordinates":[0.0,0.0]}},{"properties":{"lon":-84.387444,"city":"ATLANTA","zip":"30303","phone":"404-577-4040","id":"a6c2f584w7kv","lat":33.760585,"address":"235 PEACHTREE STREET NE","storetype":"Retail","state":"GA","location":"Mall At Peachtree Center"},"type":"Feature","geometry":{"type":"Point","coordinates":[-84.387444,33.760585]}},{"properties":{"lon":-74.364952,"city":"SHORT HILLS","zip":"7078","phone":"973-467-5400","id":"a6c2f5b2fp6r","lat":40.738083,"address":"1200 MORRIS TURNPIKE","storetype":"Retail","state":"NJ","location":"Mall At Short Hills"},"type":"Feature","geometry":{"type":"Point","coordinates":[-74.364952,40.738083]}},{"properties":{"lon":-80.207511,"city":"WELLINGTON","zip":"33414","phone":"561-795-0989","id":"a6c2f5cnrju4","lat":26.650823,"address":"10300 WEST FOREST HILL BLVD","storetype":"Retail - 346","state":"FL","location":"Mall At Wellington Green - \"346\" BROOKS BROTHERS"},"type":"Feature","geometry":{"type":"Point","coordinates":[-80.207511,26.650823]}},{"properties":{"lon":-85.62345,"city":"LOUISVILLE","zip":"40207","phone":"502-896-4045","id":"a6c2f56si1y0","lat":38.250116,"address":"5000 SHELBYVILLE ROAD","storetype":"Retail","state":"KY","location":"Mall St.Matthews S/C"},"type":"Feature","geometry":{"type":"Point","coordinates":[-85.62345,38.250116]}},{"properties":{"lon":0.0,"city":"MANCHESTER CENTER","zip":"5255","phone":"802-362-7044","id":"a6c2f56lrvj8","lat":0.0,"address":"460 DEPOT STREET","storetype":"Factory/Outlet","state":"VT","location":"Manchester Square"},"type":"Feature","geometry":{"type":"Point","coordinates":[0.0,0.0]}},{"properties":{"lon":-78.939146,"city":"MYRTLE BEACH","zip":"29577","phone":"843-232-0416","id":"a6c2f4zmwj36","lat":33.668668,"address":"3096 HOWARD AVENUE","storetype":"Retail - Country Club","state":"SC","location":"Market Common - COUNTRY CLUB"},"type":"Feature","geometry":{"type":"Point","coordinates":[-78.939146,33.668668]}},{"properties":{"lon":-81.772283,"city":"ESTERO","zip":"33928","phone":"239-948-2177","id":"a6c2f5d8y8v4","lat":26.435219,"address":"10801 CORKSCREW ROAD","storetype":"Factory/Outlet","state":"FL","location":"Miromar Outlets"},"type":"Feature","geometry":{"type":"Point","coordinates":[-81.772283,26.435219]}},{"properties":{"lon":-122.303873,"city":"NAPA","zip":"94558","phone":"707)258-1351","id":"a6c2f50pn7rl","lat":38.295718,"address":"637 FACTORY STORES DRIVE","storetype":"Factory/Outlet","state":"CA","location":"Napa Premium Outlets"},"type":"Feature","geometry":{"type":"Point","coordinates":[-122.303873,38.295718]}},{"properties":{"lon":-71.766838,"city":"NATICK","zip":"1760","phone":"508-650-6920","id":"a6c2f5dp6919","lat":42.272774,"address":"1245 WORCESTER ROAD","storetype":"Retail","state":"MA","location":"Natick Mall"},"type":"Feature","geometry":{"type":"Point","coordinates":[-71.766838,42.272774]}},{"properties":{"lon":-74.187675,"city":"ELIZABETH","zip":"7201","phone":"973-645-0382","id":"a6c2f5ch3n5n","lat":40.66674,"address":"606 DOWD AVE","storetype":"Airport","state":"NJ","location":"Newark Airport"},"type":"Feature","geometry":{"type":"Point","coordinates":[-74.187675,40.66674]}},{"properties":{"lon":0.0,"city":"BOSTON","zip":"2116","phone":"617-267-2600","id":"a6c2f5bv8cb4","lat":0.0,"address":"46 NEWBURY STREET","storetype":"Retail","state":"MA","location":"Newbury Street"},"type":"Feature","geometry":{"type":"Point","coordinates":[0.0,0.0]}},{"properties":{"lon":-84.045993,"city":"DAWSONVILLE","zip":"30534","phone":"706-216-2865","id":"a6c2f4z6emvn","lat":34.35632,"address":"800 HIGHWAY 400 SOUTH","storetype":"Factory/Outlet","state":"GA","location":"North Georgia Premium Outlets"},"type":"Feature","geometry":{"type":"Point","coordinates":[-84.045993,34.35632]}},{"properties":{"lon":-84.045993,"city":"DAWSONVILLE","zip":"30534","phone":"706-531-9996","id":"a6c2f54i20fb","lat":34.35632,"address":"800 HIGHWAY 400 SOUTH","storetype":"Factory/Outlet - Women's Only","state":"GA","location":"North Georgia Premium Outlets - WOMEN'S ONLY"},"type":"Feature","geometry":{"type":"Point","coordinates":[-84.045993,34.35632]}},{"properties":{"lon":-87.624067,"city":"CHICAGO","zip":"60611","phone":"312-915-0060","id":"a6c2f5chrvda","lat":41.895295,"address":"713 NORTH MICHIGAN AVENUE","storetype":"Retail","state":"IL","location":"North Michigan Avenue"},"type":"Feature","geometry":{"type":"Point","coordinates":[-87.624067,41.895295]}},{"properties":{"lon":-87.81712,"city":"NORTHBROOK","zip":"60062","phone":"847-272-3800","id":"a6c2f4zsi0wi","lat":42.151929,"address":"1146 NORTHBROOK COURT","storetype":"Retail","state":"IL","location":"Northbrook Court"},"type":"Feature","geometry":{"type":"Point","coordinates":[-87.81712,42.151929]}},{"properties":{"lon":-80.850339,"city":"CHARLOTTE","zip":"28216","phone":"704-509-1669","id":"a6c2f51k208h","lat":35.349937,"address":"6801 NORTHLAKE MALL DRIVE","storetype":"Retail","state":"NC","location":"Northlake Mall"},"type":"Feature","geometry":{"type":"Point","coordinates":[-80.850339,35.349937]}},{"properties":{"lon":-70.928513,"city":"PEABODY","zip":"1960","phone":"978-538-0090","id":"a6c2f5ad3ob7","lat":42.52634,"address":"JUNCTION RTE 114 &amp; 128","storetype":"Retail","state":"MA","location":"Northshore Mall"},"type":"Feature","geometry":{"type":"Point","coordinates":[-70.928513,42.52634]}},{"properties":{"lon":-87.956919,"city":"OAK BROOK","zip":"60523","phone":"630-571-0700","id":"a6c2f55i7xy0","lat":41.850071,"address":"212 OAKBROOK CENTER","storetype":"Retail","state":"IL","location":"Oakbrook Center"},"type":"Feature","geometry":{"type":"Point","coordinates":[-87.956919,41.850071]}},{"properties":{"lon":-82.475735,"city":"TAMPA","zip":"33606","phone":"813-251-4711","id":"a6c2f5cyls6r","lat":27.93727,"address":"700 S DAKOTA AVE","storetype":"Retail","state":"FL","location":"Old Hyde Park"},"type":"Feature","geometry":{"type":"Point","coordinates":[-82.475735,27.93727]}},{"properties":{"lon":-86.694141,"city":"NASHVILLE","zip":"37214","phone":"615-514-1190","id":"a6c2f5cgh3fs","lat":36.201013,"address":"202 OPRY MILLS DRIVE","storetype":"Factory/Outlet","state":"TN","location":"Opry Mills"},"type":"Feature","geometry":{"type":"Point","coordinates":[-86.694141,36.201013]}},{"properties":{"lon":-81.49598,"city":"ORLANDO","zip":"32821","phone":"407-239-9000","id":"a6c2f55k0067","lat":28.385928,"address":"8200 VINELAND AVENUE","storetype":"Factory/Outlet","state":"FL","location":"Orlando Premium Outlets"},"type":"Feature","geometry":{"type":"Point","coordinates":[-81.49598,28.385928]}},{"properties":{"lon":-92.658857,"city":"OSAGE BEACH","zip":"65065","phone":"573-348-2205","id":"a6c2f54kiyxn","lat":38.12724,"address":"HIGHWAY 54","storetype":"Factory/Outlet","state":"MO","location":"Osage Beach Premium Outlets"},"type":"Feature","geometry":{"type":"Point","coordinates":[-92.658857,38.12724]}},{"properties":{"lon":-106.584739,"city":"CANUTILLO","zip":"79835","phone":"915-877-2548","id":"a6c2f5asepjk","lat":31.956588,"address":"7051 S DESERT BOULEVARD","storetype":"Factory/Outlet","state":"TX","location":"Outlet Shoppes At El Paso"},"type":"Feature","geometry":{"type":"Point","coordinates":[-106.584739,31.956588]}},{"properties":{"lon":-104.874991,"city":"CASTLE ROCK","zip":"80108","phone":"303-688-8988","id":"a6c2f5ccm7le","lat":39.413833,"address":"5050 FACTORY SHOP BLVD","storetype":"Factory/Outlet","state":"CO","location":"Outlets At Castle Rock"},"type":"Feature","geometry":{"type":"Point","coordinates":[-104.874991,39.413833]}},{"properties":{"lon":-76.647185,"city":"HERSHEY","zip":"17033","phone":"717-531-3430","id":"a6c2f5657t4m","lat":40.294156,"address":"72 OUTLETS SQUARE","storetype":"Factory/Outlet","state":"PA","location":"Outlets At Hershey"},"type":"Feature","geometry":{"type":"Point","coordinates":[-76.647185,40.294156]}},{"properties":{"lon":-73.959295,"city":"WEST NYACK","zip":"10994","phone":"845-348-4773","id":"a6c2f57qwa0m","lat":41.095732,"address":"1690 PALISADES CENTER DRIVE","storetype":"Retail","state":"NY","location":"Palisades Center"},"type":"Feature","geometry":{"type":"Point","coordinates":[-73.959295,41.095732]}},{"properties":{"lon":-104.872678,"city":"Lone Tree","zip":"80124","phone":"303-792-2683","id":"a6c2f56zrzu8","lat":39.56169,"address":"8433 PARK MEADOWS CENTER DRIVE","storetype":"Retail - Country Club","state":"CO","location":"Park Meadows - COUNTRY CLUB"},"type":"Feature","geometry":{"type":"Point","coordinates":[-104.872678,39.56169]}},{"properties":{"lon":-95.395163,"city":"Pearland","zip":"77581","phone":"713-436-9348","id":"a6c2f53t77om","lat":29.555518,"address":"11200 BROADWAY","storetype":"Retail","state":"TX","location":"Pearland Town Center"},"type":"Feature","geometry":{"type":"Point","coordinates":[-95.395163,29.555518]}},{"properties":{"lon":-75.030915,"city":"LAHASKA","zip":"18931","phone":"215-794-0727","id":"a6c2f5a9sb7d","lat":40.346886,"address":"5861 YORK ROAD","storetype":"Factory/Outlet","state":"PA","location":"Penn's Purchase"},"type":"Feature","geometry":{"type":"Point","coordinates":[-75.030915,40.346886]}},{"properties":{"lon":-84.338894,"city":"ATLANTA","zip":"30346","phone":"770-394-9051","id":"a6c2f58clbuy","lat":33.922367,"address":"4400 ASHFORD DUNWOODY ROAD","storetype":"Retail","state":"GA","location":"Perimeter Mall"},"type":"Feature","geometry":{"type":"Point","coordinates":[-84.338894,33.922367]}},{"properties":{"lon":-122.651544,"city":"PETALUMA","zip":"94952","phone":"707-766-8144","id":"a6c2f57qbhjf","lat":38.255331,"address":"2200 PETALUMA BOULEVARD N","storetype":"Factory/Outlet","state":"CA","location":"Petaluma Village Premium Outlet"},"type":"Feature","geometry":{"type":"Point","coordinates":[-122.651544,38.255331]}},{"properties":{"lon":-75.232754,"city":"PHILADELPHIA","zip":"19153","phone":"215-492-4478","id":"a6c2f4z6ubmm","lat":39.909085,"address":"B C CONNECTOR TERMINAL","storetype":"Airport","state":"PA","location":"Philadelphia International Airport"},"type":"Feature","geometry":{"type":"Point","coordinates":[-75.232754,39.909085]}},{"properties":{"lon":-75.5591,"city":"POTTSTOWN","zip":"19464","phone":"610-326-1804","id":"a6c2f54eh8kw","lat":40.229875,"address":"18 LIGHTCAP ROAD","storetype":"Factory/Outlet","state":"PA","location":"Philadelphia Premium Outlets"},"type":"Feature","geometry":{"type":"Point","coordinates":[-75.5591,40.229875]}},{"properties":{"lon":-82.540438,"city":"SARASOTA","zip":"34236","phone":"941-954-7545","id":"a6c2f5a651gt","lat":27.336317,"address":"1500 MAIN STREET","storetype":"Retail - Country Club","state":"FL","location":"Pineapple Square - COUNTRY CLUB"},"type":"Feature","geometry":{"type":"Point","coordinates":[-82.540438,27.336317]}},{"properties":{"lon":-80.258934,"city":"PITTSBURGH","zip":"15231","phone":"412-472-3276","id":"a6c2f5amx1al","lat":40.495967,"address":"CENTRAL SERVICE BUILDING","storetype":"Airport","state":"PA","location":"Pittsburgh International Airport"},"type":"Feature","geometry":{"type":"Point","coordinates":[-80.258934,40.495967]}},{"properties":{"lon":-82.977676,"city":"COLUMBUS","zip":"43240","phone":"614-430-8167","id":"a6c2f5be7whw","lat":40.141704,"address":"1500 POLARIS PARKWAY","storetype":"Retail","state":"OH","location":"Polaris Fashion Place"},"type":"Feature","geometry":{"type":"Point","coordinates":[-82.977676,40.141704]}},{"properties":{"lon":-82.890097,"city":"COLUMBUS","zip":"43219","phone":"614-239-3312","id":"a6c2f53kovfw","lat":39.998622,"address":"4600 INTERNATIONAL GATEWAY","storetype":"Airport","state":"OH","location":"Port Columbus International Airport"},"type":"Feature","geometry":{"type":"Point","coordinates":[-82.890097,39.998622]}},{"properties":{"lon":-122.40472,"city":"SAN FRANCISCO","zip":"94108","phone":"415-397-4500","id":"a6c2f520nw0n","lat":37.788908,"address":"150 POST STREET","storetype":"Retail","state":"CA","location":"Post Street"},"type":"Feature","geometry":{"type":"Point","coordinates":[-122.40472,37.788908]}},{"properties":{"lon":-77.299368,"city":"WOODBRIDGE","zip":"22192","phone":"703-491-2950","id":"a6c2f54n1lbi","lat":38.645195,"address":"2700 POTOMAC MILLS CIRCLE","storetype":"Factory/Outlet","state":"VA","location":"Potomac Mills"},"type":"Feature","geometry":{"type":"Point","coordinates":[-77.299368,38.645195]}},{"properties":{"lon":-83.776603,"city":"BIRCH RUN","zip":"48415","phone":"989-624-0170","id":"a6c2f5373dhi","lat":43.245125,"address":"8825 MARKET PLACE DRIVE","storetype":"Factory/Outlet","state":"MI","location":"Prime O/C Birch Run"},"type":"Feature","geometry":{"type":"Point","coordinates":[-83.776603,43.245125]}},{"properties":{"lon":-82.506769,"city":"ELLENTON","zip":"34222","phone":"941-729-8944","id":"a6c2f56n526e","lat":27.53405,"address":"5553 FACTORY SHOPS BLVD","storetype":"Factory/Outlet","state":"FL","location":"Prime O/C Ellenton"},"type":"Feature","geometry":{"type":"Point","coordinates":[-82.506769,27.53405]}},{"properties":{"lon":-81.708622,"city":"GAFFNEY","zip":"29341","phone":"864-488-1919","id":"a6c2f56x5h4t","lat":35.082877,"address":"700 FACTORY SHOPS BLVD","storetype":"Factory/Outlet","state":"SC","location":"Prime O/C Gaffney"},"type":"Feature","geometry":{"type":"Point","coordinates":[-81.708622,35.082877]}},{"properties":{"lon":-80.154869,"city":"GROVE CITY","zip":"16127","phone":"724-748-4163","id":"a6c2f5c5valf","lat":41.14349,"address":"INTERSECTION I-79 &amp; ROUTE 208","storetype":"Factory/Outlet","state":"PA","location":"Prime O/C Grove City"},"type":"Feature","geometry":{"type":"Point","coordinates":[-80.154869,41.14349]}},{"properties":{"lon":-77.732274,"city":"HAGERSTOWN","zip":"21740","phone":"301-797-6505","id":"a6c2f583bole","lat":39.608095,"address":"175 PRIME OUTLETS BLVD","storetype":"Factory/Outlet","state":"MD","location":"Prime O/C Hagerstown"},"type":"Feature","geometry":{"type":"Point","coordinates":[-77.732274,39.608095]}},{"properties":{"lon":-83.602295,"city":"JEFFERSONVILLE","zip":"43128","phone":"740-948-2030","id":"a6c2f57nl9iv","lat":39.620908,"address":"8400 FACTORY SHOPS BLVD","storetype":"Factory/Outlet","state":"OH","location":"Prime O/C Jeffersonville"},"type":"Feature","geometry":{"type":"Point","coordinates":[-83.602295,39.620908]}},{"properties":{"lon":-86.302968,"city":"LEBANON","zip":"37090","phone":"615-453-3636","id":"a6c2f5c1d6jx","lat":36.178196,"address":"170 OUTLET VILLAGE BLVD","storetype":"Factory/Outlet","state":"TN","location":"Prime O/C Lebanon"},"type":"Feature","geometry":{"type":"Point","coordinates":[-86.302968,36.178196]}},{"properties":{"lon":-73.235199,"city":"LEE","zip":"1238","phone":"413-394-9601","id":"a6c2f59o8edx","lat":42.296875,"address":"50 WATER STREET","storetype":"Factory/Outlet","state":"MA","location":"Prime O/C Lee"},"type":"Feature","geometry":{"type":"Point","coordinates":[-73.235199,42.296875]}},{"properties":{"lon":-81.450022,"city":"ORLANDO","zip":"32819","phone":"407-363-5918","id":"a6c2f51feezo","lat":28.474245,"address":"4957 INTERNATIONAL DRIVE","storetype":"Factory/Outlet","state":"FL","location":"Prime O/C Orlando"},"type":"Feature","geometry":{"type":"Point","coordinates":[-81.450022,28.474245]}},{"properties":{"lon":-87.882899,"city":"PLEASANT PRAIRIE","zip":"53158","phone":"262-857-6900","id":"a6c2f4yy578p","lat":42.526971,"address":"11211-120TH AVENUE","storetype":"Factory/Outlet","state":"WI","location":"Prime O/C Pleasant Prairie"},"type":"Feature","geometry":{"type":"Point","coordinates":[-87.882899,42.526971]}},{"properties":{"lon":-76.159721,"city":"QUEENSTOWN","zip":"21658","phone":"410-827-5740","id":"a6c2f53ell8l","lat":38.983024,"address":"307 OUTLET CENTER DRIVE","storetype":"Factory/Outlet","state":"MD","location":"Prime O/C Queenstown"},"type":"Feature","geometry":{"type":"Point","coordinates":[-76.159721,38.983024]}},{"properties":{"lon":-97.983765,"city":"SAN MARCOS","zip":"78666","phone":"512-396-3753","id":"a6c2f51foxji","lat":29.82873,"address":"3939 INTERSTATE HWY-35 SOUTH","storetype":"Factory/Outlet","state":"TX","location":"Prime O/C San Marcos"},"type":"Feature","geometry":{"type":"Point","coordinates":[-97.983765,29.82873]}},{"properties":{"lon":-76.73591,"city":"WILLIAMSBURG","zip":"23188","phone":"757-565-2501","id":"a6c2f5405eqk","lat":37.320203,"address":"5711-21 RICHMOND ROAD","storetype":"Factory/Outlet","state":"VA","location":"Prime O/C Williamsburg"},"type":"Feature","geometry":{"type":"Point","coordinates":[-76.73591,37.320203]}},{"properties":{"lon":-76.735833,"city":"Williamsburg","zip":"23188","phone":"757-221-0395","id":"a6c2f5eozbnl","lat":37.320022,"address":"5709-66 RICHMOND ROAD","storetype":"Factory/Outlet - Women's Only","state":"VA","location":"Prime O/C Williamsburg - WOMEN'S ONLY"},"type":"Feature","geometry":{"type":"Point","coordinates":[-76.735833,37.320022]}},{"properties":{"lon":-75.410829,"city":"CENTER VALLEY","zip":"18034","phone":"610-797-4571","id":"a6c2f4yoem6a","lat":40.55806,"address":"2985 CENTER VALLEY PARKWAY","storetype":"Retail","state":"PA","location":"Promenade Shops At Saucon Valley"},"type":"Feature","geometry":{"type":"Point","coordinates":[-75.410829,40.55806]}},{"properties":{"lon":-74.921783,"city":"Marlton","zip":"8053","phone":"856-983-0143","id":"a6c2f5097m9v","lat":39.880939,"address":"500 ROUTE 73 SOUTH","storetype":"Retail","state":"NJ","location":"Promenade at Sagemore"},"type":"Feature","geometry":{"type":"Point","coordinates":[-74.921783,39.880939]}},{"properties":{"lon":-71.415611,"city":"PROVIDENCE","zip":"2903","phone":"401-270-4100","id":"a6c2f57gru91","lat":41.826168,"address":"29 PROVIDENCE PLACE","storetype":"Retail","state":"RI","location":"Providence Place"},"type":"Feature","geometry":{"type":"Point","coordinates":[-71.415611,41.826168]}},{"properties":{"lon":-78.642169,"city":"RALEIGH","zip":"27623","phone":"919-840-4550","id":"a6c2f54fx7lf","lat":35.78824,"address":"1600 TERMINAL BLVD","storetype":"Airport","state":"NC","location":"Raleigh/Durham Airport"},"type":"Feature","geometry":{"type":"Point","coordinates":[-78.642169,35.78824]}},{"properties":{"lon":-97.887177,"city":"Mercedes","zip":"78570","phone":"956-565-1315","id":"a6c2f57dgzq0","lat":26.159647,"address":"5001 E Expressway 83","storetype":"Factory/Outlet","state":"TX","location":"Rio Grande Valley O/C"},"type":"Feature","geometry":{"type":"Point","coordinates":[-97.887177,26.159647]}},{"properties":{"lon":-86.811038,"city":"BIRMINGHAM","zip":"35244","phone":"205-985-9898","id":"a6c2f5bcfa9k","lat":33.378593,"address":"2000 RIVERCHASE GALLERIA","storetype":"Retail","state":"AL","location":"Riverchase Galleria"},"type":"Feature","geometry":{"type":"Point","coordinates":[-86.811038,33.378593]}},{"properties":{"lon":-118.404084,"city":"BEVERLY HILLS","zip":"90210","phone":"310-274-4003","id":"a6c2f5cditu0","lat":34.070536,"address":"468 N RODEO DRIVE","storetype":"Retail","state":"CA","location":"Rodeo Drive"},"type":"Feature","geometry":{"type":"Point","coordinates":[-118.404084,34.070536]}},{"properties":{"lon":-77.011889,"city":"WASHINGTON","zip":"20001","phone":"703-417-1071","id":"a6c2f510ex3s","lat":38.917005,"address":"AIR CARGO ROAD","storetype":"Airport","state":"DC","location":"Ronald Reagan Washington National Airport"},"type":"Feature","geometry":{"type":"Point","coordinates":[-77.011889,38.917005]}},{"properties":{"lon":-87.632199,"city":"CHICAGO","zip":"60604","phone":"312-263-0100","id":"a6c2f5e9akhm","lat":41.879235,"address":"209 S LASALLE STREET","storetype":"Retail","state":"IL","location":"Rookery,The"},"type":"Feature","geometry":{"type":"Point","coordinates":[-87.632199,41.879235]}},{"properties":{"lon":-73.614928,"city":"GARDEN CITY","zip":"11530","phone":"516-746-2012","id":"a6c2f561de7w","lat":40.743067,"address":"630 OLD COUNTY ROAD","storetype":"Retail","state":"NY","location":"Roosevelt Field Mall"},"type":"Feature","geometry":{"type":"Point","coordinates":[-73.614928,40.743067]}},{"properties":{"lon":-97.693243,"city":"ROUND ROCK","zip":"78664","phone":"512-869-3076","id":"a6c2f50vqkod","lat":30.560025,"address":"4104 N IH 35","storetype":"Factory/Outlet","state":"TX","location":"Round Rock P/O"},"type":"Feature","geometry":{"type":"Point","coordinates":[-97.693243,30.560025]}},{"properties":{"lon":-121.586711,"city":"SACRAMENTO","zip":"95837","phone":"916-925-0935","id":"a6c2f57tz5to","lat":38.690814,"address":"6850 AIRPORT BLVD","storetype":"Airport","state":"CA","location":"Sacramento International Airport"},"type":"Feature","geometry":{"type":"Point","coordinates":[-121.586711,38.690814]}},{"properties":{"lon":-121.948026,"city":"SAN JOSE","zip":"95128","phone":"408-244-1815","id":"a6c2f5132k1d","lat":37.321794,"address":"333 SANTANA ROW","storetype":"Retail","state":"CA","location":"Santana Row"},"type":"Feature","geometry":{"type":"Point","coordinates":[-121.948026,37.321794]}},{"properties":{"lon":-80.323904,"city":"SUNRISE","zip":"33323","phone":"954-845-0404","id":"a6c2f54ft7gm","lat":26.144997,"address":"12801 WEST SUNRISE BLVD","storetype":"Factory/Outlet","state":"FL","location":"Sawgrass Mills"},"type":"Feature","geometry":{"type":"Point","coordinates":[-80.323904,26.144997]}},{"properties":{"lon":-111.928906,"city":"SCOTTSDALE","zip":"85251","phone":"480-425-1115","id":"a6c2f5d0yg7f","lat":33.502354,"address":"7014-1288 E CAMELBACK RD","storetype":"Retail","state":"AZ","location":"Scottsdale Fashion Square"},"type":"Feature","geometry":{"type":"Point","coordinates":[-111.928906,33.502354]}},{"properties":{"lon":-122.185862,"city":"TULALIP","zip":"98271","phone":"360-651-0446","id":"a6c2f54okreh","lat":48.091989,"address":"10600 QUIL CEDA BOULEVARD","storetype":"Factory/Outlet","state":"WA","location":"Seattle Premium Outlets"},"type":"Feature","geometry":{"type":"Point","coordinates":[-122.185862,48.091989]}},{"properties":{"lon":-71.109528,"city":"N.CONWAY","zip":"3860","phone":"603-356-4418","id":"a6c2f5czn3u8","lat":44.024124,"address":"2 COMMON COURT","storetype":"Factory/Outlet","state":"NH","location":"Settlers Green Outlet Village"},"type":"Feature","geometry":{"type":"Point","coordinates":[-71.109528,44.024124]}},{"properties":{"lon":-93.436464,"city":"MAPLE GROVE","zip":"55369","phone":"763-425-0830","id":"a6c2f50pqptn","lat":45.093883,"address":"12285 ELM CREEK BLVD","storetype":"Retail","state":"MN","location":"Shoppes At Arbor Lakes"},"type":"Feature","geometry":{"type":"Point","coordinates":[-93.436464,45.093883]}},{"properties":{"lon":-90.064932,"city":"NEW ORLEANS","zip":"70130","phone":"504-522-4200","id":"a6c2f59sc61c","lat":29.950658,"address":"333 CANAL STREET","storetype":"Retail","state":"LA","location":"Shops At Canal Place"},"type":"Feature","geometry":{"type":"Point","coordinates":[-90.064932,29.950658]}},{"properties":{"lon":-79.836441,"city":"GREENSBORO","zip":"27408","phone":"336-294-0256","id":"a6c2f51m25m1","lat":36.085141,"address":"3334 W FRIENDLY AVENUE","storetype":"Retail","state":"NC","location":"Shops At Friendly Center"},"type":"Feature","geometry":{"type":"Point","coordinates":[-79.836441,36.085141]}},{"properties":{"lon":-98.61947,"city":"SAN ANTONIO","zip":"78256","phone":"210-877-9275","id":"a6c2f5el79c5","lat":29.589525,"address":"15900 LACANTERA PARKWAY","storetype":"Retail","state":"TX","location":"Shops At Lacantera"},"type":"Feature","geometry":{"type":"Point","coordinates":[-98.61947,29.589525]}},{"properties":{"lon":0.0,"city":"Hackensack","zip":"7601","phone":"201-343-4318","id":"a6c2f53v8khe","lat":0.0,"address":"113 RIVERSIDE SQUARE","storetype":"Retail","state":"NJ","location":"Shops At Riverside"},"type":"Feature","geometry":{"type":"Point","coordinates":[0.0,0.0]}},{"properties":{"lon":0.0,"city":"HACKENSACK","zip":"7601","phone":"201-343-1521","id":"a6c2f527dsny","lat":0.0,"address":"150 RIVERSIDE SQUARE","storetype":"Retail - Women's Only","state":"NJ","location":"Shops At Riverside - WOMEN'S ONLY"},"type":"Feature","geometry":{"type":"Point","coordinates":[0.0,0.0]}},{"properties":{"lon":-96.832899,"city":"PLANO","zip":"75093","phone":"972-202-4616","id":"a6c2f58tnhtx","lat":33.02784,"address":"6121 WEST PARK BOULEVARD","storetype":"Retail","state":"TX","location":"Shops At Willow Bend"},"type":"Feature","geometry":{"type":"Point","coordinates":[-96.832899,33.02784]}},{"properties":{"lon":-86.350641,"city":"DESTIN","zip":"32550","phone":"850-654-4780","id":"a6c2f51duusx","lat":30.377872,"address":"10562 EMERALD COAST PKWY WEST","storetype":"Factory/Outlet","state":"FL","location":"Silver Sands Factory Stores"},"type":"Feature","geometry":{"type":"Point","coordinates":[-86.350641,30.377872]}},{"properties":{"lon":-122.333873,"city":"SEATTLE","zip":"98101","phone":"206-624-4400","id":"a6c2f4z0w7ri","lat":47.609022,"address":"1330 FIFTH AVENUE","storetype":"Retail","state":"WA","location":"Skinner Building"},"type":"Feature","geometry":{"type":"Point","coordinates":[-122.333873,47.609022]}},{"properties":{"lon":-79.997547,"city":"PITTSBURGH","zip":"15222","phone":"412-471-2300","id":"a6c2f596y913","lat":40.441476,"address":"600 SMITHFIELD STREET","storetype":"Retail","state":"PA","location":"Smithfield Street"},"type":"Feature","geometry":{"type":"Point","coordinates":[-79.997547,40.441476]}},{"properties":{"lon":-83.185356,"city":"TROY","zip":"48084","phone":"248-643-6888","id":"a6c2f4zbce93","lat":42.56106,"address":"2801 W BIG BEAVER ROAD","storetype":"Retail","state":"MI","location":"Somerset Collection"},"type":"Feature","geometry":{"type":"Point","coordinates":[-83.185356,42.56106]}},{"properties":{"lon":-117.885765,"city":"COSTA MESA","zip":"92626","phone":"714-436-1961","id":"a6c2f4zyuh8r","lat":33.690364,"address":"3333 BRISTOL STREET","storetype":"Retail","state":"CA","location":"South Coast Plaza"},"type":"Feature","geometry":{"type":"Point","coordinates":[-117.885765,33.690364]}},{"properties":{"lon":-80.828827,"city":"CHARLOTTE","zip":"28211","phone":"704-367-1900","id":"a6c2f4yhh3qp","lat":35.151246,"address":"4400 SHARON ROAD","storetype":"Retail","state":"NC","location":"Southpark Mall"},"type":"Feature","geometry":{"type":"Point","coordinates":[-80.828827,35.151246]}},{"properties":{"lon":-81.52546,"city":"JACKSONVILLE","zip":"32246","phone":"904-642-8193","id":"a6c2f5a7aett","lat":30.255047,"address":"4812 RIVER CITY DRIVE","storetype":"Retail","state":"FL","location":"St. John's Town Center"},"type":"Feature","geometry":{"type":"Point","coordinates":[-81.52546,30.255047]}},{"properties":{"lon":-90.434243,"city":"MARYLAND HEIGHTS","zip":"63146","phone":"314-423-2088","id":"a6c2f5dienlw","lat":38.703388,"address":"2302 CENTERLINE INDUSTRIAL DRIVE","storetype":"Airport","state":"MO","location":"St. Louis Airport"},"type":"Feature","geometry":{"type":"Point","coordinates":[-90.434243,38.703388]}},{"properties":{"lon":-81.417954,"city":"ST.AUGUSTINE","zip":"32092","phone":"904-829-2147","id":"a6c2f52am3oz","lat":29.922909,"address":"2700 STATE ROAD 16","storetype":"Factory/Outlet","state":"FL","location":"St.Augustine Premium Outlets"},"type":"Feature","geometry":{"type":"Point","coordinates":[-81.417954,29.922909]}},{"properties":{"lon":-122.49968,"city":"ST. HELENA","zip":"94574","phone":"707-963-9296","id":"a6c2f53vqtnt","lat":38.527536,"address":"3111 NORTH ST HELENA HWY","storetype":"Factory/Outlet","state":"CA","location":"St.Helena Marketplace"},"type":"Feature","geometry":{"type":"Point","coordinates":[-122.49968,38.527536]}},{"properties":{"lon":-90.347328,"city":"ST. LOUIS","zip":"63117","phone":"314-726-6600","id":"a6c2f4yvpogq","lat":38.636191,"address":"1155 ST LOUIS GALLERIA","storetype":"Retail","state":"MO","location":"St.Louis Galleria"},"type":"Feature","geometry":{"type":"Point","coordinates":[-90.347328,38.636191]}},{"properties":{"lon":-73.536255,"city":"STAMFORD","zip":"6901","phone":"203-359-2300","id":"a6c2f51q956o","lat":41.05352,"address":"100 GREYROCK PLACE","storetype":"Retail","state":"CT","location":"Stamford Town Center"},"type":"Feature","geometry":{"type":"Point","coordinates":[-73.536255,41.05352]}},{"properties":{"lon":-122.173085,"city":"PALO ALTO","zip":"94304","phone":"650-462-0936","id":"a6c2f59azeqm","lat":37.441853,"address":"383 STANFORD SHOPPING CENTER","storetype":"Retail","state":"CA","location":"Stanford Shopping Center"},"type":"Feature","geometry":{"type":"Point","coordinates":[-122.173085,37.441853]}},{"properties":{"lon":-71.055809,"city":"BOSTON","zip":"2109","phone":"617-261-9990","id":"a6c2f5dqj2lz","lat":42.358849,"address":"75 STATE STREET","storetype":"Retail","state":"MA","location":"State Street"},"type":"Feature","geometry":{"type":"Point","coordinates":[-71.055809,42.358849]}},{"properties":{"lon":-72.715769,"city":"RIVERHEAD","zip":"11901","phone":"631-369-2874","id":"a6c2f5c6almp","lat":40.918832,"address":"805 TANGER MALL DRIVE","storetype":"Factory/Outlet","state":"NY","location":"Tanger Ii O/C Riverhead"},"type":"Feature","geometry":{"type":"Point","coordinates":[-72.715769,40.918832]}},{"properties":{"lon":-72.715769,"city":"RIVERHEAD","zip":"11901","phone":"631-369-4160","id":"a6c2f5dorka5","lat":40.918832,"address":"815 TANGER MALL DRIVE","storetype":"Factory/Outlet - Women's Only","state":"NY","location":"Tanger Ii Outlet Center Riverhead -- WOMEN'S ONLY"},"type":"Feature","geometry":{"type":"Point","coordinates":[-72.715769,40.918832]}},{"properties":{"lon":-78.770488,"city":"MYRTLE BEACH","zip":"29572","phone":"843-449-1825","id":"a6c2f53ltjes","lat":33.784609,"address":"10831 KINGS ROAD","storetype":"Factory/Outlet","state":"SC","location":"Tanger O/C 17 Myrtle Beach"},"type":"Feature","geometry":{"type":"Point","coordinates":[-78.770488,33.784609]}},{"properties":{"lon":-80.016311,"city":"N. CHARLESTON","zip":"29418","phone":"843-744-9069","id":"a6c2f50c3gp0","lat":32.874096,"address":"4840 TANGER OUTLET BLVD","storetype":"Factory/Outlet","state":"SC","location":"Tanger O/C Charleston"},"type":"Feature","geometry":{"type":"Point","coordinates":[-80.016311,32.874096]}},{"properties":{"lon":-83.465883,"city":"COMMERCE","zip":"30529","phone":"706-336-6947","id":"a6c2f57yhdc1","lat":34.25749,"address":"800 STEVEN B TANGER BLVD","storetype":"Factory/Outlet","state":"GA","location":"Tanger O/C Commerce"},"type":"Feature","geometry":{"type":"Point","coordinates":[-83.465883,34.25749]}},{"properties":{"lon":-87.682984,"city":"FOLEY","zip":"36535","phone":"251-943-2829","id":"a6c2f4ysfwst","lat":30.377682,"address":"2601 S MCKENZIE ST","storetype":"Factory/Outlet","state":"AL","location":"Tanger O/C Foley"},"type":"Feature","geometry":{"type":"Point","coordinates":[-87.682984,30.377682]}},{"properties":{"lon":-80.831307,"city":"BLUFFTON","zip":"29910","phone":"843-837-3400","id":"a6c2f540fi94","lat":32.246887,"address":"1270 FORDING ISLAND ROAD","storetype":"Factory/Outlet","state":"SC","location":"Tanger O/C Hilton Head"},"type":"Feature","geometry":{"type":"Point","coordinates":[-80.831307,32.246887]}},{"properties":{"lon":-70.727348,"city":"KITTERY","zip":"3904","phone":"207-439-5533","id":"a6c2f50d2htb","lat":43.116428,"address":"360 US ROUTE 1","storetype":"Factory/Outlet","state":"ME","location":"Tanger O/C Kittery"},"type":"Feature","geometry":{"type":"Point","coordinates":[-70.727348,43.116428]}},{"properties":{"lon":-78.960305,"city":"MYRTLE BEACH","zip":"29579","phone":"843-236-8934","id":"a6c2f4yh4iz6","lat":33.751843,"address":"4638 FACTORY STORES","storetype":"Factory/Outlet","state":"SC","location":"Tanger O/C Myrtle Beach"},"type":"Feature","geometry":{"type":"Point","coordinates":[-78.960305,33.751843]}},{"properties":{"lon":-80.253181,"city":"Washington","zip":"15301","phone":"724-225-0239","id":"a6c2f4y856m4","lat":40.171136,"address":"2200 TANGER BOULEVARD","storetype":"Factory/Outlet","state":"PA","location":"Tanger O/C Pittsburgh"},"type":"Feature","geometry":{"type":"Point","coordinates":[-80.253181,40.171136]}},{"properties":{"lon":-75.11292,"city":"REHOBOTH BEACH","zip":"19971","phone":"302-226-8426","id":"a6c2f4yojueo","lat":38.718399,"address":"36508 SEASIDE OUTLET DRIVE","storetype":"Factory/Outlet","state":"DE","location":"Tanger O/C Rehoboth"},"type":"Feature","geometry":{"type":"Point","coordinates":[-75.11292,38.718399]}},{"properties":{"lon":-83.572657,"city":"Sevierville","zip":"37862","phone":"865-428-1938","id":"a6c2f560a7xp","lat":35.833059,"address":"1645 PARKWAY","storetype":"Factory/Outlet","state":"TN","location":"Tanger O/C Sevierville"},"type":"Feature","geometry":{"type":"Point","coordinates":[-83.572657,35.833059]}},{"properties":{"lon":-71.484947,"city":"TILTON","zip":"3276","phone":"603-286-9466","id":"a6c2f56aedgp","lat":43.56361,"address":"120 LACONIA ROAD","storetype":"Factory/Outlet","state":"NH","location":"Tanger O/C Tilton"},"type":"Feature","geometry":{"type":"Point","coordinates":[-71.484947,43.56361]}},{"properties":{"lon":-92.046346,"city":"WILLIAMSBURG","zip":"52361","phone":"319-668-2356","id":"a6c2f5a48g7t","lat":41.626849,"address":"501 TANGER DRIVE","storetype":"Factory/Outlet","state":"IA","location":"Tanger O/C Williamsburg"},"type":"Feature","geometry":{"type":"Point","coordinates":[-92.046346,41.626849]}},{"properties":{"lon":-76.221601,"city":"LANCASTER","zip":"17602","phone":"717-390-1830","id":"a6c2f52kwvr7","lat":40.02684,"address":"108 STANLEY K TANGER BLVD","storetype":"Factory/Outlet","state":"PA","location":"Tanger Outlet Center Millstream"},"type":"Feature","geometry":{"type":"Point","coordinates":[-76.221601,40.02684]}},{"properties":{"lon":-75.311133,"city":"Tannersville","zip":"18372","phone":"570-619-4219","id":"a6c2f56viq89","lat":41.048167,"address":"1000 ROUTE 611","storetype":"Factory/Outlet - Women's Only","state":"PA","location":"The Crossing Premium Outlets - WOMEN'S ONLY"},"type":"Feature","geometry":{"type":"Point","coordinates":[-75.311133,41.048167]}},{"properties":{"lon":-122.681318,"city":"PORTLAND","zip":"97205","phone":"503-223-4039","id":"a6c2f5edgv9p","lat":45.519938,"address":"921 SW MORRISON STREET","storetype":"Retail","state":"OR","location":"The Galleria"},"type":"Feature","geometry":{"type":"Point","coordinates":[-122.681318,45.519938]}},{"properties":{"lon":-74.444786,"city":"ATLANTIC CITY","zip":"8401","phone":"609-340-0092","id":"a6c2f5at2uk2","lat":39.353527,"address":"2801 PACIFIC AVENUE","storetype":"Airport","state":"NJ","location":"The Quarter At The Tropicana Casino &amp; Resort"},"type":"Feature","geometry":{"type":"Point","coordinates":[-74.444786,39.353527]}},{"properties":{"lon":-74.613983,"city":"BRIDGEWATER","zip":"8807","phone":"908-231-0666","id":"a6c2f57kd7im","lat":40.583904,"address":"620 COMMONS WAY","storetype":"Retail","state":"NJ","location":"The Village At Bridgewater Commons"},"type":"Feature","geometry":{"type":"Point","coordinates":[-74.613983,40.583904]}},{"properties":{"lon":-74.435776,"city":"ATLANTIC CITY","zip":"8401","phone":"609-348-3110","id":"a6c2f558jch2","lat":39.359711,"address":"35 NORTH MICHIGAN AVE","storetype":"Factory/Outlet","state":"NJ","location":"The Walk"},"type":"Feature","geometry":{"type":"Point","coordinates":[-74.435776,39.359711]}},{"properties":{"lon":-97.220658,"city":"WICHITA","zip":"67208","phone":"316-634-6482","id":"a6c2f5b1xbyb","lat":37.708571,"address":"10096 E 13TH","storetype":"Retail","state":"KS","location":"The Waterfront"},"type":"Feature","geometry":{"type":"Point","coordinates":[-97.220658,37.708571]}},{"properties":{"lon":-81.693816,"city":"CLEVELAND","zip":"44113","phone":"216-781-9800","id":"a6c2f5687r2w","lat":41.496876,"address":"230 HURON ROAD","storetype":"Retail","state":"OH","location":"Tower City Center"},"type":"Feature","geometry":{"type":"Point","coordinates":[-81.693816,41.496876]}},{"properties":{"lon":-76.135453,"city":"Virginia Beach","zip":"23462","phone":"757-497-4769","id":"a6c2f5d597ue","lat":36.842898,"address":"4554 BANK STREET","storetype":"Retail","state":"VA","location":"Town Center of Virginia Beach"},"type":"Feature","geometry":{"type":"Point","coordinates":[-76.135453,36.842898]}},{"properties":{"lon":-77.22017,"city":"MCLEAN","zip":"22102","phone":"703-556-6566","id":"a6c2f53wyk02","lat":38.919288,"address":"8009-U TYSONS CORNER CENTER","storetype":"Retail","state":"VA","location":"Tysons Corner Center"},"type":"Feature","geometry":{"type":"Point","coordinates":[-77.22017,38.919288]}},{"properties":{"lon":-73.807059,"city":"SCARSDALE","zip":"10583","phone":"914-723-3000","id":"a6c2f52p905x","lat":40.96982,"address":"696 WHITE PLAINS ROAD","storetype":"Retail","state":"NY","location":"Vernon Hills Shopping Cnter"},"type":"Feature","geometry":{"type":"Point","coordinates":[-73.807059,40.96982]}},{"properties":{"lon":-79.933277,"city":"CHARLESTON","zip":"29401","phone":"843-723-9405","id":"a6c2f59765mu","lat":32.780045,"address":"205 KING STREET","storetype":"Retail","state":"SC","location":"Victoria Center"},"type":"Feature","geometry":{"type":"Point","coordinates":[-79.933277,32.780045]}},{"properties":{"lon":-158.00795,"city":"WAIPAHU","zip":"96797","phone":"808-678-0035","id":"a6c2f58tz9hu","lat":21.400802,"address":"94-790 LUMIAINA STREET","storetype":"Factory/Outlet","state":"HI","location":"Waikele Premium Outlets"},"type":"Feature","geometry":{"type":"Point","coordinates":[-158.00795,21.400802]}},{"properties":{"lon":-117.273772,"city":"La Jolla","zip":"92037","phone":"858-456-2104","id":"a6c2f51qw4bk","lat":32.846667,"address":"1055 WALL STREET","storetype":"Retail","state":"CA","location":"Wall Street"},"type":"Feature","geometry":{"type":"Point","coordinates":[-117.273772,32.846667]}},{"properties":{"lon":-75.166515,"city":"PHILADELPHIA","zip":"19102","phone":"215-564-4100","id":"a6c2f5b5gq0k","lat":39.949762,"address":"1513 WALNUT STREET","storetype":"Retail","state":"PA","location":"Walnut Street"},"type":"Feature","geometry":{"type":"Point","coordinates":[-75.166515,39.949762]}},{"properties":{"lon":-73.412179,"city":"HUNTINGTON STATION","zip":"11746","phone":"631-549-7089","id":"a6c2f4y9fydv","lat":40.822305,"address":"160 WALT WHITMAN ROAD","storetype":"Retail","state":"NY","location":"Walt Whitman Mall"},"type":"Feature","geometry":{"type":"Point","coordinates":[-73.412179,40.822305]}},{"properties":{"lon":-76.921651,"city":"WATERLOO","zip":"13165","phone":"315-539-4279","id":"a6c2f59onyl0","lat":42.954342,"address":"655 ROUTE 318","storetype":"Factory/Outlet","state":"NY","location":"Waterloo Premium Outlets"},"type":"Feature","geometry":{"type":"Point","coordinates":[-76.921651,42.954342]}},{"properties":{"lon":-81.800736,"city":"NAPLES","zip":"34108","phone":"239-254-7921","id":"a6c2f57mtc5y","lat":26.214087,"address":"5485 TAMIAMI TRAIL NORTH","storetype":"Retail","state":"FL","location":"Waterside Shops At Pelican Bay"},"type":"Feature","geometry":{"type":"Point","coordinates":[-81.800736,26.214087]}},{"properties":{"lon":-90.448117,"city":"DES PERES","zip":"63131","phone":"314-965-1113","id":"a6c2f513i105","lat":38.60275,"address":"35 WEST COUNTY CENTER","storetype":"Retail","state":"MO","location":"West County Center"},"type":"Feature","geometry":{"type":"Point","coordinates":[-90.448117,38.60275]}},{"properties":{"lon":-118.258589,"city":"LOS ANGELES","zip":"90017","phone":"213-629-4200","id":"a6c2f5737wql","lat":34.050541,"address":"604 S FIGUEROA STREET","storetype":"Retail","state":"CA","location":"West Sixth Street Building"},"type":"Feature","geometry":{"type":"Point","coordinates":[-118.258589,34.050541]}},{"properties":{"lon":-84.037537,"city":"KNOXVILLE","zip":"37919","phone":"865-531-9996","id":"a6c2f569az60","lat":35.928009,"address":"7600 KINGSTON PKE","storetype":"Retail","state":"TN","location":"West Town Mall"},"type":"Feature","geometry":{"type":"Point","coordinates":[-84.037537,35.928009]}},{"properties":{"lon":-96.797246,"city":"DALLAS","zip":"75204","phone":"214-520-8854","id":"a6c2f4yvyq3u","lat":32.807305,"address":"3636 MCKINNEY AVENUE","storetype":"Retail","state":"TX","location":"West Village"},"type":"Feature","geometry":{"type":"Point","coordinates":[-96.797246,32.807305]}},{"properties":{"lon":-73.758221,"city":"WHITE PLAINS","zip":"10601","phone":"914-644-8616","id":"a6c2f4zwokk4","lat":41.032528,"address":"125 WESTCHESTER AVENUE","storetype":"Retail","state":"NY","location":"Westchester,The"},"type":"Feature","geometry":{"type":"Point","coordinates":[-73.758221,41.032528]}},{"properties":{"lon":-72.867683,"city":"FARMINGTON","zip":"6032","phone":"860-521-6624","id":"a6c2f59f6u57","lat":41.748878,"address":"445 WESTFARMS MALL","storetype":"Retail","state":"CT","location":"Westfarms"},"type":"Feature","geometry":{"type":"Point","coordinates":[-72.867683,41.748878]}},{"properties":{"lon":-118.419764,"city":"LOS ANGELES","zip":"90067","phone":"310-553-3335","id":"a6c2f509cxxa","lat":34.059995,"address":"10250 SANTA MONICA BLVD","storetype":"Retail","state":"CA","location":"Westfield Century City"},"type":"Feature","geometry":{"type":"Point","coordinates":[-118.419764,34.059995]}},{"properties":{"lon":-83.642206,"city":"TOLEDO","zip":"43623","phone":"419-473-3309","id":"a6c2f5awmte3","lat":41.698081,"address":"5001 MONROE STREET","storetype":"Retail - 346","state":"OH","location":"Westfield Franklin Park - \"346\" BROOKS BROTHERS"},"type":"Feature","geometry":{"type":"Point","coordinates":[-83.642206,41.698081]}},{"properties":{"lon":0.0,"city":"PARAMUS","zip":"7652","phone":"201-845-6700","id":"a6c2f561kyis","lat":0.0,"address":"GARDEN STATE PLAZA","storetype":"Retail","state":"NJ","location":"Westfield Garden State Plaza"},"type":"Feature","geometry":{"type":"Point","coordinates":[0.0,0.0]}},{"properties":{"lon":-87.74912,"city":"SKOKIE","zip":"60077","phone":"847-679-9090","id":"a6c2f55wd0fo","lat":42.055984,"address":"153 OLD ORCHARD CENTER","storetype":"Retail","state":"IL","location":"Westfield Old Orchard"},"type":"Feature","geometry":{"type":"Point","coordinates":[-87.74912,42.055984]}},{"properties":{"lon":-77.087516,"city":"CHEVY CHASE","zip":"20815","phone":"301-654-8202","id":"a6c2f5bawfnt","lat":38.963931,"address":"5504 WISCONSIN AVENUE","storetype":"Retail","state":"MD","location":"Wisconsin Avenue"},"type":"Feature","geometry":{"type":"Point","coordinates":[-77.087516,38.963931]}},{"properties":{"lon":-89.802134,"city":"MEMPHIS","zip":"38133","phone":"901-372-5534","id":"a6c2f53lx9v8","lat":35.208529,"address":"2760 NGERMANTOWN PARKWAY","storetype":"Retail","state":"TN","location":"Wolfchase Galleria"},"type":"Feature","geometry":{"type":"Point","coordinates":[-89.802134,35.208529]}},{"properties":{"lon":-122.878009,"city":"WOODBURN","zip":"97071","phone":"503-981-6140","id":"a6c2f59m7whi","lat":45.154707,"address":"1001 ARNEY ROAD","storetype":"Factory/Outlet","state":"OR","location":"Woodburn Company Stores"},"type":"Feature","geometry":{"type":"Point","coordinates":[-122.878009,45.154707]}},{"properties":{"lon":-74.126941,"city":"CENTRAL VALLEY","zip":"10917","phone":"845-928-2664","id":"a6c2f5agbh5v","lat":41.314683,"address":"243 RED APPLE COURT","storetype":"Factory/Outlet","state":"NY","location":"Woodbury Common P/O"},"type":"Feature","geometry":{"type":"Point","coordinates":[-74.126941,41.314683]}},{"properties":{"lon":-88.040294,"city":"SCHAUMBURG","zip":"60173","phone":"847-619-8346","id":"a6c2f5duzea8","lat":42.04933,"address":"313 WOODFIELD MALL","storetype":"Retail - 346","state":"IL","location":"Woodfield Mall - \"346\" BROOKS BROTHERS"},"type":"Feature","geometry":{"type":"Point","coordinates":[-88.040294,42.04933]}},{"properties":{"lon":-80.037207,"city":"PALM BEACH","zip":"33480","phone":"561-659-6464","id":"a6c2f5bg1wql","lat":26.700948,"address":"225-C WORTH AVENUE","storetype":"Retail","state":"FL","location":"Worth Avenue"},"type":"Feature","geometry":{"type":"Point","coordinates":[-80.037207,26.700948]}},{"properties":{"lon":-71.347191,"city":"WRENTHAM","zip":"2093","phone":"508-384-3589","id":"a6c2f58x4msy","lat":42.036125,"address":"1 PREMIUM OUTLET BLVD","storetype":"Factory/Outlet - Women's Only","state":"MA","location":"Wrentham Village Premium Outlet - WOMEN'S ONLY"},"type":"Feature","geometry":{"type":"Point","coordinates":[-71.347191,42.036125]}},{"properties":{"lon":-71.347191,"city":"WRENTHAM","zip":"2093","phone":"508-384-9864","id":"a6c2f5747zbo","lat":42.036125,"address":"1 PREMIUM OUTLET BLVD","storetype":"Factory/Outlet","state":"MA","location":"Wrentham Village Premium Outlt"},"type":"Feature","geometry":{"type":"Point","coordinates":[-71.347191,42.036125]}}],"is_temporal":false,"author":{"url":"","metadata":"","contact_name":"","contact_address":"","source":"","contact_phone":""},"source":"","pagination":{"sort":null,"start":0,"total":224,"limit":1000000},"state":"complete","tags":"","published":"2014-08-11T00:33:28-04:00","id":18650}