{"type":"FeatureCollection","data_type":"Dataset","url_type":null,"permissions":[{"permissions":{"download":true,"view":true},"group_id":"everyone"}],"classification":null,"title":"Book1","count":22,"stream_id":186900,"contributor":{"url":"http://geocommons.com/users/32906","name":"parke570"},"data_attributes":null,"calculation_params":null,"icon_link":null,"link":"http://geocommons.com/overlays/186900.json","extent":[-81.4,7.98333,107.167,49.9499],"geometry_types":["point"],"unique_name":null,"name":"Book1","feature_count":22,"description":"","next_feature":null,"is_raster":false,"short_classification":"Y","stats":{},"features":[{"properties":{"city":"Chicago","geo_score":0.0,"id":"a62f514axqn3","geo_precision":"unmatched","state":"IL"},"type":"Feature","geometry":null},{"properties":{"city":"Minneapolis","geo_score":0.0,"id":"a62f50ujfhxa","geo_precision":"unmatched","state":"MN"},"type":"Feature","geometry":null},{"properties":{"city":"Boston","geo_score":0.929,"id":"a62f50yi6xdy","geo_precision":"zip","state":"MA"},"type":"Feature","geometry":{"type":"Point","coordinates":[-7.15,31.96]}},{"properties":{"city":"Denver","geo_score":0.0,"id":"a62f50xp0jk7","geo_precision":"unmatched","state":"CO"},"type":"Feature","geometry":null},{"properties":{"city":"Salt Lake City","geo_score":0.0,"id":"a62f50yy3hep","geo_precision":"unmatched","state":"UT"},"type":"Feature","geometry":null},{"properties":{"city":"Los Angeles","geo_score":0.9,"id":"a62f510bfyw6","geo_precision":"zip","state":"CA"},"type":"Feature","geometry":{"type":"Point","coordinates":[-55.598110211,49.949945903]}},{"properties":{"city":"Phoenix","geo_score":0.0,"id":"a62f50u3jhiw","geo_precision":"unmatched","state":"AZ"},"type":"Feature","geometry":null},{"properties":{"city":"Seattle","geo_score":0.0,"id":"a62f50su0229","geo_precision":"unmatched","state":"WA"},"type":"Feature","geometry":null},{"properties":{"city":"Kansas City","geo_score":0.0,"id":"a62f50yo10e0","geo_precision":"unmatched","state":"MO"},"type":"Feature","geometry":null},{"properties":{"city":"Milwaukee","geo_score":0.0,"id":"a62f50r25wxw","geo_precision":"unmatched","state":"WI"},"type":"Feature","geometry":null},{"properties":{"city":"Cleveland","geo_score":0.0,"id":"a62f50q6zu2f","geo_precision":"unmatched","state":"OH"},"type":"Feature","geometry":null},{"properties":{"city":"Philedelphia","geo_score":0.912,"id":"a62f50vz14ma","geo_precision":"zip","state":"PA"},"type":"Feature","geometry":{"type":"Point","coordinates":[-81.4,7.9833333]}},{"properties":{"city":"Baltimore","geo_score":0.896,"id":"a62f50z3z9v8","geo_precision":"zip","state":"MA"},"type":"Feature","geometry":{"type":"Point","coordinates":[-5.58,34.16]}},{"properties":{"city":"Pittsburg","geo_score":0.0,"id":"a62f512hpp1t","geo_precision":"unmatched","state":"PA"},"type":"Feature","geometry":null},{"properties":{"city":"Miami","geo_score":0.0,"id":"a62f50xdfagm","geo_precision":"unmatched","state":"FL"},"type":"Feature","geometry":null},{"properties":{"city":"New York","geo_score":0.0,"id":"a62f50sc1fys","geo_precision":"unmatched","state":"NY"},"type":"Feature","geometry":null},{"properties":{"city":"Raleigh","geo_score":0.0,"id":"a62f515qku77","geo_precision":"unmatched","state":"NC"},"type":"Feature","geometry":null},{"properties":{"city":"St. Louis","geo_score":0.0,"id":"a62f50xrl8i7","geo_precision":"unmatched","state":"MO"},"type":"Feature","geometry":null},{"properties":{"city":"New Orleans","geo_score":0.886,"id":"a62f50qed4bh","geo_precision":"zip","state":"LA"},"type":"Feature","geometry":{"type":"Point","coordinates":[107.1666667,15.35]}},{"properties":{"city":"Houston","geo_score":0.0,"id":"a62f50yjfvr8","geo_precision":"unmatched","state":"TX"},"type":"Feature","geometry":null},{"properties":{"city":"Dallas","geo_score":0.0,"id":"a62f50zvz3r7","geo_precision":"unmatched","state":"TX"},"type":"Feature","geometry":null},{"properties":{"city":"Portland","geo_score":0.0,"id":"a62f50x7imgh","geo_precision":"unmatched","state":"OR"},"type":"Feature","geometry":null}],"is_temporal":false,"author":{"url":"","metadata":null,"contact_name":null,"contact_address":null,"source":null,"contact_phone":null},"source":"","pagination":{"sort":null,"start":0,"total":22,"limit":1000000},"state":"complete","tags":"","published":"2014-08-13T07:48:46-04:00","id":186900}