{"type":"FeatureCollection","data_type":"Dataset","url_type":null,"permissions":[{"permissions":{"download":true,"view":true},"group_id":"everyone"}],"classification":null,"title":"BanksAddresses2","count":502,"stream_id":187128,"contributor":{"url":"http://geocommons.com/users/19994","name":"jmaines"},"data_attributes":null,"calculation_params":null,"icon_link":null,"link":"http://geocommons.com/overlays/187128.json","extent":[-80.3544,26.0724,-80.0995,26.2086],"geometry_types":["point"],"unique_name":null,"name":"BanksAddresses2","feature_count":502,"description":"Fort Lauderdale bank  violations","next_feature":null,"is_raster":false,"short_classification":"Y","stats":{},"features":[{"properties":{"city":"Fort Lauderdale","geo_score":0.721,"street":"100 NW 8 ST","id":"a676kq6ovne9","geo_precision":"range","state":"FL"},"type":"Feature","geometry":{"type":"Point","coordinates":[-80.145038,26.133232]}},{"properties":{"city":"Fort Lauderdale","geo_score":0.721,"street":"100 NW 8 ST","id":"a676kq399v3p","geo_precision":"range","state":"FL"},"type":"Feature","geometry":{"type":"Point","coordinates":[-80.145038,26.133232]}},{"properties":{"city":"Fort Lauderdale","geo_score":0.721,"street":"100 NW 8 ST","id":"a676kpzqc0mh","geo_precision":"range","state":"FL"},"type":"Feature","geometry":{"type":"Point","coordinates":[-80.145038,26.133232]}},{"properties":{"city":"Fort Lauderdale","geo_score":0.732,"street":"1001 NE 17 CT","id":"a676kqaqgmhq","geo_precision":"range","state":"FL"},"type":"Feature","geometry":{"type":"Point","coordinates":[-80.133628,26.150637]}},{"properties":{"city":"Fort Lauderdale","geo_score":0.732,"street":"1001 NW 51 CT","id":"a676kq9edal7","geo_precision":"range","state":"FL"},"type":"Feature","geometry":{"type":"Point","coordinates":[-80.157457,26.190274]}},{"properties":{"city":"Fort Lauderdale","geo_score":0.74,"street":"1004 SW 22 AVE","id":"a676kq13nry3","geo_precision":"range","state":"FL"},"type":"Feature","geometry":{"type":"Point","coordinates":[-80.172344,26.109918]}},{"properties":{"city":"Fort Lauderdale","geo_score":0.732,"street":"1006 NE 14 PL","id":"a676kpvlgh4j","geo_precision":"range","state":"FL"},"type":"Feature","geometry":{"type":"Point","coordinates":[-80.134069,26.145093]}},{"properties":{"city":"Fort Lauderdale","geo_score":0.74,"street":"101 SW 28 TER","id":"a676kq32ovax","geo_precision":"range","state":"FL"},"type":"Feature","geometry":{"type":"Point","coordinates":[-80.1823,26.120573]}},{"properties":{"city":"Fort Lauderdale","geo_score":0.732,"street":"1010 NW 3 AVE","id":"a676kq693vkb","geo_precision":"range","state":"FL"},"type":"Feature","geometry":{"type":"Point","coordinates":[-80.147061,26.136875]}},{"properties":{"city":"Fort Lauderdale","geo_score":0.707,"street":"1012 NW 24 AV","id":"a676kpxg7qx1","geo_precision":"range","state":"FL"},"type":"Feature","geometry":{"type":"Point","coordinates":[-80.174406,26.136869]}},{"properties":{"city":"Fort Lauderdale","geo_score":0.732,"street":"1012 SE 15 ST","id":"a676kpwohj02","geo_precision":"range","state":"FL"},"type":"Feature","geometry":{"type":"Point","coordinates":[-80.13266,26.10314]}},{"properties":{"city":"Fort Lauderdale","geo_score":0.805,"street":"1016 WAVERLY RD","id":"a676kq5y1xix","geo_precision":"range","state":"FL"},"type":"Feature","geometry":{"type":"Point","coordinates":[-80.155534,26.117314]}},{"properties":{"city":"Fort Lauderdale","geo_score":0.695,"street":"1026 NW 8 AV","id":"a676kq8n2nmn","geo_precision":"range","state":"FL"},"type":"Feature","geometry":{"type":"Point","coordinates":[-80.152868,26.137017]}},{"properties":{"city":"Fort Lauderdale","geo_score":0.74,"street":"1028 NE 16 AVE","id":"a676kq8jsacs","geo_precision":"range","state":"FL"},"type":"Feature","geometry":{"type":"Point","coordinates":[-80.127724,26.137761]}},{"properties":{"city":"Fort Lauderdale","geo_score":0.561,"street":"1029 SW 22 ST","id":"a676kq6ewuq3","geo_precision":"street","state":"FL"},"type":"Feature","geometry":{"type":"Point","coordinates":[-80.322231,26.091383]}},{"properties":{"city":"Fort Lauderdale","geo_score":0.74,"street":"1032 NE 16 AVE","id":"a676kq23s8p2","geo_precision":"range","state":"FL"},"type":"Feature","geometry":{"type":"Point","coordinates":[-80.127726,26.137837]}},{"properties":{"city":"Fort Lauderdale","geo_score":0.732,"street":"1032 NW 1 AVE","id":"a676kq70vmms","geo_precision":"range","state":"FL"},"type":"Feature","geometry":{"type":"Point","coordinates":[-80.145166,26.137345]}},{"properties":{"city":"Fort Lauderdale","geo_score":0.732,"street":"1032 NW 3 AVE","id":"a676kpz4bezd","geo_precision":"range","state":"FL"},"type":"Feature","geometry":{"type":"Point","coordinates":[-80.147073,26.137295]}},{"properties":{"city":"Fort Lauderdale","geo_score":0.732,"street":"1032 NW 4 AVE","id":"a676kpypov5d","geo_precision":"range","state":"FL"},"type":"Feature","geometry":{"type":"Point","coordinates":[-80.148034,26.137265]}},{"properties":{"city":"Fort Lauderdale","geo_score":0.707,"street":"1041 SW 22 AV","id":"a676kpxppuzd","geo_precision":"range","state":"FL"},"type":"Feature","geometry":{"type":"Point","coordinates":[-80.172163,26.108906]}},{"properties":{"city":"Fort Lauderdale","geo_score":0.707,"street":"1043 NW 17 AV","id":"a676kq1b76w3","geo_precision":"range","state":"FL"},"type":"Feature","geometry":{"type":"Point","coordinates":[-80.166404,26.13784]}},{"properties":{"city":"Fort Lauderdale","geo_score":0.695,"street":"1044 NW 1 AV","id":"a676kq6gjo3y","geo_precision":"range","state":"FL"},"type":"Feature","geometry":{"type":"Point","coordinates":[-80.145174,26.137575]}},{"properties":{"city":"Fort Lauderdale","geo_score":0.732,"street":"1045 NW 5 AVE","id":"a676kq0jtmvh","geo_precision":"range","state":"FL"},"type":"Feature","geometry":{"type":"Point","coordinates":[-80.149013,26.137467]}},{"properties":{"city":"Fort Lauderdale","geo_score":0.805,"street":"1048 IROQUOIS AVE","id":"a676kq404h67","geo_precision":"range","state":"FL"},"type":"Feature","geometry":{"type":"Point","coordinates":[-80.187781,26.109079]}},{"properties":{"city":"Fort Lauderdale","geo_score":0.707,"street":"1060 NW 26 AV","id":"a676kq7xpuu1","geo_precision":"range","state":"FL"},"type":"Feature","geometry":{"type":"Point","coordinates":[-80.17747,26.137897]}},{"properties":{"city":"Fort Lauderdale","geo_score":0.732,"street":"1060 NW 45 CT","id":"a676kq5blj1j","geo_precision":"range","state":"FL"},"type":"Feature","geometry":{"type":"Point","coordinates":[-80.158057,26.182933]}},{"properties":{"city":"Fort Lauderdale","geo_score":0.805,"street":"1091 ALABAMA AVE","id":"a676kpwcua10","geo_precision":"range","state":"FL"},"type":"Feature","geometry":{"type":"Point","coordinates":[-80.191126,26.107866]}},{"properties":{"city":"Fort Lauderdale","geo_score":0.721,"street":"1100 NW 7 ST","id":"a676kpzfaend","geo_precision":"range","state":"FL"},"type":"Feature","geometry":{"type":"Point","coordinates":[-80.156508,26.131157]}},{"properties":{"city":"Fort Lauderdale","geo_score":0.721,"street":"1100 SE 5 CT","id":"a676kq6galn3","geo_precision":"range","state":"FL"},"type":"Feature","geometry":{"type":"Point","coordinates":[-80.131827,26.11556]}},{"properties":{"city":"Fort Lauderdale","geo_score":0.74,"street":"1104 NE 16 AVE","id":"a676kpw63jlm","geo_precision":"range","state":"FL"},"type":"Feature","geometry":{"type":"Point","coordinates":[-80.127769,26.139159]}},{"properties":{"city":"Fort Lauderdale","geo_score":0.695,"street":"1106 NE 1 AV","id":"a676kq9poqb5","geo_precision":"range","state":"FL"},"type":"Feature","geometry":{"type":"Point","coordinates":[-80.143324,26.138763]}},{"properties":{"city":"Fort Lauderdale","geo_score":0.74,"street":"1106 NW 10 TER","id":"a676kpw1ghut","geo_precision":"range","state":"FL"},"type":"Feature","geometry":{"type":"Point","coordinates":[-80.157036,26.138027]}},{"properties":{"city":"Fort Lauderdale","geo_score":0.695,"street":"1109 NW 5 AV","id":"a676kq5yn52f","geo_precision":"range","state":"FL"},"type":"Feature","geometry":{"type":"Point","coordinates":[-80.149047,26.13864]}},{"properties":{"city":"Fort Lauderdale","geo_score":0.805,"street":"1114 W LAS OLAS BLVD","id":"a676kpvcfxlo","geo_precision":"range","state":"FL"},"type":"Feature","geometry":{"type":"Point","coordinates":[-80.156253,26.118734]}},{"properties":{"city":"Fort Lauderdale","geo_score":0.695,"street":"1116 NW 5 AV","id":"a676kq6opfie","geo_precision":"range","state":"FL"},"type":"Feature","geometry":{"type":"Point","coordinates":[-80.149052,26.138783]}},{"properties":{"city":"Fort Lauderdale","geo_score":0.721,"street":"1117 SW 2 ST","id":"a676kq53usef","geo_precision":"range","state":"FL"},"type":"Feature","geometry":{"type":"Point","coordinates":[-80.156322,26.120383]}},{"properties":{"city":"Fort Lauderdale","geo_score":0.732,"street":"1119 NE 15 ST","id":"a676kpwgyn5l","geo_precision":"range","state":"FL"},"type":"Feature","geometry":{"type":"Point","coordinates":[-80.13251,26.146627]}},{"properties":{"city":"Fort Lauderdale","geo_score":0.805,"street":"1121 ARIZONA AVE","id":"a676kq6avai3","geo_precision":"range","state":"FL"},"type":"Feature","geometry":{"type":"Point","coordinates":[-80.19203,26.10867]}},{"properties":{"city":"Fort Lauderdale","geo_score":0.732,"street":"1124 NW 5 AVE","id":"a676kpwfxbqe","geo_precision":"range","state":"FL"},"type":"Feature","geometry":{"type":"Point","coordinates":[-80.149059,26.138927]}},{"properties":{"city":"Fort Lauderdale","geo_score":0.74,"street":"1125 SW 15 TER","id":"a676kq2fho3o","geo_precision":"range","state":"FL"},"type":"Feature","geometry":{"type":"Point","coordinates":[-80.162326,26.108073]}},{"properties":{"city":"Fort Lauderdale","geo_score":0.695,"street":"1127 NW 2 AV","id":"a676kpwnexfm","geo_precision":"range","state":"FL"},"type":"Feature","geometry":{"type":"Point","coordinates":[-80.146176,26.139041]}},{"properties":{"city":"Fort Lauderdale","geo_score":0.695,"street":"1131 NW 3 AV","id":"a676kq6pwvey","geo_precision":"range","state":"FL"},"type":"Feature","geometry":{"type":"Point","coordinates":[-80.147127,26.139092]}},{"properties":{"city":"Fort Lauderdale","geo_score":0.721,"street":"1133 NW 2 ST","id":"a676kq1vn7ul","geo_precision":"range","state":"FL"},"type":"Feature","geometry":{"type":"Point","coordinates":[-80.156656,26.123806]}},{"properties":{"city":"Fort Lauderdale","geo_score":0.74,"street":"1135 NE 12 AVE","id":"a676kq9b6c9x","geo_precision":"range","state":"FL"},"type":"Feature","geometry":{"type":"Point","coordinates":[-80.131626,26.139589]}},{"properties":{"city":"Fort Lauderdale","geo_score":0.695,"street":"1135 NW 4 AV","id":"a676kpzc2hb8","geo_precision":"range","state":"FL"},"type":"Feature","geometry":{"type":"Point","coordinates":[-80.148084,26.13913]}},{"properties":{"city":"Fort Lauderdale","geo_score":0.732,"street":"1138 NE 2 AVE","id":"a676kq9hcegd","geo_precision":"range","state":"FL"},"type":"Feature","geometry":{"type":"Point","coordinates":[-80.142415,26.13935]}},{"properties":{"city":"Fort Lauderdale","geo_score":0.74,"street":"1139 NE 17 WAY","id":"a676kqas5uwd","geo_precision":"range","state":"FL"},"type":"Feature","geometry":{"type":"Point","coordinates":[-80.124008,26.139877]}},{"properties":{"city":"Fort Lauderdale","geo_score":0.707,"street":"1140 NE 12 AV","id":"a676kq4mpr2k","geo_precision":"range","state":"FL"},"type":"Feature","geometry":{"type":"Point","coordinates":[-80.131629,26.139697]}},{"properties":{"city":"Fort Lauderdale","geo_score":0.805,"street":"1160 N FEDERAL HWY","id":"a676kq3cywtf","geo_precision":"range","state":"FL"},"type":"Feature","geometry":{"type":"Point","coordinates":[-80.120133,26.140011]}},{"properties":{"city":"Fort Lauderdale","geo_score":0.805,"street":"1166 ALABAMA AVE","id":"a676kpwxlwrn","geo_precision":"range","state":"FL"},"type":"Feature","geometry":{"type":"Point","coordinates":[-80.192686,26.107825]}},{"properties":{"city":"Fort Lauderdale","geo_score":0.74,"street":"1167 SW 29 AVE","id":"a676kq5vqafq","geo_precision":"range","state":"FL"},"type":"Feature","geometry":{"type":"Point","coordinates":[-80.182848,26.107944]}},{"properties":{"city":"Fort Lauderdale","geo_score":0.74,"street":"117 NE 12 AVE","id":"a676kq1v6ufe","geo_precision":"range","state":"FL"},"type":"Feature","geometry":{"type":"Point","coordinates":[-80.131292,26.123681]}},{"properties":{"city":"Fort Lauderdale","geo_score":0.721,"street":"1200 NE 3 ST","id":"a676kq3mmry5","geo_precision":"range","state":"FL"},"type":"Feature","geometry":{"type":"Point","coordinates":[-80.131337,26.125386]}},{"properties":{"city":"Fort Lauderdale","geo_score":0.732,"street":"1200 NE 5 TER","id":"a676kq38fe22","geo_precision":"range","state":"FL"},"type":"Feature","geometry":{"type":"Point","coordinates":[-80.138605,26.140778]}},{"properties":{"city":"Fort Lauderdale","geo_score":0.732,"street":"1200 NW 3 AVE","id":"a676kq05w7d8","geo_precision":"range","state":"FL"},"type":"Feature","geometry":{"type":"Point","coordinates":[-80.147173,26.14031]}},{"properties":{"city":"Fort Lauderdale","geo_score":0.805,"street":"1201 S ANDREWS AVE","id":"a676kq6on7lx","geo_precision":"range","state":"FL"},"type":"Feature","geometry":{"type":"Point","coordinates":[-80.142945,26.107564]}},{"properties":{"city":"Fort Lauderdale","geo_score":0.721,"street":"1204 SW 2 CT","id":"a676kpvqsp0q","geo_precision":"range","state":"FL"},"type":"Feature","geometry":{"type":"Point","coordinates":[-80.157392,26.119534]}},{"properties":{"city":"Fort Lauderdale","geo_score":0.732,"street":"1209 NW 5 AVE","id":"a676kpzp11mi","geo_precision":"range","state":"FL"},"type":"Feature","geometry":{"type":"Point","coordinates":[-80.149118,26.140402]}},{"properties":{"city":"Fort Lauderdale","geo_score":0.721,"street":"1210 NW 2 ST","id":"a676kq8dfdng","geo_precision":"range","state":"FL"},"type":"Feature","geometry":{"type":"Point","coordinates":[-80.15771,26.123534]}},{"properties":{"city":"Fort Lauderdale","geo_score":0.74,"street":"1212 NE 17 WAY","id":"a676kpwz4lmm","geo_precision":"range","state":"FL"},"type":"Feature","geometry":{"type":"Point","coordinates":[-80.124053,26.141177]}},{"properties":{"city":"Fort Lauderdale","geo_score":0.732,"street":"1213 NW 19 ST","id":"a676kq24qgju","geo_precision":"range","state":"FL"},"type":"Feature","geometry":{"type":"Point","coordinates":[-80.158497,26.151445]}},{"properties":{"city":"Fort Lauderdale","geo_score":0.721,"street":"1213 NW 3 ST","id":"a676kq9xpy0k","geo_precision":"range","state":"FL"},"type":"Feature","geometry":{"type":"Point","coordinates":[-80.157763,26.124322]}},{"properties":{"city":"Fort Lauderdale","geo_score":0.732,"street":"1215 SE 17 ST","id":"a676kqbbnxqz","geo_precision":"range","state":"FL"},"type":"Feature","geometry":{"type":"Point","coordinates":[-80.130577,26.100437]}},{"properties":{"city":"Fort Lauderdale","geo_score":0.732,"street":"1220 NW 7 TER","id":"a676kq63ves2","geo_precision":"range","state":"FL"},"type":"Feature","geometry":{"type":"Point","coordinates":[-80.152053,26.140547]}},{"properties":{"city":"Fort Lauderdale","geo_score":0.732,"street":"1230 NW 16 CT","id":"a676kq8ei8if","geo_precision":"range","state":"FL"},"type":"Feature","geometry":{"type":"Point","coordinates":[-80.159224,26.148118]}},{"properties":{"city":"Fort Lauderdale","geo_score":0.74,"street":"1230 SW 29 TER","id":"a676kq3vgva9","geo_precision":"range","state":"FL"},"type":"Feature","geometry":{"type":"Point","coordinates":[-80.184074,26.106406]}},{"properties":{"city":"Fort Lauderdale","geo_score":0.74,"street":"1233 NE 16 TER","id":"a676kq7qzxj4","geo_precision":"range","state":"FL"},"type":"Feature","geometry":{"type":"Point","coordinates":[-80.126898,26.141461]}},{"properties":{"city":"Fort Lauderdale","geo_score":0.695,"street":"1233 NE 3 AV","id":"a676kq7nc52d","geo_precision":"range","state":"FL"},"type":"Feature","geometry":{"type":"Point","coordinates":[-80.141522,26.141059]}},{"properties":{"city":"Fort Lauderdale","geo_score":0.74,"street":"1234 NE 14 AVE","id":"a676kq6o3dcv","geo_precision":"range","state":"FL"},"type":"Feature","geometry":{"type":"Point","coordinates":[-80.129798,26.141416]}},{"properties":{"city":"Fort Lauderdale","geo_score":0.74,"street":"1245 NE 15 AVE","id":"a676kq8gj7x8","geo_precision":"range","state":"FL"},"type":"Feature","geometry":{"type":"Point","coordinates":[-80.128797,26.141634]}},{"properties":{"city":"Fort Lauderdale","geo_score":0.732,"street":"1301 NE 15 ST","id":"a676kq16fx68","geo_precision":"range","state":"FL"},"type":"Feature","geometry":{"type":"Point","coordinates":[-80.13031,26.146341]}},{"properties":{"city":"Fort Lauderdale","geo_score":0.732,"street":"1301 NW 18 CT","id":"a676kq600jxf","geo_precision":"range","state":"FL"},"type":"Feature","geometry":{"type":"Point","coordinates":[-80.159607,26.150692]}},{"properties":{"city":"Fort Lauderdale","geo_score":0.732,"street":"1302 NW 9 AVE","id":"a676kqbdo9qv","geo_precision":"range","state":"FL"},"type":"Feature","geometry":{"type":"Point","coordinates":[-80.154021,26.141949]}},{"properties":{"city":"Fort Lauderdale","geo_score":0.74,"street":"1309 NW 24 AVE","id":"a676kqbgvf6h","geo_precision":"range","state":"FL"},"type":"Feature","geometry":{"type":"Point","coordinates":[-80.174099,26.142484]}},{"properties":{"city":"Fort Lauderdale","geo_score":0.74,"street":"1313 NW 19 AVE","id":"a676kpwavhj2","geo_precision":"range","state":"FL"},"type":"Feature","geometry":{"type":"Point","coordinates":[-80.167694,26.141771]}},{"properties":{"city":"Fort Lauderdale","geo_score":0.805,"street":"1321 N ANDREWS AVE","id":"a676kpzyxieo","geo_precision":"range","state":"FL"},"type":"Feature","geometry":{"type":"Point","coordinates":[-80.144416,26.142538]}},{"properties":{"city":"Fort Lauderdale","geo_score":0.732,"street":"1321 NE 14 ST","id":"a676kq356xfa","geo_precision":"range","state":"FL"},"type":"Feature","geometry":{"type":"Point","coordinates":[-80.130747,26.144282]}},{"properties":{"city":"Fort Lauderdale","geo_score":0.732,"street":"1321 NW 7 AVE","id":"a676kpxinhop","geo_precision":"range","state":"FL"},"type":"Feature","geometry":{"type":"Point","coordinates":[-80.151147,26.142365]}},{"properties":{"city":"Fort Lauderdale","geo_score":0.732,"street":"1324 NW 8 AVE","id":"a676kqahvipa","geo_precision":"range","state":"FL"},"type":"Feature","geometry":{"type":"Point","coordinates":[-80.153053,26.14237]}},{"properties":{"city":"Fort Lauderdale","geo_score":0.805,"street":"1325 CHATEAU PARK DR","id":"a676kq57vdvo","geo_precision":"range","state":"FL"},"type":"Feature","geometry":{"type":"Point","coordinates":[-80.159873,26.142005]}},{"properties":{"city":"Fort Lauderdale","geo_score":0.732,"street":"1325 NW 11 CT","id":"a676kq3govcj","geo_precision":"range","state":"FL"},"type":"Feature","geometry":{"type":"Point","coordinates":[-80.16006,26.138726]}},{"properties":{"city":"Fort Lauderdale","geo_score":0.732,"street":"1327 NE 14 PL","id":"a676kq96aj68","geo_precision":"range","state":"FL"},"type":"Feature","geometry":{"type":"Point","coordinates":[-80.130287,26.145682]}},{"properties":{"city":"Fort Lauderdale","geo_score":0.732,"street":"1332 NW 8 AVE","id":"a676kq3t0tuq","geo_precision":"range","state":"FL"},"type":"Feature","geometry":{"type":"Point","coordinates":[-80.153058,26.14251]}},{"properties":{"city":"Fort Lauderdale","geo_score":0.732,"street":"1335 NE 3 AVE","id":"a676kqajelrj","geo_precision":"range","state":"FL"},"type":"Feature","geometry":{"type":"Point","coordinates":[-80.14159,26.142874]}},{"properties":{"city":"Fort Lauderdale","geo_score":0.74,"street":"1337 NE 17 AVE","id":"a676kq42c2h2","geo_precision":"range","state":"FL"},"type":"Feature","geometry":{"type":"Point","coordinates":[-80.126019,26.143334]}},{"properties":{"city":"Fort Lauderdale","geo_score":0.732,"street":"1344 NE 4 AVE","id":"a676kq0mvoyv","geo_precision":"range","state":"FL"},"type":"Feature","geometry":{"type":"Point","coordinates":[-80.140581,26.143075]}},{"properties":{"city":"Fort Lauderdale","geo_score":0.74,"street":"1345 NE 13 AVE","id":"a676kq7wtaej","geo_precision":"range","state":"FL"},"type":"Feature","geometry":{"type":"Point","coordinates":[-80.130791,26.142825]}},{"properties":{"city":"Fort Lauderdale","geo_score":0.707,"street":"1350 SW 32 AV","id":"a676kpy3vc53","geo_precision":"range","state":"FL"},"type":"Feature","geometry":{"type":"Point","coordinates":[-80.18768,26.103775]}},{"properties":{"city":"Fort Lauderdale","geo_score":0.721,"street":"1351 HOLLY HEIGHTS DR","id":"a676kqamzphr","geo_precision":"range","state":"FL"},"type":"Feature","geometry":{"type":"Point","coordinates":[-80.133938,26.143868]}},{"properties":{"city":"Fort Lauderdale","geo_score":0.707,"street":"138 SW 22 AV","id":"a676kq5bjmg0","geo_precision":"range","state":"FL"},"type":"Feature","geometry":{"type":"Point","coordinates":[-80.172201,26.119537]}},{"properties":{"city":"Fort Lauderdale","geo_score":0.732,"street":"1400 NE 56 ST","id":"a676kq5tshc9","geo_precision":"range","state":"FL"},"type":"Feature","geometry":{"type":"Point","coordinates":[-80.131053,26.196301]}},{"properties":{"city":"Fort Lauderdale","geo_score":0.732,"street":"1401 NE 15 ST","id":"a676kqafsh8v","geo_precision":"range","state":"FL"},"type":"Feature","geometry":{"type":"Point","coordinates":[-80.129855,26.146352]}},{"properties":{"city":"Fort Lauderdale","geo_score":0.695,"street":"1405 NW 5 AV","id":"a676kq6tekjx","geo_precision":"range","state":"FL"},"type":"Feature","geometry":{"type":"Point","coordinates":[-80.149236,26.143856]}},{"properties":{"city":"Fort Lauderdale","geo_score":0.732,"street":"1408 SW 19 ST","id":"a676kq04ic44","geo_precision":"range","state":"FL"},"type":"Feature","geometry":{"type":"Point","coordinates":[-80.159103,26.097055]}},{"properties":{"city":"Fort Lauderdale","geo_score":0.732,"street":"1412 SW 33 CT","id":"a676kqbc869q","geo_precision":"range","state":"FL"},"type":"Feature","geometry":{"type":"Point","coordinates":[-80.159022,26.08265]}},{"properties":{"city":"Fort Lauderdale","geo_score":0.74,"street":"1413 NW 15 AVE","id":"a676kpx7vjp4","geo_precision":"range","state":"FL"},"type":"Feature","geometry":{"type":"Point","coordinates":[-80.162294,26.144077]}},{"properties":{"city":"Fort Lauderdale","geo_score":0.721,"street":"1415 NE 6 ST","id":"a676kq2w6pe4","geo_precision":"range","state":"FL"},"type":"Feature","geometry":{"type":"Point","coordinates":[-80.129307,26.130092]}},{"properties":{"city":"Fort Lauderdale","geo_score":0.732,"street":"1416 NW 8 AVE","id":"a676kq3smv4q","geo_precision":"range","state":"FL"},"type":"Feature","geometry":{"type":"Point","coordinates":[-80.153115,26.143947]}},{"properties":{"city":"Fort Lauderdale","geo_score":0.732,"street":"1418 NE 57 PL","id":"a676kq617myz","geo_precision":"range","state":"FL"},"type":"Feature","geometry":{"type":"Point","coordinates":[-80.130018,26.199776]}},{"properties":{"city":"Fort Lauderdale","geo_score":0.732,"street":"1419 NW 11 ST","id":"a676kq63gcy8","geo_precision":"range","state":"FL"},"type":"Feature","geometry":{"type":"Point","coordinates":[-80.16113,26.13794]}},{"properties":{"city":"Fort Lauderdale","geo_score":0.805,"street":"1420 E SUNRISE BLVD","id":"a676kq4au15x","geo_precision":"range","state":"FL"},"type":"Feature","geometry":{"type":"Point","coordinates":[-80.129457,26.137179]}},{"properties":{"city":"Fort Lauderdale","geo_score":0.695,"street":"1421 NW 1 AV","id":"a676kpyux7we","geo_precision":"range","state":"FL"},"type":"Feature","geometry":{"type":"Point","coordinates":[-80.145421,26.144244]}},{"properties":{"city":"Fort Lauderdale","geo_score":0.732,"street":"1425 NW 8 AVE","id":"a676kq8i5wq6","geo_precision":"range","state":"FL"},"type":"Feature","geometry":{"type":"Point","coordinates":[-80.153121,26.144091]}},{"properties":{"city":"Fort Lauderdale","geo_score":0.732,"street":"1428 NW 5 AVE","id":"a676kq9s3e9z","geo_precision":"range","state":"FL"},"type":"Feature","geometry":{"type":"Point","coordinates":[-80.149249,26.144286]}},{"properties":{"city":"Fort Lauderdale","geo_score":0.721,"street":"1429 SW 9 ST","id":"a676kq8hdi1i","geo_precision":"range","state":"FL"},"type":"Feature","geometry":{"type":"Point","coordinates":[-80.160496,26.110549]}},{"properties":{"city":"Fort Lauderdale","geo_score":0.732,"street":"1432 SW 30 ST","id":"a676kq2s5il3","geo_precision":"range","state":"FL"},"type":"Feature","geometry":{"type":"Point","coordinates":[-80.159671,26.087398]}},{"properties":{"city":"Fort Lauderdale","geo_score":0.695,"street":"1433 NW 8 AV","id":"a676kq5un7qp","geo_precision":"range","state":"FL"},"type":"Feature","geometry":{"type":"Point","coordinates":[-80.153125,26.144234]}},{"properties":{"city":"Fort Lauderdale","geo_score":0.805,"street":"1437 N ANDREWS AVE","id":"a676kpx5rm5l","geo_precision":"range","state":"FL"},"type":"Feature","geometry":{"type":"Point","coordinates":[-80.144489,26.144547]}},{"properties":{"city":"Fort Lauderdale","geo_score":0.74,"street":"1441 NE 15 AVE","id":"a676kq5g11hm","geo_precision":"range","state":"FL"},"type":"Feature","geometry":{"type":"Point","coordinates":[-80.128912,26.145942]}},{"properties":{"city":"Fort Lauderdale","geo_score":0.732,"street":"1442 SW 10 ST","id":"a676kq3fgh2z","geo_precision":"range","state":"FL"},"type":"Feature","geometry":{"type":"Point","coordinates":[-80.160651,26.109785]}},{"properties":{"city":"Fort Lauderdale","geo_score":0.732,"street":"1444 NW 8 AVE","id":"a676kq23ac4y","geo_precision":"range","state":"FL"},"type":"Feature","geometry":{"type":"Point","coordinates":[-80.153133,26.144449]}},{"properties":{"city":"Fort Lauderdale","geo_score":0.415,"street":"1445 LAUD VILLAS DR","id":"a676kpxhnjzp","geo_precision":"street","state":"FL"},"type":"Feature","geometry":{"type":"Point","coordinates":[-80.120488,26.115147]}},{"properties":{"city":"Fort Lauderdale","geo_score":0.74,"street":"1445 SE 10 AVE","id":"a676kpxekvzf","geo_precision":"range","state":"FL"},"type":"Feature","geometry":{"type":"Point","coordinates":[-80.132791,26.103574]}},{"properties":{"city":"Fort Lauderdale","geo_score":0.732,"street":"1448 NE 56 ST","id":"a676kq4wg1qv","geo_precision":"range","state":"FL"},"type":"Feature","geometry":{"type":"Point","coordinates":[-80.129396,26.196334]}},{"properties":{"city":"Fort Lauderdale","geo_score":0.634,"street":"1454 SW 10 ST","id":"a676kq00rtmo","geo_precision":"street","state":"FL"},"type":"Feature","geometry":{"type":"Point","coordinates":[-80.160766,26.109782]}},{"properties":{"city":"Fort Lauderdale","geo_score":0.439,"street":"1470 NW 20 ST","id":"a676kqah5p78","geo_precision":"street","state":"FL"},"type":"Feature","geometry":{"type":"Point","coordinates":[-80.354399,26.095535]}},{"properties":{"city":"Fort Lauderdale","geo_score":0.561,"street":"1470 SW 22 ST","id":"a676kq2t05v6","geo_precision":"street","state":"FL"},"type":"Feature","geometry":{"type":"Point","coordinates":[-80.322231,26.091383]}},{"properties":{"city":"Fort Lauderdale","geo_score":0.707,"street":"15 SE 11 AV","id":"a676kq9268iz","geo_precision":"range","state":"FL"},"type":"Feature","geometry":{"type":"Point","coordinates":[-80.132278,26.122451]}},{"properties":{"city":"Fort Lauderdale","geo_score":0.732,"street":"1500 NE 15 ST","id":"a676kpvwdtao","geo_precision":"range","state":"FL"},"type":"Feature","geometry":{"type":"Point","coordinates":[-80.128919,26.1461]}},{"properties":{"city":"Fort Lauderdale","geo_score":0.721,"street":"1500 NE 8 ST","id":"a676kqakqki7","geo_precision":"range","state":"FL"},"type":"Feature","geometry":{"type":"Point","coordinates":[-80.128571,26.133792]}},{"properties":{"city":"Fort Lauderdale","geo_score":0.488,"street":"1500 SW 20 ST","id":"a676kq751oi8","geo_precision":"street","state":"FL"},"type":"Feature","geometry":{"type":"Point","coordinates":[-80.354399,26.095535]}},{"properties":{"city":"Fort Lauderdale","geo_score":0.732,"street":"1506 SW 13 ST","id":"a676kq0pminf","geo_precision":"range","state":"FL"},"type":"Feature","geometry":{"type":"Point","coordinates":[-80.161462,26.105672]}},{"properties":{"city":"Fort Lauderdale","geo_score":0.74,"street":"1506 SW 28 TER","id":"a676kq2e78fq","geo_precision":"range","state":"FL"},"type":"Feature","geometry":{"type":"Point","coordinates":[-80.18021,26.102872]}},{"properties":{"city":"Fort Lauderdale","geo_score":0.721,"street":"1509 NW 8 ST","id":"a676kq31l5vx","geo_precision":"range","state":"FL"},"type":"Feature","geometry":{"type":"Point","coordinates":[-80.162459,26.132823]}},{"properties":{"city":"Fort Lauderdale","geo_score":0.695,"street":"1513 NW 8 AV","id":"a676kpxbtbsp","geo_precision":"range","state":"FL"},"type":"Feature","geometry":{"type":"Point","coordinates":[-80.153176,26.145635]}},{"properties":{"city":"Fort Lauderdale","geo_score":0.732,"street":"1514 NW 11 PL","id":"a676kpzwtd3q","geo_precision":"range","state":"FL"},"type":"Feature","geometry":{"type":"Point","coordinates":[-80.16248,26.139445]}},{"properties":{"city":"Fort Lauderdale","geo_score":0.732,"street":"1515 NW 7 TER","id":"a676kq7a9ksy","geo_precision":"range","state":"FL"},"type":"Feature","geometry":{"type":"Point","coordinates":[-80.152228,26.145699]}},{"properties":{"city":"Fort Lauderdale","geo_score":0.732,"street":"1517 NW 9 AVE","id":"a676kq7yuyqa","geo_precision":"range","state":"FL"},"type":"Feature","geometry":{"type":"Point","coordinates":[-80.154136,26.145692]}},{"properties":{"city":"Fort Lauderdale","geo_score":0.74,"street":"1518 SW 21 TER","id":"a676kpv49t4l","geo_precision":"range","state":"FL"},"type":"Feature","geometry":{"type":"Point","coordinates":[-80.170663,26.101791]}},{"properties":{"city":"Fort Lauderdale","geo_score":0.707,"street":"1520 SW 25 AV","id":"a676kq7xx790","geo_precision":"range","state":"FL"},"type":"Feature","geometry":{"type":"Point","coordinates":[-80.175154,26.102132]}},{"properties":{"city":"Fort Lauderdale","geo_score":0.732,"street":"1521 NW 8 AVE","id":"a676kq5lltqf","geo_precision":"range","state":"FL"},"type":"Feature","geometry":{"type":"Point","coordinates":[-80.15318,26.145779]}},{"properties":{"city":"Fort Lauderdale","geo_score":0.732,"street":"1523 SE 11 ST","id":"a676kpyltth0","geo_precision":"range","state":"FL"},"type":"Feature","geometry":{"type":"Point","coordinates":[-80.12783,26.109143]}},{"properties":{"city":"Fort Lauderdale","geo_score":0.74,"street":"1524 NW 15 TER","id":"a676kpz64wyp","geo_precision":"range","state":"FL"},"type":"Feature","geometry":{"type":"Point","coordinates":[-80.163257,26.145733]}},{"properties":{"city":"Fort Lauderdale","geo_score":0.732,"street":"1524 NW 8 AVE","id":"a676kq069zid","geo_precision":"range","state":"FL"},"type":"Feature","geometry":{"type":"Point","coordinates":[-80.153182,26.145852]}},{"properties":{"city":"Fort Lauderdale","geo_score":0.732,"street":"1528 NW 6 AVE","id":"a676kpw5yleb","geo_precision":"range","state":"FL"},"type":"Feature","geometry":{"type":"Point","coordinates":[-80.150305,26.146025]}},{"properties":{"city":"Fort Lauderdale","geo_score":0.732,"street":"1529 NW 2 AVE","id":"a676kq5ndhh2","geo_precision":"range","state":"FL"},"type":"Feature","geometry":{"type":"Point","coordinates":[-80.146436,26.146114]}},{"properties":{"city":"Fort Lauderdale","geo_score":0.732,"street":"1531 NW 13 CT","id":"a676kqb5qv4b","geo_precision":"range","state":"FL"},"type":"Feature","geometry":{"type":"Point","coordinates":[-80.163349,26.142487]}},{"properties":{"city":"Fort Lauderdale","geo_score":0.74,"street":"1533 NW 19 AVE","id":"a676kpv4el70","geo_precision":"range","state":"FL"},"type":"Feature","geometry":{"type":"Point","coordinates":[-80.167665,26.146387]}},{"properties":{"city":"Fort Lauderdale","geo_score":0.695,"street":"1536 NW 7 AV","id":"a676kqbhc9la","geo_precision":"range","state":"FL"},"type":"Feature","geometry":{"type":"Point","coordinates":[-80.151286,26.146127]}},{"properties":{"city":"Fort Lauderdale","geo_score":0.721,"street":"1540 SW 5 PL","id":"a676kpxdsoy8","geo_precision":"range","state":"FL"},"type":"Feature","geometry":{"type":"Point","coordinates":[-80.162143,26.114536]}},{"properties":{"city":"Fort Lauderdale","geo_score":0.732,"street":"1544 NW 8 AVE","id":"a676kpx56ad7","geo_precision":"range","state":"FL"},"type":"Feature","geometry":{"type":"Point","coordinates":[-80.153192,26.146213]}},{"properties":{"city":"Fort Lauderdale","geo_score":0.732,"street":"1545 SW 24 ST","id":"a676kpw3gpus","geo_precision":"range","state":"FL"},"type":"Feature","geometry":{"type":"Point","coordinates":[-80.161326,26.092562]}},{"properties":{"city":"Fort Lauderdale","geo_score":0.721,"street":"1548 SW 5 PL","id":"a676kq19s770","geo_precision":"range","state":"FL"},"type":"Feature","geometry":{"type":"Point","coordinates":[-80.162237,26.114534]}},{"properties":{"city":"Fort Lauderdale","geo_score":0.721,"street":"1548 SW 5 PL","id":"a676kq5qetp7","geo_precision":"range","state":"FL"},"type":"Feature","geometry":{"type":"Point","coordinates":[-80.162237,26.114534]}},{"properties":{"city":"Fort Lauderdale","geo_score":0.721,"street":"1556 SW 5 PL","id":"a676kq78xl2n","geo_precision":"range","state":"FL"},"type":"Feature","geometry":{"type":"Point","coordinates":[-80.162331,26.114531]}},{"properties":{"city":"Fort Lauderdale","geo_score":0.721,"street":"1556 SW 5 PL","id":"a676kpvk9xja","geo_precision":"range","state":"FL"},"type":"Feature","geometry":{"type":"Point","coordinates":[-80.162331,26.114531]}},{"properties":{"city":"Fort Lauderdale","geo_score":0.74,"street":"1561 NW 15 TER","id":"a676kpztwi56","geo_precision":"range","state":"FL"},"type":"Feature","geometry":{"type":"Point","coordinates":[-80.163318,26.147301]}},{"properties":{"city":"Fort Lauderdale","geo_score":0.721,"street":"1601 NW 6 PL","id":"a676kq4c2r2g","geo_precision":"range","state":"FL"},"type":"Feature","geometry":{"type":"Point","coordinates":[-80.16417,26.130257]}},{"properties":{"city":"Fort Lauderdale","geo_score":0.732,"street":"1601 SW 11 ST","id":"a676kpvhtm5o","geo_precision":"range","state":"FL"},"type":"Feature","geometry":{"type":"Point","coordinates":[-80.162835,26.108621]}},{"properties":{"city":"Fort Lauderdale","geo_score":0.732,"street":"1608 NW 15 ST","id":"a676kq682t0l","geo_precision":"range","state":"FL"},"type":"Feature","geometry":{"type":"Point","coordinates":[-80.164439,26.144787]}},{"properties":{"city":"Fort Lauderdale","geo_score":0.707,"street":"1609 NE 18 AV","id":"a676kq5bcvjy","geo_precision":"range","state":"FL"},"type":"Feature","geometry":{"type":"Point","coordinates":[-80.122397,26.148179]}},{"properties":{"city":"Fort Lauderdale","geo_score":0.561,"street":"1609 NW 16 ST","id":"a676kq27mhab","geo_precision":"street","state":"FL"},"type":"Feature","geometry":{"type":"Point","coordinates":[-80.322959,26.09824]}},{"properties":{"city":"Fort Lauderdale","geo_score":0.721,"street":"1611 NW 7 CT","id":"a676kpz4uyt3","geo_precision":"range","state":"FL"},"type":"Feature","geometry":{"type":"Point","coordinates":[-80.164261,26.131514]}},{"properties":{"city":"Fort Lauderdale","geo_score":0.561,"street":"1615 NW 16 ST","id":"a676kpzd9koy","geo_precision":"street","state":"FL"},"type":"Feature","geometry":{"type":"Point","coordinates":[-80.322959,26.09824]}},{"properties":{"city":"Fort Lauderdale","geo_score":0.732,"street":"1616 NW 11 ST","id":"a676kq52pivj","geo_precision":"range","state":"FL"},"type":"Feature","geometry":{"type":"Point","coordinates":[-80.16406,26.137882]}},{"properties":{"city":"Fort Lauderdale","geo_score":0.732,"street":"1616 NW 8 AVE","id":"a676kq7zhfm9","geo_precision":"range","state":"FL"},"type":"Feature","geometry":{"type":"Point","coordinates":[-80.153233,26.147475]}},{"properties":{"city":"Fort Lauderdale","geo_score":0.707,"street":"1617 NE 18 AV","id":"a676kq59o7p3","geo_precision":"range","state":"FL"},"type":"Feature","geometry":{"type":"Point","coordinates":[-80.122401,26.148323]}},{"properties":{"city":"Fort Lauderdale","geo_score":0.732,"street":"1617 NW 11 CT","id":"a676kpxde5cv","geo_precision":"range","state":"FL"},"type":"Feature","geometry":{"type":"Point","coordinates":[-80.163602,26.138655]}},{"properties":{"city":"Fort Lauderdale","geo_score":0.561,"street":"1617 NW 15 PL","id":"a676kq5666o6","geo_precision":"street","state":"FL"},"type":"Feature","geometry":{"type":"Point","coordinates":[-80.350175,26.101284]}},{"properties":{"city":"Fort Lauderdale","geo_score":0.721,"street":"1618 NW 7 CT","id":"a676kq2jssfm","geo_precision":"range","state":"FL"},"type":"Feature","geometry":{"type":"Point","coordinates":[-80.164334,26.131513]}},{"properties":{"city":"Fort Lauderdale","geo_score":0.721,"street":"1619 NW 6 PL","id":"a676kq54o0ic","geo_precision":"range","state":"FL"},"type":"Feature","geometry":{"type":"Point","coordinates":[-80.164332,26.130253]}},{"properties":{"city":"Fort Lauderdale","geo_score":0.721,"street":"1620 NE 6 ST","id":"a676kq5d9xad","geo_precision":"range","state":"FL"},"type":"Feature","geometry":{"type":"Point","coordinates":[-80.127062,26.130104]}},{"properties":{"city":"Fort Lauderdale","geo_score":0.721,"street":"1625 NW 6 PL","id":"a676kq8m7bag","geo_precision":"range","state":"FL"},"type":"Feature","geometry":{"type":"Point","coordinates":[-80.164406,26.130252]}},{"properties":{"city":"Fort Lauderdale","geo_score":0.732,"street":"1627 SW 4 AVE","id":"a676kpxgssy1","geo_precision":"range","state":"FL"},"type":"Feature","geometry":{"type":"Point","coordinates":[-80.146913,26.100772]}},{"properties":{"city":"Fort Lauderdale","geo_score":0.74,"street":"1630 SW 28 WAY","id":"a676kq7qjina","geo_precision":"range","state":"FL"},"type":"Feature","geometry":{"type":"Point","coordinates":[-80.181162,26.100742]}},{"properties":{"city":"Fort Lauderdale","geo_score":0.732,"street":"1630 SW 32 CT","id":"a676kpw6odbw","geo_precision":"range","state":"FL"},"type":"Feature","geometry":{"type":"Point","coordinates":[-80.162135,26.084432]}},{"properties":{"city":"Fort Lauderdale","geo_score":0.695,"street":"1632 NW 5 AV","id":"a676kq76ol8u","geo_precision":"range","state":"FL"},"type":"Feature","geometry":{"type":"Point","coordinates":[-80.149364,26.147836]}},{"properties":{"city":"Fort Lauderdale","geo_score":0.732,"street":"1632 NW 7 TER","id":"a676kq6s8m09","geo_precision":"range","state":"FL"},"type":"Feature","geometry":{"type":"Point","coordinates":[-80.152292,26.147792]}},{"properties":{"city":"Fort Lauderdale","geo_score":0.561,"street":"1633 NW 15 PL","id":"a676kq7nmgwi","geo_precision":"street","state":"FL"},"type":"Feature","geometry":{"type":"Point","coordinates":[-80.350175,26.101284]}},{"properties":{"city":"Fort Lauderdale","geo_score":0.74,"street":"1633 SW 30 TER","id":"a676kq7dwpku","geo_precision":"range","state":"FL"},"type":"Feature","geometry":{"type":"Point","coordinates":[-80.18517,26.100632]}},{"properties":{"city":"Fort Lauderdale","geo_score":0.721,"street":"1634 NE 6 ST","id":"a676kpywjtoh","geo_precision":"range","state":"FL"},"type":"Feature","geometry":{"type":"Point","coordinates":[-80.126837,26.130109]}},{"properties":{"city":"Fort Lauderdale","geo_score":0.538,"street":"1634 SW 33 CT","id":"a676kq583q84","geo_precision":"street","state":"FL"},"type":"Feature","geometry":{"type":"Point","coordinates":[-80.16076,26.082604]}},{"properties":{"city":"Fort Lauderdale","geo_score":0.805,"street":"1637 N VICTORIA PARK RD","id":"a676kpxv1gyk","geo_precision":"range","state":"FL"},"type":"Feature","geometry":{"type":"Point","coordinates":[-80.123369,26.148662]}},{"properties":{"city":"Fort Lauderdale","geo_score":0.732,"street":"1637 NW 7 TER","id":"a676kpynak3l","geo_precision":"range","state":"FL"},"type":"Feature","geometry":{"type":"Point","coordinates":[-80.152294,26.147864]}},{"properties":{"city":"Fort Lauderdale","geo_score":0.74,"street":"1641 SW 29 AVE","id":"a676kqaeeig1","geo_precision":"range","state":"FL"},"type":"Feature","geometry":{"type":"Point","coordinates":[-80.182172,26.100543]}},{"properties":{"city":"Fort Lauderdale","geo_score":0.439,"street":"1649 LAUD MANORS DR","id":"a676kq895k40","geo_precision":"street","state":"FL"},"type":"Feature","geometry":{"type":"Point","coordinates":[-80.120488,26.115147]}},{"properties":{"city":"Fort Lauderdale","geo_score":0.74,"street":"1649 NW 10 AVE","id":"a676kq7k66l9","geo_precision":"range","state":"FL"},"type":"Feature","geometry":{"type":"Point","coordinates":[-80.155184,26.147703]}},{"properties":{"city":"Fort Lauderdale","geo_score":0.732,"street":"1681 SW 32 CT","id":"a676kpvcntgv","geo_precision":"range","state":"FL"},"type":"Feature","geometry":{"type":"Point","coordinates":[-80.162774,26.084422]}},{"properties":{"city":"Fort Lauderdale","geo_score":0.732,"street":"1690 SW 23 ST","id":"a676kq5pzdq4","geo_precision":"range","state":"FL"},"type":"Feature","geometry":{"type":"Point","coordinates":[-80.161862,26.09401]}},{"properties":{"city":"Fort Lauderdale","geo_score":0.732,"street":"1705 SW 32 PL","id":"a676kq6a56yz","geo_precision":"range","state":"FL"},"type":"Feature","geometry":{"type":"Point","coordinates":[-80.163018,26.083848]}},{"properties":{"city":"Fort Lauderdale","geo_score":0.74,"street":"1706 NW 14 AVE","id":"a676kpzqwz13","geo_precision":"range","state":"FL"},"type":"Feature","geometry":{"type":"Point","coordinates":[-80.16155,26.148903]}},{"properties":{"city":"Fort Lauderdale","geo_score":0.732,"street":"1708 SW 12 CT","id":"a676kpys0kho","geo_precision":"range","state":"FL"},"type":"Feature","geometry":{"type":"Point","coordinates":[-80.163721,26.10634]}},{"properties":{"city":"Fort Lauderdale","geo_score":0.721,"street":"1709 NW 8 CT","id":"a676kqahxs1e","geo_precision":"range","state":"FL"},"type":"Feature","geometry":{"type":"Point","coordinates":[-80.165289,26.133258]}},{"properties":{"city":"Fort Lauderdale","geo_score":0.778,"street":"1710 S ANDREWS AV","id":"a676kpwyh4f2","geo_precision":"range","state":"FL"},"type":"Feature","geometry":{"type":"Point","coordinates":[-80.142019,26.100577]}},{"properties":{"city":"Fort Lauderdale","geo_score":0.732,"street":"1711 SW 32 ST","id":"a676kpws2gf3","geo_precision":"range","state":"FL"},"type":"Feature","geometry":{"type":"Point","coordinates":[-80.163167,26.085191]}},{"properties":{"city":"Fort Lauderdale","geo_score":0.561,"street":"1712 NW 16 ST","id":"a676kq47kzi5","geo_precision":"street","state":"FL"},"type":"Feature","geometry":{"type":"Point","coordinates":[-80.322959,26.09824]}},{"properties":{"city":"Fort Lauderdale","geo_score":0.721,"street":"1712 NW 8 PL","id":"a676kpwhohkk","geo_precision":"range","state":"FL"},"type":"Feature","geometry":{"type":"Point","coordinates":[-80.165344,26.13389]}},{"properties":{"city":"Fort Lauderdale","geo_score":0.74,"street":"1713 NE 16 TER","id":"a676kq70rz64","geo_precision":"range","state":"FL"},"type":"Feature","geometry":{"type":"Point","coordinates":[-80.12719,26.149903]}},{"properties":{"city":"Fort Lauderdale","geo_score":0.561,"street":"1714 SW 22 ST","id":"a676kq3s81ue","geo_precision":"street","state":"FL"},"type":"Feature","geometry":{"type":"Point","coordinates":[-80.322231,26.091383]}},{"properties":{"city":"Fort Lauderdale","geo_score":0.707,"street":"1727 NE 15 AV","id":"a676kq3m9jnq","geo_precision":"range","state":"FL"},"type":"Feature","geometry":{"type":"Point","coordinates":[-80.129066,26.15039]}},{"properties":{"city":"Fort Lauderdale","geo_score":0.695,"street":"1729 NW 6 AV","id":"a676kq46g4p7","geo_precision":"range","state":"FL"},"type":"Feature","geometry":{"type":"Point","coordinates":[-80.150438,26.150178]}},{"properties":{"city":"Fort Lauderdale","geo_score":0.439,"street":"1736 LAUD MANORS DR","id":"a676kq7q7oht","geo_precision":"street","state":"FL"},"type":"Feature","geometry":{"type":"Point","coordinates":[-80.120488,26.115147]}},{"properties":{"city":"Fort Lauderdale","geo_score":0.74,"street":"1736 SW 25 AVE","id":"a676kpx0s90f","geo_precision":"range","state":"FL"},"type":"Feature","geometry":{"type":"Point","coordinates":[-80.174794,26.098932]}},{"properties":{"city":"Fort Lauderdale","geo_score":0.732,"street":"1737 NE 15 ST","id":"a676kq88rwse","geo_precision":"range","state":"FL"},"type":"Feature","geometry":{"type":"Point","coordinates":[-80.124667,26.146215]}},{"properties":{"city":"Fort Lauderdale","geo_score":0.707,"street":"1740 NW 28 AV","id":"a676kq7qc74q","geo_precision":"range","state":"FL"},"type":"Feature","geometry":{"type":"Point","coordinates":[-80.180305,26.148457]}},{"properties":{"city":"Fort Lauderdale","geo_score":0.805,"street":"1750 E SUNRISE BLVD","id":"a676kq6lezpc","geo_precision":"range","state":"FL"},"type":"Feature","geometry":{"type":"Point","coordinates":[-80.123731,26.137335]}},{"properties":{"city":"Fort Lauderdale","geo_score":0.732,"street":"1752 NW 18 ST","id":"a676kq9j6z06","geo_precision":"range","state":"FL"},"type":"Feature","geometry":{"type":"Point","coordinates":[-80.165496,26.150058]}},{"properties":{"city":"Fort Lauderdale","geo_score":0.732,"street":"1759 SW 30 PL","id":"a676kq0om0s9","geo_precision":"range","state":"FL"},"type":"Feature","geometry":{"type":"Point","coordinates":[-80.163113,26.086149]}},{"properties":{"city":"Fort Lauderdale","geo_score":0.74,"street":"1761 NW 25 AVE","id":"a676kpzwbsyh","geo_precision":"range","state":"FL"},"type":"Feature","geometry":{"type":"Point","coordinates":[-80.175737,26.148809]}},{"properties":{"city":"Fort Lauderdale","geo_score":0.74,"street":"1769 SW 29 AVE","id":"a676kpwmbtdk","geo_precision":"range","state":"FL"},"type":"Feature","geometry":{"type":"Point","coordinates":[-80.182656,26.098712]}},{"properties":{"city":"Fort Lauderdale","geo_score":0.74,"street":"1772 SE 25 AVE","id":"a676kpx58nqb","geo_precision":"range","state":"FL"},"type":"Feature","geometry":{"type":"Point","coordinates":[-80.112709,26.099839]}},{"properties":{"city":"Fort Lauderdale","geo_score":0.721,"street":"1800 SW 9 ST","id":"a676kpxlgehh","geo_precision":"range","state":"FL"},"type":"Feature","geometry":{"type":"Point","coordinates":[-80.165,26.110799]}},{"properties":{"city":"Fort Lauderdale","geo_score":0.74,"street":"1801 SW 28 WAY","id":"a676kqa8t4jd","geo_precision":"range","state":"FL"},"type":"Feature","geometry":{"type":"Point","coordinates":[-80.181104,26.098667]}},{"properties":{"city":"Fort Lauderdale","geo_score":0.707,"street":"1807 NW 14 AV","id":"a676kqb48b9f","geo_precision":"range","state":"FL"},"type":"Feature","geometry":{"type":"Point","coordinates":[-80.16158,26.149976]}},{"properties":{"city":"Fort Lauderdale","geo_score":0.74,"street":"1812 NE 11 AVE","id":"a676kpwsxtwd","geo_precision":"range","state":"FL"},"type":"Feature","geometry":{"type":"Point","coordinates":[-80.132869,26.151513]}},{"properties":{"city":"Fort Lauderdale","geo_score":0.732,"street":"1816 SW 11 CT","id":"a676kq3qvzyn","geo_precision":"range","state":"FL"},"type":"Feature","geometry":{"type":"Point","coordinates":[-80.165169,26.107838]}},{"properties":{"city":"Fort Lauderdale","geo_score":0.732,"street":"1832 SW 11 CT","id":"a676kpwmev1m","geo_precision":"range","state":"FL"},"type":"Feature","geometry":{"type":"Point","coordinates":[-80.165424,26.107833]}},{"properties":{"city":"Fort Lauderdale","geo_score":0.732,"street":"1835 SW 4 AVE","id":"a676kq7jiaow","geo_precision":"range","state":"FL"},"type":"Feature","geometry":{"type":"Point","coordinates":[-80.146857,26.09812]}},{"properties":{"city":"Fort Lauderdale","geo_score":0.439,"street":"1841 LAUD MANORS DR","id":"a676kpxkczmv","geo_precision":"street","state":"FL"},"type":"Feature","geometry":{"type":"Point","coordinates":[-80.120488,26.115147]}},{"properties":{"city":"Fort Lauderdale","geo_score":0.732,"street":"1841 NE 53 ST","id":"a676kq7hfz6d","geo_precision":"range","state":"FL"},"type":"Feature","geometry":{"type":"Point","coordinates":[-80.121889,26.194361]}},{"properties":{"city":"Fort Lauderdale","geo_score":0.707,"street":"1841 SW 37 WY","id":"a676kq25byps","geo_precision":"range","state":"FL"},"type":"Feature","geometry":{"type":"Point","coordinates":[-80.197834,26.097515]}},{"properties":{"city":"Fort Lauderdale","geo_score":0.732,"street":"1871 NE 53 ST","id":"a676kq9e8yrp","geo_precision":"range","state":"FL"},"type":"Feature","geometry":{"type":"Point","coordinates":[-80.121445,26.194173]}},{"properties":{"city":"Fort Lauderdale","geo_score":0.74,"street":"1890 SW 28 WAY","id":"a676kpww3qmh","geo_precision":"range","state":"FL"},"type":"Feature","geometry":{"type":"Point","coordinates":[-80.181091,26.097919]}},{"properties":{"city":"Fort Lauderdale","geo_score":0.76,"street":"1901 SW RIVERSIDE DR","id":"a676kq66gr0i","geo_precision":"range","state":"FL"},"type":"Feature","geometry":{"type":"Point","coordinates":[-80.166508,26.109585]}},{"properties":{"city":"Fort Lauderdale","geo_score":0.74,"street":"1949 SW 28 WAY","id":"a676kq6zlaqq","geo_precision":"range","state":"FL"},"type":"Feature","geometry":{"type":"Point","coordinates":[-80.181082,26.097437]}},{"properties":{"city":"Fort Lauderdale","geo_score":0.76,"street":"1954 SW RIVERSIDE DR","id":"a676kq9h2j9o","geo_precision":"range","state":"FL"},"type":"Feature","geometry":{"type":"Point","coordinates":[-80.166876,26.109316]}},{"properties":{"city":"Fort Lauderdale","geo_score":0.74,"street":"201 NW 20 AVE","id":"a676kqa0esl6","geo_precision":"range","state":"FL"},"type":"Feature","geometry":{"type":"Point","coordinates":[-80.167815,26.123648]}},{"properties":{"city":"Fort Lauderdale","geo_score":0.732,"street":"2010 NE 62 ST","id":"a676kq8j1lv3","geo_precision":"range","state":"FL"},"type":"Feature","geometry":{"type":"Point","coordinates":[-80.119328,26.203566]}},{"properties":{"city":"Fort Lauderdale","geo_score":0.74,"street":"2021 NW 11 AVE","id":"a676kpyqbzaw","geo_precision":"range","state":"FL"},"type":"Feature","geometry":{"type":"Point","coordinates":[-80.157589,26.153307]}},{"properties":{"city":"Fort Lauderdale","geo_score":0.74,"street":"203 NW 11 AVE","id":"a676kqa3ebg5","geo_precision":"range","state":"FL"},"type":"Feature","geometry":{"type":"Point","coordinates":[-80.156258,26.123884]}},{"properties":{"city":"Fort Lauderdale","geo_score":0.74,"street":"2049 SW 28 TER","id":"a676kq6q068a","geo_precision":"range","state":"FL"},"type":"Feature","geometry":{"type":"Point","coordinates":[-80.180029,26.096569]}},{"properties":{"city":"Fort Lauderdale","geo_score":0.74,"street":"205 NW 11 AVE","id":"a676kq912atu","geo_precision":"range","state":"FL"},"type":"Feature","geometry":{"type":"Point","coordinates":[-80.156263,26.123948]}},{"properties":{"city":"Fort Lauderdale","geo_score":0.561,"street":"205 SW 22 ST","id":"a676kpxgluad","geo_precision":"street","state":"FL"},"type":"Feature","geometry":{"type":"Point","coordinates":[-80.322231,26.091383]}},{"properties":{"city":"Fort Lauderdale","geo_score":0.561,"street":"2050 SW 16 CT","id":"a676kq3kgl3y","geo_precision":"street","state":"FL"},"type":"Feature","geometry":{"type":"Point","coordinates":[-80.322959,26.09824]}},{"properties":{"city":"Fort Lauderdale","geo_score":0.74,"street":"2060 NW 30 TER","id":"a676kq5o1833","geo_precision":"range","state":"FL"},"type":"Feature","geometry":{"type":"Point","coordinates":[-80.185143,26.152611]}},{"properties":{"city":"Fort Lauderdale","geo_score":0.74,"street":"2070 NW 30 AVE","id":"a676kq2eaw8a","geo_precision":"range","state":"FL"},"type":"Feature","geometry":{"type":"Point","coordinates":[-80.184336,26.152785]}},{"properties":{"city":"Fort Lauderdale","geo_score":0.721,"street":"210 NE 7 ST","id":"a676kq32plk5","geo_precision":"range","state":"FL"},"type":"Feature","geometry":{"type":"Point","coordinates":[-80.141751,26.131568]}},{"properties":{"city":"Fort Lauderdale","geo_score":0.732,"street":"2100 NE 54 ST","id":"a676kq2boiou","geo_precision":"range","state":"FL"},"type":"Feature","geometry":{"type":"Point","coordinates":[-80.117151,26.193326]}},{"properties":{"city":"Fort Lauderdale","geo_score":0.721,"street":"211 NE 4 ST","id":"a676kq4t20px","geo_precision":"range","state":"FL"},"type":"Feature","geometry":{"type":"Point","coordinates":[-80.141575,26.126106]}},{"properties":{"city":"Fort Lauderdale","geo_score":0.74,"street":"211 SW 31 AVE","id":"a676kpyza0vq","geo_precision":"range","state":"FL"},"type":"Feature","geometry":{"type":"Point","coordinates":[-80.18614,26.118953]}},{"properties":{"city":"Fort Lauderdale","geo_score":0.74,"street":"2111 SW 12 TER","id":"a676kq5d3tm7","geo_precision":"range","state":"FL"},"type":"Feature","geometry":{"type":"Point","coordinates":[-80.157901,26.095384]}},{"properties":{"city":"Fort Lauderdale","geo_score":0.74,"street":"2115 NW 21 TER","id":"a676kq9q6azw","geo_precision":"range","state":"FL"},"type":"Feature","geometry":{"type":"Point","coordinates":[-80.171638,26.153548]}},{"properties":{"city":"Fort Lauderdale","geo_score":0.721,"street":"2120 NW 8 ST","id":"a676kq021oyf","geo_precision":"range","state":"FL"},"type":"Feature","geometry":{"type":"Point","coordinates":[-80.170914,26.132758]}},{"properties":{"city":"Fort Lauderdale","geo_score":0.721,"street":"2121 NW 7 ST","id":"a676kq6br7x6","geo_precision":"range","state":"FL"},"type":"Feature","geometry":{"type":"Point","coordinates":[-80.170973,26.131286]}},{"properties":{"city":"Fort Lauderdale","geo_score":0.721,"street":"2124 NW 7 CT","id":"a676kq2x4vnp","geo_precision":"range","state":"FL"},"type":"Feature","geometry":{"type":"Point","coordinates":[-80.171308,26.131996]}},{"properties":{"city":"Fort Lauderdale","geo_score":0.721,"street":"2133 NW 6 ST","id":"a676kq0ae6n3","geo_precision":"range","state":"FL"},"type":"Feature","geometry":{"type":"Point","coordinates":[-80.170144,26.129075]}},{"properties":{"city":"Fort Lauderdale","geo_score":0.732,"street":"2150 SE 17 ST","id":"a676kpvpazci","geo_precision":"range","state":"FL"},"type":"Feature","geometry":{"type":"Point","coordinates":[-80.117034,26.100775]}},{"properties":{"city":"Fort Lauderdale","geo_score":0.732,"street":"2153 NE 62 ST","id":"a676kq51tt25","geo_precision":"range","state":"FL"},"type":"Feature","geometry":{"type":"Point","coordinates":[-80.114897,26.204083]}},{"properties":{"city":"Fort Lauderdale","geo_score":0.732,"street":"217 SW 21 ST","id":"a676kpxlbady","geo_precision":"range","state":"FL"},"type":"Feature","geometry":{"type":"Point","coordinates":[-80.143137,26.09551]}},{"properties":{"city":"Fort Lauderdale","geo_score":0.74,"street":"2181 SW 36 TER","id":"a676kq7ji8i1","geo_precision":"range","state":"FL"},"type":"Feature","geometry":{"type":"Point","coordinates":[-80.196627,26.094265]}},{"properties":{"city":"Fort Lauderdale","geo_score":0.74,"street":"219 SW 21 TER","id":"a676kq2ovf9s","geo_precision":"range","state":"FL"},"type":"Feature","geometry":{"type":"Point","coordinates":[-80.170656,26.11916]}},{"properties":{"city":"Fort Lauderdale","geo_score":0.721,"street":"220 SW 8 ST","id":"a676kpzgunky","geo_precision":"range","state":"FL"},"type":"Feature","geometry":{"type":"Point","coordinates":[-80.146004,26.112037]}},{"properties":{"city":"Fort Lauderdale","geo_score":0.721,"street":"2200 NW 6 CT","id":"a676kq1dfg10","geo_precision":"range","state":"FL"},"type":"Feature","geometry":{"type":"Point","coordinates":[-80.172176,26.129796]}},{"properties":{"city":"Fort Lauderdale","geo_score":0.805,"street":"2205 BAYVIEW DR","id":"a676kq0hwuro","geo_precision":"range","state":"FL"},"type":"Feature","geometry":{"type":"Point","coordinates":[-80.111037,26.153949]}},{"properties":{"city":"Fort Lauderdale","geo_score":0.721,"street":"2213 SW 5 PL","id":"a676kq67nt8m","geo_precision":"range","state":"FL"},"type":"Feature","geometry":{"type":"Point","coordinates":[-80.173012,26.113941]}},{"properties":{"city":"Fort Lauderdale","geo_score":0.74,"street":"2240 NW 30 TER","id":"a676kq1ev2nk","geo_precision":"range","state":"FL"},"type":"Feature","geometry":{"type":"Point","coordinates":[-80.185146,26.154822]}},{"properties":{"city":"Fort Lauderdale","geo_score":0.732,"street":"225 SW 19 ST","id":"a676kpx4j8a0","geo_precision":"range","state":"FL"},"type":"Feature","geometry":{"type":"Point","coordinates":[-80.144004,26.09735]}},{"properties":{"city":"Fort Lauderdale","geo_score":0.74,"street":"2251 NW 29 TER","id":"a676kqax162y","geo_precision":"range","state":"FL"},"type":"Feature","geometry":{"type":"Point","coordinates":[-80.183616,26.154883]}},{"properties":{"city":"Fort Lauderdale","geo_score":0.805,"street":"230 GEORGIA AVE","id":"a676kq9skd9z","geo_precision":"range","state":"FL"},"type":"Feature","geometry":{"type":"Point","coordinates":[-80.189917,26.118794]}},{"properties":{"city":"Fort Lauderdale","geo_score":0.707,"street":"230 SW 29 AV","id":"a676kq349y7n","geo_precision":"range","state":"FL"},"type":"Feature","geometry":{"type":"Point","coordinates":[-80.183047,26.119265]}},{"properties":{"city":"Fort Lauderdale","geo_score":0.74,"street":"230 SW 29 TER","id":"a676kq336s88","geo_precision":"range","state":"FL"},"type":"Feature","geometry":{"type":"Point","coordinates":[-80.183896,26.119481]}},{"properties":{"city":"Fort Lauderdale","geo_score":0.732,"street":"2300 NW 15 CT","id":"a676kq0g1q2i","geo_precision":"range","state":"FL"},"type":"Feature","geometry":{"type":"Point","coordinates":[-80.171469,26.145331]}},{"properties":{"city":"Fort Lauderdale","geo_score":0.805,"street":"2301 BAYVIEW DR","id":"a676kq21i5lt","geo_precision":"range","state":"FL"},"type":"Feature","geometry":{"type":"Point","coordinates":[-80.110441,26.154608]}},{"properties":{"city":"Fort Lauderdale","geo_score":0.805,"street":"2301 N ATLANTIC BLVD","id":"a676kpxypir1","geo_precision":"range","state":"FL"},"type":"Feature","geometry":{"type":"Point","coordinates":[-80.100219,26.157838]}},{"properties":{"city":"Fort Lauderdale","geo_score":0.732,"street":"2301 NW 19 ST","id":"a676kpzlgbvm","geo_precision":"range","state":"FL"},"type":"Feature","geometry":{"type":"Point","coordinates":[-80.172756,26.151211]}},{"properties":{"city":"Fort Lauderdale","geo_score":0.721,"street":"2312 NW 9 CT","id":"a676kq06emcd","geo_precision":"range","state":"FL"},"type":"Feature","geometry":{"type":"Point","coordinates":[-80.174379,26.134734]}},{"properties":{"city":"Fort Lauderdale","geo_score":0.707,"street":"2316 CASTILLA ISLE","id":"a676kq2dyrwv","geo_precision":"street","state":"FL"},"type":"Feature","geometry":{"type":"Point","coordinates":[-80.115355,26.122382]}},{"properties":{"city":"Fort Lauderdale","geo_score":0.805,"street":"2319 SEA ISLAND DR","id":"a676kq04748d","geo_precision":"range","state":"FL"},"type":"Feature","geometry":{"type":"Point","coordinates":[-80.115361,26.124612]}},{"properties":{"city":"Fort Lauderdale","geo_score":0.732,"street":"2331 NW 23 LN","id":"a676kq915ygt","geo_precision":"range","state":"FL"},"type":"Feature","geometry":{"type":"Point","coordinates":[-80.174387,26.155884]}},{"properties":{"city":"Fort Lauderdale","geo_score":0.732,"street":"2332 NW 13 CT","id":"a676kq7bll6k","geo_precision":"range","state":"FL"},"type":"Feature","geometry":{"type":"Point","coordinates":[-80.172268,26.142396]}},{"properties":{"city":"Fort Lauderdale","geo_score":0.732,"street":"2333 NW 15 CT","id":"a676kq4ixf6r","geo_precision":"range","state":"FL"},"type":"Feature","geometry":{"type":"Point","coordinates":[-80.172304,26.145308]}},{"properties":{"city":"Fort Lauderdale","geo_score":0.74,"street":"2336 SW 17 AVE","id":"a676kqaomq6v","geo_precision":"range","state":"FL"},"type":"Feature","geometry":{"type":"Point","coordinates":[-80.163068,26.094865]}},{"properties":{"city":"Fort Lauderdale","geo_score":0.732,"street":"236 SW 21 ST","id":"a676kpyja76r","geo_precision":"range","state":"FL"},"type":"Feature","geometry":{"type":"Point","coordinates":[-80.143544,26.095503]}},{"properties":{"city":"Fort Lauderdale","geo_score":0.805,"street":"2459 ANDROS LN","id":"a676kq6me61r","geo_precision":"range","state":"FL"},"type":"Feature","geometry":{"type":"Point","coordinates":[-80.187529,26.091256]}},{"properties":{"city":"Fort Lauderdale","geo_score":0.732,"street":"247 SW 21 ST","id":"a676kq4se2hj","geo_precision":"range","state":"FL"},"type":"Feature","geometry":{"type":"Point","coordinates":[-80.143727,26.0955]}},{"properties":{"city":"Fort Lauderdale","geo_score":0.805,"street":"2501 E SUNRISE BLVD","id":"a676kq9zzv6n","geo_precision":"range","state":"FL"},"type":"Feature","geometry":{"type":"Point","coordinates":[-80.112826,26.137866]}},{"properties":{"city":"Fort Lauderdale","geo_score":0.732,"street":"2501 NE 35 DR","id":"a676kpxq2lnf","geo_precision":"range","state":"FL"},"type":"Feature","geometry":{"type":"Point","coordinates":[-80.115411,26.171077]}},{"properties":{"city":"Fort Lauderdale","geo_score":0.732,"street":"2504 NW 21 ST","id":"a676kpzu428s","geo_precision":"range","state":"FL"},"type":"Feature","geometry":{"type":"Point","coordinates":[-80.17619,26.153308]}},{"properties":{"city":"Fort Lauderdale","geo_score":0.74,"street":"2525 NE 26 AVE","id":"a676kq8j4mrf","geo_precision":"range","state":"FL"},"type":"Feature","geometry":{"type":"Point","coordinates":[-80.113031,26.158207]}},{"properties":{"city":"Fort Lauderdale","geo_score":0.732,"street":"2530 NW 18 CT","id":"a676kq44k7np","geo_precision":"range","state":"FL"},"type":"Feature","geometry":{"type":"Point","coordinates":[-80.176392,26.150375]}},{"properties":{"city":"Fort Lauderdale","geo_score":0.732,"street":"2531 NW 18 CT","id":"a676kq1w5ck7","geo_precision":"range","state":"FL"},"type":"Feature","geometry":{"type":"Point","coordinates":[-80.176392,26.150375]}},{"properties":{"city":"Fort Lauderdale","geo_score":0.805,"street":"2539 E SUNRISE BLVD","id":"a676kq1nycj4","geo_precision":"range","state":"FL"},"type":"Feature","geometry":{"type":"Point","coordinates":[-80.112092,26.137883]}},{"properties":{"city":"Fort Lauderdale","geo_score":0.721,"street":"2564 SW 8 ST","id":"a676kpwa1jce","geo_precision":"range","state":"FL"},"type":"Feature","geometry":{"type":"Point","coordinates":[-80.175437,26.111426]}},{"properties":{"city":"Fort Lauderdale","geo_score":0.561,"street":"2580 NW 16 ST","id":"a676kq7oa1ip","geo_precision":"street","state":"FL"},"type":"Feature","geometry":{"type":"Point","coordinates":[-80.322959,26.09824]}},{"properties":{"city":"Fort Lauderdale","geo_score":0.732,"street":"2591 NE 55 CT","id":"a676kq7b7ocv","geo_precision":"range","state":"FL"},"type":"Feature","geometry":{"type":"Point","coordinates":[-80.111108,26.196411]}},{"properties":{"city":"Fort Lauderdale","geo_score":0.707,"street":"260 SW 20 AV","id":"a676kq6hgrut","geo_precision":"range","state":"FL"},"type":"Feature","geometry":{"type":"Point","coordinates":[-80.167751,26.119396]}},{"properties":{"city":"Fort Lauderdale","geo_score":0.74,"street":"2615 SW 29 WAY","id":"a676kpvcllv9","geo_precision":"range","state":"FL"},"type":"Feature","geometry":{"type":"Point","coordinates":[-80.182608,26.090478]}},{"properties":{"city":"Fort Lauderdale","geo_score":0.805,"street":"2619 BARBARA DR","id":"a676kqaxdaz1","geo_precision":"range","state":"FL"},"type":"Feature","geometry":{"type":"Point","coordinates":[-80.110611,26.097593]}},{"properties":{"city":"Fort Lauderdale","geo_score":0.805,"street":"2619 FLAMINGO LN","id":"a676kqaavh3h","geo_precision":"range","state":"FL"},"type":"Feature","geometry":{"type":"Point","coordinates":[-80.191564,26.087904]}},{"properties":{"city":"Fort Lauderdale","geo_score":0.721,"street":"2620 SW 5 ST","id":"a676kpybsdco","geo_precision":"range","state":"FL"},"type":"Feature","geometry":{"type":"Point","coordinates":[-80.175915,26.11467]}},{"properties":{"city":"Fort Lauderdale","geo_score":0.721,"street":"2630 SW 5 ST","id":"a676kq4qo5of","geo_precision":"range","state":"FL"},"type":"Feature","geometry":{"type":"Point","coordinates":[-80.175973,26.114671]}},{"properties":{"city":"Fort Lauderdale","geo_score":0.61,"street":"2650 SW 16 ST","id":"a676kq2mssu0","geo_precision":"street","state":"FL"},"type":"Feature","geometry":{"type":"Point","coordinates":[-80.322959,26.09824]}},{"properties":{"city":"Fort Lauderdale","geo_score":0.732,"street":"2652 NE 30 PL","id":"a676kpwh0i14","geo_precision":"range","state":"FL"},"type":"Feature","geometry":{"type":"Point","coordinates":[-80.112103,26.166554]}},{"properties":{"city":"Fort Lauderdale","geo_score":0.732,"street":"2660 NE 37 DR","id":"a676kq40tfod","geo_precision":"range","state":"FL"},"type":"Feature","geometry":{"type":"Point","coordinates":[-80.111815,26.171997]}},{"properties":{"city":"Fort Lauderdale","geo_score":0.61,"street":"2701 SW 16 ST","id":"a676kqbeyf02","geo_precision":"street","state":"FL"},"type":"Feature","geometry":{"type":"Point","coordinates":[-80.322959,26.09824]}},{"properties":{"city":"Fort Lauderdale","geo_score":0.561,"street":"2705 NW 20 ST","id":"a676kqafcf1h","geo_precision":"street","state":"FL"},"type":"Feature","geometry":{"type":"Point","coordinates":[-80.354399,26.095535]}},{"properties":{"city":"Fort Lauderdale","geo_score":0.732,"street":"2739 NE 20 CT","id":"a676kpzvydmo","geo_precision":"range","state":"FL"},"type":"Feature","geometry":{"type":"Point","coordinates":[-80.111028,26.152053]}},{"properties":{"city":"Fort Lauderdale","geo_score":0.732,"street":"2740 NE 57 ST","id":"a676kpxzxsmu","geo_precision":"range","state":"FL"},"type":"Feature","geometry":{"type":"Point","coordinates":[-80.109115,26.198282]}},{"properties":{"city":"Fort Lauderdale","geo_score":0.732,"street":"2756 NE 14 ST","id":"a676kpzvcfrz","geo_precision":"range","state":"FL"},"type":"Feature","geometry":{"type":"Point","coordinates":[-80.110585,26.145237]}},{"properties":{"city":"Fort Lauderdale","geo_score":0.732,"street":"2761 NW 24 ST","id":"a676kq2vk2bd","geo_precision":"range","state":"FL"},"type":"Feature","geometry":{"type":"Point","coordinates":[-80.180434,26.155978]}},{"properties":{"city":"Fort Lauderdale","geo_score":0.732,"street":"2764 NE 14 ST","id":"a676kpxg69pp","geo_precision":"range","state":"FL"},"type":"Feature","geometry":{"type":"Point","coordinates":[-80.110461,26.14524]}},{"properties":{"city":"Fort Lauderdale","geo_score":0.732,"street":"2780 NE 58 ST","id":"a676kqaza4ta","geo_precision":"range","state":"FL"},"type":"Feature","geometry":{"type":"Point","coordinates":[-80.107726,26.200348]}},{"properties":{"city":"Fort Lauderdale","geo_score":0.732,"street":"2790 NW 26 ST","id":"a676kpxrsifu","geo_precision":"range","state":"FL"},"type":"Feature","geometry":{"type":"Point","coordinates":[-80.18065,26.158151]}},{"properties":{"city":"Fort Lauderdale","geo_score":0.707,"street":"2801 NE 33 AV","id":"a676kq3li1dk","geo_precision":"range","state":"FL"},"type":"Feature","geometry":{"type":"Point","coordinates":[-80.102182,26.162964]}},{"properties":{"city":"Fort Lauderdale","geo_score":0.74,"street":"2803 SW 15 AVE","id":"a676kq2ov9up","geo_precision":"range","state":"FL"},"type":"Feature","geometry":{"type":"Point","coordinates":[-80.160835,26.088468]}},{"properties":{"city":"Fort Lauderdale","geo_score":0.74,"street":"2807 SW 15 AVE","id":"a676kq2lzgpp","geo_precision":"range","state":"FL"},"type":"Feature","geometry":{"type":"Point","coordinates":[-80.160834,26.088456]}},{"properties":{"city":"Fort Lauderdale","geo_score":0.732,"street":"2813 SW 17 ST","id":"a676kq4nb58c","geo_precision":"range","state":"FL"},"type":"Feature","geometry":{"type":"Point","coordinates":[-80.179528,26.099528]}},{"properties":{"city":"Fort Lauderdale","geo_score":0.721,"street":"2816 SW 5 ST","id":"a676kpyoevyz","geo_precision":"range","state":"FL"},"type":"Feature","geometry":{"type":"Point","coordinates":[-80.180804,26.115092]}},{"properties":{"city":"Fort Lauderdale","geo_score":0.732,"street":"2821 NW 69 CT","id":"a676kq41w6dd","geo_precision":"range","state":"FL"},"type":"Feature","geometry":{"type":"Point","coordinates":[-80.183155,26.208559]}},{"properties":{"city":"Fort Lauderdale","geo_score":0.732,"street":"2831 SW 10 ST","id":"a676kq2coszr","geo_precision":"range","state":"FL"},"type":"Feature","geometry":{"type":"Point","coordinates":[-80.180633,26.109632]}},{"properties":{"city":"Fort Lauderdale","geo_score":0.721,"street":"2841 SW 3 ST","id":"a676kq3xcx2x","geo_precision":"range","state":"FL"},"type":"Feature","geometry":{"type":"Point","coordinates":[-80.182071,26.11854]}},{"properties":{"city":"Fort Lauderdale","geo_score":0.721,"street":"300 SW 7 ST","id":"a676kpvm0uo4","geo_precision":"range","state":"FL"},"type":"Feature","geometry":{"type":"Point","coordinates":[-80.146116,26.112928]}},{"properties":{"city":"Fort Lauderdale","geo_score":0.732,"street":"3003 NW 68 ST","id":"a676kq1lxzsf","geo_precision":"range","state":"FL"},"type":"Feature","geometry":{"type":"Point","coordinates":[-80.18657,26.206809]}},{"properties":{"city":"Fort Lauderdale","geo_score":0.805,"street":"3030 DAVIE BLVD","id":"a676kq3qwvcn","geo_precision":"range","state":"FL"},"type":"Feature","geometry":{"type":"Point","coordinates":[-80.185195,26.105671]}},{"properties":{"city":"Fort Lauderdale","geo_score":0.732,"street":"3040 SW 13 CT","id":"a676kpvjjdmq","geo_precision":"range","state":"FL"},"type":"Feature","geometry":{"type":"Point","coordinates":[-80.184945,26.104012]}},{"properties":{"city":"Fort Lauderdale","geo_score":0.805,"street":"3049 CORAL SHORES DR","id":"a676kq3qfcgr","geo_precision":"range","state":"FL"},"type":"Feature","geometry":{"type":"Point","coordinates":[-80.12155,26.166424]}},{"properties":{"city":"Fort Lauderdale","geo_score":0.732,"street":"3057 NE 49 ST","id":"a676kq3g91uf","geo_precision":"range","state":"FL"},"type":"Feature","geometry":{"type":"Point","coordinates":[-80.106093,26.18887]}},{"properties":{"city":"Fort Lauderdale","geo_score":0.732,"street":"3061 NE 49 ST","id":"a676kq98404b","geo_precision":"range","state":"FL"},"type":"Feature","geometry":{"type":"Point","coordinates":[-80.106038,26.188872]}},{"properties":{"city":"Fort Lauderdale","geo_score":0.766,"street":"309 HENDRICKS ISLE","id":"a676kq6i82ka","geo_precision":"range","state":"FL"},"type":"Feature","geometry":{"type":"Point","coordinates":[-80.12202,26.125159]}},{"properties":{"city":"Fort Lauderdale","geo_score":0.488,"street":"3100 SW 20 ST","id":"a676kpzywgps","geo_precision":"street","state":"FL"},"type":"Feature","geometry":{"type":"Point","coordinates":[-80.354399,26.095535]}},{"properties":{"city":"Fort Lauderdale","geo_score":0.732,"street":"3106 SW 13 ST","id":"a676kq7t99ls","geo_precision":"range","state":"FL"},"type":"Feature","geometry":{"type":"Point","coordinates":[-80.185917,26.10457]}},{"properties":{"city":"Fort Lauderdale","geo_score":0.732,"street":"3109 SW 15 CT","id":"a676kq75pbqt","geo_precision":"range","state":"FL"},"type":"Feature","geometry":{"type":"Point","coordinates":[-80.185859,26.101608]}},{"properties":{"city":"Fort Lauderdale","geo_score":0.732,"street":"3110 NW 63 ST","id":"a676kpy1un7c","geo_precision":"range","state":"FL"},"type":"Feature","geometry":{"type":"Point","coordinates":[-80.188792,26.202906]}},{"properties":{"city":"Fort Lauderdale","geo_score":0.732,"street":"3110 SW 18 ST","id":"a676kq5psj1w","geo_precision":"range","state":"FL"},"type":"Feature","geometry":{"type":"Point","coordinates":[-80.185852,26.098691]}},{"properties":{"city":"Fort Lauderdale","geo_score":0.732,"street":"3128 SW 12 PL","id":"a676kpvql7lg","geo_precision":"range","state":"FL"},"type":"Feature","geometry":{"type":"Point","coordinates":[-80.18635,26.106266]}},{"properties":{"city":"Fort Lauderdale","geo_score":0.805,"street":"3130 DAVIE BLVD","id":"a676kpxhwc6y","geo_precision":"range","state":"FL"},"type":"Feature","geometry":{"type":"Point","coordinates":[-80.186373,26.105461]}},{"properties":{"city":"Fort Lauderdale","geo_score":0.732,"street":"3134 SW 15 CT","id":"a676kq1l8nzu","geo_precision":"range","state":"FL"},"type":"Feature","geometry":{"type":"Point","coordinates":[-80.186153,26.101597]}},{"properties":{"city":"Fort Lauderdale","geo_score":0.732,"street":"3137 SW 15 ST","id":"a676kpzbnrlu","geo_precision":"range","state":"FL"},"type":"Feature","geometry":{"type":"Point","coordinates":[-80.18618,26.102343]}},{"properties":{"city":"Fort Lauderdale","geo_score":0.732,"street":"3141 SW 18 ST","id":"a676kpxxup2q","geo_precision":"range","state":"FL"},"type":"Feature","geometry":{"type":"Point","coordinates":[-80.186293,26.098678]}},{"properties":{"city":"Fort Lauderdale","geo_score":0.732,"street":"315 NW 13 ST","id":"a676kq8ta5jc","geo_precision":"range","state":"FL"},"type":"Feature","geometry":{"type":"Point","coordinates":[-80.147362,26.142113]}},{"properties":{"city":"Fort Lauderdale","geo_score":0.732,"street":"3150 NW 65 DR","id":"a676kq2sfn5p","geo_precision":"range","state":"FL"},"type":"Feature","geometry":{"type":"Point","coordinates":[-80.189473,26.204096]}},{"properties":{"city":"Fort Lauderdale","geo_score":0.61,"street":"3161 SW 20 CT","id":"a676kq3l07ht","geo_precision":"street","state":"FL"},"type":"Feature","geometry":{"type":"Point","coordinates":[-80.266486,26.099662]}},{"properties":{"city":"Fort Lauderdale","geo_score":0.732,"street":"317 SW 9 AVE","id":"a676kpzz9q55","geo_precision":"range","state":"FL"},"type":"Feature","geometry":{"type":"Point","coordinates":[-80.15338,26.118664]}},{"properties":{"city":"Fort Lauderdale","geo_score":0.488,"street":"3170 SW 20 ST","id":"a676kpwanxde","geo_precision":"street","state":"FL"},"type":"Feature","geometry":{"type":"Point","coordinates":[-80.354399,26.095535]}},{"properties":{"city":"Fort Lauderdale","geo_score":0.805,"street":"3201 GLENDALE BLVD","id":"a676kqau6we2","geo_precision":"range","state":"FL"},"type":"Feature","geometry":{"type":"Point","coordinates":[-80.18797,26.113979]}},{"properties":{"city":"Fort Lauderdale","geo_score":0.805,"street":"3201 RIVERLAND RD","id":"a676kq20fx2u","geo_precision":"range","state":"FL"},"type":"Feature","geometry":{"type":"Point","coordinates":[-80.187557,26.092036]}},{"properties":{"city":"Fort Lauderdale","geo_score":0.61,"street":"3221 SW 20 CT","id":"a676kq3m9w0m","geo_precision":"street","state":"FL"},"type":"Feature","geometry":{"type":"Point","coordinates":[-80.266486,26.099662]}},{"properties":{"city":"Fort Lauderdale","geo_score":0.545,"street":"3234 SW 16 TER","id":"a676kq1p6jyp","geo_precision":"street","state":"FL"},"type":"Feature","geometry":{"type":"Point","coordinates":[-80.162702,26.072433]}},{"properties":{"city":"Fort Lauderdale","geo_score":0.732,"street":"3316 NE 17 CT","id":"a676kqap7x1g","geo_precision":"range","state":"FL"},"type":"Feature","geometry":{"type":"Point","coordinates":[-80.102186,26.151355]}},{"properties":{"city":"Fort Lauderdale","geo_score":0.805,"street":"3330 E OAKLAND PARK BLVD","id":"a676kq7f1rm4","geo_precision":"range","state":"FL"},"type":"Feature","geometry":{"type":"Point","coordinates":[-80.101619,26.167568]}},{"properties":{"city":"Fort Lauderdale","geo_score":0.732,"street":"3330 SW 19 ST","id":"a676kqb86ijj","geo_precision":"range","state":"FL"},"type":"Feature","geometry":{"type":"Point","coordinates":[-80.18918,26.097872]}},{"properties":{"city":"Fort Lauderdale","geo_score":0.561,"street":"335 SW 16 CT","id":"a676kpyql6jc","geo_precision":"street","state":"FL"},"type":"Feature","geometry":{"type":"Point","coordinates":[-80.322959,26.09824]}},{"properties":{"city":"Fort Lauderdale","geo_score":0.732,"street":"3405 SW 12 CT","id":"a676kpylz13s","geo_precision":"range","state":"FL"},"type":"Feature","geometry":{"type":"Point","coordinates":[-80.191755,26.106204]}},{"properties":{"city":"Fort Lauderdale","geo_score":0.805,"street":"3410 RIVERLAND RD","id":"a676kq5mj2yg","geo_precision":"range","state":"FL"},"type":"Feature","geometry":{"type":"Point","coordinates":[-80.19034,26.091958]}},{"properties":{"city":"Fort Lauderdale","geo_score":0.805,"street":"3420 CHARLESTON BLVD","id":"a676kq1r1pv5","geo_precision":"range","state":"FL"},"type":"Feature","geometry":{"type":"Point","coordinates":[-80.192552,26.118437]}},{"properties":{"city":"Fort Lauderdale","geo_score":0.732,"street":"3427 SW 12 CT","id":"a676kq8yd9d5","geo_precision":"range","state":"FL"},"type":"Feature","geometry":{"type":"Point","coordinates":[-80.192133,26.106192]}},{"properties":{"city":"Fort Lauderdale","geo_score":0.732,"street":"3440 SW 14 ST","id":"a676kpvtyxwq","geo_precision":"range","state":"FL"},"type":"Feature","geometry":{"type":"Point","coordinates":[-80.192176,26.102782]}},{"properties":{"city":"Fort Lauderdale","geo_score":0.805,"street":"350 FLORIDA AVE","id":"a676kpv8fscl","geo_precision":"range","state":"FL"},"type":"Feature","geometry":{"type":"Point","coordinates":[-80.190406,26.117073]}},{"properties":{"city":"Fort Lauderdale","geo_score":0.805,"street":"3512 RIVERLAND RD","id":"a676kq0x9vj2","geo_precision":"range","state":"FL"},"type":"Feature","geometry":{"type":"Point","coordinates":[-80.192671,26.09188]}},{"properties":{"city":"Fort Lauderdale","geo_score":0.732,"street":"3513 SW 12 CT","id":"a676kq0mvulw","geo_precision":"range","state":"FL"},"type":"Feature","geometry":{"type":"Point","coordinates":[-80.193619,26.106153]}},{"properties":{"city":"Fort Lauderdale","geo_score":0.707,"street":"353 SW 19 AV","id":"a676kq9unxgc","geo_precision":"range","state":"FL"},"type":"Feature","geometry":{"type":"Point","coordinates":[-80.166846,26.118548]}},{"properties":{"city":"Fort Lauderdale","geo_score":0.732,"street":"3536 SW 12 PL","id":"a676kq1fi8c8","geo_precision":"range","state":"FL"},"type":"Feature","geometry":{"type":"Point","coordinates":[-80.194075,26.105424]}},{"properties":{"city":"Fort Lauderdale","geo_score":0.732,"street":"3565 SW 13 CT","id":"a676kq5yypxp","geo_precision":"range","state":"FL"},"type":"Feature","geometry":{"type":"Point","coordinates":[-80.194294,26.103404]}},{"properties":{"city":"Fort Lauderdale","geo_score":0.732,"street":"3571 SW 21 ST","id":"a676kq398yr1","geo_precision":"range","state":"FL"},"type":"Feature","geometry":{"type":"Point","coordinates":[-80.19419,26.09588]}},{"properties":{"city":"Fort Lauderdale","geo_score":0.74,"street":"361 SW 31 AVE","id":"a676kpysolqg","geo_precision":"range","state":"FL"},"type":"Feature","geometry":{"type":"Point","coordinates":[-80.186111,26.117318]}},{"properties":{"city":"Fort Lauderdale","geo_score":0.732,"street":"3617 SW 12 PL","id":"a676kq8m2uoy","geo_precision":"range","state":"FL"},"type":"Feature","geometry":{"type":"Point","coordinates":[-80.195694,26.105235]}},{"properties":{"city":"Fort Lauderdale","geo_score":0.732,"street":"3645 SW 12 CT","id":"a676kq5dk9bw","geo_precision":"range","state":"FL"},"type":"Feature","geometry":{"type":"Point","coordinates":[-80.196334,26.105999]}},{"properties":{"city":"Fort Lauderdale","geo_score":0.732,"street":"3648 SW 13 CT","id":"a676kq80fbf5","geo_precision":"range","state":"FL"},"type":"Feature","geometry":{"type":"Point","coordinates":[-80.196222,26.103878]}},{"properties":{"city":"Fort Lauderdale","geo_score":0.732,"street":"3665 SW 12 PL","id":"a676kq8r4hvs","geo_precision":"range","state":"FL"},"type":"Feature","geometry":{"type":"Point","coordinates":[-80.196707,26.105215]}},{"properties":{"city":"Fort Lauderdale","geo_score":0.766,"street":"37 HENDRICKS ISLE","id":"a676kq8bfq90","geo_precision":"range","state":"FL"},"type":"Feature","geometry":{"type":"Point","coordinates":[-80.121907,26.12074]}},{"properties":{"city":"Fort Lauderdale","geo_score":0.732,"street":"3708 SW 12 PL","id":"a676kq6mulfe","geo_precision":"range","state":"FL"},"type":"Feature","geometry":{"type":"Point","coordinates":[-80.197653,26.105307]}},{"properties":{"city":"Fort Lauderdale","geo_score":0.732,"street":"3717 SW 12 CT","id":"a676kpzb3uiv","geo_precision":"range","state":"FL"},"type":"Feature","geometry":{"type":"Point","coordinates":[-80.197715,26.106035]}},{"properties":{"city":"Fort Lauderdale","geo_score":0.732,"street":"3732 SW 12 CT","id":"a676kq384qty","geo_precision":"range","state":"FL"},"type":"Feature","geometry":{"type":"Point","coordinates":[-80.197861,26.10603]}},{"properties":{"city":"Fort Lauderdale","geo_score":0.721,"street":"3761 SW 1 ST","id":"a676kq4mqcz2","geo_precision":"range","state":"FL"},"type":"Feature","geometry":{"type":"Point","coordinates":[-80.198525,26.119771]}},{"properties":{"city":"Fort Lauderdale","geo_score":0.805,"street":"3791 JACKSON BLVD","id":"a676kq44mxst","geo_precision":"range","state":"FL"},"type":"Feature","geometry":{"type":"Point","coordinates":[-80.197793,26.106872]}},{"properties":{"city":"Fort Lauderdale","geo_score":0.805,"street":"3812 RIVERLAND RD","id":"a676kqa4e3z4","geo_precision":"range","state":"FL"},"type":"Feature","geometry":{"type":"Point","coordinates":[-80.198962,26.091921]}},{"properties":{"city":"Fort Lauderdale","geo_score":0.805,"street":"3824 RIVERLAND RD","id":"a676kpyo736k","geo_precision":"range","state":"FL"},"type":"Feature","geometry":{"type":"Point","coordinates":[-80.199124,26.091796]}},{"properties":{"city":"Fort Lauderdale","geo_score":0.732,"street":"3827 SW 12 CT","id":"a676kq8qaqh0","geo_precision":"range","state":"FL"},"type":"Feature","geometry":{"type":"Point","coordinates":[-80.198755,26.106001]}},{"properties":{"city":"Fort Lauderdale","geo_score":0.74,"street":"391 SW 28 TER","id":"a676kpyykbor","geo_precision":"range","state":"FL"},"type":"Feature","geometry":{"type":"Point","coordinates":[-80.182234,26.117297]}},{"properties":{"city":"Fort Lauderdale","geo_score":0.721,"street":"400 SW 8 ST","id":"a676kqbgz9fv","geo_precision":"range","state":"FL"},"type":"Feature","geometry":{"type":"Point","coordinates":[-80.1471,26.112029]}},{"properties":{"city":"Fort Lauderdale","geo_score":0.707,"street":"4000 NE 21 AV","id":"a676kqavywj5","geo_precision":"range","state":"FL"},"type":"Feature","geometry":{"type":"Point","coordinates":[-80.118416,26.177738]}},{"properties":{"city":"Fort Lauderdale","geo_score":0.721,"street":"401 NE 7 ST","id":"a676kq00wsi6","geo_precision":"range","state":"FL"},"type":"Feature","geometry":{"type":"Point","coordinates":[-80.139866,26.131624]}},{"properties":{"city":"Fort Lauderdale","geo_score":0.732,"street":"401 NW 17 PL","id":"a676kq45yuoa","geo_precision":"range","state":"FL"},"type":"Feature","geometry":{"type":"Point","coordinates":[-80.148456,26.150308]}},{"properties":{"city":"Fort Lauderdale","geo_score":0.732,"street":"405 NE 3 AVE","id":"a676kpv3pu20","geo_precision":"range","state":"FL"},"type":"Feature","geometry":{"type":"Point","coordinates":[-80.140642,26.126203]}},{"properties":{"city":"Fort Lauderdale","geo_score":0.74,"street":"405 NW 19 AVE","id":"a676kpxb66xo","geo_precision":"range","state":"FL"},"type":"Feature","geometry":{"type":"Point","coordinates":[-80.166687,26.126176]}},{"properties":{"city":"Fort Lauderdale","geo_score":0.721,"street":"405 SW 7 ST","id":"a676kq2nfxy2","geo_precision":"range","state":"FL"},"type":"Feature","geometry":{"type":"Point","coordinates":[-80.147158,26.112913]}},{"properties":{"city":"Fort Lauderdale","geo_score":0.74,"street":"4051 NE 34 AVE","id":"a676kpyhey2d","geo_precision":"range","state":"FL"},"type":"Feature","geometry":{"type":"Point","coordinates":[-80.09946,26.178181]}},{"properties":{"city":"Fort Lauderdale","geo_score":0.721,"street":"407 NE 7 ST","id":"a676kq9bevld","geo_precision":"range","state":"FL"},"type":"Feature","geometry":{"type":"Point","coordinates":[-80.139815,26.131625]}},{"properties":{"city":"Fort Lauderdale","geo_score":0.74,"street":"4109 NE 21 AVE","id":"a676kq0p5cew","geo_precision":"range","state":"FL"},"type":"Feature","geometry":{"type":"Point","coordinates":[-80.11844,26.178822]}},{"properties":{"city":"Fort Lauderdale","geo_score":0.732,"street":"411 NE 3 AVE","id":"a676kpvwndx0","geo_precision":"range","state":"FL"},"type":"Feature","geometry":{"type":"Point","coordinates":[-80.140648,26.126313]}},{"properties":{"city":"Fort Lauderdale","geo_score":0.732,"street":"415 NE 3 AVE","id":"a676kq2ln2ta","geo_precision":"range","state":"FL"},"type":"Feature","geometry":{"type":"Point","coordinates":[-80.140651,26.126386]}},{"properties":{"city":"Fort Lauderdale","geo_score":0.805,"street":"419 CAROLINA AVE","id":"a676kpzefcy9","geo_precision":"range","state":"FL"},"type":"Feature","geometry":{"type":"Point","coordinates":[-80.188532,26.116405]}},{"properties":{"city":"Fort Lauderdale","geo_score":0.732,"street":"420 SE 22 ST","id":"a676kpvltkd9","geo_precision":"range","state":"FL"},"type":"Feature","geometry":{"type":"Point","coordinates":[-80.138303,26.094686]}},{"properties":{"city":"Fort Lauderdale","geo_score":0.74,"street":"429 NE 11 AVE","id":"a676kpymolp6","geo_precision":"range","state":"FL"},"type":"Feature","geometry":{"type":"Point","coordinates":[-80.132372,26.126821]}},{"properties":{"city":"Fort Lauderdale","geo_score":0.74,"street":"439 NW 21 TER","id":"a676kq23266t","geo_precision":"range","state":"FL"},"type":"Feature","geometry":{"type":"Point","coordinates":[-80.170634,26.126209]}},{"properties":{"city":"Fort Lauderdale","geo_score":0.74,"street":"4411 NW 12 AVE","id":"a676kq26t3jr","geo_precision":"range","state":"FL"},"type":"Feature","geometry":{"type":"Point","coordinates":[-80.159217,26.18137]}},{"properties":{"city":"Fort Lauderdale","geo_score":0.732,"street":"442 NE 1 AVE","id":"a676kpwk82c4","geo_precision":"range","state":"FL"},"type":"Feature","geometry":{"type":"Point","coordinates":[-80.142692,26.126842]}},{"properties":{"city":"Fort Lauderdale","geo_score":0.74,"street":"451 NW 23 AVE","id":"a676kq3n2hwx","geo_precision":"range","state":"FL"},"type":"Feature","geometry":{"type":"Point","coordinates":[-80.172514,26.126448]}},{"properties":{"city":"Fort Lauderdale","geo_score":0.74,"street":"4511 NW 12 TER","id":"a676kpxs54z1","geo_precision":"range","state":"FL"},"type":"Feature","geometry":{"type":"Point","coordinates":[-80.16007,26.182039]}},{"properties":{"city":"Fort Lauderdale","geo_score":0.74,"street":"4530 NW 12 AVE","id":"a676kq65btdj","geo_precision":"range","state":"FL"},"type":"Feature","geometry":{"type":"Point","coordinates":[-80.159431,26.182465]}},{"properties":{"city":"Fort Lauderdale","geo_score":0.732,"street":"4551 NW 9 AVE","id":"a676kq843ekk","geo_precision":"range","state":"FL"},"type":"Feature","geometry":{"type":"Point","coordinates":[-80.15496,26.183009]}},{"properties":{"city":"Fort Lauderdale","geo_score":0.732,"street":"4820 NW 9 TER","id":"a676kqb9u0br","geo_precision":"range","state":"FL"},"type":"Feature","geometry":{"type":"Point","coordinates":[-80.156003,26.186767]}},{"properties":{"city":"Fort Lauderdale","geo_score":0.74,"street":"4840 NE 18 TER","id":"a676kq20y16p","geo_precision":"range","state":"FL"},"type":"Feature","geometry":{"type":"Point","coordinates":[-80.121754,26.187417]}},{"properties":{"city":"Fort Lauderdale","geo_score":0.732,"street":"4861 NW 9 TER","id":"a676kq3tn43u","geo_precision":"range","state":"FL"},"type":"Feature","geometry":{"type":"Point","coordinates":[-80.156017,26.187141]}},{"properties":{"city":"Fort Lauderdale","geo_score":0.805,"street":"490 N FEDERAL HWY","id":"a676kpwyshrn","geo_precision":"range","state":"FL"},"type":"Feature","geometry":{"type":"Point","coordinates":[-80.137353,26.127879]}},{"properties":{"city":"Fort Lauderdale","geo_score":0.805,"street":"500 N FEDERAL HWY","id":"a676kq434jub","geo_precision":"range","state":"FL"},"type":"Feature","geometry":{"type":"Point","coordinates":[-80.137357,26.128027]}},{"properties":{"city":"Fort Lauderdale","geo_score":0.61,"street":"501 SW 16 ST","id":"a676kq359vrc","geo_precision":"street","state":"FL"},"type":"Feature","geometry":{"type":"Point","coordinates":[-80.322959,26.09824]}},{"properties":{"city":"Fort Lauderdale","geo_score":0.732,"street":"505 SW 11 ST","id":"a676kq5y0kah","geo_precision":"range","state":"FL"},"type":"Feature","geometry":{"type":"Point","coordinates":[-80.148151,26.10927]}},{"properties":{"city":"Fort Lauderdale","geo_score":0.805,"street":"508 BONTONA AVE","id":"a676kq11k2k0","geo_precision":"range","state":"FL"},"type":"Feature","geometry":{"type":"Point","coordinates":[-80.122886,26.117068]}},{"properties":{"city":"Fort Lauderdale","geo_score":0.805,"street":"509 N VICTORIA PARK RD","id":"a676kq4siupe","geo_precision":"range","state":"FL"},"type":"Feature","geometry":{"type":"Point","coordinates":[-80.123487,26.128566]}},{"properties":{"city":"Fort Lauderdale","geo_score":0.732,"street":"509 NE 15 ST","id":"a676kqa14lxp","geo_precision":"range","state":"FL"},"type":"Feature","geometry":{"type":"Point","coordinates":[-80.139342,26.145815]}},{"properties":{"city":"Fort Lauderdale","geo_score":0.74,"street":"512 NW 15 AVE","id":"a676kq78hogv","geo_precision":"range","state":"FL"},"type":"Feature","geometry":{"type":"Point","coordinates":[-80.161811,26.127648]}},{"properties":{"city":"Fort Lauderdale","geo_score":0.805,"street":"515 E LAS OLAS BLVD","id":"a676kpw1tc79","geo_precision":"range","state":"FL"},"type":"Feature","geometry":{"type":"Point","coordinates":[-80.138038,26.119207]}},{"properties":{"city":"Fort Lauderdale","geo_score":0.732,"street":"517 NE 15 ST","id":"a676kqapjlwp","geo_precision":"range","state":"FL"},"type":"Feature","geometry":{"type":"Point","coordinates":[-80.138909,26.145824]}},{"properties":{"city":"Fort Lauderdale","geo_score":0.732,"street":"520 SW 28 DR","id":"a676kq5g0i5p","geo_precision":"range","state":"FL"},"type":"Feature","geometry":{"type":"Point","coordinates":[-80.182131,26.114793]}},{"properties":{"city":"Fort Lauderdale","geo_score":0.74,"street":"5200 NW 31 AVE","id":"a676kpzrx28n","geo_precision":"range","state":"FL"},"type":"Feature","geometry":{"type":"Point","coordinates":[-80.187562,26.189145]}},{"properties":{"city":"Fort Lauderdale","geo_score":0.74,"street":"5200 NW 31 AVE","id":"a676kq370497","geo_precision":"range","state":"FL"},"type":"Feature","geometry":{"type":"Point","coordinates":[-80.187562,26.189145]}},{"properties":{"city":"Fort Lauderdale","geo_score":0.74,"street":"5200 NW 31 AVE","id":"a676kq81tr90","geo_precision":"range","state":"FL"},"type":"Feature","geometry":{"type":"Point","coordinates":[-80.187562,26.189145]}},{"properties":{"city":"Fort Lauderdale","geo_score":0.695,"street":"521 NE 8 AV","id":"a676kpvxas65","geo_precision":"range","state":"FL"},"type":"Feature","geometry":{"type":"Point","coordinates":[-80.135414,26.128431]}},{"properties":{"city":"Fort Lauderdale","geo_score":0.61,"street":"523 SW 20 ST","id":"a676kpvq79mx","geo_precision":"street","state":"FL"},"type":"Feature","geometry":{"type":"Point","coordinates":[-80.354399,26.095535]}},{"properties":{"city":"Fort Lauderdale","geo_score":0.74,"street":"524 SW 22 AVE","id":"a676kq62d95l","geo_precision":"range","state":"FL"},"type":"Feature","geometry":{"type":"Point","coordinates":[-80.172214,26.113646]}},{"properties":{"city":"Fort Lauderdale","geo_score":0.74,"street":"532 NW 15 TER","id":"a676kpxhf5ii","geo_precision":"range","state":"FL"},"type":"Feature","geometry":{"type":"Point","coordinates":[-80.162647,26.128005]}},{"properties":{"city":"Fort Lauderdale","geo_score":0.732,"street":"535 NE 16 ST","id":"a676kq8kdc7d","geo_precision":"range","state":"FL"},"type":"Feature","geometry":{"type":"Point","coordinates":[-80.138685,26.147591]}},{"properties":{"city":"Fort Lauderdale","geo_score":0.805,"street":"536 W EVANSTON CIR","id":"a676kqamczt8","geo_precision":"range","state":"FL"},"type":"Feature","geometry":{"type":"Point","coordinates":[-80.196218,26.115072]}},{"properties":{"city":"Fort Lauderdale","geo_score":0.707,"street":"538 NE 17 WY","id":"a676kq2g5kul","geo_precision":"range","state":"FL"},"type":"Feature","geometry":{"type":"Point","coordinates":[-80.124145,26.129486]}},{"properties":{"city":"Fort Lauderdale","geo_score":0.805,"street":"540 ARIZONA AVE","id":"a676kqbcfldf","geo_precision":"range","state":"FL"},"type":"Feature","geometry":{"type":"Point","coordinates":[-80.187986,26.114888]}},{"properties":{"city":"Fort Lauderdale","geo_score":0.732,"street":"540 NE 14 CT","id":"a676kq9gt8r8","geo_precision":"range","state":"FL"},"type":"Feature","geometry":{"type":"Point","coordinates":[-80.138368,26.144669]}},{"properties":{"city":"Fort Lauderdale","geo_score":0.74,"street":"540 SW 15 AVE","id":"a676kq0s6cb6","geo_precision":"range","state":"FL"},"type":"Feature","geometry":{"type":"Point","coordinates":[-80.161601,26.114173]}},{"properties":{"city":"Fort Lauderdale","geo_score":0.805,"street":"541 LIDO DR","id":"a676kq58k0ly","geo_precision":"range","state":"FL"},"type":"Feature","geometry":{"type":"Point","coordinates":[-80.120543,26.117116]}},{"properties":{"city":"Fort Lauderdale","geo_score":0.74,"street":"541 NE 17 AVE","id":"a676kqa9evdx","geo_precision":"range","state":"FL"},"type":"Feature","geometry":{"type":"Point","coordinates":[-80.125354,26.129544]}},{"properties":{"city":"Fort Lauderdale","geo_score":0.74,"street":"541 SW 12 AVE","id":"a676kpvhhwfa","geo_precision":"range","state":"FL"},"type":"Feature","geometry":{"type":"Point","coordinates":[-80.157721,26.114652]}},{"properties":{"city":"Fort Lauderdale","geo_score":0.74,"street":"544 NE 17 AVE","id":"a676kpvibdnd","geo_precision":"range","state":"FL"},"type":"Feature","geometry":{"type":"Point","coordinates":[-80.125356,26.129611]}},{"properties":{"city":"Fort Lauderdale","geo_score":0.74,"street":"5562 NE 29 AVE","id":"a676kpvc3j2n","geo_precision":"range","state":"FL"},"type":"Feature","geometry":{"type":"Point","coordinates":[-80.107246,26.195545]}},{"properties":{"city":"Fort Lauderdale","geo_score":0.74,"street":"5640 NE 27 AVE","id":"a676kq6xex7n","geo_precision":"range","state":"FL"},"type":"Feature","geometry":{"type":"Point","coordinates":[-80.109783,26.198048]}},{"properties":{"city":"Fort Lauderdale","geo_score":0.74,"street":"5760 NE 15 AVE","id":"a676kq1ozwit","geo_precision":"range","state":"FL"},"type":"Feature","geometry":{"type":"Point","coordinates":[-80.126848,26.199904]}},{"properties":{"city":"Fort Lauderdale","geo_score":0.74,"street":"6010 NE 18 TER","id":"a676kq78ftnj","geo_precision":"range","state":"FL"},"type":"Feature","geometry":{"type":"Point","coordinates":[-80.122171,26.202199]}},{"properties":{"city":"Fort Lauderdale","geo_score":0.74,"street":"613 SW 20 TER","id":"a676kpvhs3ka","geo_precision":"range","state":"FL"},"type":"Feature","geometry":{"type":"Point","coordinates":[-80.167385,26.113583]}},{"properties":{"city":"Fort Lauderdale","geo_score":0.721,"street":"613 SW 8 ST","id":"a676kq5ma8dr","geo_precision":"range","state":"FL"},"type":"Feature","geometry":{"type":"Point","coordinates":[-80.14911,26.111985]}},{"properties":{"city":"Fort Lauderdale","geo_score":0.74,"street":"6150 NW 34 WAY","id":"a676kpvgi2hp","geo_precision":"range","state":"FL"},"type":"Feature","geometry":{"type":"Point","coordinates":[-80.194997,26.201169]}},{"properties":{"city":"Fort Lauderdale","geo_score":0.707,"street":"6151 NW 34 WY","id":"a676kpw74802","geo_precision":"range","state":"FL"},"type":"Feature","geometry":{"type":"Point","coordinates":[-80.194997,26.201169]}},{"properties":{"city":"Fort Lauderdale","geo_score":0.74,"street":"620 NW 10 TER","id":"a676kq0v8sur","geo_precision":"range","state":"FL"},"type":"Feature","geometry":{"type":"Point","coordinates":[-80.155518,26.12975]}},{"properties":{"city":"Fort Lauderdale","geo_score":0.695,"street":"625 SW 8 AV","id":"a676kpv65a36","geo_precision":"range","state":"FL"},"type":"Feature","geometry":{"type":"Point","coordinates":[-80.151111,26.114085]}},{"properties":{"city":"Fort Lauderdale","geo_score":0.695,"street":"628 SW 8 AV","id":"a676kq194bah","geo_precision":"range","state":"FL"},"type":"Feature","geometry":{"type":"Point","coordinates":[-80.151109,26.114017]}},{"properties":{"city":"Fort Lauderdale","geo_score":0.805,"street":"631 CAROLINA AVE","id":"a676kqaz3zwq","geo_precision":"range","state":"FL"},"type":"Feature","geometry":{"type":"Point","coordinates":[-80.188919,26.113525]}},{"properties":{"city":"Fort Lauderdale","geo_score":0.74,"street":"631 SW 30 TER","id":"a676kq1bl422","geo_precision":"range","state":"FL"},"type":"Feature","geometry":{"type":"Point","coordinates":[-80.18522,26.112928]}},{"properties":{"city":"Fort Lauderdale","geo_score":0.732,"street":"632 SW 8 AVE","id":"a676kpz9he51","geo_precision":"range","state":"FL"},"type":"Feature","geometry":{"type":"Point","coordinates":[-80.151106,26.113949]}},{"properties":{"city":"Fort Lauderdale","geo_score":0.74,"street":"633 NW 10 TER","id":"a676kq9y4zaj","geo_precision":"range","state":"FL"},"type":"Feature","geometry":{"type":"Point","coordinates":[-80.155525,26.12997]}},{"properties":{"city":"Fort Lauderdale","geo_score":0.732,"street":"636 NE 2 AVE","id":"a676kq8zopdw","geo_precision":"range","state":"FL"},"type":"Feature","geometry":{"type":"Point","coordinates":[-80.141809,26.130454]}},{"properties":{"city":"Fort Lauderdale","geo_score":0.74,"street":"639 NE 10 AVE","id":"a676kq0w0x3e","geo_precision":"range","state":"FL"},"type":"Feature","geometry":{"type":"Point","coordinates":[-80.133234,26.131138]}},{"properties":{"city":"Fort Lauderdale","geo_score":0.74,"street":"639 NE 10 AVE","id":"a676kpz72tld","geo_precision":"range","state":"FL"},"type":"Feature","geometry":{"type":"Point","coordinates":[-80.133234,26.131138]}},{"properties":{"city":"Fort Lauderdale","geo_score":0.74,"street":"639 NE 10 AVE","id":"a676kq39szgj","geo_precision":"range","state":"FL"},"type":"Feature","geometry":{"type":"Point","coordinates":[-80.133234,26.131138]}},{"properties":{"city":"Fort Lauderdale","geo_score":0.805,"street":"648 PENNSYLVANIA AVE","id":"a676kpwnaxq1","geo_precision":"range","state":"FL"},"type":"Feature","geometry":{"type":"Point","coordinates":[-80.197767,26.112915]}},{"properties":{"city":"Fort Lauderdale","geo_score":0.74,"street":"661 SW 31 AVE","id":"a676kq2xybta","geo_precision":"range","state":"FL"},"type":"Feature","geometry":{"type":"Point","coordinates":[-80.186023,26.113028]}},{"properties":{"city":"Fort Lauderdale","geo_score":0.74,"street":"6630 NW 33 AVE","id":"a676kpxrr7u6","geo_precision":"range","state":"FL"},"type":"Feature","geometry":{"type":"Point","coordinates":[-80.192395,26.205105]}},{"properties":{"city":"Fort Lauderdale","geo_score":0.61,"street":"6801 NW 22 TER","id":"a676kpwiml9z","geo_precision":"street","state":"FL"},"type":"Feature","geometry":{"type":"Point","coordinates":[-80.24197,26.153554]}},{"properties":{"city":"Fort Lauderdale","geo_score":0.805,"street":"700 E MELROSE CIR","id":"a676kq6mne67","geo_precision":"range","state":"FL"},"type":"Feature","geometry":{"type":"Point","coordinates":[-80.192104,26.112394]}},{"properties":{"city":"Fort Lauderdale","geo_score":0.732,"street":"700 NW 13 ST","id":"a676kpyb23y2","geo_precision":"range","state":"FL"},"type":"Feature","geometry":{"type":"Point","coordinates":[-80.151136,26.142014]}},{"properties":{"city":"Fort Lauderdale","geo_score":0.707,"street":"700 NW 14 WY","id":"a676kpxvjp0d","geo_precision":"range","state":"FL"},"type":"Feature","geometry":{"type":"Point","coordinates":[-80.161324,26.131043]}},{"properties":{"city":"Fort Lauderdale","geo_score":0.732,"street":"700 SE 22 ST","id":"a676kq7k657r","geo_precision":"range","state":"FL"},"type":"Feature","geometry":{"type":"Point","coordinates":[-80.135893,26.09473]}},{"properties":{"city":"Fort Lauderdale","geo_score":0.74,"street":"700 SW 16 AVE","id":"a676kq3hb3if","geo_precision":"range","state":"FL"},"type":"Feature","geometry":{"type":"Point","coordinates":[-80.162892,26.112795]}},{"properties":{"city":"Fort Lauderdale","geo_score":0.732,"street":"701 NE 17 CT","id":"a676kqaw6gvm","geo_precision":"range","state":"FL"},"type":"Feature","geometry":{"type":"Point","coordinates":[-80.137506,26.150662]}},{"properties":{"city":"Fort Lauderdale","geo_score":0.732,"street":"704 NE 17 RD","id":"a676kpy8cbz9","geo_precision":"range","state":"FL"},"type":"Feature","geometry":{"type":"Point","coordinates":[-80.124988,26.13209]}},{"properties":{"city":"Fort Lauderdale","geo_score":0.732,"street":"708 NE 4 AVE","id":"a676kpzkfc20","geo_precision":"range","state":"FL"},"type":"Feature","geometry":{"type":"Point","coordinates":[-80.139869,26.131768]}},{"properties":{"city":"Fort Lauderdale","geo_score":0.707,"street":"708 SW 16 AV","id":"a676kq4u7noh","geo_precision":"range","state":"FL"},"type":"Feature","geometry":{"type":"Point","coordinates":[-80.162892,26.112716]}},{"properties":{"city":"Fort Lauderdale","geo_score":0.707,"street":"708 SW 22 AV","id":"a676kq08nkrt","geo_precision":"range","state":"FL"},"type":"Feature","geometry":{"type":"Point","coordinates":[-80.172177,26.112085]}},{"properties":{"city":"Fort Lauderdale","geo_score":0.74,"street":"710 NE 15 AVE","id":"a676kq86hwwj","geo_precision":"range","state":"FL"},"type":"Feature","geometry":{"type":"Point","coordinates":[-80.128517,26.132112]}},{"properties":{"city":"Fort Lauderdale","geo_score":0.732,"street":"711 NW 4 AVE","id":"a676kq187vij","geo_precision":"range","state":"FL"},"type":"Feature","geometry":{"type":"Point","coordinates":[-80.147835,26.131577]}},{"properties":{"city":"Fort Lauderdale","geo_score":0.732,"street":"711 SE 22 ST","id":"a676kq6feabd","geo_precision":"range","state":"FL"},"type":"Feature","geometry":{"type":"Point","coordinates":[-80.135832,26.094732]}},{"properties":{"city":"Fort Lauderdale","geo_score":0.732,"street":"712 NE 14 ST","id":"a676kq5dg06r","geo_precision":"range","state":"FL"},"type":"Feature","geometry":{"type":"Point","coordinates":[-80.136612,26.14407]}},{"properties":{"city":"Fort Lauderdale","geo_score":0.695,"street":"712 NE 4 AV","id":"a676kq0if8fm","geo_precision":"range","state":"FL"},"type":"Feature","geometry":{"type":"Point","coordinates":[-80.13987,26.13184]}},{"properties":{"city":"Fort Lauderdale","geo_score":0.732,"street":"713 NW 4 AVE","id":"a676kq6p7ugb","geo_precision":"range","state":"FL"},"type":"Feature","geometry":{"type":"Point","coordinates":[-80.147835,26.131613]}},{"properties":{"city":"Fort Lauderdale","geo_score":0.732,"street":"713 SW 10 ST","id":"a676kq0tv6cs","geo_precision":"range","state":"FL"},"type":"Feature","geometry":{"type":"Point","coordinates":[-80.150279,26.110168]}},{"properties":{"city":"Fort Lauderdale","geo_score":0.695,"street":"716 NE 4 AV","id":"a676kpzvk0xh","geo_precision":"range","state":"FL"},"type":"Feature","geometry":{"type":"Point","coordinates":[-80.139872,26.131912]}},{"properties":{"city":"Fort Lauderdale","geo_score":0.721,"street":"716 SW 9 ST","id":"a676kpw8omcv","geo_precision":"range","state":"FL"},"type":"Feature","geometry":{"type":"Point","coordinates":[-80.15089,26.111058]}},{"properties":{"city":"Fort Lauderdale","geo_score":0.805,"street":"716 W LAS OLAS BLVD","id":"a676kpwgzs7y","geo_precision":"range","state":"FL"},"type":"Feature","geometry":{"type":"Point","coordinates":[-80.150562,26.118884]}},{"properties":{"city":"Fort Lauderdale","geo_score":0.695,"street":"718 NE 4 AV","id":"a676kq59re4f","geo_precision":"range","state":"FL"},"type":"Feature","geometry":{"type":"Point","coordinates":[-80.139873,26.131948]}},{"properties":{"city":"Fort Lauderdale","geo_score":0.695,"street":"720 NE 4 AV","id":"a676kq1qjhco","geo_precision":"range","state":"FL"},"type":"Feature","geometry":{"type":"Point","coordinates":[-80.139874,26.131984]}},{"properties":{"city":"Fort Lauderdale","geo_score":0.732,"street":"720 NW 4 AVE","id":"a676kpz4vpz4","geo_precision":"range","state":"FL"},"type":"Feature","geometry":{"type":"Point","coordinates":[-80.14784,26.131757]}},{"properties":{"city":"Fort Lauderdale","geo_score":0.732,"street":"720 SW 19 ST","id":"a676kpv8bf3b","geo_precision":"range","state":"FL"},"type":"Feature","geometry":{"type":"Point","coordinates":[-80.150041,26.097242]}},{"properties":{"city":"Fort Lauderdale","geo_score":0.74,"street":"720 SW 38 TER","id":"a676kpx9jzlr","geo_precision":"range","state":"FL"},"type":"Feature","geometry":{"type":"Point","coordinates":[-80.200137,26.112598]}},{"properties":{"city":"Fort Lauderdale","geo_score":0.695,"street":"724 NE 4 AV","id":"a676kq75lws7","geo_precision":"range","state":"FL"},"type":"Feature","geometry":{"type":"Point","coordinates":[-80.139876,26.132056]}},{"properties":{"city":"Fort Lauderdale","geo_score":0.732,"street":"736 NW 2 AVE","id":"a676kq600ql8","geo_precision":"range","state":"FL"},"type":"Feature","geometry":{"type":"Point","coordinates":[-80.14594,26.132099]}},{"properties":{"city":"Fort Lauderdale","geo_score":0.74,"street":"738 NE 15 AVE","id":"a676kqa4vl9e","geo_precision":"range","state":"FL"},"type":"Feature","geometry":{"type":"Point","coordinates":[-80.128526,26.132614]}},{"properties":{"city":"Fort Lauderdale","geo_score":0.732,"street":"740 NW 4 AVE","id":"a676kq9u8wj7","geo_precision":"range","state":"FL"},"type":"Feature","geometry":{"type":"Point","coordinates":[-80.147849,26.132116]}},{"properties":{"city":"Fort Lauderdale","geo_score":0.707,"street":"742 NW 15 WY","id":"a676kpz8u91m","geo_precision":"range","state":"FL"},"type":"Feature","geometry":{"type":"Point","coordinates":[-80.163752,26.131776]}},{"properties":{"city":"Fort Lauderdale","geo_score":0.805,"street":"750 ARIZONA AVE","id":"a676kq3ugc09","geo_precision":"range","state":"FL"},"type":"Feature","geometry":{"type":"Point","coordinates":[-80.187917,26.112161]}},{"properties":{"city":"Fort Lauderdale","geo_score":0.732,"street":"800 SE 3 AVE","id":"a676kqa7c4ib","geo_precision":"range","state":"FL"},"type":"Feature","geometry":{"type":"Point","coordinates":[-80.140172,26.112175]}},{"properties":{"city":"Fort Lauderdale","geo_score":0.721,"street":"805 SE 6 CT","id":"a676kpwj5m61","geo_precision":"range","state":"FL"},"type":"Feature","geometry":{"type":"Point","coordinates":[-80.135058,26.114044]}},{"properties":{"city":"Fort Lauderdale","geo_score":0.732,"street":"808 SW 25 ST","id":"a676kq4jacmn","geo_precision":"range","state":"FL"},"type":"Feature","geometry":{"type":"Point","coordinates":[-80.150948,26.091846]}},{"properties":{"city":"Fort Lauderdale","geo_score":0.74,"street":"809 NE 16 AVE","id":"a676kpyitr4e","geo_precision":"range","state":"FL"},"type":"Feature","geometry":{"type":"Point","coordinates":[-80.127586,26.133982]}},{"properties":{"city":"Fort Lauderdale","geo_score":0.732,"street":"810 NW 2 AVE","id":"a676kq6y09m3","geo_precision":"range","state":"FL"},"type":"Feature","geometry":{"type":"Point","coordinates":[-80.145996,26.133391]}},{"properties":{"city":"Fort Lauderdale","geo_score":0.74,"street":"811 SW 39 AVE","id":"a676kpz513ck","geo_precision":"range","state":"FL"},"type":"Feature","geometry":{"type":"Point","coordinates":[-80.200515,26.111592]}},{"properties":{"city":"Fort Lauderdale","geo_score":0.76,"street":"815 MIDDLE RIVER DR","id":"a676kpzp5u8s","geo_precision":"range","state":"FL"},"type":"Feature","geometry":{"type":"Point","coordinates":[-80.117553,26.135949]}},{"properties":{"city":"Fort Lauderdale","geo_score":0.732,"street":"815 NE 18 ST","id":"a676kpzzkhuq","geo_precision":"range","state":"FL"},"type":"Feature","geometry":{"type":"Point","coordinates":[-80.13536,26.151348]}},{"properties":{"city":"Fort Lauderdale","geo_score":0.74,"street":"817 NE 16 AVE","id":"a676kpvhjusf","geo_precision":"range","state":"FL"},"type":"Feature","geometry":{"type":"Point","coordinates":[-80.127591,26.134115]}},{"properties":{"city":"Fort Lauderdale","geo_score":0.732,"street":"823 NE 14 PL","id":"a676kq1g6nhw","geo_precision":"range","state":"FL"},"type":"Feature","geometry":{"type":"Point","coordinates":[-80.135482,26.145529]}},{"properties":{"city":"Fort Lauderdale","geo_score":0.732,"street":"824 SW 25 ST","id":"a676kpxif0se","geo_precision":"range","state":"FL"},"type":"Feature","geometry":{"type":"Point","coordinates":[-80.151291,26.091841]}},{"properties":{"city":"Fort Lauderdale","geo_score":0.74,"street":"825 NE 16 AVE","id":"a676kpvfd4v9","geo_precision":"range","state":"FL"},"type":"Feature","geometry":{"type":"Point","coordinates":[-80.127597,26.134249]}},{"properties":{"city":"Fort Lauderdale","geo_score":0.707,"street":"831 SW 29 WY","id":"a676kpw8x5kf","geo_precision":"range","state":"FL"},"type":"Feature","geometry":{"type":"Point","coordinates":[-80.183736,26.110972]}},{"properties":{"city":"Fort Lauderdale","geo_score":0.707,"street":"837 NW 19 AV","id":"a676kq9h7s4c","geo_precision":"range","state":"FL"},"type":"Feature","geometry":{"type":"Point","coordinates":[-80.167225,26.133645]}},{"properties":{"city":"Fort Lauderdale","geo_score":0.74,"street":"841 NE 16 AVE","id":"a676kqbcqok7","geo_precision":"range","state":"FL"},"type":"Feature","geometry":{"type":"Point","coordinates":[-80.127606,26.134517]}},{"properties":{"city":"Fort Lauderdale","geo_score":0.74,"street":"843 NW 13 AVE","id":"a676kq6kinqy","geo_precision":"range","state":"FL"},"type":"Feature","geometry":{"type":"Point","coordinates":[-80.15861,26.134067]}},{"properties":{"city":"Fort Lauderdale","geo_score":0.732,"street":"844 NW 3 AVE","id":"a676kq1k560d","geo_precision":"range","state":"FL"},"type":"Feature","geometry":{"type":"Point","coordinates":[-80.146949,26.133977]}},{"properties":{"city":"Fort Lauderdale","geo_score":0.732,"street":"846 NW 8 AVE","id":"a676kpwt3ede","geo_precision":"range","state":"FL"},"type":"Feature","geometry":{"type":"Point","coordinates":[-80.152766,26.133856]}},{"properties":{"city":"Fort Lauderdale","geo_score":0.732,"street":"847 NW 7 TER","id":"a676kq29jbd0","geo_precision":"range","state":"FL"},"type":"Feature","geometry":{"type":"Point","coordinates":[-80.151825,26.133878]}},{"properties":{"city":"Fort Lauderdale","geo_score":0.707,"street":"900 NE 18 AV","id":"a676kpvu5pv4","geo_precision":"range","state":"FL"},"type":"Feature","geometry":{"type":"Point","coordinates":[-80.121966,26.135113]}},{"properties":{"city":"Fort Lauderdale","geo_score":0.721,"street":"900 SE 6 ST","id":"a676kpxbb099","geo_precision":"range","state":"FL"},"type":"Feature","geometry":{"type":"Point","coordinates":[-80.133954,26.11486]}},{"properties":{"city":"Fort Lauderdale","geo_score":0.76,"street":"900 SW RIVERSIDE DR","id":"a676kq1ltmqr","geo_precision":"range","state":"FL"},"type":"Feature","geometry":{"type":"Point","coordinates":[-80.166234,26.110778]}},{"properties":{"city":"Fort Lauderdale","geo_score":0.732,"street":"901 SE 17 ST","id":"a676kq8x7trf","geo_precision":"range","state":"FL"},"type":"Feature","geometry":{"type":"Point","coordinates":[-80.134238,26.100396]}},{"properties":{"city":"Fort Lauderdale","geo_score":0.805,"street":"908 AVOCADO ISLE","id":"a676kpw1naye","geo_precision":"range","state":"FL"},"type":"Feature","geometry":{"type":"Point","coordinates":[-80.153282,26.104205]}},{"properties":{"city":"Fort Lauderdale","geo_score":0.74,"street":"908 SW 15 TER","id":"a676kpvk16n1","geo_precision":"range","state":"FL"},"type":"Feature","geometry":{"type":"Point","coordinates":[-80.162384,26.110745]}},{"properties":{"city":"Fort Lauderdale","geo_score":0.707,"street":"910 NW 17 AV","id":"a676kq6g7m9z","geo_precision":"range","state":"FL"},"type":"Feature","geometry":{"type":"Point","coordinates":[-80.165258,26.13495]}},{"properties":{"city":"Fort Lauderdale","geo_score":0.732,"street":"910 SW 29 ST","id":"a676kpyk98ad","geo_precision":"range","state":"FL"},"type":"Feature","geometry":{"type":"Point","coordinates":[-80.15293,26.088128]}},{"properties":{"city":"Fort Lauderdale","geo_score":0.721,"street":"912 SE 8 ST","id":"a676kq8snrmc","geo_precision":"range","state":"FL"},"type":"Feature","geometry":{"type":"Point","coordinates":[-80.13377,26.112311]}},{"properties":{"city":"Fort Lauderdale","geo_score":0.732,"street":"922 NW 4 AVE","id":"a676kpx8qiy8","geo_precision":"range","state":"FL"},"type":"Feature","geometry":{"type":"Point","coordinates":[-80.147952,26.135309]}},{"properties":{"city":"Fort Lauderdale","geo_score":0.707,"street":"925 NE 17 WY","id":"a676kq0h1ljj","geo_precision":"range","state":"FL"},"type":"Feature","geometry":{"type":"Point","coordinates":[-80.123885,26.136013]}},{"properties":{"city":"Fort Lauderdale","geo_score":0.732,"street":"925 NW 11 PL","id":"a676kpvbua0b","geo_precision":"range","state":"FL"},"type":"Feature","geometry":{"type":"Point","coordinates":[-80.155416,26.140375]}},{"properties":{"city":"Fort Lauderdale","geo_score":0.721,"street":"926 NW 2 ST","id":"a676kq2qu67e","geo_precision":"range","state":"FL"},"type":"Feature","geometry":{"type":"Point","coordinates":[-80.153892,26.123878]}},{"properties":{"city":"Fort Lauderdale","geo_score":0.732,"street":"929 NW 3 AVE","id":"a676kq5xn9mv","geo_precision":"range","state":"FL"},"type":"Feature","geometry":{"type":"Point","coordinates":[-80.147006,26.135443]}},{"properties":{"city":"Fort Lauderdale","geo_score":0.732,"street":"940 SW 21 ST","id":"a676kq76if3b","geo_precision":"range","state":"FL"},"type":"Feature","geometry":{"type":"Point","coordinates":[-80.153725,26.09538]}},{"properties":{"city":"Fort Lauderdale","geo_score":0.74,"street":"941 SW 29 WAY","id":"a676kq8vtujo","geo_precision":"range","state":"FL"},"type":"Feature","geometry":{"type":"Point","coordinates":[-80.18372,26.110062]}},{"properties":{"city":"Fort Lauderdale","geo_score":0.74,"street":"950 SW 39 AVE","id":"a676kpwr0cs9","geo_precision":"range","state":"FL"},"type":"Feature","geometry":{"type":"Point","coordinates":[-80.200441,26.109443]}}],"is_temporal":false,"author":{"url":"","metadata":"","contact_name":"","contact_address":"","source":"","contact_phone":""},"source":"","pagination":{"sort":null,"start":0,"total":502,"limit":1000000},"state":"complete","tags":"addresses,bank","published":"2011-12-12T20:48:02Z","id":187128}