{"type":"FeatureCollection","data_type":"Dataset","url_type":null,"permissions":[{"permissions":{"download":true,"view":true},"group_id":"everyone"}],"classification":null,"title":"NCAA Bowl Payouts","count":70,"stream_id":187619,"contributor":{"url":"http://geocommons.com/users/36853","name":"cjspurlock"},"data_attributes":null,"calculation_params":null,"icon_link":null,"link":"http://geocommons.com/overlays/187619.json","extent":[-123.087,25.7743,-74.4518,47.6062],"geometry_types":["point"],"unique_name":null,"name":"NCAA Bowl Payouts","feature_count":70,"description":"","next_feature":null,"is_raster":false,"short_classification":"Y","stats":{"payout":{"max":22300000,"mean":3858250.0,"variance":34932046032608.7,"stdev":5910333.83427778,"min":320000,"median":1800000}},"features":[{"properties":{"city":"Columbia","bowl":"AdvoCare V100 Independence Bowl","geo_score":0.857,"team":"Missouri","id":"a6ii4d3vwqwh","geo_precision":"city","payout":1650000,"state":"MO"},"type":"Feature","geometry":{"type":"Point","coordinates":[-92.334072,38.951705]}},{"properties":{"city":"Chapel Hill","bowl":"AdvoCare V100 Independence Bowl","geo_score":0.857,"team":"North Carolina","id":"a6ii4d6zwmx7","geo_precision":"city","payout":1650000,"state":"NC"},"type":"Feature","geometry":{"type":"Point","coordinates":[-79.038605,35.926939]}},{"properties":{"city":"Tuscaloosa","bowl":"Allstate BCS National Championship","geo_score":0.857,"team":"Alabama","id":"a6ii4d1z6re2","geo_precision":"city","payout":6100000,"state":"AL"},"type":"Feature","geometry":{"type":"Point","coordinates":[-87.569174,33.209841]}},{"properties":{"city":"Baton Rouge","bowl":"Allstate BCS National Championship","geo_score":0.857,"team":"LSU","id":"a6ii4dc0vmrz","geo_precision":"city","payout":22300000,"state":"LA"},"type":"Feature","geometry":{"type":"Point","coordinates":[-91.154551,30.450746]}},{"properties":{"city":"Ann Arbor","bowl":"Allstate Sugar Bowl","geo_score":0.75,"team":"Michigan","id":"a6ii4d5rv0oq","geo_precision":"city","payout":6100000,"state":"MI"},"type":"Feature","geometry":{"type":"Point","coordinates":[-86.176715,42.96502]}},{"properties":{"city":"Blacksburg","bowl":"Allstate Sugar Bowl","geo_score":0.857,"team":"Virginia Tech","id":"a6ii4d4ex5in","geo_precision":"city","payout":6100000,"state":"VA"},"type":"Feature","geometry":{"type":"Point","coordinates":[-81.820401,36.75428]}},{"properties":{"city":"Manhattan","bowl":"AT&amp;T Cotton Bowl","geo_score":0.857,"team":"Kansas State","id":"a6ii4dda3elk","geo_precision":"city","payout":3625000,"state":"KS"},"type":"Feature","geometry":{"type":"Point","coordinates":[-96.564589,39.209375]}},{"properties":{"city":"Fayetteville","bowl":"AT&amp;T Cotton Bowl","geo_score":0.857,"team":"Arkansas","id":"a6ii4d02h6uk","geo_precision":"city","payout":3625000,"state":"AR"},"type":"Feature","geometry":{"type":"Point","coordinates":[-94.190997,35.974602]}},{"properties":{"city":"Cincinnati","bowl":"AutoZone Liberty Bowl","geo_score":0.857,"team":"Cincinnati","id":"a6ii4d5q4wf6","geo_precision":"city","payout":1437500,"state":"OH"},"type":"Feature","geometry":{"type":"Point","coordinates":[-84.456886,39.162004]}},{"properties":{"city":"Nashville","bowl":"AutoZone Liberty Bowl","geo_score":0.857,"team":"Vanderbilt","id":"a6ii4dfvplun","geo_precision":"city","payout":1437500,"state":"TN"},"type":"Feature","geometry":{"type":"Point","coordinates":[-86.784443,36.16589]}},{"properties":{"city":"Pittsburgh","bowl":"BBVA Compass Bowl","geo_score":0.857,"team":"Pittsburgh","id":"a6ii4d55sgo3","geo_precision":"city","payout":962500,"state":"PA"},"type":"Feature","geometry":{"type":"Point","coordinates":[-79.995886,40.440625]}},{"properties":{"city":"Dallas","bowl":"BBVA Compass Bowl","geo_score":0.857,"team":"SMU","id":"a6ii4ddfpfnr","geo_precision":"city","payout":962500,"state":"TX"},"type":"Feature","geometry":{"type":"Point","coordinates":[-96.806667,32.783056]}},{"properties":{"city":"Miami","bowl":"Beef O'Brady's Bowl","geo_score":0.857,"team":"Florida International","id":"a6ii4d9mn4ay","geo_precision":"city","payout":537500,"state":"FL"},"type":"Feature","geometry":{"type":"Point","coordinates":[-80.193659,25.774266]}},{"properties":{"city":"Huntington","bowl":"Beef O'Brady's Bowl","geo_score":0.857,"team":"Marshall","id":"a6ii4dew9870","geo_precision":"city","payout":537500,"state":"WV"},"type":"Feature","geometry":{"type":"Point","coordinates":[-82.445154,38.41925]}},{"properties":{"city":"Raleigh","bowl":"Belk Bowl","geo_score":0.857,"team":"NC State","id":"a6ii4d5udujh","geo_precision":"city","payout":1700000,"state":"NC"},"type":"Feature","geometry":{"type":"Point","coordinates":[-78.638615,35.772096]}},{"properties":{"city":"Louisville","bowl":"Belk Bowl","geo_score":0.857,"team":"Louisville","id":"a6ii4d62jg7g","geo_precision":"city","payout":1700000,"state":"KY"},"type":"Feature","geometry":{"type":"Point","coordinates":[-85.759407,38.254238]}},{"properties":{"city":"Provo","bowl":"Bell Helicopter Armed Forces bowl","geo_score":0.857,"team":"BYU","id":"a6ii4ddgwg6i","geo_precision":"city","payout":6100000,"state":"UT"},"type":"Feature","geometry":{"type":"Point","coordinates":[-111.695558,40.235053]}},{"properties":{"city":"Tulsa","bowl":"Bell Helicopter Armed Forces bowl","geo_score":0.857,"team":"Tulsa","id":"a6ii4d4tjy1d","geo_precision":"city","payout":6100000,"state":"OK"},"type":"Feature","geometry":{"type":"Point","coordinates":[-95.992775,36.153982]}},{"properties":{"city":"Berkley","bowl":"Bridgepoint Education Holiday Bowl","geo_score":0.839,"team":"Cal","id":"a6ii4db8ecg7","geo_precision":"city","payout":2075000,"state":"CA"},"type":"Feature","geometry":{"type":"Point","coordinates":[-122.29673,37.860576]}},{"properties":{"city":"Austin","bowl":"Bridgepoint Education Holiday Bowl","geo_score":0.857,"team":"Texas","id":"a6ii4dba8fjw","geo_precision":"city","payout":2075000,"state":"TX"},"type":"Feature","geometry":{"type":"Point","coordinates":[-97.743061,30.267153]}},{"properties":{"city":"Lincoln","bowl":"Capital One Bowl","geo_score":0.857,"team":"Nebraska","id":"a6ii4de7gmwb","geo_precision":"city","payout":4550000,"state":"NE"},"type":"Feature","geometry":{"type":"Point","coordinates":[-96.66696,40.800001]}},{"properties":{"city":"Columbia","bowl":"Capital One Bowl","geo_score":0.857,"team":"South Carolina","id":"a6ii4dbguasf","geo_precision":"city","payout":4550000,"state":"SC"},"type":"Feature","geometry":{"type":"Point","coordinates":[-81.024864,33.987454]}},{"properties":{"city":"Tallahassee","bowl":"Champs Sports Bowl","geo_score":0.857,"team":"Florida State","id":"a6ii4d5ofqvh","geo_precision":"city","payout":2275000,"state":"FL"},"type":"Feature","geometry":{"type":"Point","coordinates":[-84.280733,30.438256]}},{"properties":{"city":"South Bend","bowl":"Champs Sports Bowl","geo_score":0.857,"team":"Notre Dame","id":"a6ii4d2ip439","geo_precision":"city","payout":2275000,"state":"IN"},"type":"Feature","geometry":{"type":"Point","coordinates":[-86.250007,41.683381]}},{"properties":{"city":"Charlottesville","bowl":"Chick-fil-A Bowl","geo_score":0.857,"team":"Virginia","id":"a6ii4d1rcq3m","geo_precision":"city","payout":3450000,"state":"VA"},"type":"Feature","geometry":{"type":"Point","coordinates":[-78.476678,38.029306]}},{"properties":{"city":"Auburn","bowl":"Chick-fil-A Bowl","geo_score":0.857,"team":"Auburn","id":"a6ii4dfsada9","geo_precision":"city","payout":3450000,"state":"AL"},"type":"Feature","geometry":{"type":"Point","coordinates":[-85.468222,32.547542]}},{"properties":{"city":"Clemson","bowl":"Discover Orange Bowl","geo_score":0.857,"team":"Clemson","id":"a6ii4d9eyyyl","geo_precision":"city","payout":22300000,"state":"SC"},"type":"Feature","geometry":{"type":"Point","coordinates":[-82.802154,34.75974]}},{"properties":{"city":"Morgantown","bowl":"Discover Orange Bowl","geo_score":0.857,"team":"West Virginia","id":"a6ii4d8wz2lc","geo_precision":"city","payout":22300000,"state":"WV"},"type":"Feature","geometry":{"type":"Point","coordinates":[-79.983141,39.609911]}},{"properties":{"city":"Athens","bowl":"Famous Idaho Potato Bowl","geo_score":0.857,"team":"Ohio","id":"a6ii4dbemj8q","geo_precision":"city","payout":320000,"state":"OH"},"type":"Feature","geometry":{"type":"Point","coordinates":[-82.013803,39.339279]}},{"properties":{"city":"Logan","bowl":"Famous Idaho Potato Bowl","geo_score":0.857,"team":"Utah State","id":"a6ii4d03askp","geo_precision":"city","payout":320000,"state":"UT"},"type":"Feature","geometry":{"type":"Point","coordinates":[-111.885084,41.76695]}},{"properties":{"city":"Winston-Salem","bowl":"Franklin American Mortgage Music City Bowl","geo_score":0.857,"team":"Wake Forest","id":"a6ii4d5brqa2","geo_precision":"city","payout":1837500,"state":"NC"},"type":"Feature","geometry":{"type":"Point","coordinates":[-80.244216,36.09986]}},{"properties":{"city":"Starkville","bowl":"Franklin American Mortgage Music City Bowl","geo_score":0.857,"team":"Mississippi State","id":"a6ii4dbc4h2p","geo_precision":"city","payout":1837500,"state":"MS"},"type":"Feature","geometry":{"type":"Point","coordinates":[-88.879117,33.42554]}},{"properties":{"city":"Laramie","bowl":"Gildan New Mexico Bowl","geo_score":0.857,"team":"Wyoming","id":"a6ii4de2uhge","geo_precision":"city","payout":456250,"state":"WY"},"type":"Feature","geometry":{"type":"Point","coordinates":[-105.801022,41.43902]}},{"properties":{"city":"Philadelphia","bowl":"Gildan New Mexico Bowl","geo_score":0.857,"team":"Temple","id":"a6ii4d2f2us7","geo_precision":"city","payout":456250,"state":"PA"},"type":"Feature","geometry":{"type":"Point","coordinates":[-75.163789,39.952335]}},{"properties":{"city":"Jonesboro","bowl":"GoDaddy.com Bowl","geo_score":0.857,"team":"Arkansas State","id":"a6ii4d86o0m2","geo_precision":"city","payout":750000,"state":"AR"},"type":"Feature","geometry":{"type":"Point","coordinates":[-90.623071,35.835847]}},{"properties":{"city":"Dekalb","bowl":"GoDaddy.com Bowl","geo_score":0.857,"team":"Northern Illinois","id":"a6ii4d3fbfm5","geo_precision":"city","payout":750000,"state":"IL"},"type":"Feature","geometry":{"type":"Point","coordinates":[-88.79101,41.816826]}},{"properties":{"city":"Atlanta","bowl":"Hyundai Sun Bowl","geo_score":0.857,"team":"Georgia Tech","id":"a6ii4d43ixg8","geo_precision":"city","payout":2000000,"state":"GA"},"type":"Feature","geometry":{"type":"Point","coordinates":[-84.387982,33.748995]}},{"properties":{"city":"Salt Lake City","bowl":"Hyundai Sun Bowl","geo_score":0.857,"team":"Utah","id":"a6ii4dfrqdai","geo_precision":"city","payout":2000000,"state":"UT"},"type":"Feature","geometry":{"type":"Point","coordinates":[-111.891047,40.760779]}},{"properties":{"city":"Iowa City","bowl":"Insight Bowl","geo_score":0.732,"team":"Iowa","id":"a6ii4d8vtkoc","geo_precision":"city","payout":3325000,"state":"IA"},"type":"Feature","geometry":{"type":"Point","coordinates":[-92.161281,43.198027]}},{"properties":{"city":"Norman","bowl":"Insight Bowl","geo_score":0.857,"team":"Oklahoma","id":"a6ii4d038454","geo_precision":"city","payout":3325000,"state":"OK"},"type":"Feature","geometry":{"type":"Point","coordinates":[-97.44451,35.208566]}},{"properties":{"city":"Champaign","bowl":"Kraft Fight Hunger Bowl","geo_score":0.857,"team":"Illinois","id":"a6ii4dg12auz","geo_precision":"city","payout":837500,"state":"IL"},"type":"Feature","geometry":{"type":"Point","coordinates":[-88.243383,40.116421]}},{"properties":{"city":"Los Angeles","bowl":"Kraft Fight Hunger Bowl","geo_score":0.857,"team":"UCLA","id":"a6ii4dd2w3jn","geo_precision":"city","payout":837500,"state":"CA"},"type":"Feature","geometry":{"type":"Point","coordinates":[-118.243685,34.052234]}},{"properties":{"city":"West Lafayette","bowl":"Little Caesars Pizza Bowl","geo_score":0.813,"team":"Purdue","id":"a6ii4dfl820f","geo_precision":"city","payout":750000,"state":"IN"},"type":"Feature","geometry":{"type":"Point","coordinates":[-86.830286,40.39905]}},{"properties":{"city":"Battle Creek","bowl":"Little Caesars Pizza Bowl","geo_score":0.753,"team":"Western Michigan","id":"a6ii4d4fw40g","geo_precision":"city","payout":750000,"state":"MI"},"type":"Feature","geometry":{"type":"Point","coordinates":[-85.860379,43.712217]}},{"properties":{"city":"Boise","bowl":"MAACO Bowl","geo_score":0.857,"team":"Boise State","id":"a6ii4d3tw1xq","geo_precision":"city","payout":1100000,"state":"ID"},"type":"Feature","geometry":{"type":"Point","coordinates":[-116.203451,43.6135]}},{"properties":{"city":"Tempe","bowl":"MAACO Bowl","geo_score":0.857,"team":"Arizona State","id":"a6ii4d1g3ul0","geo_precision":"city","payout":1100000,"state":"AZ"},"type":"Feature","geometry":{"type":"Point","coordinates":[-111.90931,33.414768]}},{"properties":{"city":"Evanston","bowl":"Meineke Car Care Bowl","geo_score":0.857,"team":"Northwestern","id":"a6ii4d6belam","geo_precision":"city","payout":1700000,"state":"IL"},"type":"Feature","geometry":{"type":"Point","coordinates":[-87.702155,42.049148]}},{"properties":{"city":"College Station","bowl":"Meineke Car Care Bowl","geo_score":0.755,"team":"Texas A&amp;M","id":"a6ii4d45e7ek","geo_precision":"city","payout":1700000,"state":"TX"},"type":"Feature","geometry":{"type":"Point","coordinates":[-96.586919,31.695145]}},{"properties":{"city":"Toledo","bowl":"Military Bowl presented by Northrop Grumman","geo_score":0.857,"team":"Toledo","id":"a6ii4d49do1x","geo_precision":"city","payout":1000000,"state":"OH"},"type":"Feature","geometry":{"type":"Point","coordinates":[-83.555212,41.663938]}},{"properties":{"city":"Air Force Academy","bowl":"Military Bowl presented by Northrop Grumman","geo_score":0.857,"team":"Air Force","id":"a6ii4d1f2rfr","geo_precision":"city","payout":1000000,"state":"CO"},"type":"Feature","geometry":{"type":"Point","coordinates":[-104.86375,38.994252]}},{"properties":{"city":"Ames","bowl":"New Era Pinstripe Bowl","geo_score":0.857,"team":"Iowa State","id":"a6ii4d4s9txb","geo_precision":"city","payout":1800000,"state":"IA"},"type":"Feature","geometry":{"type":"Point","coordinates":[-93.600254,42.037879]}},{"properties":{"city":"New Brunswick","bowl":"New Era Pinstripe Bowl","geo_score":0.857,"team":"Rutgers","id":"a6ii4da0tyj5","geo_precision":"city","payout":1800000,"state":"NJ"},"type":"Feature","geometry":{"type":"Point","coordinates":[-74.451819,40.486216]}},{"properties":{"city":"East Lansing","bowl":"Outback Bowl","geo_score":0.805,"team":"Michigan State","id":"a6ii4d8vlzgl","geo_precision":"city","payout":3500000,"state":"MI"},"type":"Feature","geometry":{"type":"Point","coordinates":[-84.555535,42.732535]}},{"properties":{"city":"Athens","bowl":"Outback Bowl","geo_score":0.857,"team":"Georgia","id":"a6ii4d9aedzz","geo_precision":"city","payout":3500000,"state":"GA"},"type":"Feature","geometry":{"type":"Point","coordinates":[-83.353697,33.992902]}},{"properties":{"city":"San Diego","bowl":"R+L Carriers New Orleans Bowl","geo_score":0.857,"team":"San Diego State","id":"a6ii4de5vp9h","geo_precision":"city","payout":500000,"state":"CA"},"type":"Feature","geometry":{"type":"Point","coordinates":[-117.157255,32.715329]}},{"properties":{"city":"Lafayette","bowl":"R+L Carriers New Orleans Bowl","geo_score":0.857,"team":"Louisiana-Lafayette","id":"a6ii4d15qtw9","geo_precision":"city","payout":500000,"state":"LA"},"type":"Feature","geometry":{"type":"Point","coordinates":[-92.066574,30.232955]}},{"properties":{"city":"Madison","bowl":"Rose Bowl Game Presented by VIZIO","geo_score":0.857,"team":"Wisconsin","id":"a6ii4de74614","geo_precision":"city","payout":22300000,"state":"WI"},"type":"Feature","geometry":{"type":"Point","coordinates":[-89.40123,43.073052]}},{"properties":{"city":"Eugene","bowl":"Rose Bowl Game Presented by VIZIO","geo_score":0.857,"team":"Oregon","id":"a6ii4d8me2qe","geo_precision":"city","payout":22300000,"state":"OR"},"type":"Feature","geometry":{"type":"Point","coordinates":[-123.086754,44.052069]}},{"properties":{"city":"Fort Worth","bowl":"Sand Diego Co. Credit Union Poinsettia Bowl","geo_score":0.746,"team":"TCU","id":"a6ii4db3cuxs","geo_precision":"city","payout":500000,"state":"TX"},"type":"Feature","geometry":{"type":"Point","coordinates":[-95.262161,31.108239]}},{"properties":{"city":"Ruston","bowl":"Sand Diego Co. Credit Union Poinsettia Bowl","geo_score":0.857,"team":"Louisiana Tech","id":"a6ii4d8gzmp3","geo_precision":"city","payout":500000,"state":"LA"},"type":"Feature","geometry":{"type":"Point","coordinates":[-92.639756,32.580553]}},{"properties":{"city":"Hattiesburg","bowl":"Sheraton Hawaii Bowl","geo_score":0.857,"team":"Southern Miss","id":"a6ii4d6ezpvp","geo_precision":"city","payout":650000,"state":"MS"},"type":"Feature","geometry":{"type":"Point","coordinates":[-89.28071,31.245138]}},{"properties":{"city":"Reno","bowl":"Sheraton Hawaii Bowl","geo_score":0.857,"team":"Nevada","id":"a6ii4d6nchwz","geo_precision":"city","payout":650000,"state":"NV"},"type":"Feature","geometry":{"type":"Point","coordinates":[-119.813803,39.529633]}},{"properties":{"city":"Columbus","bowl":"TaxSlayer.com Gator Bowl","geo_score":0.776,"team":"Ohio State","id":"a6ii4d1q3xhq","geo_precision":"city","payout":2275000,"state":"OH"},"type":"Feature","geometry":{"type":"Point","coordinates":[-82.695724,39.998397]}},{"properties":{"city":"Gainesville","bowl":"TaxSlayer.com Gator Bowl","geo_score":0.818,"team":"Florida","id":"a6ii4ddngp8f","geo_precision":"city","payout":2275000,"state":"FL"},"type":"Feature","geometry":{"type":"Point","coordinates":[-85.354651,30.731305]}},{"properties":{"city":"State College","bowl":"TicketCity Bowl","geo_score":0.738,"team":"Penn State","id":"a6ii4d8sip0l","geo_precision":"city","payout":1100000,"state":"PA"},"type":"Feature","geometry":{"type":"Point","coordinates":[-80.446733,40.303681]}},{"properties":{"city":"Houston","bowl":"TicketCity Bowl","geo_score":0.816,"team":"Houston","id":"a6ii4dg7r332","geo_precision":"city","payout":1100000,"state":"TX"},"type":"Feature","geometry":{"type":"Point","coordinates":[-96.919704,29.845783]}},{"properties":{"city":"Stillwater","bowl":"Tostitos Fiesta Bowl","geo_score":0.857,"team":"Oklahoma State","id":"a6ii4dddwm75","geo_precision":"city","payout":22300000,"state":"OK"},"type":"Feature","geometry":{"type":"Point","coordinates":[-97.069061,36.101521]}},{"properties":{"city":"Palo Alto","bowl":"Tostitos Fiesta Bowl","geo_score":0.857,"team":"Stanford","id":"a6ii4d1oec14","geo_precision":"city","payout":6100000,"state":"CA"},"type":"Feature","geometry":{"type":"Point","coordinates":[-122.14302,37.441883]}},{"properties":{"city":"Waco","bowl":"Valero Alamo Bowl","geo_score":0.857,"team":"Baylor","id":"a6ii4d2mp8z2","geo_precision":"city","payout":3175000,"state":"TX"},"type":"Feature","geometry":{"type":"Point","coordinates":[-97.14667,31.549333]}},{"properties":{"city":"Seattle","bowl":"Valero Alamo Bowl","geo_score":0.857,"team":"Washington","id":"a6ii4d03uw8a","geo_precision":"city","payout":3175000,"state":"WA"},"type":"Feature","geometry":{"type":"Point","coordinates":[-122.332071,47.60621]}}],"is_temporal":false,"author":{"url":"","metadata":"","contact_name":"","contact_address":"","source":"","contact_phone":""},"source":"","pagination":{"sort":null,"start":0,"total":70,"limit":1000000},"state":"complete","tags":"","published":"2014-08-13T08:55:58-04:00","id":187619}