{"type":"FeatureCollection","data_type":"Dataset","url_type":null,"permissions":[{"permissions":{"download":true,"view":true},"group_id":"everyone"}],"classification":null,"title":"Airports - Large Hubs","count":33,"stream_id":187840,"contributor":{"url":"http://geocommons.com/users/37491","name":"mdslosky"},"data_attributes":null,"calculation_params":null,"icon_link":null,"link":"http://geocommons.com/overlays/187840.json","extent":[-157.858,21.3069,-71.0598,47.6062],"geometry_types":["point"],"unique_name":null,"name":"Airports - Large Hubs","feature_count":33,"description":"","next_feature":null,"is_raster":false,"short_classification":"Y","stats":{},"features":[{"properties":{"city":"Atlanta","name":"Atlanta International Airport","code":"ATL","geo_score":0.857,"id":"a6hfp13lm7rv","geo_precision":"city","state":"GA"},"type":"Feature","geometry":{"type":"Point","coordinates":[-84.387982,33.748995]}},{"properties":{"city":"Boston","name":"Boston Logan International Airport","code":"BOS","geo_score":0.857,"id":"a6hfp156wvrg","geo_precision":"city","state":"MA"},"type":"Feature","geometry":{"type":"Point","coordinates":[-71.059773,42.358431]}},{"properties":{"city":"BWI Airport","name":"Baltimore/Washington International Airport","code":"BWI","geo_score":0.743,"id":"a6hfp171c4ac","geo_precision":"city","state":"MD"},"type":"Feature","geometry":{"type":"Point","coordinates":[-76.74379,38.982612]}},{"properties":{"city":"Charlotte","name":"Charlotte/Douglas International Airport","code":"CLT","geo_score":0.857,"id":"a6hfp13uifke","geo_precision":"city","state":"NC"},"type":"Feature","geometry":{"type":"Point","coordinates":[-80.843127,35.227087]}},{"properties":{"city":"Cincinnati","name":"Cincinnati/Northern Kentucky International Airport","code":"CVG","geo_score":0.857,"id":"a6hfp111uieb","geo_precision":"city","state":"OH"},"type":"Feature","geometry":{"type":"Point","coordinates":[-84.456886,39.162004]}},{"properties":{"city":"Washington","name":"Ronald Reagan Washington National Airport","code":"DCA","geo_score":0.857,"id":"a6hfp15sai7p","geo_precision":"city","state":"DC"},"type":"Feature","geometry":{"type":"Point","coordinates":[-77.036366,38.895112]}},{"properties":{"city":"Denver","name":"Denver International Airport","code":"DEN","geo_score":0.857,"id":"a6hfp17b7luu","geo_precision":"city","state":"CO"},"type":"Feature","geometry":{"type":"Point","coordinates":[-104.984703,39.739154]}},{"properties":{"city":"Dallas","name":"Dallas/Fort Worth International Airport","code":"DFW","geo_score":0.857,"id":"a6hfp1bsdy4q","geo_precision":"city","state":"TX"},"type":"Feature","geometry":{"type":"Point","coordinates":[-96.806667,32.783056]}},{"properties":{"city":"Detroit","name":"Detroit Metro Airport","code":"DTW","geo_score":0.857,"id":"a6hfp13rpvvm","geo_precision":"city","state":"MI"},"type":"Feature","geometry":{"type":"Point","coordinates":[-83.045754,42.331427]}},{"properties":{"city":"Newark","name":"Newark Liberty International Airport","code":"EWR","geo_score":0.857,"id":"a6hfp1080o1i","geo_precision":"city","state":"NJ"},"type":"Feature","geometry":{"type":"Point","coordinates":[-74.172367,40.735657]}},{"properties":{"city":"Fort Lauderdale","name":"Fort Lauderdale Hollywood International Airport","code":"FLL","geo_score":0.857,"id":"a6hfp1b35zn2","geo_precision":"city","state":"FL"},"type":"Feature","geometry":{"type":"Point","coordinates":[-80.143379,26.122308]}},{"properties":{"city":"Honolulu","name":"Honolulu International Airport","code":"HNL","geo_score":0.857,"id":"a6hfp15ulhi6","geo_precision":"city","state":"HI"},"type":"Feature","geometry":{"type":"Point","coordinates":[-157.858333,21.306944]}},{"properties":{"city":"Washington","name":"Washington Dulles International Airport","code":"IAD","geo_score":0.857,"id":"a6hfp0w670a8","geo_precision":"city","state":"DC"},"type":"Feature","geometry":{"type":"Point","coordinates":[-77.036366,38.895112]}},{"properties":{"city":"Houston","name":"Bush Intercontinental Airport","code":"IAH","geo_score":0.816,"id":"a6hfp191tkvy","geo_precision":"city","state":"TX"},"type":"Feature","geometry":{"type":"Point","coordinates":[-96.919704,29.845783]}},{"properties":{"city":"New York","name":"John F. Kennedy International Airport","code":"JFK","geo_score":0.857,"id":"a6hfp15fbb6j","geo_precision":"city","state":"NY"},"type":"Feature","geometry":{"type":"Point","coordinates":[-74.005973,40.714269]}},{"properties":{"city":"Las Vegas","name":"Mccarran International Airport","code":"LAS","geo_score":0.857,"id":"a6hfp0ww06gp","geo_precision":"city","state":"NV"},"type":"Feature","geometry":{"type":"Point","coordinates":[-115.137223,36.174971]}},{"properties":{"city":"Los Angeles","name":"Los Angeles International Airport","code":"LAX","geo_score":0.857,"id":"a6hfp18le1me","geo_precision":"city","state":"CA"},"type":"Feature","geometry":{"type":"Point","coordinates":[-118.243685,34.052234]}},{"properties":{"city":"New York","name":"La Guardia Airport","code":"LGA","geo_score":0.857,"id":"a6hfp136s56q","geo_precision":"city","state":"NY"},"type":"Feature","geometry":{"type":"Point","coordinates":[-74.005973,40.714269]}},{"properties":{"city":"Orlando","name":"Orlando International Airport","code":"MCO","geo_score":0.857,"id":"a6hfp155qxm6","geo_precision":"city","state":"FL"},"type":"Feature","geometry":{"type":"Point","coordinates":[-81.379237,28.538336]}},{"properties":{"city":"Chicago","name":"Chicago Midway Airport","code":"MDW","geo_score":0.857,"id":"a6hfp0zj1h8r","geo_precision":"city","state":"IL"},"type":"Feature","geometry":{"type":"Point","coordinates":[-87.650052,41.850033]}},{"properties":{"city":"Miami","name":"Miami International Airport","code":"MIA","geo_score":0.857,"id":"a6hfp10mj9e5","geo_precision":"city","state":"FL"},"type":"Feature","geometry":{"type":"Point","coordinates":[-80.193659,25.774266]}},{"properties":{"city":"Minneapolis","name":"Minneapolis/St. Paul International Airport","code":"MSP","geo_score":0.857,"id":"a6hfp11b0tts","geo_precision":"city","state":"MN"},"type":"Feature","geometry":{"type":"Point","coordinates":[-93.263836,44.979965]}},{"properties":{"city":"Oakland","name":"Oakland International Airport","code":"OAK","geo_score":0.857,"id":"a6hfp1822t2a","geo_precision":"city","state":"CA"},"type":"Feature","geometry":{"type":"Point","coordinates":[-122.270803,37.804372]}},{"properties":{"city":"Chicago","name":"Chicago O'Hare International Airport","code":"ORD","geo_score":0.857,"id":"a6hfp1a0ojnq","geo_precision":"city","state":"IL"},"type":"Feature","geometry":{"type":"Point","coordinates":[-87.650052,41.850033]}},{"properties":{"city":"Philadelphia","name":"Philadelphia International Airport","code":"PHL","geo_score":0.857,"id":"a6hfp0z9nn45","geo_precision":"city","state":"PA"},"type":"Feature","geometry":{"type":"Point","coordinates":[-75.163789,39.952335]}},{"properties":{"city":"Phoenix","name":"Phoenix Sky Harbor International Airport","code":"PHX","geo_score":0.857,"id":"a6hfp14aag9e","geo_precision":"city","state":"AZ"},"type":"Feature","geometry":{"type":"Point","coordinates":[-112.074037,33.448377]}},{"properties":{"city":"Pittsburgh","name":"Pittsburgh International Airport","code":"PIT","geo_score":0.857,"id":"a6hfp0vu6sac","geo_precision":"city","state":"PA"},"type":"Feature","geometry":{"type":"Point","coordinates":[-79.995886,40.440625]}},{"properties":{"city":"San Diego","name":"San Diego International Airport","code":"SAN","geo_score":0.857,"id":"a6hfp1bzbn4z","geo_precision":"city","state":"CA"},"type":"Feature","geometry":{"type":"Point","coordinates":[-117.157255,32.715329]}},{"properties":{"city":"Seattle","name":"Seattle/Tacoma International Airport","code":"SEA","geo_score":0.857,"id":"a6hfp17m6m75","geo_precision":"city","state":"WA"},"type":"Feature","geometry":{"type":"Point","coordinates":[-122.332071,47.60621]}},{"properties":{"city":"San Francisco","name":"San Francisco International Airport","code":"SFO","geo_score":0.857,"id":"a6hfp16mdh6n","geo_precision":"city","state":"CA"},"type":"Feature","geometry":{"type":"Point","coordinates":[-122.419416,37.77493]}},{"properties":{"city":"Salt Lake City","name":"Salt Lake City International Airport","code":"SLC","geo_score":0.857,"id":"a6hfp10foalf","geo_precision":"city","state":"UT"},"type":"Feature","geometry":{"type":"Point","coordinates":[-111.891047,40.760779]}},{"properties":{"city":"Saint Louis","name":"Lambert-St. Louis International Airport","code":"STL","geo_score":0.857,"id":"a6hfp13jl1ik","geo_precision":"city","state":"MO"},"type":"Feature","geometry":{"type":"Point","coordinates":[-90.197889,38.627273]}},{"properties":{"city":"Tampa","name":"Tampa International Airport","code":"TPA","geo_score":0.857,"id":"a6hfp15hio53","geo_precision":"city","state":"FL"},"type":"Feature","geometry":{"type":"Point","coordinates":[-82.458428,27.947522]}}],"is_temporal":false,"author":{"url":"","metadata":"","contact_name":"","contact_address":"","source":"","contact_phone":""},"source":"","pagination":{"sort":null,"start":0,"total":33,"limit":1000000},"state":"complete","tags":"","published":"2014-08-13T09:10:05-04:00","id":187840}