{"type":"FeatureCollection","data_type":"Dataset","url_type":null,"permissions":[{"permissions":{"download":true,"view":true},"group_id":"everyone"}],"classification":null,"title":"Labor_participation","count":180,"stream_id":188946,"contributor":{"url":"http://geocommons.com/users/37573","name":"vira.david"},"data_attributes":null,"calculation_params":null,"icon_link":null,"link":"http://geocommons.com/overlays/188946.json","extent":[0.0,0.0,0.0,0.0],"geometry_types":[],"unique_name":null,"name":"Labor_participation","feature_count":180,"description":"","next_feature":null,"is_raster":false,"short_classification":"Y","stats":{"labor participation rate":{"max":89.3,"mean":64.5305555555555,"variance":99.5461561142148,"stdev":9.9772820003353,"min":37.5,"median":64.6}},"features":[{"properties":{"total (% of total population ages 15+) (2009)":null,"region":"Afghanistan","geo_score":0.0,"labor participation rate":59.8,"id":"a62og1cxbdmx","geo_precision":"unmatched"},"type":"Feature","geometry":null},{"properties":{"total (% of total population ages 15+) (2009)":null,"region":"Albania","geo_score":0.0,"labor participation rate":59.5,"id":"a62og19tjedd","geo_precision":"unmatched"},"type":"Feature","geometry":null},{"properties":{"total (% of total population ages 15+) (2009)":null,"region":"Algeria","geo_score":0.0,"labor participation rate":58.5,"id":"a62og1lky4z2","geo_precision":"unmatched"},"type":"Feature","geometry":null},{"properties":{"total (% of total population ages 15+) (2009)":null,"region":"Angola","geo_score":0.0,"labor participation rate":81.3,"id":"a62og1jdoos9","geo_precision":"unmatched"},"type":"Feature","geometry":null},{"properties":{"total (% of total population ages 15+) (2009)":null,"region":"Argentina","geo_score":0.0,"labor participation rate":65.0,"id":"a62og1j1zgfz","geo_precision":"unmatched"},"type":"Feature","geometry":null},{"properties":{"total (% of total population ages 15+) (2009)":null,"region":"Armenia","geo_score":0.0,"labor participation rate":66.3,"id":"a62og16clxru","geo_precision":"unmatched"},"type":"Feature","geometry":null},{"properties":{"total (% of total population ages 15+) (2009)":null,"region":"Australia","geo_score":0.0,"labor participation rate":65.2,"id":"a62og1c8xbg2","geo_precision":"unmatched"},"type":"Feature","geometry":null},{"properties":{"total (% of total population ages 15+) (2009)":null,"region":"Austria","geo_score":0.0,"labor participation rate":60.4,"id":"a62og1hm7dtj","geo_precision":"unmatched"},"type":"Feature","geometry":null},{"properties":{"total (% of total population ages 15+) (2009)":null,"region":"Azerbaijan","geo_score":0.0,"labor participation rate":63.0,"id":"a62og1lzrnke","geo_precision":"unmatched"},"type":"Feature","geometry":null},{"properties":{"total (% of total population ages 15+) (2009)":null,"region":"Bahamas, The","geo_score":0.0,"labor participation rate":73.3,"id":"a62og1bdfql1","geo_precision":"unmatched"},"type":"Feature","geometry":null},{"properties":{"total (% of total population ages 15+) (2009)":null,"region":"Bahrain","geo_score":0.0,"labor participation rate":63.8,"id":"a62og1jzhlrn","geo_precision":"unmatched"},"type":"Feature","geometry":null},{"properties":{"total (% of total population ages 15+) (2009)":null,"region":"Bangladesh","geo_score":0.0,"labor participation rate":70.7,"id":"a62og1i0jzvz","geo_precision":"unmatched"},"type":"Feature","geometry":null},{"properties":{"total (% of total population ages 15+) (2009)":null,"region":"Barbados","geo_score":0.0,"labor participation rate":71.7,"id":"a62og1ldrc17","geo_precision":"unmatched"},"type":"Feature","geometry":null},{"properties":{"total (% of total population ages 15+) (2009)":null,"region":"Belarus","geo_score":0.0,"labor participation rate":60.2,"id":"a62og1h9zckn","geo_precision":"unmatched"},"type":"Feature","geometry":null},{"properties":{"total (% of total population ages 15+) (2009)":null,"region":"Belgium","geo_score":0.0,"labor participation rate":53.5,"id":"a62og1fha9hu","geo_precision":"unmatched"},"type":"Feature","geometry":null},{"properties":{"total (% of total population ages 15+) (2009)":null,"region":"Belize","geo_score":0.0,"labor participation rate":64.1,"id":"a62og1iadezn","geo_precision":"unmatched"},"type":"Feature","geometry":null},{"properties":{"total (% of total population ages 15+) (2009)":null,"region":"Benin","geo_score":0.0,"labor participation rate":72.7,"id":"a62og1b02hxq","geo_precision":"unmatched"},"type":"Feature","geometry":null},{"properties":{"total (% of total population ages 15+) (2009)":null,"region":"Bhutan","geo_score":0.0,"labor participation rate":62.7,"id":"a62og1h6hj8m","geo_precision":"unmatched"},"type":"Feature","geometry":null},{"properties":{"total (% of total population ages 15+) (2009)":null,"region":"Bolivia","geo_score":0.0,"labor participation rate":71.9,"id":"a62og1alnrkb","geo_precision":"unmatched"},"type":"Feature","geometry":null},{"properties":{"total (% of total population ages 15+) (2009)":null,"region":"Bosnia and Herzegovina","geo_score":0.0,"labor participation rate":61.2,"id":"a62og1hks9vz","geo_precision":"unmatched"},"type":"Feature","geometry":null},{"properties":{"total (% of total population ages 15+) (2009)":null,"region":"Botswana","geo_score":0.0,"labor participation rate":76.6,"id":"a62og1k0uyzq","geo_precision":"unmatched"},"type":"Feature","geometry":null},{"properties":{"total (% of total population ages 15+) (2009)":null,"region":"Brazil","geo_score":0.0,"labor participation rate":70.7,"id":"a62og1h0xjfq","geo_precision":"unmatched"},"type":"Feature","geometry":null},{"properties":{"total (% of total population ages 15+) (2009)":null,"region":"Brunei Darussalam","geo_score":0.0,"labor participation rate":67.5,"id":"a62og17swa82","geo_precision":"unmatched"},"type":"Feature","geometry":null},{"properties":{"total (% of total population ages 15+) (2009)":null,"region":"Bulgaria","geo_score":0.0,"labor participation rate":54.5,"id":"a62og1g4ybe4","geo_precision":"unmatched"},"type":"Feature","geometry":null},{"properties":{"total (% of total population ages 15+) (2009)":null,"region":"Burkina Faso","geo_score":0.0,"labor participation rate":84.4,"id":"a62og1bespot","geo_precision":"unmatched"},"type":"Feature","geometry":null},{"properties":{"total (% of total population ages 15+) (2009)":null,"region":"Burundi","geo_score":0.0,"labor participation rate":89.3,"id":"a62og19gtb00","geo_precision":"unmatched"},"type":"Feature","geometry":null},{"properties":{"total (% of total population ages 15+) (2009)":null,"region":"Cambodia","geo_score":0.0,"labor participation rate":79.3,"id":"a62og1lhoj1b","geo_precision":"unmatched"},"type":"Feature","geometry":null},{"properties":{"total (% of total population ages 15+) (2009)":null,"region":"Cameroon","geo_score":0.0,"labor participation rate":67.0,"id":"a62og176erul","geo_precision":"unmatched"},"type":"Feature","geometry":null},{"properties":{"total (% of total population ages 15+) (2009)":null,"region":"Canada","geo_score":0.0,"labor participation rate":67.8,"id":"a62og1ju8jdq","geo_precision":"unmatched"},"type":"Feature","geometry":null},{"properties":{"total (% of total population ages 15+) (2009)":null,"region":"Cape Verde","geo_score":0.0,"labor participation rate":66.4,"id":"a62og1bajxi2","geo_precision":"unmatched"},"type":"Feature","geometry":null},{"properties":{"total (% of total population ages 15+) (2009)":null,"region":"Central African Republic","geo_score":0.0,"labor participation rate":79.0,"id":"a62og18b4qfy","geo_precision":"unmatched"},"type":"Feature","geometry":null},{"properties":{"total (% of total population ages 15+) (2009)":null,"region":"Chad","geo_score":0.0,"labor participation rate":70.4,"id":"a62og1jjxx5c","geo_precision":"unmatched"},"type":"Feature","geometry":null},{"properties":{"total (% of total population ages 15+) (2009)":null,"region":"Chile","geo_score":0.0,"labor participation rate":57.3,"id":"a62og1aw3opc","geo_precision":"unmatched"},"type":"Feature","geometry":null},{"properties":{"total (% of total population ages 15+) (2009)":null,"region":"China","geo_score":0.0,"labor participation rate":73.7,"id":"a62og1gt2ao3","geo_precision":"unmatched"},"type":"Feature","geometry":null},{"properties":{"total (% of total population ages 15+) (2009)":null,"region":"Colombia","geo_score":0.0,"labor participation rate":58.6,"id":"a62og1jgw5jp","geo_precision":"unmatched"},"type":"Feature","geometry":null},{"properties":{"total (% of total population ages 15+) (2009)":null,"region":"Comoros","geo_score":0.0,"labor participation rate":79.6,"id":"a62og1e7gqsp","geo_precision":"unmatched"},"type":"Feature","geometry":null},{"properties":{"total (% of total population ages 15+) (2009)":null,"region":"Congo, Dem. Rep.","geo_score":0.0,"labor participation rate":70.8,"id":"a62og18cjabg","geo_precision":"unmatched"},"type":"Feature","geometry":null},{"properties":{"total (% of total population ages 15+) (2009)":null,"region":"Congo, Rep.","geo_score":0.0,"labor participation rate":72.7,"id":"a62og1ize9sp","geo_precision":"unmatched"},"type":"Feature","geometry":null},{"properties":{"total (% of total population ages 15+) (2009)":null,"region":"Costa Rica","geo_score":0.0,"labor participation rate":62.7,"id":"a62og1hep1k3","geo_precision":"unmatched"},"type":"Feature","geometry":null},{"properties":{"total (% of total population ages 15+) (2009)":null,"region":"Cote d'Ivoire","geo_score":0.0,"labor participation rate":66.9,"id":"a62og1gfao0q","geo_precision":"unmatched"},"type":"Feature","geometry":null},{"properties":{"total (% of total population ages 15+) (2009)":null,"region":"Croatia","geo_score":0.0,"labor participation rate":53.0,"id":"a62og1d1j6vf","geo_precision":"unmatched"},"type":"Feature","geometry":null},{"properties":{"total (% of total population ages 15+) (2009)":null,"region":"Cuba","geo_score":0.0,"labor participation rate":53.9,"id":"a62og1jgkpex","geo_precision":"unmatched"},"type":"Feature","geometry":null},{"properties":{"total (% of total population ages 15+) (2009)":null,"region":"Cyprus","geo_score":0.0,"labor participation rate":62.3,"id":"a62og1a0xyoo","geo_precision":"unmatched"},"type":"Feature","geometry":null},{"properties":{"total (% of total population ages 15+) (2009)":null,"region":"Czech Republic","geo_score":0.0,"labor participation rate":57.9,"id":"a62og1b4uhfd","geo_precision":"unmatched"},"type":"Feature","geometry":null},{"properties":{"total (% of total population ages 15+) (2009)":null,"region":"Denmark","geo_score":0.0,"labor participation rate":65.4,"id":"a62og1dsaavk","geo_precision":"unmatched"},"type":"Feature","geometry":null},{"properties":{"total (% of total population ages 15+) (2009)":null,"region":"Djibouti","geo_score":0.0,"labor participation rate":70.1,"id":"a62og17ez973","geo_precision":"unmatched"},"type":"Feature","geometry":null},{"properties":{"total (% of total population ages 15+) (2009)":null,"region":"Dominican Republic","geo_score":0.0,"labor participation rate":65.1,"id":"a62og1mm1y2o","geo_precision":"unmatched"},"type":"Feature","geometry":null},{"properties":{"total (% of total population ages 15+) (2009)":null,"region":"Ecuador","geo_score":0.0,"labor participation rate":62.3,"id":"a62og1m34ez4","geo_precision":"unmatched"},"type":"Feature","geometry":null},{"properties":{"total (% of total population ages 15+) (2009)":null,"region":"Egypt, Arab Rep.","geo_score":0.0,"labor participation rate":48.8,"id":"a62og1a4zr3c","geo_precision":"unmatched"},"type":"Feature","geometry":null},{"properties":{"total (% of total population ages 15+) (2009)":null,"region":"El Salvador","geo_score":0.0,"labor participation rate":59.9,"id":"a62og192b9d6","geo_precision":"unmatched"},"type":"Feature","geometry":null},{"properties":{"total (% of total population ages 15+) (2009)":null,"region":"Equatorial Guinea","geo_score":0.0,"labor participation rate":65.5,"id":"a62og1hn8aj6","geo_precision":"unmatched"},"type":"Feature","geometry":null},{"properties":{"total (% of total population ages 15+) (2009)":null,"region":"Eritrea","geo_score":0.0,"labor participation rate":72.6,"id":"a62og1h3f3dl","geo_precision":"unmatched"},"type":"Feature","geometry":null},{"properties":{"total (% of total population ages 15+) (2009)":null,"region":"Estonia","geo_score":0.0,"labor participation rate":61.2,"id":"a62og1ldzwwc","geo_precision":"unmatched"},"type":"Feature","geometry":null},{"properties":{"total (% of total population ages 15+) (2009)":null,"region":"Ethiopia","geo_score":0.0,"labor participation rate":85.4,"id":"a62og1axmn3b","geo_precision":"unmatched"},"type":"Feature","geometry":null},{"properties":{"total (% of total population ages 15+) (2009)":null,"region":"Fiji","geo_score":0.0,"labor participation rate":58.7,"id":"a62og1lasco1","geo_precision":"unmatched"},"type":"Feature","geometry":null},{"properties":{"total (% of total population ages 15+) (2009)":null,"region":"Finland","geo_score":0.0,"labor participation rate":60.9,"id":"a62og1botjsz","geo_precision":"unmatched"},"type":"Feature","geometry":null},{"properties":{"total (% of total population ages 15+) (2009)":null,"region":"France","geo_score":0.0,"labor participation rate":56.1,"id":"a62og1avab33","geo_precision":"unmatched"},"type":"Feature","geometry":null},{"properties":{"total (% of total population ages 15+) (2009)":null,"region":"Gabon","geo_score":0.0,"labor participation rate":75.5,"id":"a62og1j1ya34","geo_precision":"unmatched"},"type":"Feature","geometry":null},{"properties":{"total (% of total population ages 15+) (2009)":null,"region":"Gambia, The","geo_score":0.0,"labor participation rate":77.8,"id":"a62og17xlari","geo_precision":"unmatched"},"type":"Feature","geometry":null},{"properties":{"total (% of total population ages 15+) (2009)":null,"region":"Georgia","geo_score":0.0,"labor participation rate":63.7,"id":"a62og1j0w9c4","geo_precision":"unmatched"},"type":"Feature","geometry":null},{"properties":{"total (% of total population ages 15+) (2009)":null,"region":"Germany","geo_score":0.0,"labor participation rate":59.8,"id":"a62og19jj5o0","geo_precision":"unmatched"},"type":"Feature","geometry":null},{"properties":{"total (% of total population ages 15+) (2009)":null,"region":"Ghana","geo_score":0.0,"labor participation rate":74.6,"id":"a62og1aey11u","geo_precision":"unmatched"},"type":"Feature","geometry":null},{"properties":{"total (% of total population ages 15+) (2009)":null,"region":"Greece","geo_score":0.0,"labor participation rate":53.7,"id":"a62og19kaena","geo_precision":"unmatched"},"type":"Feature","geometry":null},{"properties":{"total (% of total population ages 15+) (2009)":null,"region":"Guatemala","geo_score":0.0,"labor participation rate":66.9,"id":"a62og17l5m83","geo_precision":"unmatched"},"type":"Feature","geometry":null},{"properties":{"total (% of total population ages 15+) (2009)":null,"region":"Guinea","geo_score":0.0,"labor participation rate":84.2,"id":"a62og1dvd5jo","geo_precision":"unmatched"},"type":"Feature","geometry":null},{"properties":{"total (% of total population ages 15+) (2009)":null,"region":"Guinea-Bissau","geo_score":0.0,"labor participation rate":71.5,"id":"a62og19y4fug","geo_precision":"unmatched"},"type":"Feature","geometry":null},{"properties":{"total (% of total population ages 15+) (2009)":null,"region":"Guyana","geo_score":0.0,"labor participation rate":63.5,"id":"a62og18ou1fr","geo_precision":"unmatched"},"type":"Feature","geometry":null},{"properties":{"total (% of total population ages 15+) (2009)":null,"region":"Haiti","geo_score":0.0,"labor participation rate":69.9,"id":"a62og16g52fw","geo_precision":"unmatched"},"type":"Feature","geometry":null},{"properties":{"total (% of total population ages 15+) (2009)":null,"region":"Honduras","geo_score":0.0,"labor participation rate":59.9,"id":"a62og1lcupnf","geo_precision":"unmatched"},"type":"Feature","geometry":null},{"properties":{"total (% of total population ages 15+) (2009)":null,"region":"Hong Kong SAR, China","geo_score":0.0,"labor participation rate":60.0,"id":"a62og1c2cnv6","geo_precision":"unmatched"},"type":"Feature","geometry":null},{"properties":{"total (% of total population ages 15+) (2009)":null,"region":"Hungary","geo_score":0.0,"labor participation rate":50.1,"id":"a62og17sw4dx","geo_precision":"unmatched"},"type":"Feature","geometry":null},{"properties":{"total (% of total population ages 15+) (2009)":null,"region":"Iceland","geo_score":0.0,"labor participation rate":77.5,"id":"a62og1cbc22p","geo_precision":"unmatched"},"type":"Feature","geometry":null},{"properties":{"total (% of total population ages 15+) (2009)":null,"region":"India","geo_score":0.0,"labor participation rate":57.6,"id":"a62og1l2e8op","geo_precision":"unmatched"},"type":"Feature","geometry":null},{"properties":{"total (% of total population ages 15+) (2009)":null,"region":"Indonesia","geo_score":0.0,"labor participation rate":68.9,"id":"a62og1ft7he4","geo_precision":"unmatched"},"type":"Feature","geometry":null},{"properties":{"total (% of total population ages 15+) (2009)":null,"region":"Iran, Islamic Rep.","geo_score":0.0,"labor participation rate":52.8,"id":"a62og1bmiknm","geo_precision":"unmatched"},"type":"Feature","geometry":null},{"properties":{"total (% of total population ages 15+) (2009)":null,"region":"Iraq","geo_score":0.0,"labor participation rate":41.3,"id":"a62og1d7ioka","geo_precision":"unmatched"},"type":"Feature","geometry":null},{"properties":{"total (% of total population ages 15+) (2009)":null,"region":"Ireland","geo_score":0.0,"labor participation rate":63.6,"id":"a62og1ef0317","geo_precision":"unmatched"},"type":"Feature","geometry":null},{"properties":{"total (% of total population ages 15+) (2009)":null,"region":"Israel","geo_score":0.0,"labor participation rate":57.1,"id":"a62og1gn1oim","geo_precision":"unmatched"},"type":"Feature","geometry":null},{"properties":{"total (% of total population ages 15+) (2009)":null,"region":"Italy","geo_score":0.0,"labor participation rate":49.1,"id":"a62og1bk2wak","geo_precision":"unmatched"},"type":"Feature","geometry":null},{"properties":{"total (% of total population ages 15+) (2009)":null,"region":"Jamaica","geo_score":0.0,"labor participation rate":64.7,"id":"a62og1hsk32g","geo_precision":"unmatched"},"type":"Feature","geometry":null},{"properties":{"total (% of total population ages 15+) (2009)":null,"region":"Japan","geo_score":0.0,"labor participation rate":59.5,"id":"a62og1bttat5","geo_precision":"unmatched"},"type":"Feature","geometry":null},{"properties":{"total (% of total population ages 15+) (2009)":null,"region":"Jordan","geo_score":0.0,"labor participation rate":49.3,"id":"a62og1aq4gpw","geo_precision":"unmatched"},"type":"Feature","geometry":null},{"properties":{"total (% of total population ages 15+) (2009)":null,"region":"Kazakhstan","geo_score":0.0,"labor participation rate":70.6,"id":"a62og19onjf1","geo_precision":"unmatched"},"type":"Feature","geometry":null},{"properties":{"total (% of total population ages 15+) (2009)":null,"region":"Kenya","geo_score":0.0,"labor participation rate":82.2,"id":"a62og1h0jsfn","geo_precision":"unmatched"},"type":"Feature","geometry":null},{"properties":{"total (% of total population ages 15+) (2009)":null,"region":"Korea, Dem. Rep.","geo_score":0.0,"labor participation rate":66.0,"id":"a62og1kmreeu","geo_precision":"unmatched"},"type":"Feature","geometry":null},{"properties":{"total (% of total population ages 15+) (2009)":null,"region":"Korea, Rep.","geo_score":0.0,"labor participation rate":60.9,"id":"a62og1cs780z","geo_precision":"unmatched"},"type":"Feature","geometry":null},{"properties":{"total (% of total population ages 15+) (2009)":null,"region":"Kuwait","geo_score":0.0,"labor participation rate":68.5,"id":"a62og1b6muca","geo_precision":"unmatched"},"type":"Feature","geometry":null},{"properties":{"total (% of total population ages 15+) (2009)":null,"region":"Kyrgyz Republic","geo_score":0.0,"labor participation rate":66.6,"id":"a62og1bnurrr","geo_precision":"unmatched"},"type":"Feature","geometry":null},{"properties":{"total (% of total population ages 15+) (2009)":null,"region":"Lao PDR","geo_score":0.0,"labor participation rate":78.3,"id":"a62og18wwqrr","geo_precision":"unmatched"},"type":"Feature","geometry":null},{"properties":{"total (% of total population ages 15+) (2009)":null,"region":"Latvia","geo_score":0.0,"labor participation rate":61.5,"id":"a62og1drbobk","geo_precision":"unmatched"},"type":"Feature","geometry":null},{"properties":{"total (% of total population ages 15+) (2009)":null,"region":"Lebanon","geo_score":0.0,"labor participation rate":46.1,"id":"a62og1jbrpwa","geo_precision":"unmatched"},"type":"Feature","geometry":null},{"properties":{"total (% of total population ages 15+) (2009)":null,"region":"Lesotho","geo_score":0.0,"labor participation rate":74.0,"id":"a62og1bbdqmc","geo_precision":"unmatched"},"type":"Feature","geometry":null},{"properties":{"total (% of total population ages 15+) (2009)":null,"region":"Liberia","geo_score":0.0,"labor participation rate":71.1,"id":"a62og1g6ii5r","geo_precision":"unmatched"},"type":"Feature","geometry":null},{"properties":{"total (% of total population ages 15+) (2009)":null,"region":"Libya","geo_score":0.0,"labor participation rate":52.8,"id":"a62og1ff9duw","geo_precision":"unmatched"},"type":"Feature","geometry":null},{"properties":{"total (% of total population ages 15+) (2009)":null,"region":"Lithuania","geo_score":0.0,"labor participation rate":55.7,"id":"a62og1auges7","geo_precision":"unmatched"},"type":"Feature","geometry":null},{"properties":{"total (% of total population ages 15+) (2009)":null,"region":"Luxembourg","geo_score":0.0,"labor participation rate":55.5,"id":"a62og1bneo83","geo_precision":"unmatched"},"type":"Feature","geometry":null},{"properties":{"total (% of total population ages 15+) (2009)":null,"region":"Macao SAR, China","geo_score":0.0,"labor participation rate":69.4,"id":"a62og17xvwkg","geo_precision":"unmatched"},"type":"Feature","geometry":null},{"properties":{"total (% of total population ages 15+) (2009)":null,"region":"Macedonia, FYR","geo_score":0.0,"labor participation rate":54.0,"id":"a62og1j1m7fc","geo_precision":"unmatched"},"type":"Feature","geometry":null},{"properties":{"total (% of total population ages 15+) (2009)":null,"region":"Madagascar","geo_score":0.0,"labor participation rate":86.4,"id":"a62og1el6ozm","geo_precision":"unmatched"},"type":"Feature","geometry":null},{"properties":{"total (% of total population ages 15+) (2009)":null,"region":"Malawi","geo_score":0.0,"labor participation rate":76.8,"id":"a62og1lo2xap","geo_precision":"unmatched"},"type":"Feature","geometry":null},{"properties":{"total (% of total population ages 15+) (2009)":null,"region":"Malaysia","geo_score":0.0,"labor participation rate":62.0,"id":"a62og1jixbeo","geo_precision":"unmatched"},"type":"Feature","geometry":null},{"properties":{"total (% of total population ages 15+) (2009)":null,"region":"Maldives","geo_score":0.0,"labor participation rate":67.1,"id":"a62og1ibsb4x","geo_precision":"unmatched"},"type":"Feature","geometry":null},{"properties":{"total (% of total population ages 15+) (2009)":null,"region":"Mali","geo_score":0.0,"labor participation rate":51.9,"id":"a62og191gf9a","geo_precision":"unmatched"},"type":"Feature","geometry":null},{"properties":{"total (% of total population ages 15+) (2009)":null,"region":"Malta","geo_score":0.0,"labor participation rate":49.4,"id":"a62og1f4hh3q","geo_precision":"unmatched"},"type":"Feature","geometry":null},{"properties":{"total (% of total population ages 15+) (2009)":null,"region":"Mauritania","geo_score":0.0,"labor participation rate":70.0,"id":"a62og1ewk72h","geo_precision":"unmatched"},"type":"Feature","geometry":null},{"properties":{"total (% of total population ages 15+) (2009)":null,"region":"Mauritius","geo_score":0.0,"labor participation rate":57.5,"id":"a62og1935ax2","geo_precision":"unmatched"},"type":"Feature","geometry":null},{"properties":{"total (% of total population ages 15+) (2009)":null,"region":"Mexico","geo_score":0.0,"labor participation rate":61.4,"id":"a62og1bv5kiq","geo_precision":"unmatched"},"type":"Feature","geometry":null},{"properties":{"total (% of total population ages 15+) (2009)":null,"region":"Moldova","geo_score":0.0,"labor participation rate":49.6,"id":"a62og1mnmucf","geo_precision":"unmatched"},"type":"Feature","geometry":null},{"properties":{"total (% of total population ages 15+) (2009)":null,"region":"Mongolia","geo_score":0.0,"labor participation rate":72.9,"id":"a62og1hsgv3f","geo_precision":"unmatched"},"type":"Feature","geometry":null},{"properties":{"total (% of total population ages 15+) (2009)":null,"region":"Morocco","geo_score":0.0,"labor participation rate":52.3,"id":"a62og1euty2y","geo_precision":"unmatched"},"type":"Feature","geometry":null},{"properties":{"total (% of total population ages 15+) (2009)":null,"region":"Mozambique","geo_score":0.0,"labor participation rate":85.8,"id":"a62og1hrbqmp","geo_precision":"unmatched"},"type":"Feature","geometry":null},{"properties":{"total (% of total population ages 15+) (2009)":null,"region":"Myanmar","geo_score":0.0,"labor participation rate":73.8,"id":"a62og18vb9yn","geo_precision":"unmatched"},"type":"Feature","geometry":null},{"properties":{"total (% of total population ages 15+) (2009)":null,"region":"Namibia","geo_score":0.0,"labor participation rate":57.1,"id":"a62og1a9h8s5","geo_precision":"unmatched"},"type":"Feature","geometry":null},{"properties":{"total (% of total population ages 15+) (2009)":null,"region":"Nepal","geo_score":0.0,"labor participation rate":71.5,"id":"a62og16i4sb3","geo_precision":"unmatched"},"type":"Feature","geometry":null},{"properties":{"total (% of total population ages 15+) (2009)":null,"region":"Netherlands","geo_score":0.0,"labor participation rate":66.1,"id":"a62og1aldhei","geo_precision":"unmatched"},"type":"Feature","geometry":null},{"properties":{"total (% of total population ages 15+) (2009)":null,"region":"New Zealand","geo_score":0.0,"labor participation rate":68.6,"id":"a62og1b27i3v","geo_precision":"unmatched"},"type":"Feature","geometry":null},{"properties":{"total (% of total population ages 15+) (2009)":null,"region":"Nicaragua","geo_score":0.0,"labor participation rate":62.4,"id":"a62og17vnpn2","geo_precision":"unmatched"},"type":"Feature","geometry":null},{"properties":{"total (% of total population ages 15+) (2009)":null,"region":"Niger","geo_score":0.0,"labor participation rate":62.7,"id":"a62og1jttw3n","geo_precision":"unmatched"},"type":"Feature","geometry":null},{"properties":{"total (% of total population ages 15+) (2009)":null,"region":"Nigeria","geo_score":0.0,"labor participation rate":56.2,"id":"a62og1c0lqn6","geo_precision":"unmatched"},"type":"Feature","geometry":null},{"properties":{"total (% of total population ages 15+) (2009)":null,"region":"Norway","geo_score":0.0,"labor participation rate":66.9,"id":"a62og1ao6dog","geo_precision":"unmatched"},"type":"Feature","geometry":null},{"properties":{"total (% of total population ages 15+) (2009)":null,"region":"Oman","geo_score":0.0,"labor participation rate":55.7,"id":"a62og1ijujzu","geo_precision":"unmatched"},"type":"Feature","geometry":null},{"properties":{"total (% of total population ages 15+) (2009)":null,"region":"Pakistan","geo_score":0.0,"labor participation rate":54.3,"id":"a62og1k2b5ll","geo_precision":"unmatched"},"type":"Feature","geometry":null},{"properties":{"total (% of total population ages 15+) (2009)":null,"region":"Panama","geo_score":0.0,"labor participation rate":64.6,"id":"a62og1bs5ehz","geo_precision":"unmatched"},"type":"Feature","geometry":null},{"properties":{"total (% of total population ages 15+) (2009)":null,"region":"Papua New Guinea","geo_score":0.0,"labor participation rate":72.9,"id":"a62og1lsrcqd","geo_precision":"unmatched"},"type":"Feature","geometry":null},{"properties":{"total (% of total population ages 15+) (2009)":null,"region":"Paraguay","geo_score":0.0,"labor participation rate":71.9,"id":"a62og1aoz588","geo_precision":"unmatched"},"type":"Feature","geometry":null},{"properties":{"total (% of total population ages 15+) (2009)":null,"region":"Peru","geo_score":0.0,"labor participation rate":67.1,"id":"a62og1a3d2zt","geo_precision":"unmatched"},"type":"Feature","geometry":null},{"properties":{"total (% of total population ages 15+) (2009)":null,"region":"Philippines","geo_score":0.0,"labor participation rate":63.8,"id":"a62og1fxhmym","geo_precision":"unmatched"},"type":"Feature","geometry":null},{"properties":{"total (% of total population ages 15+) (2009)":null,"region":"Poland","geo_score":0.0,"labor participation rate":53.7,"id":"a62og1kqe6n6","geo_precision":"unmatched"},"type":"Feature","geometry":null},{"properties":{"total (% of total population ages 15+) (2009)":null,"region":"Portugal","geo_score":0.0,"labor participation rate":62.5,"id":"a62og1l6ni55","geo_precision":"unmatched"},"type":"Feature","geometry":null},{"properties":{"total (% of total population ages 15+) (2009)":null,"region":"Puerto Rico","geo_score":0.0,"labor participation rate":46.1,"id":"a62og1dvpsta","geo_precision":"unmatched"},"type":"Feature","geometry":null},{"properties":{"total (% of total population ages 15+) (2009)":null,"region":"Qatar","geo_score":0.0,"labor participation rate":84.3,"id":"a62og19myii7","geo_precision":"unmatched"},"type":"Feature","geometry":null},{"properties":{"total (% of total population ages 15+) (2009)":null,"region":"Romania","geo_score":0.0,"labor participation rate":52.4,"id":"a62og1ehzsnx","geo_precision":"unmatched"},"type":"Feature","geometry":null},{"properties":{"total (% of total population ages 15+) (2009)":null,"region":"Russian Federation","geo_score":0.0,"labor participation rate":62.8,"id":"a62og1jmo9os","geo_precision":"unmatched"},"type":"Feature","geometry":null},{"properties":{"total (% of total population ages 15+) (2009)":null,"region":"Rwanda","geo_score":0.0,"labor participation rate":86.0,"id":"a62og1f4lyqi","geo_precision":"unmatched"},"type":"Feature","geometry":null},{"properties":{"total (% of total population ages 15+) (2009)":null,"region":"Samoa","geo_score":0.0,"labor participation rate":57.5,"id":"a62og1mlkepy","geo_precision":"unmatched"},"type":"Feature","geometry":null},{"properties":{"total (% of total population ages 15+) (2009)":null,"region":"Sao Tome and Principe","geo_score":0.0,"labor participation rate":59.8,"id":"a62og170kv8z","geo_precision":"unmatched"},"type":"Feature","geometry":null},{"properties":{"total (% of total population ages 15+) (2009)":null,"region":"Saudi Arabia","geo_score":0.0,"labor participation rate":54.5,"id":"a62og1ilfa9n","geo_precision":"unmatched"},"type":"Feature","geometry":null},{"properties":{"total (% of total population ages 15+) (2009)":null,"region":"Senegal","geo_score":0.0,"labor participation rate":76.4,"id":"a62og1lzsp6k","geo_precision":"unmatched"},"type":"Feature","geometry":null},{"properties":{"total (% of total population ages 15+) (2009)":null,"region":"Sierra Leone","geo_score":0.0,"labor participation rate":66.4,"id":"a62og1adcwd7","geo_precision":"unmatched"},"type":"Feature","geometry":null},{"properties":{"total (% of total population ages 15+) (2009)":null,"region":"Singapore","geo_score":0.0,"labor participation rate":64.7,"id":"a62og19zi4c5","geo_precision":"unmatched"},"type":"Feature","geometry":null},{"properties":{"total (% of total population ages 15+) (2009)":null,"region":"Slovak Republic","geo_score":0.0,"labor participation rate":59.5,"id":"a62og1jbvuf2","geo_precision":"unmatched"},"type":"Feature","geometry":null},{"properties":{"total (% of total population ages 15+) (2009)":null,"region":"Slovenia","geo_score":0.0,"labor participation rate":58.9,"id":"a62og1jjnvfw","geo_precision":"unmatched"},"type":"Feature","geometry":null},{"properties":{"total (% of total population ages 15+) (2009)":null,"region":"Solomon Islands","geo_score":0.0,"labor participation rate":37.5,"id":"a62og1iqax5t","geo_precision":"unmatched"},"type":"Feature","geometry":null},{"properties":{"total (% of total population ages 15+) (2009)":null,"region":"Somalia","geo_score":0.0,"labor participation rate":70.3,"id":"a62og178gc54","geo_precision":"unmatched"},"type":"Feature","geometry":null},{"properties":{"total (% of total population ages 15+) (2009)":null,"region":"South Africa","geo_score":0.0,"labor participation rate":55.0,"id":"a62og1in5zye","geo_precision":"unmatched"},"type":"Feature","geometry":null},{"properties":{"total (% of total population ages 15+) (2009)":null,"region":"Spain","geo_score":0.0,"labor participation rate":58.6,"id":"a62og1aiqr74","geo_precision":"unmatched"},"type":"Feature","geometry":null},{"properties":{"total (% of total population ages 15+) (2009)":null,"region":"Sri Lanka","geo_score":0.0,"labor participation rate":54.2,"id":"a62og1lxttf6","geo_precision":"unmatched"},"type":"Feature","geometry":null},{"properties":{"total (% of total population ages 15+) (2009)":null,"region":"St. Lucia","geo_score":0.0,"labor participation rate":63.0,"id":"a62og1kaksqn","geo_precision":"unmatched"},"type":"Feature","geometry":null},{"properties":{"total (% of total population ages 15+) (2009)":null,"region":"St. Vincent and the Grenadines","geo_score":0.0,"labor participation rate":67.5,"id":"a62og17nrs7g","geo_precision":"unmatched"},"type":"Feature","geometry":null},{"properties":{"total (% of total population ages 15+) (2009)":null,"region":"Sudan","geo_score":0.0,"labor participation rate":52.3,"id":"a62og1l49kjp","geo_precision":"unmatched"},"type":"Feature","geometry":null},{"properties":{"total (% of total population ages 15+) (2009)":null,"region":"Suriname","geo_score":0.0,"labor participation rate":52.2,"id":"a62og19cwrto","geo_precision":"unmatched"},"type":"Feature","geometry":null},{"properties":{"total (% of total population ages 15+) (2009)":null,"region":"Swaziland","geo_score":0.0,"labor participation rate":63.6,"id":"a62og1hpkfr4","geo_precision":"unmatched"},"type":"Feature","geometry":null},{"properties":{"total (% of total population ages 15+) (2009)":null,"region":"Sweden","geo_score":0.0,"labor participation rate":64.8,"id":"a62og1hj3s9j","geo_precision":"unmatched"},"type":"Feature","geometry":null},{"properties":{"total (% of total population ages 15+) (2009)":null,"region":"Switzerland","geo_score":0.0,"labor participation rate":66.9,"id":"a62og1i2x87c","geo_precision":"unmatched"},"type":"Feature","geometry":null},{"properties":{"total (% of total population ages 15+) (2009)":null,"region":"Syrian Arab Republic","geo_score":0.0,"labor participation rate":50.4,"id":"a62og1cndkqm","geo_precision":"unmatched"},"type":"Feature","geometry":null},{"properties":{"total (% of total population ages 15+) (2009)":null,"region":"Tajikistan","geo_score":0.0,"labor participation rate":67.0,"id":"a62og1l86czg","geo_precision":"unmatched"},"type":"Feature","geometry":null},{"properties":{"total (% of total population ages 15+) (2009)":null,"region":"Tanzania","geo_score":0.0,"labor participation rate":88.4,"id":"a62og1di0uwf","geo_precision":"unmatched"},"type":"Feature","geometry":null},{"properties":{"total (% of total population ages 15+) (2009)":null,"region":"Thailand","geo_score":0.0,"labor participation rate":72.9,"id":"a62og1jtjds5","geo_precision":"unmatched"},"type":"Feature","geometry":null},{"properties":{"total (% of total population ages 15+) (2009)":null,"region":"Timor-Leste","geo_score":0.0,"labor participation rate":71.0,"id":"a62og1e5orwt","geo_precision":"unmatched"},"type":"Feature","geometry":null},{"properties":{"total (% of total population ages 15+) (2009)":null,"region":"Togo","geo_score":0.0,"labor participation rate":74.4,"id":"a62og18ib4rk","geo_precision":"unmatched"},"type":"Feature","geometry":null},{"properties":{"total (% of total population ages 15+) (2009)":null,"region":"Tonga","geo_score":0.0,"labor participation rate":64.6,"id":"a62og1m0kvdy","geo_precision":"unmatched"},"type":"Feature","geometry":null},{"properties":{"total (% of total population ages 15+) (2009)":null,"region":"Trinidad and Tobago","geo_score":0.0,"labor participation rate":66.1,"id":"a62og1ene7l4","geo_precision":"unmatched"},"type":"Feature","geometry":null},{"properties":{"total (% of total population ages 15+) (2009)":null,"region":"Tunisia","geo_score":0.0,"labor participation rate":48.0,"id":"a62og1hherao","geo_precision":"unmatched"},"type":"Feature","geometry":null},{"properties":{"total (% of total population ages 15+) (2009)":null,"region":"Turkey","geo_score":0.0,"labor participation rate":46.8,"id":"a62og1h72ibc","geo_precision":"unmatched"},"type":"Feature","geometry":null},{"properties":{"total (% of total population ages 15+) (2009)":null,"region":"Turkmenistan","geo_score":0.0,"labor participation rate":68.0,"id":"a62og1dz0urd","geo_precision":"unmatched"},"type":"Feature","geometry":null},{"properties":{"total (% of total population ages 15+) (2009)":null,"region":"Uganda","geo_score":0.0,"labor participation rate":84.5,"id":"a62og1afhbnc","geo_precision":"unmatched"},"type":"Feature","geometry":null},{"properties":{"total (% of total population ages 15+) (2009)":null,"region":"Ukraine","geo_score":0.0,"labor participation rate":58.1,"id":"a62og180s0v0","geo_precision":"unmatched"},"type":"Feature","geometry":null},{"properties":{"total (% of total population ages 15+) (2009)":null,"region":"United Arab Emirates","geo_score":0.0,"labor participation rate":77.6,"id":"a62og1bcs5qw","geo_precision":"unmatched"},"type":"Feature","geometry":null},{"properties":{"total (% of total population ages 15+) (2009)":null,"region":"United Kingdom","geo_score":0.0,"labor participation rate":62.2,"id":"a62og1lqa241","geo_precision":"unmatched"},"type":"Feature","geometry":null},{"properties":{"total (% of total population ages 15+) (2009)":null,"region":"United States","geo_score":0.0,"labor participation rate":65.0,"id":"a62og1eqeg8a","geo_precision":"unmatched"},"type":"Feature","geometry":null},{"properties":{"total (% of total population ages 15+) (2009)":null,"region":"Uruguay","geo_score":0.0,"labor participation rate":64.1,"id":"a62og1d5j2t7","geo_precision":"unmatched"},"type":"Feature","geometry":null},{"properties":{"total (% of total population ages 15+) (2009)":null,"region":"Uzbekistan","geo_score":0.0,"labor participation rate":64.6,"id":"a62og19azfm2","geo_precision":"unmatched"},"type":"Feature","geometry":null},{"properties":{"total (% of total population ages 15+) (2009)":null,"region":"Vanuatu","geo_score":0.0,"labor participation rate":83.9,"id":"a62og1d5bx5e","geo_precision":"unmatched"},"type":"Feature","geometry":null},{"properties":{"total (% of total population ages 15+) (2009)":null,"region":"Venezuela, RB","geo_score":0.0,"labor participation rate":66.0,"id":"a62og1hzu0en","geo_precision":"unmatched"},"type":"Feature","geometry":null},{"properties":{"total (% of total population ages 15+) (2009)":null,"region":"Vietnam","geo_score":0.0,"labor participation rate":71.9,"id":"a62og1hfeepz","geo_precision":"unmatched"},"type":"Feature","geometry":null},{"properties":{"total (% of total population ages 15+) (2009)":null,"region":"Virgin Islands (U.S.)","geo_score":0.0,"labor participation rate":59.5,"id":"a62og1lm1az0","geo_precision":"unmatched"},"type":"Feature","geometry":null},{"properties":{"total (% of total population ages 15+) (2009)":null,"region":"West Bank and Gaza","geo_score":0.0,"labor participation rate":42.8,"id":"a62og1jga5dq","geo_precision":"unmatched"},"type":"Feature","geometry":null},{"properties":{"total (% of total population ages 15+) (2009)":null,"region":"Yemen, Rep.","geo_score":0.0,"labor participation rate":46.8,"id":"a62og1g1ip6u","geo_precision":"unmatched"},"type":"Feature","geometry":null},{"properties":{"total (% of total population ages 15+) (2009)":null,"region":"Zambia","geo_score":0.0,"labor participation rate":69.2,"id":"a62og1b49k32","geo_precision":"unmatched"},"type":"Feature","geometry":null},{"properties":{"total (% of total population ages 15+) (2009)":null,"region":"Zimbabwe","geo_score":0.0,"labor participation rate":66.8,"id":"a62og1d95si3","geo_precision":"unmatched"},"type":"Feature","geometry":null}],"is_temporal":false,"author":{"url":"","metadata":null,"contact_name":null,"contact_address":null,"source":null,"contact_phone":null},"source":"","pagination":{"sort":null,"start":0,"total":180,"limit":1000000},"state":"complete","tags":"","published":"2014-08-13T10:38:59-04:00","id":188946}