{"type":"FeatureCollection","data_type":"Dataset","url_type":null,"permissions":[{"permissions":{"download":true,"view":true},"group_id":"everyone"}],"classification":null,"title":"WalmartCities","count":140,"stream_id":188924,"contributor":{"url":"http://geocommons.com/users/24611","name":"covbrown@yahoo.com"},"data_attributes":null,"calculation_params":null,"icon_link":null,"link":"http://geocommons.com/overlays/188924.json","extent":[-84.0388,33.9663,-75.4693,36.5018],"geometry_types":["point"],"unique_name":null,"name":"WalmartCities","feature_count":140,"description":"Walmart locations in NC","next_feature":null,"is_raster":false,"short_classification":"Y","stats":{"location":{"max":1,"mean":1.0,"variance":0.0,"stdev":0.0,"min":1,"median":1}},"features":[{"properties":{"city":"Aberdeen","geo_score":0.857,"id":"a6542jbshhxq","geo_precision":"city","location":1,"state":"NC"},"type":"Feature","geometry":{"type":"Point","coordinates":[-79.517795,35.203802]}},{"properties":{"city":"Ahoskie","geo_score":0.857,"id":"a6542jgz2k5o","geo_precision":"city","location":1,"state":"NC"},"type":"Feature","geometry":{"type":"Point","coordinates":[-76.990498,36.339311]}},{"properties":{"city":"Albemarle","geo_score":0.806,"id":"a6542jlqjowx","geo_precision":"city","location":1,"state":"NC"},"type":"Feature","geometry":{"type":"Point","coordinates":[-76.641331,35.935995]}},{"properties":{"city":"Apex","geo_score":0.857,"id":"a6542jcm0ngg","geo_precision":"city","location":1,"state":"NC"},"type":"Feature","geometry":{"type":"Point","coordinates":[-78.860891,35.727018]}},{"properties":{"city":"Arden","geo_score":0.857,"id":"a6542jntwdyp","geo_precision":"city","location":1,"state":"NC"},"type":"Feature","geometry":{"type":"Point","coordinates":[-82.541808,35.589686]}},{"properties":{"city":"Asheboro","geo_score":0.857,"id":"a6542jk38lf6","geo_precision":"city","location":1,"state":"NC"},"type":"Feature","geometry":{"type":"Point","coordinates":[-79.812805,35.720699]}},{"properties":{"city":"Asheville","geo_score":0.857,"id":"a6542jemo0ij","geo_precision":"city","location":1,"state":"NC"},"type":"Feature","geometry":{"type":"Point","coordinates":[-82.554015,35.600945]}},{"properties":{"city":"Asheville","geo_score":0.857,"id":"a6542jpcd4sc","geo_precision":"city","location":1,"state":"NC"},"type":"Feature","geometry":{"type":"Point","coordinates":[-82.554015,35.600945]}},{"properties":{"city":"Belmont","geo_score":0.825,"id":"a6542jn3sp03","geo_precision":"city","location":1,"state":"NC"},"type":"Feature","geometry":{"type":"Point","coordinates":[-79.443076,36.025692]}},{"properties":{"city":"Biscoe","geo_score":0.857,"id":"a6542jq8s83u","geo_precision":"city","location":1,"state":"NC"},"type":"Feature","geometry":{"type":"Point","coordinates":[-79.943839,35.365836]}},{"properties":{"city":"Boone","geo_score":0.771,"id":"a6542jkjbh8a","geo_precision":"city","location":1,"state":"NC"},"type":"Feature","geometry":{"type":"Point","coordinates":[-78.208581,35.982555]}},{"properties":{"city":"Burlington","geo_score":0.857,"id":"a6542jb9n53x","geo_precision":"city","location":1,"state":"NC"},"type":"Feature","geometry":{"type":"Point","coordinates":[-79.430129,36.091025]}},{"properties":{"city":"Burlington","geo_score":0.857,"id":"a6542jnmejoo","geo_precision":"city","location":1,"state":"NC"},"type":"Feature","geometry":{"type":"Point","coordinates":[-79.430129,36.091025]}},{"properties":{"city":"Cary","geo_score":0.821,"id":"a6542jk9wtgp","geo_precision":"city","location":1,"state":"NC"},"type":"Feature","geometry":{"type":"Point","coordinates":[-79.220017,36.211527]}},{"properties":{"city":"Charlotte","geo_score":0.857,"id":"a6542jky3o25","geo_precision":"city","location":1,"state":"NC"},"type":"Feature","geometry":{"type":"Point","coordinates":[-80.843127,35.227087]}},{"properties":{"city":"Charlotte","geo_score":0.857,"id":"a6542jdjawpi","geo_precision":"city","location":1,"state":"NC"},"type":"Feature","geometry":{"type":"Point","coordinates":[-80.843127,35.227087]}},{"properties":{"city":"Charlotte","geo_score":0.857,"id":"a6542jhtpy7w","geo_precision":"city","location":1,"state":"NC"},"type":"Feature","geometry":{"type":"Point","coordinates":[-80.843127,35.227087]}},{"properties":{"city":"Charlotte","geo_score":0.857,"id":"a6542jot2nt9","geo_precision":"city","location":1,"state":"NC"},"type":"Feature","geometry":{"type":"Point","coordinates":[-80.843127,35.227087]}},{"properties":{"city":"Charlotte","geo_score":0.857,"id":"a6542jo1fjm2","geo_precision":"city","location":1,"state":"NC"},"type":"Feature","geometry":{"type":"Point","coordinates":[-80.843127,35.227087]}},{"properties":{"city":"Charlotte","geo_score":0.857,"id":"a6542jj4m6kz","geo_precision":"city","location":1,"state":"NC"},"type":"Feature","geometry":{"type":"Point","coordinates":[-80.843127,35.227087]}},{"properties":{"city":"Charlotte","geo_score":0.857,"id":"a6542jnvhzaf","geo_precision":"city","location":1,"state":"NC"},"type":"Feature","geometry":{"type":"Point","coordinates":[-80.843127,35.227087]}},{"properties":{"city":"Charlotte","geo_score":0.857,"id":"a6542jh12y6u","geo_precision":"city","location":1,"state":"NC"},"type":"Feature","geometry":{"type":"Point","coordinates":[-80.843127,35.227087]}},{"properties":{"city":"Cherryville","geo_score":0.857,"id":"a6542jbvv345","geo_precision":"city","location":1,"state":"NC"},"type":"Feature","geometry":{"type":"Point","coordinates":[-81.236958,35.306707]}},{"properties":{"city":"Clayton","geo_score":0.755,"id":"a6542jnxqh07","geo_precision":"city","location":1,"state":"NC"},"type":"Feature","geometry":{"type":"Point","coordinates":[-76.614114,36.320433]}},{"properties":{"city":"Clinton","geo_score":0.796,"id":"a6542jj1aiml","geo_precision":"city","location":1,"state":"NC"},"type":"Feature","geometry":{"type":"Point","coordinates":[-79.416968,35.482371]}},{"properties":{"city":"Clyde","geo_score":0.857,"id":"a6542jl7coaj","geo_precision":"city","location":1,"state":"NC"},"type":"Feature","geometry":{"type":"Point","coordinates":[-82.978588,35.637588]}},{"properties":{"city":"Concord","geo_score":0.857,"id":"a6542jgshb19","geo_precision":"city","location":1,"state":"NC"},"type":"Feature","geometry":{"type":"Point","coordinates":[-79.066402,36.445974]}},{"properties":{"city":"Concord","geo_score":0.857,"id":"a6542jptagq3","geo_precision":"city","location":1,"state":"NC"},"type":"Feature","geometry":{"type":"Point","coordinates":[-79.066402,36.445974]}},{"properties":{"city":"Conover","geo_score":0.857,"id":"a6542jeku7cf","geo_precision":"city","location":1,"state":"NC"},"type":"Feature","geometry":{"type":"Point","coordinates":[-81.209458,35.740848]}},{"properties":{"city":"Denver","geo_score":0.857,"id":"a6542jb5ett2","geo_precision":"city","location":1,"state":"NC"},"type":"Feature","geometry":{"type":"Point","coordinates":[-81.0553,35.486134]}},{"properties":{"city":"Durham","geo_score":0.857,"id":"a6542je5zrc6","geo_precision":"city","location":1,"state":"NC"},"type":"Feature","geometry":{"type":"Point","coordinates":[-78.898619,35.994033]}},{"properties":{"city":"Durham","geo_score":0.857,"id":"a6542jfdjc6l","geo_precision":"city","location":1,"state":"NC"},"type":"Feature","geometry":{"type":"Point","coordinates":[-78.898619,35.994033]}},{"properties":{"city":"Eden","geo_score":0.857,"id":"a6542jawvg2x","geo_precision":"city","location":1,"state":"NC"},"type":"Feature","geometry":{"type":"Point","coordinates":[-79.749957,36.486369]}},{"properties":{"city":"Elizabeth City","geo_score":0.736,"id":"a6542jo49vtd","geo_precision":"city","location":1,"state":"NC"},"type":"Feature","geometry":{"type":"Point","coordinates":[-80.106157,35.711804]}},{"properties":{"city":"Elizabethtown","geo_score":0.813,"id":"a6542jczn07i","geo_precision":"city","location":1,"state":"NC"},"type":"Feature","geometry":{"type":"Point","coordinates":[-76.213284,36.285388]}},{"properties":{"city":"Elkin","geo_score":0.857,"id":"a6542jobiakg","geo_precision":"city","location":1,"state":"NC"},"type":"Feature","geometry":{"type":"Point","coordinates":[-80.799944,36.318035]}},{"properties":{"city":"Erwin","geo_score":0.857,"id":"a6542jk8c79z","geo_precision":"city","location":1,"state":"NC"},"type":"Feature","geometry":{"type":"Point","coordinates":[-78.705859,35.330059]}},{"properties":{"city":"Fayetteville","geo_score":0.857,"id":"a6542jmtwkg6","geo_precision":"city","location":1,"state":"NC"},"type":"Feature","geometry":{"type":"Point","coordinates":[-78.878359,35.052664]}},{"properties":{"city":"Fayetteville","geo_score":0.857,"id":"a6542jlr0oaw","geo_precision":"city","location":1,"state":"NC"},"type":"Feature","geometry":{"type":"Point","coordinates":[-78.878359,35.052664]}},{"properties":{"city":"Fayetteville","geo_score":0.857,"id":"a6542jpe6puw","geo_precision":"city","location":1,"state":"NC"},"type":"Feature","geometry":{"type":"Point","coordinates":[-78.878359,35.052664]}},{"properties":{"city":"ForestCity","geo_score":0.857,"id":"a6542jgl6qrq","geo_precision":"city","location":1,"state":"NC"},"type":"Feature","geometry":{"type":"Point","coordinates":[-81.846013,35.325025]}},{"properties":{"city":"Franklin","geo_score":0.857,"id":"a6542jasjdy1","geo_precision":"city","location":1,"state":"NC"},"type":"Feature","geometry":{"type":"Point","coordinates":[-80.498948,35.721251]}},{"properties":{"city":"Fuquay Varina","geo_score":0.738,"id":"a6542jmk91cm","geo_precision":"city","location":1,"state":"NC"},"type":"Feature","geometry":{"type":"Point","coordinates":[-81.604276,36.452901]}},{"properties":{"city":"Garner","geo_score":0.857,"id":"a6542jb1y2j3","geo_precision":"city","location":1,"state":"NC"},"type":"Feature","geometry":{"type":"Point","coordinates":[-78.66304,35.714139]}},{"properties":{"city":"Gastonia","geo_score":0.768,"id":"a6542jlygnws","geo_precision":"city","location":1,"state":"NC"},"type":"Feature","geometry":{"type":"Point","coordinates":[-78.101382,34.583223]}},{"properties":{"city":"Gastonia","geo_score":0.768,"id":"a6542jpnusq7","geo_precision":"city","location":1,"state":"NC"},"type":"Feature","geometry":{"type":"Point","coordinates":[-78.101382,34.583223]}},{"properties":{"city":"Goldsboro","geo_score":0.857,"id":"a6542jnqml6w","geo_precision":"city","location":1,"state":"NC"},"type":"Feature","geometry":{"type":"Point","coordinates":[-78.092871,35.368277]}},{"properties":{"city":"Goldsboro","geo_score":0.857,"id":"a6542jj5wlwz","geo_precision":"city","location":1,"state":"NC"},"type":"Feature","geometry":{"type":"Point","coordinates":[-78.092871,35.368277]}},{"properties":{"city":"GraniteFalls","geo_score":0.774,"id":"a6542jcaoy3v","geo_precision":"city","location":1,"state":"NC"},"type":"Feature","geometry":{"type":"Point","coordinates":[-81.847611,36.099016]}},{"properties":{"city":"Greensboro","geo_score":0.857,"id":"a6542jezyj6m","geo_precision":"city","location":1,"state":"NC"},"type":"Feature","geometry":{"type":"Point","coordinates":[-79.791975,36.072636]}},{"properties":{"city":"Greensboro","geo_score":0.857,"id":"a6542jmz6mly","geo_precision":"city","location":1,"state":"NC"},"type":"Feature","geometry":{"type":"Point","coordinates":[-79.791975,36.072636]}},{"properties":{"city":"Greensboro","geo_score":0.857,"id":"a6542jqkh2vf","geo_precision":"city","location":1,"state":"NC"},"type":"Feature","geometry":{"type":"Point","coordinates":[-79.791975,36.072636]}},{"properties":{"city":"Greensboro","geo_score":0.857,"id":"a6542jcf0cy0","geo_precision":"city","location":1,"state":"NC"},"type":"Feature","geometry":{"type":"Point","coordinates":[-79.791975,36.072636]}},{"properties":{"city":"Greenville","geo_score":0.831,"id":"a6542jfnmvyg","geo_precision":"city","location":1,"state":"NC"},"type":"Feature","geometry":{"type":"Point","coordinates":[-81.703445,36.408734]}},{"properties":{"city":"Havelock","geo_score":0.857,"id":"a6542jndjdmy","geo_precision":"city","location":1,"state":"NC"},"type":"Feature","geometry":{"type":"Point","coordinates":[-77.053443,35.028677]}},{"properties":{"city":"Henderson","geo_score":0.857,"id":"a6542jckerhl","geo_precision":"city","location":1,"state":"NC"},"type":"Feature","geometry":{"type":"Point","coordinates":[-78.415777,36.325768]}},{"properties":{"city":"Hendersonville","geo_score":0.806,"id":"a6542jbh410d","geo_precision":"city","location":1,"state":"NC"},"type":"Feature","geometry":{"type":"Point","coordinates":[-78.415777,36.325768]}},{"properties":{"city":"Hickory","geo_score":0.857,"id":"a6542jirzyeo","geo_precision":"city","location":1,"state":"NC"},"type":"Feature","geometry":{"type":"Point","coordinates":[-81.308224,35.758221]}},{"properties":{"city":"HighPoint","geo_score":0.857,"id":"a6542jgevmk0","geo_precision":"city","location":1,"state":"NC"},"type":"Feature","geometry":{"type":"Point","coordinates":[-79.988711,35.993538]}},{"properties":{"city":"HighPoint","geo_score":0.857,"id":"a6542jf4ikse","geo_precision":"city","location":1,"state":"NC"},"type":"Feature","geometry":{"type":"Point","coordinates":[-79.988711,35.993538]}},{"properties":{"city":"Hillsborough","geo_score":0.857,"id":"a6542jheh58v","geo_precision":"city","location":1,"state":"NC"},"type":"Feature","geometry":{"type":"Point","coordinates":[-79.085469,36.077432]}},{"properties":{"city":"HollySprings","geo_score":0.857,"id":"a6542jjitgei","geo_precision":"city","location":1,"state":"NC"},"type":"Feature","geometry":{"type":"Point","coordinates":[-76.909386,34.799327]}},{"properties":{"city":"HopeMills","geo_score":0.857,"id":"a6542jiyephp","geo_precision":"city","location":1,"state":"NC"},"type":"Feature","geometry":{"type":"Point","coordinates":[-78.93292,34.921277]}},{"properties":{"city":"IndianTrail","geo_score":0.805,"id":"a6542jec8tg5","geo_precision":"city","location":1,"state":"NC"},"type":"Feature","geometry":{"type":"Point","coordinates":[-76.076317,36.334324]}},{"properties":{"city":"Jacksonville","geo_score":0.833,"id":"a6542jqjqxv7","geo_precision":"city","location":1,"state":"NC"},"type":"Feature","geometry":{"type":"Point","coordinates":[-80.150051,35.572639]}},{"properties":{"city":"Jacksonville","geo_score":0.833,"id":"a6542jci5hhm","geo_precision":"city","location":1,"state":"NC"},"type":"Feature","geometry":{"type":"Point","coordinates":[-80.150051,35.572639]}},{"properties":{"city":"Kannapolis","geo_score":0.857,"id":"a6542jop7g0x","geo_precision":"city","location":1,"state":"NC"},"type":"Feature","geometry":{"type":"Point","coordinates":[-80.672531,35.462981]}},{"properties":{"city":"Kernersville","geo_score":0.786,"id":"a6542jhykile","geo_precision":"city","location":1,"state":"NC"},"type":"Feature","geometry":{"type":"Point","coordinates":[-79.574196,35.404869]}},{"properties":{"city":"Kinston","geo_score":0.857,"id":"a6542jp3bavk","geo_precision":"city","location":1,"state":"NC"},"type":"Feature","geometry":{"type":"Point","coordinates":[-77.615508,35.220079]}},{"properties":{"city":"KittyHawk","geo_score":0.857,"id":"a6542jn9q6m2","geo_precision":"city","location":1,"state":"NC"},"type":"Feature","geometry":{"type":"Point","coordinates":[-75.696557,36.083688]}},{"properties":{"city":"Knightdale","geo_score":0.857,"id":"a6542jkz7pyq","geo_precision":"city","location":1,"state":"NC"},"type":"Feature","geometry":{"type":"Point","coordinates":[-78.459605,35.788031]}},{"properties":{"city":"Laurinburg","geo_score":0.857,"id":"a6542jelhz02","geo_precision":"city","location":1,"state":"NC"},"type":"Feature","geometry":{"type":"Point","coordinates":[-79.475606,34.796929]}},{"properties":{"city":"Leland","geo_score":0.857,"id":"a6542jhbh2sk","geo_precision":"city","location":1,"state":"NC"},"type":"Feature","geometry":{"type":"Point","coordinates":[-78.083622,34.245499]}},{"properties":{"city":"Lenoir","geo_score":0.857,"id":"a6542jgsf8au","geo_precision":"city","location":1,"state":"NC"},"type":"Feature","geometry":{"type":"Point","coordinates":[-81.539847,35.937564]}},{"properties":{"city":"Lexington","geo_score":0.857,"id":"a6542jgdi2ur","geo_precision":"city","location":1,"state":"NC"},"type":"Feature","geometry":{"type":"Point","coordinates":[-80.210762,35.801894]}},{"properties":{"city":"Lincolnton","geo_score":0.805,"id":"a6542jpl82hc","geo_precision":"city","location":1,"state":"NC"},"type":"Feature","geometry":{"type":"Point","coordinates":[-79.471982,35.086546]}},{"properties":{"city":"Locust","geo_score":0.857,"id":"a6542jo6neyr","geo_precision":"city","location":1,"state":"NC"},"type":"Feature","geometry":{"type":"Point","coordinates":[-80.424512,35.262131]}},{"properties":{"city":"Louisburg","geo_score":0.81,"id":"a6542jlte5bn","geo_precision":"city","location":1,"state":"NC"},"type":"Feature","geometry":{"type":"Point","coordinates":[-79.187938,36.364834]}},{"properties":{"city":"Marion","geo_score":0.857,"id":"a6542je0u8xo","geo_precision":"city","location":1,"state":"NC"},"type":"Feature","geometry":{"type":"Point","coordinates":[-82.034672,35.684187]}},{"properties":{"city":"Mayodan","geo_score":0.857,"id":"a6542jbzm3n8","geo_precision":"city","location":1,"state":"NC"},"type":"Feature","geometry":{"type":"Point","coordinates":[-79.930301,36.447936]}},{"properties":{"city":"Mebane","geo_score":0.857,"id":"a6542jo1ac79","geo_precision":"city","location":1,"state":"NC"},"type":"Feature","geometry":{"type":"Point","coordinates":[-79.306093,36.087114]}},{"properties":{"city":"Mocksville","geo_score":0.821,"id":"a6542jjf2sis","geo_precision":"city","location":1,"state":"NC"},"type":"Feature","geometry":{"type":"Point","coordinates":[-78.719176,35.627656]}},{"properties":{"city":"Monroe","geo_score":0.857,"id":"a6542jio37ng","geo_precision":"city","location":1,"state":"NC"},"type":"Feature","geometry":{"type":"Point","coordinates":[-80.527827,35.074176]}},{"properties":{"city":"Mooresville","geo_score":0.81,"id":"a6542jf5gkna","geo_precision":"city","location":1,"state":"NC"},"type":"Feature","geometry":{"type":"Point","coordinates":[-77.847484,34.295725]}},{"properties":{"city":"MoreheadCity","geo_score":0.857,"id":"a6542jbka09a","geo_precision":"city","location":1,"state":"NC"},"type":"Feature","geometry":{"type":"Point","coordinates":[-76.770987,34.727798]}},{"properties":{"city":"Morganton","geo_score":0.843,"id":"a6542jana4rn","geo_precision":"city","location":1,"state":"NC"},"type":"Feature","geometry":{"type":"Point","coordinates":[-79.42891,36.122081]}},{"properties":{"city":"Morrisville","geo_score":0.821,"id":"a6542jqjdz8f","geo_precision":"city","location":1,"state":"NC"},"type":"Feature","geometry":{"type":"Point","coordinates":[-77.847484,34.295725]}},{"properties":{"city":"MountAiry","geo_score":0.857,"id":"a6542jnyvu8w","geo_precision":"city","location":1,"state":"NC"},"type":"Feature","geometry":{"type":"Point","coordinates":[-80.665406,36.444303]}},{"properties":{"city":"MountOlive","geo_score":0.857,"id":"a6542ji7xv7i","geo_precision":"city","location":1,"state":"NC"},"type":"Feature","geometry":{"type":"Point","coordinates":[-80.336442,36.327916]}},{"properties":{"city":"Murphy","geo_score":0.857,"id":"a6542jmlnx85","geo_precision":"city","location":1,"state":"NC"},"type":"Feature","geometry":{"type":"Point","coordinates":[-84.038776,35.131159]}},{"properties":{"city":"Nashville","geo_score":0.857,"id":"a6542jctprc8","geo_precision":"city","location":1,"state":"NC"},"type":"Feature","geometry":{"type":"Point","coordinates":[-77.982782,36.02049]}},{"properties":{"city":"NewBern","geo_score":0.857,"id":"a6542jn7h1t5","geo_precision":"city","location":1,"state":"NC"},"type":"Feature","geometry":{"type":"Point","coordinates":[-77.178429,35.098109]}},{"properties":{"city":"Oxford","geo_score":0.857,"id":"a6542jmuduce","geo_precision":"city","location":1,"state":"NC"},"type":"Feature","geometry":{"type":"Point","coordinates":[-78.65313,36.348168]}},{"properties":{"city":"Pembroke","geo_score":0.857,"id":"a6542jp1vtq9","geo_precision":"city","location":1,"state":"NC"},"type":"Feature","geometry":{"type":"Point","coordinates":[-79.127951,34.716443]}},{"properties":{"city":"PisgahForest","geo_score":0.857,"id":"a6542jb8zalc","geo_precision":"city","location":1,"state":"NC"},"type":"Feature","geometry":{"type":"Point","coordinates":[-82.748346,35.231828]}},{"properties":{"city":"Raeford","geo_score":0.857,"id":"a6542je4g8uu","geo_precision":"city","location":1,"state":"NC"},"type":"Feature","geometry":{"type":"Point","coordinates":[-79.233178,34.953431]}},{"properties":{"city":"Raleigh","geo_score":0.857,"id":"a6542jip2yln","geo_precision":"city","location":1,"state":"NC"},"type":"Feature","geometry":{"type":"Point","coordinates":[-78.638615,35.772096]}},{"properties":{"city":"Raleigh","geo_score":0.857,"id":"a6542jqu75nq","geo_precision":"city","location":1,"state":"NC"},"type":"Feature","geometry":{"type":"Point","coordinates":[-78.638615,35.772096]}},{"properties":{"city":"Raleigh","geo_score":0.857,"id":"a6542jmwsp9a","geo_precision":"city","location":1,"state":"NC"},"type":"Feature","geometry":{"type":"Point","coordinates":[-78.638615,35.772096]}},{"properties":{"city":"Raleigh","geo_score":0.857,"id":"a6542jg0cedp","geo_precision":"city","location":1,"state":"NC"},"type":"Feature","geometry":{"type":"Point","coordinates":[-78.638615,35.772096]}},{"properties":{"city":"Raleigh","geo_score":0.857,"id":"a6542jnlmz3j","geo_precision":"city","location":1,"state":"NC"},"type":"Feature","geometry":{"type":"Point","coordinates":[-78.638615,35.772096]}},{"properties":{"city":"Raleigh","geo_score":0.857,"id":"a6542jlhslg7","geo_precision":"city","location":1,"state":"NC"},"type":"Feature","geometry":{"type":"Point","coordinates":[-78.638615,35.772096]}},{"properties":{"city":"Randleman","geo_score":0.857,"id":"a6542jqiy2az","geo_precision":"city","location":1,"state":"NC"},"type":"Feature","geometry":{"type":"Point","coordinates":[-79.712537,35.823611]}},{"properties":{"city":"Reidsville","geo_score":0.798,"id":"a6542je4hcr0","geo_precision":"city","location":1,"state":"NC"},"type":"Feature","geometry":{"type":"Point","coordinates":[-77.817205,34.220726]}},{"properties":{"city":"Roanoke Rapids","geo_score":0.857,"id":"a6542jkd45d3","geo_precision":"city","location":1,"state":"NC"},"type":"Feature","geometry":{"type":"Point","coordinates":[-77.641063,36.303962]}},{"properties":{"city":"Rockingham","geo_score":0.857,"id":"a6542jdc1tby","geo_precision":"city","location":1,"state":"NC"},"type":"Feature","geometry":{"type":"Point","coordinates":[-79.724173,34.974134]}},{"properties":{"city":"Rocky Mount","geo_score":0.729,"id":"a6542jcpv0og","geo_precision":"city","location":1,"state":"NC"},"type":"Feature","geometry":{"type":"Point","coordinates":[-75.681122,35.950867]}},{"properties":{"city":"Roxboro","geo_score":0.857,"id":"a6542jkeoosc","geo_precision":"city","location":1,"state":"NC"},"type":"Feature","geometry":{"type":"Point","coordinates":[-78.981095,36.390383]}},{"properties":{"city":"Salisbury","geo_score":0.857,"id":"a6542jn989sa","geo_precision":"city","location":1,"state":"NC"},"type":"Feature","geometry":{"type":"Point","coordinates":[-80.45316,35.680441]}},{"properties":{"city":"Sanford","geo_score":0.857,"id":"a6542jbgvcke","geo_precision":"city","location":1,"state":"NC"},"type":"Feature","geometry":{"type":"Point","coordinates":[-79.171723,35.469782]}},{"properties":{"city":"Shallotte","geo_score":0.857,"id":"a6542jce3ptp","geo_precision":"city","location":1,"state":"NC"},"type":"Feature","geometry":{"type":"Point","coordinates":[-78.382559,33.974101]}},{"properties":{"city":"Shelby","geo_score":0.857,"id":"a6542jel08m8","geo_precision":"city","location":1,"state":"NC"},"type":"Feature","geometry":{"type":"Point","coordinates":[-81.556777,35.312012]}},{"properties":{"city":"SilerCity","geo_score":0.857,"id":"a6542jgg7bkd","geo_precision":"city","location":1,"state":"NC"},"type":"Feature","geometry":{"type":"Point","coordinates":[-79.333922,35.711578]}},{"properties":{"city":"Smithfield","geo_score":0.814,"id":"a6542jcp11i3","geo_precision":"city","location":1,"state":"NC"},"type":"Feature","geometry":{"type":"Point","coordinates":[-80.870629,35.484303]}},{"properties":{"city":"Southport","geo_score":0.857,"id":"a6542jqsfu5v","geo_precision":"city","location":1,"state":"NC"},"type":"Feature","geometry":{"type":"Point","coordinates":[-78.238126,33.966293]}},{"properties":{"city":"SpringLake","geo_score":0.8,"id":"a6542jh0dqge","geo_precision":"city","location":1,"state":"NC"},"type":"Feature","geometry":{"type":"Point","coordinates":[-77.433304,36.2071]}},{"properties":{"city":"SprucePine","geo_score":0.857,"id":"a6542jbzj8bh","geo_precision":"city","location":1,"state":"NC"},"type":"Feature","geometry":{"type":"Point","coordinates":[-82.07647,35.91464]}},{"properties":{"city":"Statesville","geo_score":0.819,"id":"a6542jg4o0g1","geo_precision":"city","location":1,"state":"NC"},"type":"Feature","geometry":{"type":"Point","coordinates":[-80.930908,35.785413]}},{"properties":{"city":"Sylva","geo_score":0.8,"id":"a6542jkq5x24","geo_precision":"city","location":1,"state":"NC"},"type":"Feature","geometry":{"type":"Point","coordinates":[-75.469319,35.554569]}},{"properties":{"city":"Tarboro","geo_score":0.857,"id":"a6542jf6gdkx","geo_precision":"city","location":1,"state":"NC"},"type":"Feature","geometry":{"type":"Point","coordinates":[-77.581631,35.928437]}},{"properties":{"city":"Taylorsville","geo_score":0.821,"id":"a6542jc3m0ze","geo_precision":"city","location":1,"state":"NC"},"type":"Feature","geometry":{"type":"Point","coordinates":[-78.872247,34.761277]}},{"properties":{"city":"Thomasville","geo_score":0.857,"id":"a6542jlxabjr","geo_precision":"city","location":1,"state":"NC"},"type":"Feature","geometry":{"type":"Point","coordinates":[-80.124764,35.854539]}},{"properties":{"city":"Wadesboro","geo_score":0.857,"id":"a6542jn5ltv0","geo_precision":"city","location":1,"state":"NC"},"type":"Feature","geometry":{"type":"Point","coordinates":[-80.05003,34.924469]}},{"properties":{"city":"WakeForest","geo_score":0.857,"id":"a6542jkihfz8","geo_precision":"city","location":1,"state":"NC"},"type":"Feature","geometry":{"type":"Point","coordinates":[-78.586534,35.858041]}},{"properties":{"city":"Wallace","geo_score":0.857,"id":"a6542jifav0z","geo_precision":"city","location":1,"state":"NC"},"type":"Feature","geometry":{"type":"Point","coordinates":[-77.940027,34.76743]}},{"properties":{"city":"Washington","geo_score":0.816,"id":"a6542jbgbtz5","geo_precision":"city","location":1,"state":"NC"},"type":"Feature","geometry":{"type":"Point","coordinates":[-77.032451,35.532663]}},{"properties":{"city":"Weaverville","geo_score":0.857,"id":"a6542jdfdrzo","geo_precision":"city","location":1,"state":"NC"},"type":"Feature","geometry":{"type":"Point","coordinates":[-82.588915,35.702704]}},{"properties":{"city":"West Jefferson","geo_score":0.769,"id":"a6542jhmtcqt","geo_precision":"city","location":1,"state":"NC"},"type":"Feature","geometry":{"type":"Point","coordinates":[-79.785058,34.917932]}},{"properties":{"city":"Whiteville","geo_score":0.8,"id":"a6542jp2os02","geo_precision":"city","location":1,"state":"NC"},"type":"Feature","geometry":{"type":"Point","coordinates":[-80.479782,36.501803]}},{"properties":{"city":"Williamston","geo_score":0.857,"id":"a6542jhk6wv1","geo_precision":"city","location":1,"state":"NC"},"type":"Feature","geometry":{"type":"Point","coordinates":[-77.102193,35.821205]}},{"properties":{"city":"Wilmington","geo_score":0.857,"id":"a6542jk5lnk3","geo_precision":"city","location":1,"state":"NC"},"type":"Feature","geometry":{"type":"Point","coordinates":[-77.94471,34.225726]}},{"properties":{"city":"Wilmington","geo_score":0.857,"id":"a6542jbi8e59","geo_precision":"city","location":1,"state":"NC"},"type":"Feature","geometry":{"type":"Point","coordinates":[-77.94471,34.225726]}},{"properties":{"city":"Wilson","geo_score":0.857,"id":"a6542jajhgay","geo_precision":"city","location":1,"state":"NC"},"type":"Feature","geometry":{"type":"Point","coordinates":[-77.925269,35.723264]}},{"properties":{"city":"Winston Salem","geo_score":0.857,"id":"a6542jhl6chy","geo_precision":"city","location":1,"state":"NC"},"type":"Feature","geometry":{"type":"Point","coordinates":[-80.244216,36.09986]}},{"properties":{"city":"Winston Salem","geo_score":0.857,"id":"a6542je5rnlx","geo_precision":"city","location":1,"state":"NC"},"type":"Feature","geometry":{"type":"Point","coordinates":[-80.244216,36.09986]}},{"properties":{"city":"Winston Salem","geo_score":0.857,"id":"a6542jbkkhxe","geo_precision":"city","location":1,"state":"NC"},"type":"Feature","geometry":{"type":"Point","coordinates":[-80.244216,36.09986]}},{"properties":{"city":"Zebulon","geo_score":0.857,"id":"a6542jdyrjqq","geo_precision":"city","location":1,"state":"NC"},"type":"Feature","geometry":{"type":"Point","coordinates":[-78.355582,35.87922]}},{"properties":{"city":"Fayetteville","geo_score":0.857,"id":"a6542jm0g2oo","geo_precision":"city","location":1,"state":"NC"},"type":"Feature","geometry":{"type":"Point","coordinates":[-78.878359,35.052664]}},{"properties":{"city":"Lumberton","geo_score":0.81,"id":"a6542jejzcby","geo_precision":"city","location":1,"state":"NC"},"type":"Feature","geometry":{"type":"Point","coordinates":[-80.359507,35.313476]}},{"properties":{"city":"Wilkesboro","geo_score":0.857,"id":"a6542jgwr3xy","geo_precision":"city","location":1,"state":"NC"},"type":"Feature","geometry":{"type":"Point","coordinates":[-81.129235,36.211148]}}],"is_temporal":false,"author":{"url":"","metadata":"","contact_name":"","contact_address":"","source":"Stores Walmart Allstays","contact_phone":""},"source":"","pagination":{"sort":null,"start":0,"total":140,"limit":1000000},"state":"complete","tags":"","published":"2011-07-01T16:00:00Z","id":188924}