{"type":"FeatureCollection","data_type":"Dataset","url_type":null,"permissions":[{"permissions":{"download":true,"view":true},"group_id":"everyone"}],"classification":null,"title":"All Brazil Depot Coordinates 30-05-11","count":10,"stream_id":191797,"contributor":{"url":"http://geocommons.com/users/37355","name":"lauro.vanzelli"},"data_attributes":null,"calculation_params":null,"icon_link":null,"link":"http://geocommons.com/overlays/191797.json","extent":[-53.4536,-26.4844,-37.0748,-9.31772],"geometry_types":["point"],"unique_name":null,"name":"All Brazil Depot Coordinates 30-05-11","feature_count":10,"description":"","next_feature":null,"is_raster":false,"short_classification":"Y","stats":{"volumes exp":{"max":10,"mean":5.5,"variance":9.16666666666667,"stdev":3.02765035409749,"min":1,"median":6},"latitude":{"max":-9.31772,"mean":-16.1225087,"variance":32.8575980206962,"stdev":5.73215474500613,"min":-26.48439,"median":-14.86476},"longitude":{"max":-37.074791,"mean":-45.7423041,"variance":26.9328707959357,"stdev":5.18968889201806,"min":-53.453621,"median":-47.928661}},"features":[{"properties":{"city":"ANAPOLIS","depot 3":"APS","volumes exp":1,"latitude":-16.328659,"country":"Brazil","complete":"ANAPOLIS, GO, Brazil","longitude":-48.95293,"id":"0","state":"GO","depot 2":"AN"},"type":"Feature","geometry":{"type":"Point","coordinates":[-48.95293,-16.328659]}},{"properties":{"city":"BRASILIA","depot 3":"BSB","volumes exp":2,"latitude":-15.77846,"country":"Brazil","complete":"BRASILIA, DF, Brazil","longitude":-47.928661,"id":"1","state":"DF","depot 2":"BR"},"type":"Feature","geometry":{"type":"Point","coordinates":[-47.928661,-15.77846]}},{"properties":{"city":"GOIANIA","depot 3":"GYN","volumes exp":3,"latitude":-9.31772,"country":"Brazil","complete":"GOIANIA, TO, Brazil","longitude":-48.218639,"id":"2","state":"TO","depot 2":"GN"},"type":"Feature","geometry":{"type":"Point","coordinates":[-48.218639,-9.31772]}},{"properties":{"city":"CATALAO","depot 3":"TLZ","volumes exp":4,"latitude":-18.174419,"country":"Brazil","complete":"CATALAO, GO, Brazil","longitude":-47.941799,"id":"3","state":"GO","depot 2":"TZ"},"type":"Feature","geometry":{"type":"Point","coordinates":[-47.941799,-18.174419]}},{"properties":{"city":"FEIRA DE SANTANA","depot 3":"FSA","volumes exp":5,"latitude":-12.25537,"country":"Brazil","complete":"FEIRA DE SANTANA, BA, Brazil","longitude":-38.955711,"id":"4","state":"BA","depot 2":"FE"},"type":"Feature","geometry":{"type":"Point","coordinates":[-38.955711,-12.25537]}},{"properties":{"city":"ARACAJU","depot 3":"AJX","volumes exp":6,"latitude":-10.90957,"country":"Brazil","complete":"ARACAJU, SE, Brazil","longitude":-37.074791,"id":"5","state":"SE","depot 2":"AU"},"type":"Feature","geometry":{"type":"Point","coordinates":[-37.074791,-10.90957]}},{"properties":{"city":"CASCAVEL","depot 3":"CAC","volumes exp":7,"latitude":-24.963659,"country":"Brazil","complete":"CASCAVEL, PR, Brazil","longitude":-53.453621,"id":"6","state":"PR","depot 2":"CV"},"type":"Feature","geometry":{"type":"Point","coordinates":[-53.453621,-24.963659]}},{"properties":{"city":"VITORIA DA CONQUISTA","depot 3":"VDC","volumes exp":8,"latitude":-14.86476,"country":"Brazil","complete":"VITORIA DA CONQUISTA, BA, Brazil","longitude":-40.836571,"id":"7","state":"BA","depot 2":"VQ"},"type":"Feature","geometry":{"type":"Point","coordinates":[-40.836571,-14.86476]}},{"properties":{"city":"BARREIRAS","depot 3":"BRA","volumes exp":9,"latitude":-12.14808,"country":"Brazil","complete":"BARREIRAS, BA, Brazil","longitude":-44.992249,"id":"8","state":"BA","depot 2":"BS"},"type":"Feature","geometry":{"type":"Point","coordinates":[-44.992249,-12.14808]}},{"properties":{"city":"JARAGUA DO SUL","depot 3":"JGS","volumes exp":10,"latitude":-26.48439,"country":"Brazil","complete":"JARAGUA DO SUL, SC, Brazil","longitude":-49.068069,"id":"9","state":"SC","depot 2":"JR"},"type":"Feature","geometry":{"type":"Point","coordinates":[-49.068069,-26.48439]}}],"is_temporal":false,"author":{"url":"","metadata":"","contact_name":"","contact_address":"","source":"","contact_phone":""},"source":"","pagination":{"sort":null,"start":0,"total":10,"limit":1000000},"state":"complete","tags":"","published":"2014-08-12T23:23:34-04:00","id":191797}