{"type":"FeatureCollection","data_type":"Dataset","url_type":null,"permissions":[{"permissions":{"download":true,"view":true},"group_id":"everyone"}],"classification":null,"title":"Sutton Mobile Library","count":40,"stream_id":19202,"contributor":{"url":"http://geocommons.com/users/10187","name":"adrianshort"},"data_attributes":null,"calculation_params":null,"icon_link":null,"link":"http://geocommons.com/overlays/19202.json","extent":[-0.229134,51.3252,-0.131579,51.3886],"geometry_types":["point"],"unique_name":null,"name":"Sutton Mobile Library","feature_count":40,"description":"","next_feature":null,"is_raster":false,"short_classification":"Y","stats":{"lat":{"max":null,"min":null,"median":null},"long":{"max":null,"min":null,"median":null}},"features":[{"properties":{"arrive":"11:15 AM","day":"Friday","town":"Sutton","street":"Westmead Road/Browning Avenue","id":"a6becl8l68cy","lat":"51.366274","depart":"11:40 AM","long":"-0.177726"},"type":"Feature","geometry":{"type":"Point","coordinates":[-0.177726,51.366274]}},{"properties":{"arrive":"5:15 PM","day":"Friday","town":"Belmont","street":"Shanklin Village","id":"a6becl9dsx95","lat":"51.347603","depart":"5:45 PM","long":"-0.19626"},"type":"Feature","geometry":{"type":"Point","coordinates":[-0.19626,51.347603]}},{"properties":{"arrive":"12:35 PM","day":"Friday","town":"Sutton","street":"Barrington Road/Hepworth Court","id":"a6beclcw5ckk","lat":"51.379768","depart":"1:00 PM","long":"-0.204249"},"type":"Feature","geometry":{"type":"Point","coordinates":[-0.204249,51.379768]}},{"properties":{"arrive":"3:25 PM","day":"Friday","town":"Belmont","street":"Queens Road/Patricia Gardens","id":"a6becl1u115w","lat":"51.340954","depart":"3:55 PM","long":"-0.202053"},"type":"Feature","geometry":{"type":"Point","coordinates":[-0.202053,51.340954]}},{"properties":{"arrive":"5:50 PM","day":"Friday","town":"Belmont","street":"Homeland Drive/Autumn Drive","id":"a6becl8eerb7","lat":"51.348171","depart":"6:20 PM","long":"-0.198489"},"type":"Feature","geometry":{"type":"Point","coordinates":[-0.198489,51.348171]}},{"properties":{"arrive":"2:25 PM","day":"Friday","town":"Sutton","street":"Dorset Road","id":"a6becl8vfefy","lat":"51.347637","depart":"3:15 PM","long":"-0.202959"},"type":"Feature","geometry":{"type":"Point","coordinates":[-0.202959,51.347637]}},{"properties":{"arrive":"10:00 AM","day":"Friday","town":"Sutton","street":"Woodstock Public House Car Park, Stonecot Hill","id":"a6becl5ce4yx","lat":"51.38556","depart":"10:30 AM","long":"-0.211263"},"type":"Feature","geometry":{"type":"Point","coordinates":[-0.211263,51.38556]}},{"properties":{"arrive":"10:40 AM","day":"Friday","town":"Sutton","street":"All Saints Road","id":"a6becl2tzxgq","lat":"51.372994","depart":"11:05 AM","long":"-0.190075"},"type":"Feature","geometry":{"type":"Point","coordinates":[-0.190075,51.372994]}},{"properties":{"arrive":"6:30 PM","day":"Friday","town":"Carshalton","street":"Crichton Road","id":"a6becl0fmvfd","lat":"51.35626","depart":"7:00 PM","long":"-0.169305"},"type":"Feature","geometry":{"type":"Point","coordinates":[-0.169305,51.35626]}},{"properties":{"arrive":"5:40 PM","day":"Monday","town":"Rosehill","street":"Green Lane","id":"a6becla6dk4u","lat":"51.38865","depart":"6:10 PM","long":"-0.195494"},"type":"Feature","geometry":{"type":"Point","coordinates":[-0.195494,51.38865]}},{"properties":{"arrive":"4:20 PM","day":"Monday","town":"Mitcham","street":"Budge Lane","id":"a6beckz5bm89","lat":"51.385353","depart":"4:50 PM","long":"-0.165904"},"type":"Feature","geometry":{"type":"Point","coordinates":[-0.165904,51.385353]}},{"properties":{"arrive":"3:40 PM","day":"Monday","town":"Mitcham","street":"Orchard Avenue","id":"a6becld27qqu","lat":"51.38218","depart":"4:10 PM","long":"-0.15916"},"type":"Feature","geometry":{"type":"Point","coordinates":[-0.15916,51.38218]}},{"properties":{"arrive":"2:55 PM","day":"Monday","town":"Hackbridge","street":"Elm Road","id":"a6becl5tchg8","lat":"51.380191","depart":"3:35 PM","long":"-0.156768"},"type":"Feature","geometry":{"type":"Point","coordinates":[-0.156768,51.380191]}},{"properties":{"arrive":"10:00 AM","day":"Monday","town":"Carshalton","street":"Pine Walk/West Way","id":"a6becl7o1hj7","lat":"51.347095","depart":"10:25 AM","long":"-0.180055"},"type":"Feature","geometry":{"type":"Point","coordinates":[-0.180055,51.347095]}},{"properties":{"arrive":"11:50 AM","day":"Monday","town":"Belmont","street":"Pelton Avenue","id":"a6beclbsz23a","lat":"51.344339","depart":"12:20 PM","long":"-0.196215"},"type":"Feature","geometry":{"type":"Point","coordinates":[-0.196215,51.344339]}},{"properties":{"arrive":"11:10 AM","day":"Monday","town":"Carshalton","street":"Banstead Road","id":"a6becl9631di","lat":"51.326629","depart":"11:40 AM","long":"-0.169876"},"type":"Feature","geometry":{"type":"Point","coordinates":[-0.169876,51.326629]}},{"properties":{"arrive":"10:30 AM","day":"Monday","town":"Carshalton","street":"Pine Walk/Banstead Road South","id":"a6becl1qlfmo","lat":"51.348921","depart":"11:00 AM","long":"-0.180253"},"type":"Feature","geometry":{"type":"Point","coordinates":[-0.180253,51.348921]}},{"properties":{"arrive":"6:15 PM","day":"Monday","town":"Morden","street":"Glastonbury Road","id":"a6becl8l8p1u","lat":"51.385386","depart":"7:00 PM","long":"-0.199648"},"type":"Feature","geometry":{"type":"Point","coordinates":[-0.199648,51.385386]}},{"properties":{"arrive":"12:30 PM","day":"Monday","town":"Carshalton","street":"Kenny Drive, Queen Mary Estate","id":"a6becl5rxs17","lat":"51.365175","depart":"1:00 PM","long":"-0.163526"},"type":"Feature","geometry":{"type":"Point","coordinates":[-0.163526,51.365175]}},{"properties":{"arrive":"9:00 AM","day":"Saturday","town":"North Cheam","street":"Sainsbury's Car Park","id":"a6becl6ipydm","lat":"51.372235","depart":"9:40 AM","long":"-0.2239"},"type":"Feature","geometry":{"type":"Point","coordinates":[-0.2239,51.372235]}},{"properties":{"arrive":"4:30 PM","day":"Saturday","town":"Carshalton","street":"Cambridge Road","id":"a6becl58dv10","lat":"51.361741","depart":"5:00 PM","long":"-0.171873"},"type":"Feature","geometry":{"type":"Point","coordinates":[-0.171873,51.361741]}},{"properties":{"arrive":"10:40 AM","day":"Saturday","town":"Worcester Park","street":"Farm Way","id":"a6becl74z00r","lat":"51.374293","depart":"11:10 AM","long":"-0.229134"},"type":"Feature","geometry":{"type":"Point","coordinates":[-0.229134,51.374293]}},{"properties":{"arrive":"12:10 PM","day":"Saturday","town":"Carshalton","street":"Courtney Crescent","id":"a6becl29ce0m","lat":"51.351526","depart":"12:40 PM","long":"-0.166794"},"type":"Feature","geometry":{"type":"Point","coordinates":[-0.166794,51.351526]}},{"properties":{"arrive":"1:55 PM","day":"Saturday","town":"Carshalton","street":"Anglesey Gardens","id":"a6beclbu08y3","lat":"51.355712","depart":"2:25 PM","long":"-0.160738"},"type":"Feature","geometry":{"type":"Point","coordinates":[-0.160738,51.355712]}},{"properties":{"arrive":"2:50 PM","day":"Saturday","town":"Clockhouse","street":"The Mount","id":"a6beckxpljey","lat":"51.325158","depart":"4:10 PM","long":"-0.156392"},"type":"Feature","geometry":{"type":"Point","coordinates":[-0.156392,51.325158]}},{"properties":{"arrive":"11:30 AM","day":"Saturday","town":"Carshalton","street":"Fountain Drive, Queen Mary Estate","id":"a6becl6g63ws","lat":"51.349356","depart":"12:05 PM","long":"-0.165991"},"type":"Feature","geometry":{"type":"Point","coordinates":[-0.165991,51.349356]}},{"properties":{"arrive":"9:50 AM","day":"Saturday","town":"North Cheam","street":"Church Hill Road, Priory Avenue","id":"a6becl2sqb0x","lat":"51.368172","depart":"10:30 AM","long":"-0.220492"},"type":"Feature","geometry":{"type":"Point","coordinates":[-0.220492,51.368172]}},{"properties":{"arrive":"5:10 PM","day":"Tuesday","town":"Wallington","street":"Bute Road/St Mary's Court","id":"a6beckxidt0k","lat":"51.359906","depart":"5:40 PM","long":"-0.149887"},"type":"Feature","geometry":{"type":"Point","coordinates":[-0.149887,51.359906]}},{"properties":{"arrive":"10:00 AM","day":"Tuesday","town":"Sutton","street":"Elmbrook Road","id":"a6beclchalyv","lat":"51.367995","depart":"10:45 AM","long":"-0.20767"},"type":"Feature","geometry":{"type":"Point","coordinates":[-0.20767,51.367995]}},{"properties":{"arrive":"12:10 PM","day":"Tuesday","town":"North Cheam","street":"Sainsbury's Car Park","id":"a6becl447tq7","lat":"51.372235","depart":"12:40 PM","long":"-0.2239"},"type":"Feature","geometry":{"type":"Point","coordinates":[-0.2239,51.372235]}},{"properties":{"arrive":"2:00 PM","day":"Tuesday","town":"North Cheam","street":"Windsor Avenue","id":"a6beclcsho7j","lat":"51.371004","depart":"2:40 PM","long":"-0.213945"},"type":"Feature","geometry":{"type":"Point","coordinates":[-0.213945,51.371004]}},{"properties":{"arrive":"6:30 PM","day":"Tuesday","town":"Beddington","street":"The Meads","id":"a6becl9q4rmx","lat":"51.371594","depart":"7:00 PM","long":"-0.131579"},"type":"Feature","geometry":{"type":"Point","coordinates":[-0.131579,51.371594]}},{"properties":{"arrive":"5:50 PM","day":"Tuesday","town":"Beddington","street":"Crispin Crescent","id":"a6becl8m38nu","lat":"51.374208","depart":"6:20 PM","long":"-0.133904"},"type":"Feature","geometry":{"type":"Point","coordinates":[-0.133904,51.374208]}},{"properties":{"arrive":"4:00 PM","day":"Tuesday","town":"Wallington","street":"Leechcroft Road","id":"a6beckyav1mb","lat":"51.369762","depart":"4:30 PM","long":"-0.156354"},"type":"Feature","geometry":{"type":"Point","coordinates":[-0.156354,51.369762]}},{"properties":{"arrive":"2:50 PM","day":"Tuesday","town":"North Cheam","street":"Kingston Avenue","id":"a6becl6ck0pd","lat":"51.373349","depart":"3:40 PM","long":"-0.213768"},"type":"Feature","geometry":{"type":"Point","coordinates":[-0.213768,51.373349]}},{"properties":{"arrive":"6:00 PM","day":"Wednesday","town":"Carshalton","street":"Culvers Avenue","id":"a6becl7g4a27","lat":"51.37912","depart":"7:00 PM","long":"-0.163579"},"type":"Feature","geometry":{"type":"Point","coordinates":[-0.163579,51.37912]}},{"properties":{"arrive":"12:15 PM","day":"Wednesday","town":"Clockhouse","street":"The Mount","id":"a6becky08gkg","lat":"51.325158","depart":"12:45 PM","long":"-0.156392"},"type":"Feature","geometry":{"type":"Point","coordinates":[-0.156392,51.325158]}},{"properties":{"arrive":"2:25 PM","day":"Wednesday","town":"Sutton","street":"Cavendish Road","id":"a6becl5gk3se","lat":"51.356275","depart":"2:55 PM","long":"-0.189981"},"type":"Feature","geometry":{"type":"Point","coordinates":[-0.189981,51.356275]}},{"properties":{"arrive":"4:35 PM","day":"Wednesday","town":"Carshalton","street":"Erskine Road","id":"a6beckzbnjx8","lat":"51.370578","depart":"5:15 PM","long":"-0.177484"},"type":"Feature","geometry":{"type":"Point","coordinates":[-0.177484,51.370578]}},{"properties":{"arrive":"3:15 PM","day":"Wednesday","town":"Carshalton","street":"Muschamp Road","id":"a6becl4e69r8","lat":"51.37647","depart":"3:50 PM","long":"-0.173543"},"type":"Feature","geometry":{"type":"Point","coordinates":[-0.173543,51.37647]}}],"is_temporal":true,"author":{"url":"","metadata":"","contact_name":"","contact_address":"","source":"","contact_phone":""},"source":"","pagination":{"sort":null,"start":0,"total":40,"limit":1000000},"state":"complete","tags":"sutton","published":"2014-08-11T01:03:49-04:00","id":19202}