{"type":"FeatureCollection","data_type":"Dataset","url_type":null,"permissions":[{"permissions":{"download":true,"view":true},"group_id":"everyone"}],"classification":null,"title":"geotest2","count":107,"stream_id":192129,"contributor":{"url":"http://geocommons.com/users/37914","name":"maxim1975"},"data_attributes":null,"calculation_params":null,"icon_link":null,"link":"http://geocommons.com/overlays/192129.json","extent":[103.691,1.27198,103.966,1.44831],"geometry_types":["point"],"unique_name":null,"name":"geotest2","feature_count":107,"description":"","next_feature":null,"is_raster":false,"short_classification":"Y","stats":{"hits":{"max":98,"mean":11.4953271028037,"variance":313.23346852407,"stdev":17.6984029936057,"min":0,"median":3},"lat":{"max":1.448309994,"mean":1.3410556702243,"variance":0.00186587917759,"stdev":0.0431958236128216,"min":1.271984852,"median":1.336917904},"long":{"max":103.965628,"mean":103.847032778505,"variance":0.0037121786507522,"stdev":0.0609276509538338,"min":103.6913181,"median":103.843178}},"features":[{"properties":{"hits":2,"type":"T","id":"a6elc7idoaib","lat":1.337442106,"address":"B16:NFC1: BEDOK RESERVOIR ROAD","long":103.9225707},"type":"Feature","geometry":{"type":"Point","coordinates":[103.9225707,1.337442106]}},{"properties":{"hits":1,"type":"T","id":"a6elc7k24dpp","lat":1.331671082,"address":"B12:NFC2: BEDOK ROAD","long":103.947457},"type":"Feature","geometry":{"type":"Point","coordinates":[103.947457,1.331671082]}},{"properties":{"hits":1,"type":"T","id":"a6elc7ewzt0o","lat":1.29499435,"address":"B05:NFC2: KIM SENG ROAD","long":103.8320826},"type":"Feature","geometry":{"type":"Point","coordinates":[103.8320826,1.29499435]}},{"properties":{"hits":1,"type":"T","id":"a6elc7fwcppx","lat":1.341099972,"address":"TS:NFC1: LORONG 1 TOA PAYOH","long":103.8465172},"type":"Feature","geometry":{"type":"Point","coordinates":[103.8465172,1.341099972]}},{"properties":{"hits":2,"type":"T","id":"a6elc7p347bq","lat":1.30370748,"address":"B21:NFC2: MOUNTBATTEN ROAD","long":103.9013591},"type":"Feature","geometry":{"type":"Point","coordinates":[103.9013591,1.30370748]}},{"properties":{"hits":1,"type":"T","id":"a6elc7lq6luz","lat":1.311074921,"address":"TS:NFC2: SERANGOON ROAD","long":103.8549818},"type":"Feature","geometry":{"type":"Point","coordinates":[103.8549818,1.311074921]}},{"properties":{"hits":1,"type":"T","id":"a6elc7pjjbys","lat":1.281071367,"address":"B07:NFC2: SOUTH BRIDGE ROAD","long":103.8446797},"type":"Feature","geometry":{"type":"Point","coordinates":[103.8446797,1.281071367]}},{"properties":{"hits":2,"type":"T","id":"a6elc7ebw06o","lat":1.307247745,"address":"B04:NFC1: TANJONG KATONG ROAD","long":103.8954363},"type":"Feature","geometry":{"type":"Point","coordinates":[103.8954363,1.307247745]}},{"properties":{"hits":26,"type":"Q","id":"a6elc7g99e1f","lat":1.325465476,"address":"B06:NFC2: ADAM ROAD","long":103.8139363},"type":"Feature","geometry":{"type":"Point","coordinates":[103.8139363,1.325465476]}},{"properties":{"hits":0,"type":"Q","id":"a6elc7mnxaqd","lat":1.323282276,"address":"B21:NFC2: AYER RAJAH EXPRESSWAY","long":103.7479088},"type":"Feature","geometry":{"type":"Point","coordinates":[103.7479088,1.323282276]}},{"properties":{"hits":11,"type":"Q","id":"a6elc7l8gh6d","lat":1.333320394,"address":"B01:NFC1: BEDOK NORTH AVENUE 4","long":103.9391244},"type":"Feature","geometry":{"type":"Point","coordinates":[103.9391244,1.333320394]}},{"properties":{"hits":8,"type":"Q","id":"a6elc7qh1a67","lat":1.337442106,"address":"B16:NFC1: BEDOK RESERVOIR ROAD","long":103.9225707},"type":"Feature","geometry":{"type":"Point","coordinates":[103.9225707,1.337442106]}},{"properties":{"hits":24,"type":"Q","id":"a6elc7b8nnv4","lat":1.333194003,"address":"B31:NFC1: BEDOK RESERVOIR ROAD","long":103.9160228},"type":"Feature","geometry":{"type":"Point","coordinates":[103.9160228,1.333194003]}},{"properties":{"hits":72,"type":"Q","id":"a6elc7idgsf9","lat":1.331671082,"address":"B12:NFC2: BEDOK ROAD","long":103.947457},"type":"Feature","geometry":{"type":"Point","coordinates":[103.947457,1.331671082]}},{"properties":{"hits":7,"type":"Q","id":"a6elc7fb59ve","lat":1.351012675,"address":"B03:NFC1: BISHAN ROAD","long":103.8476574},"type":"Feature","geometry":{"type":"Point","coordinates":[103.8476574,1.351012675]}},{"properties":{"hits":0,"type":"Q","id":"a6elc7muz2py","lat":1.348244646,"address":"B04:NFC1: BISHAN STREET 11","long":103.84932},"type":"Feature","geometry":{"type":"Point","coordinates":[103.84932,1.348244646]}},{"properties":{"hits":0,"type":"Q","id":"a6elc7fp8csk","lat":1.341330687,"address":"B27:NFC2: BOON LAY WAY","long":103.7119611},"type":"Feature","geometry":{"type":"Point","coordinates":[103.7119611,1.341330687]}},{"properties":{"hits":8,"type":"Q","id":"a6elc7bi0e1e","lat":1.359904322,"address":"B06:NFC1: BUKIT BATOK WEST AVENUE 2","long":103.7461923},"type":"Feature","geometry":{"type":"Point","coordinates":[103.7461923,1.359904322]}},{"properties":{"hits":14,"type":"Q","id":"a6elc7km3ezs","lat":1.347137035,"address":"B04:NFC2: BUKIT BATOK WEST AVENUE 6","long":103.7452434},"type":"Feature","geometry":{"type":"Point","coordinates":[103.7452434,1.347137035]}},{"properties":{"hits":1,"type":"Q","id":"a6elc7izfkxt","lat":1.282871888,"address":"TS:NFC2: BUKIT MERAH CENTRAL","long":103.8169332},"type":"Feature","geometry":{"type":"Point","coordinates":[103.8169332,1.282871888]}},{"properties":{"hits":6,"type":"Q","id":"a6elc7igbogb","lat":1.384931634,"address":"B09:NFC2: BUKIT PANJANG RING ROAD","long":103.7628816},"type":"Feature","geometry":{"type":"Point","coordinates":[103.7628816,1.384931634]}},{"properties":{"hits":0,"type":"Q","id":"a6elc7idfgkn","lat":1.312169682,"address":"B07:NFC2: BUKIT TIMAH ROAD","long":103.840102},"type":"Feature","geometry":{"type":"Point","coordinates":[103.840102,1.312169682]}},{"properties":{"hits":0,"type":"Q","id":"a6elc7aiwfjf","lat":1.321038476,"address":"B19:NFC1: BUKIT TIMAH ROAD","long":103.8234945},"type":"Feature","geometry":{"type":"Point","coordinates":[103.8234945,1.321038476]}},{"properties":{"hits":9,"type":"Q","id":"a6elc7bdx3j5","lat":1.336917904,"address":"B45:NFC1: BUKIT TIMAH ROAD","long":103.7803978},"type":"Feature","geometry":{"type":"Point","coordinates":[103.7803978,1.336917904]}},{"properties":{"hits":0,"type":"Q","id":"a6elc7ncmtxm","lat":1.303272874,"address":"TS:NFC2: CAIRNHILL ROAD","long":103.8376855},"type":"Feature","geometry":{"type":"Point","coordinates":[103.8376855,1.303272874]}},{"properties":{"hits":25,"type":"Q","id":"a6elc7gc00mn","lat":1.448233494,"address":"B03:NFC2: CANBERRA ROAD","long":103.822049},"type":"Feature","geometry":{"type":"Point","coordinates":[103.822049,1.448233494]}},{"properties":{"hits":11,"type":"Q","id":"a6elc7q5mca9","lat":1.378139634,"address":"B03:NFC2: CHOA CHU KANG AVENUE 2","long":103.7411964},"type":"Feature","geometry":{"type":"Point","coordinates":[103.7411964,1.378139634]}},{"properties":{"hits":1,"type":"Q","id":"a6elc7hxlv7g","lat":1.399006039,"address":"B02:NFC1: CHOA CHU KANG STREET 62","long":103.746152},"type":"Feature","geometry":{"type":"Point","coordinates":[103.746152,1.399006039]}},{"properties":{"hits":18,"type":"Q","id":"a6elc7gzweb5","lat":1.291713541,"address":"B01:NFC1: DELTA ROAD","long":103.8261831},"type":"Feature","geometry":{"type":"Point","coordinates":[103.8261831,1.291713541]}},{"properties":{"hits":3,"type":"Q","id":"a6elc7kjucqs","lat":1.31816062,"address":"B06:NFC2: DUNEARN ROAD","long":103.8347575},"type":"Feature","geometry":{"type":"Point","coordinates":[103.8347575,1.31816062]}},{"properties":{"hits":54,"type":"Q","id":"a6elc7pp6z90","lat":1.304506032,"address":"B02:NFC1: EAST COAST ROAD","long":103.9028147},"type":"Feature","geometry":{"type":"Point","coordinates":[103.9028147,1.304506032]}},{"properties":{"hits":0,"type":"Q","id":"a6elc7ox1ywg","lat":1.378187917,"address":"B03:NFC2: ELIAS ROAD","long":103.9413339},"type":"Feature","geometry":{"type":"Point","coordinates":[103.9413339,1.378187917]}},{"properties":{"hits":0,"type":"Q","id":"a6elc7e7eq62","lat":1.378761803,"address":"B01:NFC2: GANGSA ROAD","long":103.7669655},"type":"Feature","geometry":{"type":"Point","coordinates":[103.7669655,1.378761803]}},{"properties":{"hits":0,"type":"Q","id":"a6elc7icb3mq","lat":1.288818786,"address":"B07:NFC2: HAVELOCK ROAD","long":103.830303},"type":"Feature","geometry":{"type":"Point","coordinates":[103.830303,1.288818786]}},{"properties":{"hits":16,"type":"Q","id":"a6elc7ibefnb","lat":1.310197093,"address":"TS:NFC1: HOLLAND AVENUE","long":103.7955918},"type":"Feature","geometry":{"type":"Point","coordinates":[103.7955918,1.310197093]}},{"properties":{"hits":0,"type":"Q","id":"a6elc7qc86uj","lat":1.310135852,"address":"B07:NFC2: HOLLAND ROAD","long":103.8052574},"type":"Feature","geometry":{"type":"Point","coordinates":[103.8052574,1.310135852]}},{"properties":{"hits":4,"type":"Q","id":"a6elc7dqwjp4","lat":1.317922393,"address":"B17:NFC2: HOLLAND ROAD","long":103.7859461},"type":"Feature","geometry":{"type":"Point","coordinates":[103.7859461,1.317922393]}},{"properties":{"hits":2,"type":"Q","id":"a6elc7e6j0jj","lat":1.353943151,"address":"B02:NFC2: HOUGANG AVENUE 1","long":103.8896401},"type":"Feature","geometry":{"type":"Point","coordinates":[103.8896401,1.353943151]}},{"properties":{"hits":3,"type":"Q","id":"a6elc7bodcu6","lat":1.368413505,"address":"B04:NFC2: HOUGANG AVENUE 2","long":103.8849727},"type":"Feature","geometry":{"type":"Point","coordinates":[103.8849727,1.368413505]}},{"properties":{"hits":0,"type":"Q","id":"a6elc7mh00j8","lat":1.364241512,"address":"B17:NFC1: HOUGANG AVENUE 3","long":103.8920924},"type":"Feature","geometry":{"type":"Point","coordinates":[103.8920924,1.364241512]}},{"properties":{"hits":7,"type":"Q","id":"a6elc7d34139","lat":1.375144489,"address":"B06:NFC1: HOUGANG AVENUE 9","long":103.8791159},"type":"Feature","geometry":{"type":"Point","coordinates":[103.8791159,1.375144489]}},{"properties":{"hits":0,"type":"Q","id":"a6elc7f87hod","lat":1.379748993,"address":"B03:NFC1: HOUGANG STREET 51","long":103.8886634},"type":"Feature","geometry":{"type":"Point","coordinates":[103.8886634,1.379748993]}},{"properties":{"hits":55,"type":"Q","id":"a6elc7h5fc7n","lat":1.343672681,"address":"B06:NFC2: JALAN ANAK BUKIT","long":103.7765304},"type":"Feature","geometry":{"type":"Point","coordinates":[103.7765304,1.343672681]}},{"properties":{"hits":0,"type":"Q","id":"a6elc7qvosia","lat":1.30452742,"address":"B02A:NFC1: JALAN JURONG KECHIL","long":103.8548277},"type":"Feature","geometry":{"type":"Point","coordinates":[103.8548277,1.30452742]}},{"properties":{"hits":50,"type":"Q","id":"a6elc7ifcjig","lat":1.304813743,"address":"B01:NFC2: JOO CHIAT ROAD","long":103.9059629},"type":"Feature","geometry":{"type":"Point","coordinates":[103.9059629,1.304813743]}},{"properties":{"hits":0,"type":"Q","id":"a6elc7plhtq0","lat":1.334388278,"address":"B01:NFC1: JURONG EAST CENTRAL","long":103.7384476},"type":"Feature","geometry":{"type":"Point","coordinates":[103.7384476,1.334388278]}},{"properties":{"hits":0,"type":"Q","id":"a6elc7dnkykm","lat":1.348223168,"address":"B04:NFC2: JURONG WEST STREET 75","long":103.698589},"type":"Feature","geometry":{"type":"Point","coordinates":[103.698589,1.348223168]}},{"properties":{"hits":2,"type":"Q","id":"a6elc7guycqu","lat":1.342053193,"address":"B02:NFC1: JURONG WEST STREET 91","long":103.6913181},"type":"Feature","geometry":{"type":"Point","coordinates":[103.6913181,1.342053193]}},{"properties":{"hits":4,"type":"Q","id":"a6elc7h7j1xk","lat":1.29499435,"address":"B05:NFC2: KIM SENG ROAD","long":103.8320826},"type":"Feature","geometry":{"type":"Point","coordinates":[103.8320826,1.29499435]}},{"properties":{"hits":34,"type":"Q","id":"a6elc7k2m8rr","lat":1.340236867,"address":"B02:NFC2: LORNIE ROAD","long":103.8322038},"type":"Feature","geometry":{"type":"Point","coordinates":[103.8322038,1.340236867]}},{"properties":{"hits":20,"type":"Q","id":"a6elc7pg0wax","lat":1.341099972,"address":"TS:NFC1: LORONG 1 TOA PAYOH","long":103.8465172},"type":"Feature","geometry":{"type":"Point","coordinates":[103.8465172,1.341099972]}},{"properties":{"hits":29,"type":"Q","id":"a6elc7pjgsy9","lat":1.272485903,"address":"B09:NFC2: LOWER DELTA ROAD","long":103.82425},"type":"Feature","geometry":{"type":"Point","coordinates":[103.82425,1.272485903]}},{"properties":{"hits":19,"type":"Q","id":"a6elc7e9ea59","lat":1.30275168,"address":"B01:NFC2: MARINE PARADE ROAD","long":103.9050982},"type":"Feature","geometry":{"type":"Point","coordinates":[103.9050982,1.30275168]}},{"properties":{"hits":10,"type":"Q","id":"a6elc7bl4zs2","lat":1.305188469,"address":"TS:NFC1: MARINE TERRACE","long":103.9147401},"type":"Feature","geometry":{"type":"Point","coordinates":[103.9147401,1.305188469]}},{"properties":{"hits":1,"type":"Q","id":"a6elc7k7opdo","lat":1.362209473,"address":"B14:NFC1: MARYMOUNT ROAD","long":103.8421517},"type":"Feature","geometry":{"type":"Point","coordinates":[103.8421517,1.362209473]}},{"properties":{"hits":53,"type":"Q","id":"a6elc7enfuc2","lat":1.30370748,"address":"B21:NFC2: MOUNTBATTEN ROAD","long":103.9013591},"type":"Feature","geometry":{"type":"Point","coordinates":[103.9013591,1.30370748]}},{"properties":{"hits":13,"type":"Q","id":"a6elc7cuvcnt","lat":1.327125722,"address":"B14:NFC2: NEW UPPER CHANGI ROAD","long":103.9470813},"type":"Feature","geometry":{"type":"Point","coordinates":[103.9470813,1.327125722]}},{"properties":{"hits":3,"type":"Q","id":"a6elc7epfgvp","lat":1.3145034,"address":"B02:NFC2: NEWTON ROAD","long":103.8407742},"type":"Feature","geometry":{"type":"Point","coordinates":[103.8407742,1.3145034]}},{"properties":{"hits":0,"type":"Q","id":"a6elc7gh0au1","lat":1.303205461,"address":"B01:NFC2: OPHIR ROAD","long":103.8555098},"type":"Feature","geometry":{"type":"Point","coordinates":[103.8555098,1.303205461]}},{"properties":{"hits":0,"type":"Q","id":"a6elc7dwjjz1","lat":1.371247949,"address":"B11:NFC2: PASIR RIS DRIVE 1","long":103.9483952},"type":"Feature","geometry":{"type":"Point","coordinates":[103.9483952,1.371247949]}},{"properties":{"hits":28,"type":"Q","id":"a6elc7pwyve0","lat":1.378886241,"address":"B22:NFC1: PASIR RIS DRIVE 1","long":103.936022},"type":"Feature","geometry":{"type":"Point","coordinates":[103.936022,1.378886241]}},{"properties":{"hits":0,"type":"Q","id":"a6elc7kfkmp4","lat":1.367236829,"address":"B02:NFC1: PASIR RIS DRIVE 3","long":103.965628},"type":"Feature","geometry":{"type":"Point","coordinates":[103.965628,1.367236829]}},{"properties":{"hits":0,"type":"Q","id":"a6elc7bk4gw5","lat":1.376847003,"address":"B02:NFC1: PASIR RIS STREET 71","long":103.9356805},"type":"Feature","geometry":{"type":"Point","coordinates":[103.9356805,1.376847003]}},{"properties":{"hits":0,"type":"Q","id":"a6elc7edurxp","lat":1.302755732,"address":"B01:NFC2: PATERSON ROAD","long":103.8299064},"type":"Feature","geometry":{"type":"Point","coordinates":[103.8299064,1.302755732]}},{"properties":{"hits":2,"type":"Q","id":"a6elc7khvsj7","lat":1.332739173,"address":"B01:NFC1: POTONG PASIR AVENUE 1","long":103.8684504},"type":"Feature","geometry":{"type":"Point","coordinates":[103.8684504,1.332739173]}},{"properties":{"hits":0,"type":"Q","id":"a6elc7p1rsbt","lat":1.397036117,"address":"B10:NFC1: PUNGGOL CENTRAL","long":103.914689},"type":"Feature","geometry":{"type":"Point","coordinates":[103.914689,1.397036117]}},{"properties":{"hits":16,"type":"Q","id":"a6elc7hyw6cr","lat":1.384501828,"address":"B04:NFC1: PUNGGOL ROAD","long":103.900461},"type":"Feature","geometry":{"type":"Point","coordinates":[103.900461,1.384501828]}},{"properties":{"hits":34,"type":"Q","id":"a6elc7g09udr","lat":1.290160269,"address":"B02:NFC2: QUEENSWAY","long":103.8020665},"type":"Feature","geometry":{"type":"Point","coordinates":[103.8020665,1.290160269]}},{"properties":{"hits":21,"type":"Q","id":"a6elc7m3bp1c","lat":1.293526584,"address":"B05:NFC2: RIVER VALLEY ROAD","long":103.8428001},"type":"Feature","geometry":{"type":"Point","coordinates":[103.8428001,1.293526584]}},{"properties":{"hits":0,"type":"Q","id":"a6elc7hjtof3","lat":1.311069748,"address":"B03:NFC1: SCOTTS ROAD","long":103.8358923},"type":"Feature","geometry":{"type":"Point","coordinates":[103.8358923,1.311069748]}},{"properties":{"hits":29,"type":"Q","id":"a6elc7ds925p","lat":1.311348412,"address":"B04:NFC2: SCOTTS ROAD","long":103.83686},"type":"Feature","geometry":{"type":"Point","coordinates":[103.83686,1.311348412]}},{"properties":{"hits":22,"type":"Q","id":"a6elc7bhraw2","lat":1.448309994,"address":"B05:NFC1: SEMBAWANG DRIVE","long":103.8186889},"type":"Feature","geometry":{"type":"Point","coordinates":[103.8186889,1.448309994]}},{"properties":{"hits":98,"type":"Q","id":"a6elc7n8t0f9","lat":1.441975826,"address":"B21:NFC2: SEMBAWANG ROAD","long":103.8240137},"type":"Feature","geometry":{"type":"Point","coordinates":[103.8240137,1.441975826]}},{"properties":{"hits":0,"type":"Q","id":"a6elc7brzdp6","lat":1.392206263,"address":"B03:NFC1: SENGKANG EAST ROAD","long":103.8931942},"type":"Feature","geometry":{"type":"Point","coordinates":[103.8931942,1.392206263]}},{"properties":{"hits":13,"type":"Q","id":"a6elc7k0em0h","lat":1.350101731,"address":"B06:NFC1: SERANGOON AVENUE 3","long":103.8690771},"type":"Feature","geometry":{"type":"Point","coordinates":[103.8690771,1.350101731]}},{"properties":{"hits":1,"type":"Q","id":"a6elc7pc8iao","lat":1.353228217,"address":"TS:NFC2: SERANGOON AVENUE 3","long":103.8707086},"type":"Feature","geometry":{"type":"Point","coordinates":[103.8707086,1.353228217]}},{"properties":{"hits":6,"type":"Q","id":"a6elc7nj79q9","lat":1.353323333,"address":"B04:NFC2: SERANGOON CENTRAL","long":103.8728571},"type":"Feature","geometry":{"type":"Point","coordinates":[103.8728571,1.353323333]}},{"properties":{"hits":11,"type":"Q","id":"a6elc7kvoi1f","lat":1.311074921,"address":"TS:NFC2: SERANGOON ROAD","long":103.8549818},"type":"Feature","geometry":{"type":"Point","coordinates":[103.8549818,1.311074921]}},{"properties":{"hits":0,"type":"Q","id":"a6elc7f2awdr","lat":1.342907164,"address":"B03:NFC2: SIMEI ROAD","long":103.9577648},"type":"Feature","geometry":{"type":"Point","coordinates":[103.9577648,1.342907164]}},{"properties":{"hits":0,"type":"Q","id":"a6elc7lurlj2","lat":1.31778718,"address":"TS:NFC1: SIMS AVENUE","long":103.8983255},"type":"Feature","geometry":{"type":"Point","coordinates":[103.8983255,1.31778718]}},{"properties":{"hits":22,"type":"Q","id":"a6elc7dl9m2f","lat":1.320949288,"address":"TS:NFC1: SIMS AVENUE EAST","long":103.9131477},"type":"Feature","geometry":{"type":"Point","coordinates":[103.9131477,1.320949288]}},{"properties":{"hits":25,"type":"Q","id":"a6elc7hb0v9d","lat":1.281071367,"address":"B07:NFC2: SOUTH BRIDGE ROAD","long":103.8446797},"type":"Feature","geometry":{"type":"Point","coordinates":[103.8446797,1.281071367]}},{"properties":{"hits":0,"type":"Q","id":"a6elc7m6et53","lat":1.313553072,"address":"B03:NFC2: STEVENS ROAD","long":103.8274418},"type":"Feature","geometry":{"type":"Point","coordinates":[103.8274418,1.313553072]}},{"properties":{"hits":0,"type":"Q","id":"a6elc7fgk804","lat":1.360507862,"address":"B14:NFC2: TAMPINES AVENUE 9","long":103.9333573},"type":"Feature","geometry":{"type":"Point","coordinates":[103.9333573,1.360507862]}},{"properties":{"hits":17,"type":"Q","id":"a6elc7pvjy6v","lat":1.307247745,"address":"B04:NFC1: TANJONG KATONG ROAD","long":103.8954363},"type":"Feature","geometry":{"type":"Point","coordinates":[103.8954363,1.307247745]}},{"properties":{"hits":6,"type":"Q","id":"a6elc7eza6za","lat":1.275225522,"address":"TS:NFC2: TANJONG PAGAR ROAD","long":103.843178},"type":"Feature","geometry":{"type":"Point","coordinates":[103.843178,1.275225522]}},{"properties":{"hits":15,"type":"Q","id":"a6elc7hnflq2","lat":1.297805226,"address":"B12:NFC1: TANJONG RHU ROAD","long":103.8799599},"type":"Feature","geometry":{"type":"Point","coordinates":[103.8799599,1.297805226]}},{"properties":{"hits":12,"type":"Q","id":"a6elc7osjenp","lat":1.32248168,"address":"B06:NFC2: TEBAN GARDENS ROAD","long":103.7396302},"type":"Feature","geometry":{"type":"Point","coordinates":[103.7396302,1.32248168]}},{"properties":{"hits":0,"type":"Q","id":"a6elc7bdfamf","lat":1.271984852,"address":"B12:NFC1: TELOK BLANGAH ROAD","long":103.8063148},"type":"Feature","geometry":{"type":"Point","coordinates":[103.8063148,1.271984852]}},{"properties":{"hits":7,"type":"Q","id":"a6elc7aoz6v6","lat":1.35942768,"address":"B10:NFC1: UPPER BUKIT TIMAH ROAD","long":103.7674041},"type":"Feature","geometry":{"type":"Point","coordinates":[103.7674041,1.35942768]}},{"properties":{"hits":22,"type":"Q","id":"a6elc7aqwelq","lat":1.286108065,"address":"B03:NFC2: UPPER CROSS STREET","long":103.8424878},"type":"Feature","geometry":{"type":"Point","coordinates":[103.8424878,1.286108065]}},{"properties":{"hits":14,"type":"Q","id":"a6elc7mry234","lat":1.351638082,"address":"B16:NFC2: UPPER PAYA LEBAR ROAD","long":103.8787607},"type":"Feature","geometry":{"type":"Point","coordinates":[103.8787607,1.351638082]}},{"properties":{"hits":18,"type":"Q","id":"a6elc7gxrp63","lat":1.360295982,"address":"B21:NFC1: UPPER SERANGOON ROAD","long":103.8850991},"type":"Feature","geometry":{"type":"Point","coordinates":[103.8850991,1.360295982]}},{"properties":{"hits":32,"type":"Q","id":"a6elc7h80ohg","lat":1.370243505,"address":"B31:NFC1: UPPER SERANGOON ROAD","long":103.8954067},"type":"Feature","geometry":{"type":"Point","coordinates":[103.8954067,1.370243505]}},{"properties":{"hits":0,"type":"Q","id":"a6elc7pyjllx","lat":1.351388873,"address":"B06:NFC1: UPPER THOMSON ROAD","long":103.8359545},"type":"Feature","geometry":{"type":"Point","coordinates":[103.8359545,1.351388873]}},{"properties":{"hits":2,"type":"Q","id":"a6elc7pu2ku0","lat":1.400800544,"address":"B38:NFC1: UPPER THOMSON ROAD","long":103.8173522},"type":"Feature","geometry":{"type":"Point","coordinates":[103.8173522,1.400800544]}},{"properties":{"hits":75,"type":"Q","id":"a6elc7lrfv76","lat":1.30016348,"address":"B07:NFC1: VICTORIA STREET","long":103.8552387},"type":"Feature","geometry":{"type":"Point","coordinates":[103.8552387,1.30016348]}},{"properties":{"hits":6,"type":"Q","id":"a6elc7dn7q66","lat":1.301519442,"address":"B06:NFC1: WEST COAST ROAD","long":103.7660777},"type":"Feature","geometry":{"type":"Point","coordinates":[103.7660777,1.301519442]}},{"properties":{"hits":2,"type":"Q","id":"a6elc7ct4jlv","lat":1.440290187,"address":"B06:NFC2: WOODLANDS AVENUE 2","long":103.7868436},"type":"Feature","geometry":{"type":"Point","coordinates":[103.7868436,1.440290187]}},{"properties":{"hits":0,"type":"Q","id":"a6elc7bp0dxj","lat":1.440617143,"address":"B10:NFC1: WOODLANDS AVENUE 4","long":103.7957538},"type":"Feature","geometry":{"type":"Point","coordinates":[103.7957538,1.440617143]}},{"properties":{"hits":1,"type":"Q","id":"a6elc7p6ei7i","lat":1.436911691,"address":"B12:NFC2: WOODLANDS AVENUE 5","long":103.782772},"type":"Feature","geometry":{"type":"Point","coordinates":[103.782772,1.436911691]}},{"properties":{"hits":0,"type":"Q","id":"a6elc7q111kn","lat":1.444646503,"address":"B08:NFC2: WOODLANDS AVENUE 9","long":103.7893298},"type":"Feature","geometry":{"type":"Point","coordinates":[103.7893298,1.444646503]}},{"properties":{"hits":0,"type":"Q","id":"a6elc7omqofc","lat":1.357566661,"address":"B01:NFC2: YIO CHU KANG LINK","long":103.8738578},"type":"Feature","geometry":{"type":"Point","coordinates":[103.8738578,1.357566661]}},{"properties":{"hits":4,"type":"Q","id":"a6elc7oo44s6","lat":1.387071705,"address":"B25:NFC1: YIO CHU KANG ROAD","long":103.8730264},"type":"Feature","geometry":{"type":"Point","coordinates":[103.8730264,1.387071705]}},{"properties":{"hits":2,"type":"Q","id":"a6elc7duk2x1","lat":1.416379947,"address":"B03:NFC2: YISHUN AVENUE 2","long":103.832675},"type":"Feature","geometry":{"type":"Point","coordinates":[103.832675,1.416379947]}},{"properties":{"hits":33,"type":"Q","id":"a6elc7n7h8fg","lat":1.425239643,"address":"B05:NFC1: YISHUN AVENUE 3","long":103.8281578},"type":"Feature","geometry":{"type":"Point","coordinates":[103.8281578,1.425239643]}},{"properties":{"hits":0,"type":"Q","id":"a6elc7kuuo1o","lat":1.291572156,"address":"B03:NFC2: ZION ROAD","long":103.832249},"type":"Feature","geometry":{"type":"Point","coordinates":[103.832249,1.291572156]}}],"is_temporal":false,"author":{"url":"","metadata":null,"contact_name":null,"contact_address":null,"source":null,"contact_phone":null},"source":"","pagination":{"sort":null,"start":0,"total":107,"limit":1000000},"state":"complete","tags":"","published":"2014-08-12T23:52:58-04:00","id":192129}