{"type":"FeatureCollection","data_type":"Dataset","url_type":null,"permissions":[{"permissions":{"download":true,"view":true},"group_id":"everyone"}],"classification":null,"title":"Test Data MSW &amp; GW So Cal","count":192,"stream_id":192130,"contributor":{"url":"http://geocommons.com/users/38047","name":"michaelschwartz"},"data_attributes":null,"calculation_params":null,"icon_link":null,"link":"http://geocommons.com/overlays/192130.json","extent":[-121.93,32.569,-114.618,37.3211],"geometry_types":["point"],"unique_name":null,"name":"Test Data MSW & GW So Cal","feature_count":192,"description":"","next_feature":null,"is_raster":false,"short_classification":"Y","stats":{"disposal ton":{"max":3538192,"mean":94835.296875,"variance":79116320550.4505,"stdev":281276.235310505,"min":122,"median":43422},"total adc/gw & other":{"max":260036,"mean":10835.09375,"variance":920578743.34195,"stdev":30341.0405777711,"min":0,"median":3026}},"features":[{"properties":{"city":"Carlsbad","disposal ton":107918,"id":"a640nv4qkz60","total adc/gw & other":20695},"type":"Feature","geometry":{"type":"Point","coordinates":[-117.283547548613,33.1245537161032]}},{"properties":{"city":"Chula Vista","disposal ton":159623,"id":"a640nviv0jje","total adc/gw & other":17548},"type":"Feature","geometry":{"type":"Point","coordinates":[-117.014103383784,32.6286329512289]}},{"properties":{"city":"Coronado","disposal ton":49998,"id":"a640nv84p3ch","total adc/gw & other":1976},"type":"Feature","geometry":{"type":"Point","coordinates":[-117.165817698605,32.6420349947773]}},{"properties":{"city":"Del Mar","disposal ton":9193,"id":"a640nve0a6r9","total adc/gw & other":1770},"type":"Feature","geometry":{"type":"Point","coordinates":[-117.262368802917,32.9631489606271]}},{"properties":{"city":"El Cajon","disposal ton":93988,"id":"a640nvaszy57","total adc/gw & other":6415},"type":"Feature","geometry":{"type":"Point","coordinates":[-116.960437544263,32.8016742658553]}},{"properties":{"city":"Encinitas","disposal ton":65820,"id":"a640nvixn53c","total adc/gw & other":12399},"type":"Feature","geometry":{"type":"Point","coordinates":[-117.262397981376,33.0488659819112]}},{"properties":{"city":"Escondido","disposal ton":147166,"id":"a640nv4zmdrq","total adc/gw & other":6858},"type":"Feature","geometry":{"type":"Point","coordinates":[-117.072127509749,33.1348458218612]}},{"properties":{"city":"Imperial Beach","disposal ton":19402,"id":"a640nvimag2w","total adc/gw & other":3026},"type":"Feature","geometry":{"type":"Point","coordinates":[-117.118674845191,32.5690032483843]}},{"properties":{"city":"La Mesa","disposal ton":42718,"id":"a640nv7uhqsa","total adc/gw & other":10014},"type":"Feature","geometry":{"type":"Point","coordinates":[-117.020400237404,32.7705334384484]}},{"properties":{"city":"Lemon Grove","disposal ton":20162,"id":"a640nvf3lbpp","total adc/gw & other":2823},"type":"Feature","geometry":{"type":"Point","coordinates":[-117.034347541772,32.7330858551195]}},{"properties":{"city":"National City","disposal ton":52239,"id":"a640nvdlofw8","total adc/gw & other":3459},"type":"Feature","geometry":{"type":"Point","coordinates":[-117.098233624203,32.6652775593433]}},{"properties":{"city":"Oceanside","disposal ton":125357,"id":"a640nvb3p3iy","total adc/gw & other":2335},"type":"Feature","geometry":{"type":"Point","coordinates":[-117.30903083454,33.2242277190267]}},{"properties":{"city":"Poway","disposal ton":50937,"id":"a640nvf16bkc","total adc/gw & other":12141},"type":"Feature","geometry":{"type":"Point","coordinates":[-117.020352663255,32.9871245613038]}},{"properties":{"city":"San Diego","disposal ton":1296725,"id":"a640nvbmx9lf","total adc/gw & other":144610},"type":"Feature","geometry":{"type":"Point","coordinates":[-117.1334623583,32.8170176083489]}},{"properties":{"city":"San Diego-Unincorporated","disposal ton":508293,"id":"a640nveple7o","total adc/gw & other":182340},"type":"Feature","geometry":null},{"properties":{"city":"San Marcos","disposal ton":82391,"id":"a640nvap42ka","total adc/gw & other":2510},"type":"Feature","geometry":{"type":"Point","coordinates":[-117.174336625174,33.1350333324513]}},{"properties":{"city":"Santee","disposal ton":49617,"id":"a640nvimukh2","total adc/gw & other":4453},"type":"Feature","geometry":{"type":"Point","coordinates":[-116.984880028582,32.8554531310355]}},{"properties":{"city":"Solana Beach","disposal ton":14033,"id":"a640nvf3d49u","total adc/gw & other":2510},"type":"Feature","geometry":{"type":"Point","coordinates":[-117.257796034593,32.9947655700402]}},{"properties":{"city":"Vista","disposal ton":91904,"id":"a640nv8t9fqh","total adc/gw & other":5339},"type":"Feature","geometry":{"type":"Point","coordinates":[-117.238544763348,33.1896057604077]}},{"properties":{"city":"Agoura Hills","disposal ton":21636,"id":"a640nvcd5mo0","total adc/gw & other":6647},"type":"Feature","geometry":{"type":"Point","coordinates":[-118.760986509429,34.1507496043279]}},{"properties":{"city":"Alhambra","disposal ton":41538,"id":"a640nv7sf5yl","total adc/gw & other":4448},"type":"Feature","geometry":{"type":"Point","coordinates":[-118.135479721349,34.0839648831682]}},{"properties":{"city":"Arcadia","disposal ton":41956,"id":"a640nvgvey4y","total adc/gw & other":16997},"type":"Feature","geometry":{"type":"Point","coordinates":[-118.037220207667,34.1340639432434]}},{"properties":{"city":"Avalon","disposal ton":3472,"id":"a640nvi4ko0k","total adc/gw & other":937},"type":"Feature","geometry":{"type":"Point","coordinates":[-118.329625253587,33.3351173682345]}},{"properties":{"city":"Azusa","disposal ton":36026,"id":"a640nvche862","total adc/gw & other":28545},"type":"Feature","geometry":{"type":"Point","coordinates":[-117.912247271367,34.1386909922396]}},{"properties":{"city":"Baldwin Park","disposal ton":68008,"id":"a640nvekeldv","total adc/gw & other":7944},"type":"Feature","geometry":{"type":"Point","coordinates":[-117.971916835334,34.0829219394903]}},{"properties":{"city":"Bell","disposal ton":20589,"id":"a640nvkjn9wy","total adc/gw & other":51},"type":"Feature","geometry":{"type":"Point","coordinates":[-118.179919205322,33.9798558433788]}},{"properties":{"city":"Bell Gardens","disposal ton":29640,"id":"a640nvit558r","total adc/gw & other":2307},"type":"Feature","geometry":{"type":"Point","coordinates":[-118.154989987927,33.9662443568154]}},{"properties":{"city":"Bellflower","disposal ton":36776,"id":"a640nvkhg8f5","total adc/gw & other":11105},"type":"Feature","geometry":{"type":"Point","coordinates":[-118.127050311424,33.8879003314312]}},{"properties":{"city":"Bradbury","disposal ton":2565,"id":"a640nv6rtev8","total adc/gw & other":408},"type":"Feature","geometry":{"type":"Point","coordinates":[-117.968347182064,34.153394413011]}},{"properties":{"city":"Burbank","disposal ton":85254,"id":"a640nvbuwphi","total adc/gw & other":941},"type":"Feature","geometry":{"type":"Point","coordinates":[-121.930457053197,37.3210726078776]}},{"properties":{"city":"Calabasas","disposal ton":42380,"id":"a640nv5hfs4p","total adc/gw & other":15821},"type":"Feature","geometry":{"type":"Point","coordinates":[-118.666492045981,34.1358668503293]}},{"properties":{"city":"Carson","disposal ton":253866,"id":"a640nvgsl95k","total adc/gw & other":4018},"type":"Feature","geometry":{"type":"Point","coordinates":[-118.255901045414,33.8374389286667]}},{"properties":{"city":"Cerritos","disposal ton":44731,"id":"a640nvhb35x2","total adc/gw & other":8449},"type":"Feature","geometry":{"type":"Point","coordinates":[-118.068533821869,33.8678452726302]}},{"properties":{"city":"Claremont","disposal ton":22536,"id":"a640nvf3b122","total adc/gw & other":245},"type":"Feature","geometry":{"type":"Point","coordinates":[-117.715832351438,34.1260560824591]}},{"properties":{"city":"Commerce","disposal ton":99652,"id":"a640nv66rbdh","total adc/gw & other":1143},"type":"Feature","geometry":{"type":"Point","coordinates":[-118.15175749093,33.9961350629158]}},{"properties":{"city":"Compton","disposal ton":81538,"id":"a640nvj3h3vg","total adc/gw & other":346},"type":"Feature","geometry":{"type":"Point","coordinates":[-118.227338591056,33.8929725063698]}},{"properties":{"city":"Covina","disposal ton":39216,"id":"a640nv6ky4ji","total adc/gw & other":7999},"type":"Feature","geometry":{"type":"Point","coordinates":[-117.881777751618,34.0903443368992]}},{"properties":{"city":"Cudahy","disposal ton":15469,"id":"a640nva15asj","total adc/gw & other":13},"type":"Feature","geometry":{"type":"Point","coordinates":[-118.183186163671,33.9631986625766]}},{"properties":{"city":"Culver City","disposal ton":40176,"id":"a640nv6hdosd","total adc/gw & other":2247},"type":"Feature","geometry":{"type":"Point","coordinates":[-118.396734531799,34.005690543353]}},{"properties":{"city":"Diamond Bar","disposal ton":29351,"id":"a640nvjkuclo","total adc/gw & other":8451},"type":"Feature","geometry":{"type":"Point","coordinates":[-117.81602062574,33.9989929601816]}},{"properties":{"city":"Downey","disposal ton":83200,"id":"a640nvj8pltw","total adc/gw & other":15240},"type":"Feature","geometry":{"type":"Point","coordinates":[-118.130994612253,33.9377861342501]}},{"properties":{"city":"El Monte","disposal ton":105419,"id":"a640nv4o98fa","total adc/gw & other":9671},"type":"Feature","geometry":{"type":"Point","coordinates":[-118.02895063121,34.0738973281341]}},{"properties":{"city":"El Segundo","disposal ton":44628,"id":"a640nvi7arv3","total adc/gw & other":181},"type":"Feature","geometry":{"type":"Point","coordinates":[-118.431207046371,33.9115655697209]}},{"properties":{"city":"Gardena","disposal ton":91309,"id":"a640nvgzy4ll","total adc/gw & other":2469},"type":"Feature","geometry":{"type":"Point","coordinates":[-118.307236974688,33.8944027761893]}},{"properties":{"city":"Glendale","disposal ton":154828,"id":"a640nv80otyd","total adc/gw & other":26907},"type":"Feature","geometry":{"type":"Point","coordinates":[-118.24683160926,34.1819101141979]}},{"properties":{"city":"Glendora","disposal ton":32574,"id":"a640nvics7bi","total adc/gw & other":9972},"type":"Feature","geometry":{"type":"Point","coordinates":[-117.846677899494,34.1444136756457]}},{"properties":{"city":"Hawaiian Gardens","disposal ton":7214,"id":"a640nvde0ocy","total adc/gw & other":16},"type":"Feature","geometry":{"type":"Point","coordinates":[-118.072872780429,33.8302964435866]}},{"properties":{"city":"Hawthorne","disposal ton":49105,"id":"a640nv72gwbf","total adc/gw & other":227},"type":"Feature","geometry":{"type":"Point","coordinates":[-118.347830554564,33.9147007976553]}},{"properties":{"city":"Huntington Park","disposal ton":44608,"id":"a640nvfy5cum","total adc/gw & other":140},"type":"Feature","geometry":{"type":"Point","coordinates":[-118.216578495493,33.9800239273353]}},{"properties":{"city":"Industry","disposal ton":93217,"id":"a640nvavpiha","total adc/gw & other":547},"type":"Feature","geometry":{"type":"Point","coordinates":[-117.926616897969,34.0171692898024]}},{"properties":{"city":"Inglewood","disposal ton":81024,"id":"a640nva1rop2","total adc/gw & other":428},"type":"Feature","geometry":{"type":"Point","coordinates":[-118.344389083953,33.9564642234174]}},{"properties":{"city":"Irwindale","disposal ton":34013,"id":"a640nvfi0te5","total adc/gw & other":739},"type":"Feature","geometry":{"type":"Point","coordinates":[-117.963496414841,34.112162628547]}},{"properties":{"city":"La Canada Flintridge","disposal ton":19134,"id":"a640nvdx3ogz","total adc/gw & other":8488},"type":"Feature","geometry":null},{"properties":{"city":"La Habra Heights","disposal ton":4517,"id":"a640nvi3dbpu","total adc/gw & other":2389},"type":"Feature","geometry":{"type":"Point","coordinates":[-117.951240675443,33.9604235423798]}},{"properties":{"city":"La Mirada","disposal ton":31980,"id":"a640nv6j7e8y","total adc/gw & other":11478},"type":"Feature","geometry":{"type":"Point","coordinates":[-118.009297895724,33.9024770910707]}},{"properties":{"city":"La Puente","disposal ton":40056,"id":"a640nvj2sspz","total adc/gw & other":5967},"type":"Feature","geometry":{"type":"Point","coordinates":[-117.953270018727,34.0322457135938]}},{"properties":{"city":"La Verne","disposal ton":26333,"id":"a640nvkktne0","total adc/gw & other":6606},"type":"Feature","geometry":{"type":"Point","coordinates":[-117.770442791841,34.1201892226024]}},{"properties":{"city":"Lakewood","disposal ton":41896,"id":"a640nvb04w2c","total adc/gw & other":11497},"type":"Feature","geometry":{"type":"Point","coordinates":[-118.122233404242,33.8469835752035]}},{"properties":{"city":"Lancaster","disposal ton":111339,"id":"a640nvhv3dl2","total adc/gw & other":19232},"type":"Feature","geometry":{"type":"Point","coordinates":[-118.175174940013,34.6933813516633]}},{"properties":{"city":"Lawndale","disposal ton":17804,"id":"a640nvf9me4g","total adc/gw & other":44},"type":"Feature","geometry":{"type":"Point","coordinates":[-118.353128386111,33.888418369265]}},{"properties":{"city":"Lomita","disposal ton":7574,"id":"a640nvbfhybu","total adc/gw & other":1423},"type":"Feature","geometry":{"type":"Point","coordinates":[-118.317557791419,33.7933555581911]}},{"properties":{"city":"Long Beach","disposal ton":245039,"id":"a640nv57oj1o","total adc/gw & other":2938},"type":"Feature","geometry":{"type":"Point","coordinates":[-118.167421069522,33.7771517735838]}},{"properties":{"city":"Los Angeles","disposal ton":3538192,"id":"a640nv6p5b3j","total adc/gw & other":260036},"type":"Feature","geometry":{"type":"Point","coordinates":[-118.411703997201,34.1069973564113]}},{"properties":{"city":"Los Angeles-Unincorporated","disposal ton":893754,"id":"a640nv6ojsfj","total adc/gw & other":86751},"type":"Feature","geometry":null},{"properties":{"city":"Malibu","disposal ton":29586,"id":"a640nvh5jvgr","total adc/gw & other":13451},"type":"Feature","geometry":{"type":"Point","coordinates":[-118.76631982602,34.0088052935262]}},{"properties":{"city":"Maywood","disposal ton":18267,"id":"a640nv8ez4sf","total adc/gw & other":48},"type":"Feature","geometry":{"type":"Point","coordinates":[-118.187447206989,33.9885001170844]}},{"properties":{"city":"Monrovia","disposal ton":29441,"id":"a640nv99qcev","total adc/gw & other":3672},"type":"Feature","geometry":{"type":"Point","coordinates":[-117.991800076774,34.1649636198999]}},{"properties":{"city":"Montebello","disposal ton":58138,"id":"a640nvfcdjpe","total adc/gw & other":5822},"type":"Feature","geometry":{"type":"Point","coordinates":[-118.110794874509,34.01539232546]}},{"properties":{"city":"Monterey Park","disposal ton":38285,"id":"a640nvfxozom","total adc/gw & other":6287},"type":"Feature","geometry":{"type":"Point","coordinates":[-118.132737008607,34.0498845780641]}},{"properties":{"city":"Norwalk","disposal ton":48551,"id":"a640nv896smm","total adc/gw & other":2453},"type":"Feature","geometry":{"type":"Point","coordinates":[-118.082816744975,33.9069008257116]}},{"properties":{"city":"Palmdale","disposal ton":98071,"id":"a640nvix5ijz","total adc/gw & other":16445},"type":"Feature","geometry":{"type":"Point","coordinates":[-118.10523335032,34.5943322185303]}},{"properties":{"city":"Paramount","disposal ton":42925,"id":"a640nviq5i57","total adc/gw & other":2908},"type":"Feature","geometry":{"type":"Point","coordinates":[-118.165018795876,33.8976749238223]}},{"properties":{"city":"Pasadena","disposal ton":145259,"id":"a640nveyybw4","total adc/gw & other":35071},"type":"Feature","geometry":{"type":"Point","coordinates":[-118.13912260043,34.159852500906]}},{"properties":{"city":"Pico Rivera","disposal ton":59719,"id":"a640nv6b8it4","total adc/gw & other":4452},"type":"Feature","geometry":{"type":"Point","coordinates":[-118.088714520037,33.9901995410692]}},{"properties":{"city":"Rolling Hills","disposal ton":2383,"id":"a640nvasui77","total adc/gw & other":2},"type":"Feature","geometry":{"type":"Point","coordinates":[-118.34711239431,33.7598432879803]}},{"properties":{"city":"Rolling Hills Estates","disposal ton":9205,"id":"a640nv6qhdlw","total adc/gw & other":14},"type":"Feature","geometry":{"type":"Point","coordinates":[-118.351152640818,33.7784855047605]}},{"properties":{"city":"San Dimas","disposal ton":30605,"id":"a640nv8q01gm","total adc/gw & other":6156},"type":"Feature","geometry":{"type":"Point","coordinates":[-117.808647223716,34.1085731437387]}},{"properties":{"city":"San Fernando","disposal ton":18455,"id":"a640nv9sb3wk","total adc/gw & other":79},"type":"Feature","geometry":{"type":"Point","coordinates":[-118.43621552291,34.2886342956349]}},{"properties":{"city":"San Gabriel","disposal ton":27911,"id":"a640nv6woxnk","total adc/gw & other":5487},"type":"Feature","geometry":{"type":"Point","coordinates":[-118.099023295858,34.0947781343543]}},{"properties":{"city":"San Marino","disposal ton":10819,"id":"a640nvefdfla","total adc/gw & other":5279},"type":"Feature","geometry":{"type":"Point","coordinates":[-118.113220071873,34.1223946077519]}},{"properties":{"city":"Santa Clarita","disposal ton":123887,"id":"a640nvhbiy4b","total adc/gw & other":889},"type":"Feature","geometry":{"type":"Point","coordinates":[-118.503225483531,34.4112307021759]}},{"properties":{"city":"Santa Fe Springs","disposal ton":85085,"id":"a640nvk8e629","total adc/gw & other":1431},"type":"Feature","geometry":{"type":"Point","coordinates":[-118.062531135491,33.9331600919979]}},{"properties":{"city":"Santa Monica","disposal ton":59352,"id":"a640nvelbdik","total adc/gw & other":4206},"type":"Feature","geometry":{"type":"Point","coordinates":[-118.499329911034,34.0097102672204]}},{"properties":{"city":"Signal Hill","disposal ton":13118,"id":"a640nvbflhhl","total adc/gw & other":158},"type":"Feature","geometry":{"type":"Point","coordinates":[-118.168228538889,33.8029408474842]}},{"properties":{"city":"South El Monte","disposal ton":29313,"id":"a640nvizwm2z","total adc/gw & other":515},"type":"Feature","geometry":{"type":"Point","coordinates":[-118.048270181086,34.049298754014]}},{"properties":{"city":"South Pasadena","disposal ton":14914,"id":"a640nvioxx10","total adc/gw & other":3392},"type":"Feature","geometry":{"type":"Point","coordinates":[-118.15727987368,34.1102258238655]}},{"properties":{"city":"Temple City","disposal ton":23163,"id":"a640nv5nqqsa","total adc/gw & other":6313},"type":"Feature","geometry":{"type":"Point","coordinates":[-118.057938313296,34.1022322490452]}},{"properties":{"city":"Vernon","disposal ton":176974,"id":"a640nvbquoee","total adc/gw & other":216},"type":"Feature","geometry":{"type":"Point","coordinates":[-118.210277613048,34.0019104976911]}},{"properties":{"city":"Walnut","disposal ton":18844,"id":"a640nv9roh0q","total adc/gw & other":6644},"type":"Feature","geometry":{"type":"Point","coordinates":[-117.859561064488,34.0334857203204]}},{"properties":{"city":"West Covina","disposal ton":55806,"id":"a640nvb9erdm","total adc/gw & other":18075},"type":"Feature","geometry":{"type":"Point","coordinates":[-117.911287446034,34.055497635095]}},{"properties":{"city":"West Hollywood","disposal ton":28560,"id":"a640nvan3ts1","total adc/gw & other":1954},"type":"Feature","geometry":{"type":"Point","coordinates":[-118.371824861217,34.088270173633]}},{"properties":{"city":"Westlake Village","disposal ton":11375,"id":"a640nvhdenh7","total adc/gw & other":3900},"type":"Feature","geometry":{"type":"Point","coordinates":[-118.821992620958,34.1369873975389]}},{"properties":{"city":"Whittier","disposal ton":101128,"id":"a640nv4zeaaw","total adc/gw & other":22034},"type":"Feature","geometry":{"type":"Point","coordinates":[-118.018949893586,33.9679063520057]}},{"properties":{"city":"Aliso Viejo","disposal ton":18469,"id":"a640nv6yhxaa","total adc/gw & other":6060},"type":"Feature","geometry":{"type":"Point","coordinates":[-117.729894200202,33.5778502291107]}},{"properties":{"city":"Anaheim","disposal ton":373358,"id":"a640nvi4mshg","total adc/gw & other":218333},"type":"Feature","geometry":{"type":"Point","coordinates":[-117.857452851044,33.8389145275199]}},{"properties":{"city":"Brea","disposal ton":63266,"id":"a640nvfxasuy","total adc/gw & other":7039},"type":"Feature","geometry":{"type":"Point","coordinates":[-117.86584615587,33.925341173192]}},{"properties":{"city":"Buena Park","disposal ton":63186,"id":"a640nvei7hst","total adc/gw & other":8938},"type":"Feature","geometry":{"type":"Point","coordinates":[-118.004496054973,33.857174855786]}},{"properties":{"city":"Costa Mesa","disposal ton":124092,"id":"a640nv7d4386","total adc/gw & other":5885},"type":"Feature","geometry":{"type":"Point","coordinates":[-117.9135049167,33.6667649636678]}},{"properties":{"city":"Cypress","disposal ton":54539,"id":"a640nvbc65lq","total adc/gw & other":455},"type":"Feature","geometry":{"type":"Point","coordinates":[-118.038568350228,33.8170778971378]}},{"properties":{"city":"Dana Point","disposal ton":30958,"id":"a640nvf09hfa","total adc/gw & other":8932},"type":"Feature","geometry":{"type":"Point","coordinates":[-117.705777839874,33.4448661081183]}},{"properties":{"city":"Fountain Valley","disposal ton":36830,"id":"a640nva555l8","total adc/gw & other":10814},"type":"Feature","geometry":{"type":"Point","coordinates":[-117.951407237201,33.7104477934296]}},{"properties":{"city":"Fullerton","disposal ton":113210,"id":"a640nvc61l72","total adc/gw & other":30434},"type":"Feature","geometry":{"type":"Point","coordinates":[-117.92780373548,33.8839827640258]}},{"properties":{"city":"Garden Grove","disposal ton":167908,"id":"a640nv7rmtnf","total adc/gw & other":25545},"type":"Feature","geometry":{"type":"Point","coordinates":[-117.960076239074,33.7787091542616]}},{"properties":{"city":"Huntington Beach","disposal ton":171338,"id":"a640nvcdilxn","total adc/gw & other":47798},"type":"Feature","geometry":{"type":"Point","coordinates":[-118.007215338991,33.6906127153187]}},{"properties":{"city":"Irvine","disposal ton":218819,"id":"a640nv64k0n4","total adc/gw & other":36488},"type":"Feature","geometry":{"type":"Point","coordinates":[-117.773626731009,33.6780342698286]}},{"properties":{"city":"La Habra","disposal ton":54169,"id":"a640nvblp4tj","total adc/gw & other":8978},"type":"Feature","geometry":{"type":"Point","coordinates":[-117.95122885065,33.9276595729429]}},{"properties":{"city":"La Palma","disposal ton":9168,"id":"a640nvbyo1ra","total adc/gw & other":193},"type":"Feature","geometry":{"type":"Point","coordinates":[-118.040690522136,33.8503728898658]}},{"properties":{"city":"Laguna Beach","disposal ton":31630,"id":"a640nvjoadgq","total adc/gw & other":10142},"type":"Feature","geometry":{"type":"Point","coordinates":[-117.761535194222,33.542084558652]}},{"properties":{"city":"Laguna Hills","disposal ton":19382,"id":"a640nvimbea6","total adc/gw & other":6570},"type":"Feature","geometry":{"type":"Point","coordinates":[-117.699164803076,33.591967207188]}},{"properties":{"city":"Laguna Niguel","disposal ton":41309,"id":"a640nv75iduf","total adc/gw & other":14115},"type":"Feature","geometry":{"type":"Point","coordinates":[-117.705243815348,33.5276163617951]}},{"properties":{"city":"Laguna Woods","disposal ton":12839,"id":"a640nv8u2l3h","total adc/gw & other":93},"type":"Feature","geometry":{"type":"Point","coordinates":[-117.728151224379,33.609156953178]}},{"properties":{"city":"Lake Forest","disposal ton":68369,"id":"a640nvjesk3d","total adc/gw & other":9716},"type":"Feature","geometry":{"type":"Point","coordinates":[-117.670683421217,33.6634128846547]}},{"properties":{"city":"Los Alamitos","disposal ton":19216,"id":"a640nv8t1dwx","total adc/gw & other":1025},"type":"Feature","geometry":{"type":"Point","coordinates":[-118.05930509774,33.7971274839906]}},{"properties":{"city":"Mission Viejo","disposal ton":65270,"id":"a640nvb7lbv0","total adc/gw & other":16291},"type":"Feature","geometry":{"type":"Point","coordinates":[-117.655034038576,33.6095852257159]}},{"properties":{"city":"Newport Beach","disposal ton":87018,"id":"a640nvd6z9mh","total adc/gw & other":7866},"type":"Feature","geometry":{"type":"Point","coordinates":[-117.89332770638,33.5966817617487]}},{"properties":{"city":"Orange","disposal ton":149087,"id":"a640nv6r03zb","total adc/gw & other":29673},"type":"Feature","geometry":{"type":"Point","coordinates":[-117.822897997789,33.8046658575953]}},{"properties":{"city":"Orange-Unincorporated","disposal ton":102005,"id":"a640nvk0gb86","total adc/gw & other":25800},"type":"Feature","geometry":null},{"properties":{"city":"Placentia","disposal ton":43422,"id":"a640nvez8poq","total adc/gw & other":8767},"type":"Feature","geometry":{"type":"Point","coordinates":[-117.855441789309,33.8806553264758]}},{"properties":{"city":"Rancho Santa Margarita","disposal ton":31560,"id":"a640nvjb742e","total adc/gw & other":9333},"type":"Feature","geometry":{"type":"Point","coordinates":[-117.598758723235,33.6318519819599]}},{"properties":{"city":"San Clemente","disposal ton":49028,"id":"a640nvf2fmbr","total adc/gw & other":14641},"type":"Feature","geometry":{"type":"Point","coordinates":[-117.611063041143,33.4479949401785]}},{"properties":{"city":"San Juan Capistrano","disposal ton":34793,"id":"a640nvazhw7p","total adc/gw & other":21718},"type":"Feature","geometry":{"type":"Point","coordinates":[-117.654526870105,33.5014444718974]}},{"properties":{"city":"Santa Ana","disposal ton":295377,"id":"a640nvf23uto","total adc/gw & other":41170},"type":"Feature","geometry":{"type":"Point","coordinates":[-117.881908186514,33.7366891357383]}},{"properties":{"city":"Seal Beach","disposal ton":21012,"id":"a640nv8iclye","total adc/gw & other":349},"type":"Feature","geometry":{"type":"Point","coordinates":[-118.074421772209,33.7519827661564]}},{"properties":{"city":"Stanton","disposal ton":57061,"id":"a640nvc3qbcq","total adc/gw & other":245},"type":"Feature","geometry":{"type":"Point","coordinates":[-117.993403441323,33.8001725540323]}},{"properties":{"city":"Tustin","disposal ton":63386,"id":"a640nvh4ydon","total adc/gw & other":8936},"type":"Feature","geometry":{"type":"Point","coordinates":[-117.810751588308,33.7309126796001]}},{"properties":{"city":"Villa Park","disposal ton":5518,"id":"a640nv9l9soo","total adc/gw & other":3546},"type":"Feature","geometry":{"type":"Point","coordinates":[-117.810220474453,33.8181197558351]}},{"properties":{"city":"Westminster","disposal ton":54770,"id":"a640nvf5viz4","total adc/gw & other":15040},"type":"Feature","geometry":{"type":"Point","coordinates":[-117.993759032211,33.7521487958272]}},{"properties":{"city":"Yorba Linda","disposal ton":52449,"id":"a640nvaw3ln7","total adc/gw & other":19139},"type":"Feature","geometry":{"type":"Point","coordinates":[-117.772053316447,33.8894369633964]}},{"properties":{"city":"Banning","disposal ton":21952,"id":"a640nvjdalc2","total adc/gw & other":11},"type":"Feature","geometry":{"type":"Point","coordinates":[-116.899246000891,33.9460397709476]}},{"properties":{"city":"Beaumont","disposal ton":23336,"id":"a640nv6c7dim","total adc/gw & other":17},"type":"Feature","geometry":{"type":"Point","coordinates":[-116.97594304296,33.9044856937301]}},{"properties":{"city":"Blythe","disposal ton":8910,"id":"a640nv6hf8m2","total adc/gw & other":0},"type":"Feature","geometry":{"type":"Point","coordinates":[-114.617644946616,33.6219031584854]}},{"properties":{"city":"Calimesa","disposal ton":5323,"id":"a640nv88x08o","total adc/gw & other":96},"type":"Feature","geometry":{"type":"Point","coordinates":[-117.055050718132,33.9873630212811]}},{"properties":{"city":"Canyon Lake","disposal ton":6845,"id":"a640nv7ba6y5","total adc/gw & other":50},"type":"Feature","geometry":{"type":"Point","coordinates":[-117.26200354829,33.6883801941743]}},{"properties":{"city":"Cathedral City","disposal ton":41820,"id":"a640nvfgdass","total adc/gw & other":705},"type":"Feature","geometry":{"type":"Point","coordinates":[-116.466149388718,33.8360021735173]}},{"properties":{"city":"Coachella","disposal ton":23289,"id":"a640nvc78oey","total adc/gw & other":14},"type":"Feature","geometry":{"type":"Point","coordinates":[-116.146569267536,33.6896109189243]}},{"properties":{"city":"Corona","disposal ton":158561,"id":"a640nvftlijq","total adc/gw & other":306},"type":"Feature","geometry":{"type":"Point","coordinates":[-117.564063801616,33.8623901640153]}},{"properties":{"city":"Desert Hot Springs","disposal ton":13233,"id":"a640nvh06nqq","total adc/gw & other":127},"type":"Feature","geometry":{"type":"Point","coordinates":[-116.550369937984,33.9669788612804]}},{"properties":{"city":"Eastvale","disposal ton":3693,"id":"a640nvcyr8nn","total adc/gw & other":0},"type":"Feature","geometry":null},{"properties":{"city":"Hemet","disposal ton":59140,"id":"a640nvd6g8tt","total adc/gw & other":176},"type":"Feature","geometry":{"type":"Point","coordinates":[-116.994634024624,33.7353204679009]}},{"properties":{"city":"Indian Wells","disposal ton":10195,"id":"a640nv7m86sk","total adc/gw & other":117},"type":"Feature","geometry":{"type":"Point","coordinates":[-116.33993162855,33.7040033703097]}},{"properties":{"city":"Indio","disposal ton":63872,"id":"a640nv7bmyxx","total adc/gw & other":87},"type":"Feature","geometry":{"type":"Point","coordinates":[-116.237234647588,33.7297231971344]}},{"properties":{"city":"La Quinta","disposal ton":31194,"id":"a640nv75lo8f","total adc/gw & other":252},"type":"Feature","geometry":{"type":"Point","coordinates":[-116.279248992685,33.6538144232475]}},{"properties":{"city":"Lake Elsinore","disposal ton":41389,"id":"a640nvi0uicc","total adc/gw & other":184},"type":"Feature","geometry":{"type":"Point","coordinates":[-117.334092486185,33.6842839302487]}},{"properties":{"city":"Menifee","disposal ton":42583,"id":"a640nv8qpjiu","total adc/gw & other":10},"type":"Feature","geometry":{"type":"Point","coordinates":[-117.184852922471,33.6909449516303]}},{"properties":{"city":"Moreno Valley","disposal ton":114824,"id":"a640nvkk0s8a","total adc/gw & other":360},"type":"Feature","geometry":{"type":"Point","coordinates":[-117.204858426517,33.9246950169183]}},{"properties":{"city":"Murrieta","disposal ton":59773,"id":"a640nvhyequx","total adc/gw & other":5},"type":"Feature","geometry":{"type":"Point","coordinates":[-117.19131835275,33.5719111501849]}},{"properties":{"city":"Norco","disposal ton":34827,"id":"a640nvfsfzba","total adc/gw & other":16},"type":"Feature","geometry":{"type":"Point","coordinates":[-117.550390480709,33.9256591016579]}},{"properties":{"city":"Palm Desert","disposal ton":59118,"id":"a640nvdnw4mr","total adc/gw & other":717},"type":"Feature","geometry":{"type":"Point","coordinates":[-116.369503985744,33.7378292392335]}},{"properties":{"city":"Palm Springs","disposal ton":56327,"id":"a640nvicmbr4","total adc/gw & other":628},"type":"Feature","geometry":{"type":"Point","coordinates":[-116.538044204144,33.8013184916372]}},{"properties":{"city":"Perris","disposal ton":50729,"id":"a640nvdtf9o8","total adc/gw & other":182},"type":"Feature","geometry":{"type":"Point","coordinates":[-117.223306864545,33.7896941422361]}},{"properties":{"city":"Rancho Mirage","disposal ton":23605,"id":"a640nvdya89m","total adc/gw & other":265},"type":"Feature","geometry":{"type":"Point","coordinates":[-116.427352628992,33.7617391327414]}},{"properties":{"city":"Riverside","disposal ton":310359,"id":"a640nv4a9uoc","total adc/gw & other":1328},"type":"Feature","geometry":{"type":"Point","coordinates":[-117.394487380066,33.9382097659343]}},{"properties":{"city":"Riverside-Unincorporated","disposal ton":395032,"id":"a640nvje009w","total adc/gw & other":735},"type":"Feature","geometry":null},{"properties":{"city":"San Jacinto","disposal ton":25342,"id":"a640nv5m9txu","total adc/gw & other":58},"type":"Feature","geometry":{"type":"Point","coordinates":[-116.991999020936,33.7960056687265]}},{"properties":{"city":"Temecula","disposal ton":79207,"id":"a640nvck72aq","total adc/gw & other":395},"type":"Feature","geometry":{"type":"Point","coordinates":[-117.122417359783,33.5030718030973]}},{"properties":{"city":"Wildomar","disposal ton":18505,"id":"a640nvflg9ts","total adc/gw & other":105},"type":"Feature","geometry":{"type":"Point","coordinates":[-117.258247398237,33.6172796412403]}},{"properties":{"city":"Adelanto","disposal ton":16347,"id":"a640nv9xfw5c","total adc/gw & other":2554},"type":"Feature","geometry":{"type":"Point","coordinates":[-117.441071762588,34.586817536757]}},{"properties":{"city":"Apple Valley","disposal ton":47236,"id":"a640nvihox9b","total adc/gw & other":4759},"type":"Feature","geometry":{"type":"Point","coordinates":[-117.211012671674,34.5315985024708]}},{"properties":{"city":"Barstow","disposal ton":22069,"id":"a640nvjacd03","total adc/gw & other":531},"type":"Feature","geometry":{"type":"Point","coordinates":[-117.046389412802,34.8655116009258]}},{"properties":{"city":"Big Bear Lake","disposal ton":13935,"id":"a640nvarnyq6","total adc/gw & other":68},"type":"Feature","geometry":{"type":"Point","coordinates":[-116.895809687015,34.2429189658494]}},{"properties":{"city":"Chino","disposal ton":83000,"id":"a640nv87a6ol","total adc/gw & other":3454},"type":"Feature","geometry":{"type":"Point","coordinates":[-117.665310463587,33.9835924583678]}},{"properties":{"city":"Chino Hills","disposal ton":38306,"id":"a640nv6tbe2q","total adc/gw & other":86},"type":"Feature","geometry":{"type":"Point","coordinates":[-117.725437956612,33.9508521313315]}},{"properties":{"city":"Colton","disposal ton":44969,"id":"a640nv91w6dm","total adc/gw & other":500},"type":"Feature","geometry":{"type":"Point","coordinates":[-117.32532678031,34.0540058325691]}},{"properties":{"city":"Fontana","disposal ton":129950,"id":"a640nv5ijnpz","total adc/gw & other":15785},"type":"Feature","geometry":{"type":"Point","coordinates":[-117.459267428072,34.0974272511971]}},{"properties":{"city":"Grand Terrace","disposal ton":8309,"id":"a640nv5ofqi4","total adc/gw & other":190},"type":"Feature","geometry":{"type":"Point","coordinates":[-117.313386993556,34.0310911020105]}},{"properties":{"city":"Hesperia","disposal ton":55581,"id":"a640nvcpqijc","total adc/gw & other":4777},"type":"Feature","geometry":{"type":"Point","coordinates":[-117.314390207637,34.3973477101749]}},{"properties":{"city":"Highland","disposal ton":25409,"id":"a640nv7cypq1","total adc/gw & other":1441},"type":"Feature","geometry":{"type":"Point","coordinates":[-117.165295579822,34.1113063278015]}},{"properties":{"city":"Loma Linda","disposal ton":9300,"id":"a640nv8r3duy","total adc/gw & other":453},"type":"Feature","geometry":{"type":"Point","coordinates":[-117.250324606888,34.0448192149748]}},{"properties":{"city":"Montclair","disposal ton":37656,"id":"a640nvi6oouo","total adc/gw & other":215},"type":"Feature","geometry":{"type":"Point","coordinates":[-117.698053165582,34.0714536089976]}},{"properties":{"city":"Needles","disposal ton":122,"id":"a640nv9ek9hq","total adc/gw & other":0},"type":"Feature","geometry":{"type":"Point","coordinates":[-114.619183651493,34.8159955682667]}},{"properties":{"city":"Ontario","disposal ton":208009,"id":"a640nvfttlhf","total adc/gw & other":3433},"type":"Feature","geometry":{"type":"Point","coordinates":[-117.606431927465,34.0392644773617]}},{"properties":{"city":"Rancho Cucamonga","disposal ton":129689,"id":"a640nvie0yo5","total adc/gw & other":2359},"type":"Feature","geometry":{"type":"Point","coordinates":[-117.566160541708,34.1245891169096]}},{"properties":{"city":"Redlands","disposal ton":54879,"id":"a640nvc2fl0v","total adc/gw & other":3656},"type":"Feature","geometry":{"type":"Point","coordinates":[-117.170907717043,34.0511466296985]}},{"properties":{"city":"Rialto","disposal ton":60156,"id":"a640nvb9sk0q","total adc/gw & other":8836},"type":"Feature","geometry":{"type":"Point","coordinates":[-117.388479019577,34.112703921528]}},{"properties":{"city":"San Bernardino","disposal ton":167025,"id":"a640nvbgoj9s","total adc/gw & other":14440},"type":"Feature","geometry":{"type":"Point","coordinates":[-117.295263499275,34.1392272537616]}},{"properties":{"city":"San Bernardino-Unincorporated","disposal ton":246121,"id":"a640nved4xjm","total adc/gw & other":20285},"type":"Feature","geometry":null},{"properties":{"city":"Twentynine Palms","disposal ton":20826,"id":"a640nvak1oal","total adc/gw & other":412},"type":"Feature","geometry":{"type":"Point","coordinates":[-116.065530172344,34.1483150263953]}},{"properties":{"city":"Upland","disposal ton":52997,"id":"a640nvixhj38","total adc/gw & other":1367},"type":"Feature","geometry":{"type":"Point","coordinates":[-117.66036392494,34.1179368470638]}},{"properties":{"city":"Victorville","disposal ton":77593,"id":"a640nvbixez4","total adc/gw & other":3992},"type":"Feature","geometry":{"type":"Point","coordinates":[-117.353854878696,34.5277693371122]}},{"properties":{"city":"Yucaipa","disposal ton":25560,"id":"a640nv8dqhtt","total adc/gw & other":1887},"type":"Feature","geometry":{"type":"Point","coordinates":[-117.043492494553,34.0330608377806]}},{"properties":{"city":"Yucca Valley","disposal ton":16471,"id":"a640nvhudy6w","total adc/gw & other":852},"type":"Feature","geometry":{"type":"Point","coordinates":[-116.42147850788,34.1230941549155]}},{"properties":{"city":"Camarillo","disposal ton":43760,"id":"a640nvgyvjrz","total adc/gw & other":1497},"type":"Feature","geometry":{"type":"Point","coordinates":[-119.032641684066,34.2230253545008]}},{"properties":{"city":"Fillmore","disposal ton":11435,"id":"a640nv8d9bh9","total adc/gw & other":4},"type":"Feature","geometry":{"type":"Point","coordinates":[-118.917805663016,34.3991396757125]}},{"properties":{"city":"Moorpark","disposal ton":22299,"id":"a640nvcadw2y","total adc/gw & other":2393},"type":"Feature","geometry":{"type":"Point","coordinates":[-118.876961609348,34.2855211498342]}},{"properties":{"city":"Ojai","disposal ton":9316,"id":"a640nvf21utq","total adc/gw & other":351},"type":"Feature","geometry":{"type":"Point","coordinates":[-119.246942336052,34.4485104566278]}},{"properties":{"city":"Oxnard","disposal ton":230235,"id":"a640nvfxro1s","total adc/gw & other":92},"type":"Feature","geometry":{"type":"Point","coordinates":[-119.214671232845,34.2007348104683]}},{"properties":{"city":"Port Hueneme","disposal ton":15143,"id":"a640nv8x12cn","total adc/gw & other":990},"type":"Feature","geometry":{"type":"Point","coordinates":[-119.20360554239,34.1611915838953]}},{"properties":{"city":"San Buenaventura","disposal ton":112910,"id":"a640nv816yw7","total adc/gw & other":3941},"type":"Feature","geometry":null},{"properties":{"city":"Santa Paula","disposal ton":19736,"id":"a640nvf2atvv","total adc/gw & other":9},"type":"Feature","geometry":{"type":"Point","coordinates":[-119.069676098626,34.3520740137756]}},{"properties":{"city":"Simi Valley","disposal ton":99243,"id":"a640nv7zpzse","total adc/gw & other":12238},"type":"Feature","geometry":{"type":"Point","coordinates":[-118.748510854725,34.2661581654834]}},{"properties":{"city":"Thousand Oaks","disposal ton":104665,"id":"a640nvjpzlwv","total adc/gw & other":15764},"type":"Feature","geometry":{"type":"Point","coordinates":[-118.875144417462,34.1917266628942]}},{"properties":{"city":"Ventura-Unincorporated","disposal ton":109571,"id":"a640nvacia3z","total adc/gw & other":26692},"type":"Feature","geometry":null}],"is_temporal":false,"author":{"url":"","metadata":"","contact_name":"","contact_address":"","source":"","contact_phone":""},"source":"","pagination":{"sort":null,"start":0,"total":192,"limit":1000000},"state":"complete","tags":"","published":"2014-08-12T23:53:00-04:00","id":192130}