{"type":"FeatureCollection","data_type":"Dataset","url_type":null,"permissions":[{"permissions":{"download":true,"view":true},"group_id":"everyone"}],"classification":null,"title":"Test_data_set_for_map","count":69,"stream_id":192119,"contributor":{"url":"http://geocommons.com/users/38047","name":"michaelschwartz"},"data_attributes":null,"calculation_params":null,"icon_link":null,"link":"http://geocommons.com/overlays/192119.json","extent":[-128.33,43.1334,-53.048,63.3332],"geometry_types":["point"],"unique_name":null,"name":"Test_data_set_for_map","feature_count":69,"description":"","next_feature":null,"is_raster":false,"short_classification":"Y","stats":{"disposal ton":{"max":3538192,"mean":116645.768115942,"variance":187464708715.945,"stdev":432971.949109807,"min":2383,"median":40056}},"features":[{"properties":{"city":"Agoura Hills","county":"Los Angeles","geo_score":0.87,"disposal ton":21636,"country":"United States of America","id":"a68i430vbu5i","geo_precision":"zip","state":"California"},"type":"Feature","geometry":{"type":"Point","coordinates":[-83.166488288,47.716815065]}},{"properties":{"city":"Alhambra","county":"Los Angeles","geo_score":1.0,"disposal ton":41538,"country":"United States of America","id":"a68i42qkwue2","geo_precision":"zip","state":"California"},"type":"Feature","geometry":{"type":"Point","coordinates":[-114.668743538,52.333415779]}},{"properties":{"city":"Arcadia","county":"Los Angeles","geo_score":1.0,"disposal ton":41956,"country":"United States of America","id":"a68i42tvo3ri","geo_precision":"zip","state":"California"},"type":"Feature","geometry":{"type":"Point","coordinates":[-66.06556597,43.833452821]}},{"properties":{"city":"Avalon","county":"Los Angeles","geo_score":1.0,"disposal ton":3472,"country":"United States of America","id":"a68i431qkwnp","geo_precision":"zip","state":"California"},"type":"Feature","geometry":{"type":"Point","coordinates":[-106.656823837,52.096786316]}},{"properties":{"city":"Azusa","county":"Los Angeles","geo_score":0.0,"disposal ton":36026,"country":"United States of America","id":"a68i42zxj6p8","geo_precision":"unmatched","state":"California"},"type":"Feature","geometry":null},{"properties":{"city":"Baldwin Park","county":"Los Angeles","geo_score":0.948,"disposal ton":68008,"country":"United States of America","id":"a68i4309nz1t","geo_precision":"zip","state":"California"},"type":"Feature","geometry":{"type":"Point","coordinates":[-81.749789269,46.333372423]}},{"properties":{"city":"Bell","county":"Los Angeles","geo_score":0.905,"disposal ton":20589,"country":"United States of America","id":"a68i430dgztv","geo_precision":"zip","state":"California"},"type":"Feature","geometry":{"type":"Point","coordinates":[-66.582166552,45.633431857]}},{"properties":{"city":"Bell Gardens","county":"Los Angeles","geo_score":0.896,"disposal ton":29640,"country":"United States of America","id":"a68i42vf68d7","geo_precision":"zip","state":"California"},"type":"Feature","geometry":{"type":"Point","coordinates":[-66.582166552,45.633431857]}},{"properties":{"city":"Bellflower","county":"Los Angeles","geo_score":0.913,"disposal ton":36776,"country":"United States of America","id":"a68i42sos4fv","geo_precision":"zip","state":"California"},"type":"Feature","geometry":{"type":"Point","coordinates":[-128.330078971,63.333176279]}},{"properties":{"city":"Bradbury","county":"Los Angeles","geo_score":0.9,"disposal ton":2565,"country":"United States of America","id":"a68i42rwa30o","geo_precision":"zip","state":"California"},"type":"Feature","geometry":{"type":"Point","coordinates":[-63.381986601,45.366848268]}},{"properties":{"city":"Burbank","county":"Los Angeles","geo_score":0.964,"disposal ton":85254,"country":"United States of America","id":"a68i42udd0yz","geo_precision":"zip","state":"California"},"type":"Feature","geometry":{"type":"Point","coordinates":[-55.614677449,51.333380572]}},{"properties":{"city":"Calabasas","county":"Los Angeles","geo_score":0.0,"disposal ton":42380,"country":"United States of America","id":"a68i42rancao","geo_precision":"unmatched","state":"California"},"type":"Feature","geometry":null},{"properties":{"city":"Carson","county":"Los Angeles","geo_score":1.0,"disposal ton":253866,"country":"United States of America","id":"a68i42ws1sub","geo_precision":"zip","state":"California"},"type":"Feature","geometry":{"type":"Point","coordinates":[-81.733087834,46.166768908]}},{"properties":{"city":"Cerritos","county":"Los Angeles","geo_score":0.911,"disposal ton":44731,"country":"United States of America","id":"a68i42q3feu4","geo_precision":"zip","state":"California"},"type":"Feature","geometry":{"type":"Point","coordinates":[-121.952565697,49.132980621]}},{"properties":{"city":"Claremont","county":"Los Angeles","geo_score":0.968,"disposal ton":22536,"country":"United States of America","id":"a68i42s3g3rd","geo_precision":"zip","state":"California"},"type":"Feature","geometry":{"type":"Point","coordinates":[-118.786014725,55.266675798]}},{"properties":{"city":"Commerce","county":"Los Angeles","geo_score":0.911,"disposal ton":99652,"country":"United States of America","id":"a68i42vemae8","geo_precision":"zip","state":"California"},"type":"Feature","geometry":{"type":"Point","coordinates":[-112.835253163,53.016842026]}},{"properties":{"city":"Compton","county":"Los Angeles","geo_score":0.939,"disposal ton":81538,"country":"United States of America","id":"a68i42qjgc5x","geo_precision":"zip","state":"California"},"type":"Feature","geometry":{"type":"Point","coordinates":[-79.432899372,43.133414858]}},{"properties":{"city":"Covina","county":"Los Angeles","geo_score":0.929,"disposal ton":39216,"country":"United States of America","id":"a68i42upgphe","geo_precision":"zip","state":"California"},"type":"Feature","geometry":{"type":"Point","coordinates":[-78.466243149,44.183420239]}},{"properties":{"city":"Cudahy","county":"Los Angeles","geo_score":0.905,"disposal ton":15469,"country":"United States of America","id":"a68i432ugkd0","geo_precision":"zip","state":"California"},"type":"Feature","geometry":{"type":"Point","coordinates":[-82.249829559,46.316769332]}},{"properties":{"city":"Culver City","county":"Los Angeles","geo_score":0.9,"disposal ton":40176,"country":"United States of America","id":"a68i42r4wfh4","geo_precision":"zip","state":"California"},"type":"Feature","geometry":{"type":"Point","coordinates":[-80.99978943,48.150166549]}},{"properties":{"city":"Diamond Bar","county":"Los Angeles","geo_score":0.871,"disposal ton":29351,"country":"United States of America","id":"a68i432ataxt","geo_precision":"zip","state":"California"},"type":"Feature","geometry":{"type":"Point","coordinates":[-79.666337962,44.400107467]}},{"properties":{"city":"Downey","county":"Los Angeles","geo_score":0.929,"disposal ton":83200,"country":"United States of America","id":"a68i42smkrcr","geo_precision":"zip","state":"California"},"type":"Feature","geometry":{"type":"Point","coordinates":[-75.632598511,49.950154564]}},{"properties":{"city":"El Monte","county":"Los Angeles","geo_score":0.898,"disposal ton":105419,"country":"United States of America","id":"a68i431kdxxc","geo_precision":"zip","state":"California"},"type":"Feature","geometry":{"type":"Point","coordinates":[-83.233182423,46.216760816]}},{"properties":{"city":"El Segundo","county":"Los Angeles","geo_score":0.905,"disposal ton":44628,"country":"United States of America","id":"a68i42rayrlg","geo_precision":"zip","state":"California"},"type":"Feature","geometry":{"type":"Point","coordinates":[-83.233182423,46.216760816]}},{"properties":{"city":"Gardena","county":"Los Angeles","geo_score":0.921,"disposal ton":91309,"country":"United States of America","id":"a68i42tuo7wb","geo_precision":"zip","state":"California"},"type":"Feature","geometry":{"type":"Point","coordinates":[-124.986133243,49.682941089]}},{"properties":{"city":"Glendale","county":"Los Angeles","geo_score":0.914,"disposal ton":154828,"country":"United States of America","id":"a68i430bnuqq","geo_precision":"zip","state":"California"},"type":"Feature","geometry":{"type":"Point","coordinates":[-78.866295872,45.316807883]}},{"properties":{"city":"Glendora","county":"Los Angeles","geo_score":0.912,"disposal ton":32574,"country":"United States of America","id":"a68i42ygpqii","geo_precision":"zip","state":"California"},"type":"Feature","geometry":{"type":"Point","coordinates":[-120.7031762,59.666739979]}},{"properties":{"city":"Hawaiian Gardens","county":"Los Angeles","geo_score":0.886,"disposal ton":7214,"country":"United States of America","id":"a68i430swlne","geo_precision":"zip","state":"California"},"type":"Feature","geometry":{"type":"Point","coordinates":[-63.78202189,46.51683389]}},{"properties":{"city":"Hawthorne","county":"Los Angeles","geo_score":1.0,"disposal ton":49105,"country":"United States of America","id":"a68i4342gniv","geo_precision":"zip","state":"California"},"type":"Feature","geometry":{"type":"Point","coordinates":[-61.465241578,45.966840321]}},{"properties":{"city":"Huntington Park","county":"Los Angeles","geo_score":0.949,"disposal ton":44608,"country":"United States of America","id":"a68i42qcgn21","geo_precision":"zip","state":"California"},"type":"Feature","geometry":{"type":"Point","coordinates":[-74.165934208,45.083386403]}},{"properties":{"city":"Industry","county":"Los Angeles","geo_score":0.957,"disposal ton":93217,"country":"United States of America","id":"a68i434rzkai","geo_precision":"zip","state":"California"},"type":"Feature","geometry":{"type":"Point","coordinates":[-106.592917095,52.131985815]}},{"properties":{"city":"Inglewood","county":"Los Angeles","geo_score":1.0,"disposal ton":81024,"country":"United States of America","id":"a68i42q88tkp","geo_precision":"zip","state":"California"},"type":"Feature","geometry":{"type":"Point","coordinates":[-65.309918119,44.855751318]}},{"properties":{"city":"Irwindale","county":"Los Angeles","geo_score":0.968,"disposal ton":34013,"country":"United States of America","id":"a68i42yjn83t","geo_precision":"zip","state":"California"},"type":"Feature","geometry":{"type":"Point","coordinates":[-99.44361905,50.213625088]}},{"properties":{"city":"La Canada Flintridge","county":"Los Angeles","geo_score":0.905,"disposal ton":19134,"country":"United States of America","id":"a68i42twogci","geo_precision":"zip","state":"California"},"type":"Feature","geometry":{"type":"Point","coordinates":[-96.0,60.0]}},{"properties":{"city":"La Habra Heights","county":"Los Angeles","geo_score":0.878,"disposal ton":4517,"country":"United States of America","id":"a68i432c1m2x","geo_precision":"zip","state":"California"},"type":"Feature","geometry":{"type":"Point","coordinates":[-64.482062083,45.050149835]}},{"properties":{"city":"La Mirada","county":"Los Angeles","geo_score":0.875,"disposal ton":31980,"country":"United States of America","id":"a68i42xbhfh4","geo_precision":"zip","state":"California"},"type":"Feature","geometry":{"type":"Point","coordinates":[-120.794204554,50.112248552]}},{"properties":{"city":"La Puente","county":"Los Angeles","geo_score":0.929,"disposal ton":40056,"country":"United States of America","id":"a68i430h6pbq","geo_precision":"zip","state":"California"},"type":"Feature","geometry":{"type":"Point","coordinates":[-74.091716102,45.465383066]}},{"properties":{"city":"La Verne","county":"Los Angeles","geo_score":0.918,"disposal ton":26333,"country":"United States of America","id":"a68i42p3stjb","geo_precision":"zip","state":"California"},"type":"Feature","geometry":{"type":"Point","coordinates":[-115.068714563,49.499962705]}},{"properties":{"city":"Lakewood","county":"Los Angeles","geo_score":0.905,"disposal ton":41896,"country":"United States of America","id":"a68i434fw5hw","geo_precision":"zip","state":"California"},"type":"Feature","geometry":{"type":"Point","coordinates":[-76.666068441,47.566857213]}},{"properties":{"city":"Lancaster","county":"Los Angeles","geo_score":1.0,"disposal ton":111339,"country":"United States of America","id":"a68i432dazxr","geo_precision":"zip","state":"California"},"type":"Feature","geometry":{"type":"Point","coordinates":[-53.048036444,48.66658254]}},{"properties":{"city":"Lawndale","county":"Los Angeles","geo_score":0.964,"disposal ton":17804,"country":"United States of America","id":"a68i42pvhuv6","geo_precision":"zip","state":"California"},"type":"Feature","geometry":{"type":"Point","coordinates":[-114.65210631,53.250123082]}},{"properties":{"city":"Lomita","county":"Los Angeles","geo_score":0.918,"disposal ton":7574,"country":"United States of America","id":"a68i42s9fox5","geo_precision":"zip","state":"California"},"type":"Feature","geometry":{"type":"Point","coordinates":[-78.099533659,48.366882487]}},{"properties":{"city":"Long Beach","county":"Los Angeles","geo_score":0.857,"disposal ton":245039,"country":"United States of America","id":"a68i4303d3j0","geo_precision":"zip","state":"California"},"type":"Feature","geometry":{"type":"Point","coordinates":[-74.549179628,49.933438264]}},{"properties":{"city":"Los Angeles Area Integrated Waste Management Authority","county":"Los Angeles","geo_score":0.872,"disposal ton":3538192,"country":"United States of America","id":"a68i42suyzl3","geo_precision":"zip","state":"California"},"type":"Feature","geometry":{"type":"Point","coordinates":[-55.598110211,49.949945903]}},{"properties":{"city":"Los Angeles-Unincorporated","county":"Los Angeles","geo_score":0.887,"disposal ton":893754,"country":"United States of America","id":"a68i4316f102","geo_precision":"zip","state":"California"},"type":"Feature","geometry":{"type":"Point","coordinates":[-55.598110211,49.949945903]}},{"properties":{"city":"Malibu","county":"Los Angeles","geo_score":0.929,"disposal ton":29586,"country":"United States of America","id":"a68i42rhf0on","geo_precision":"zip","state":"California"},"type":"Feature","geometry":{"type":"Point","coordinates":[-55.164970784,47.633226762]}},{"properties":{"city":"Maywood","county":"Los Angeles","geo_score":1.0,"disposal ton":18267,"country":"United States of America","id":"a68i42ttvmpm","geo_precision":"zip","state":"California"},"type":"Feature","geometry":{"type":"Point","coordinates":[-79.982942741,43.233406977]}},{"properties":{"city":"Monrovia","county":"Los Angeles","geo_score":0.886,"disposal ton":29441,"country":"United States of America","id":"a68i42v8hfmt","geo_precision":"zip","state":"California"},"type":"Feature","geometry":{"type":"Point","coordinates":[-84.849915696,47.400076571]}},{"properties":{"city":"Montebello","county":"Los Angeles","geo_score":0.917,"disposal ton":58138,"country":"United States of America","id":"a68i42qkqpah","geo_precision":"zip","state":"California"},"type":"Feature","geometry":{"type":"Point","coordinates":[-101.100888044,51.428089066]}},{"properties":{"city":"Monterey Park","county":"Los Angeles","geo_score":0.905,"disposal ton":38285,"country":"United States of America","id":"a68i4345fzrm","geo_precision":"zip","state":"California"},"type":"Feature","geometry":{"type":"Point","coordinates":[-109.701551433,51.266813341]}},{"properties":{"city":"Norwalk","county":"Los Angeles","geo_score":0.929,"disposal ton":48551,"country":"United States of America","id":"a68i42x1qi8x","geo_precision":"zip","state":"California"},"type":"Feature","geometry":{"type":"Point","coordinates":[-95.117205761,50.516731272]}},{"properties":{"city":"Palmdale","county":"Los Angeles","geo_score":0.0,"disposal ton":98071,"country":"United States of America","id":"a68i42u6hul9","geo_precision":"unmatched","state":"California"},"type":"Feature","geometry":null},{"properties":{"city":"Paramount","county":"Los Angeles","geo_score":0.895,"disposal ton":42925,"country":"United States of America","id":"a68i4341l34g","geo_precision":"zip","state":"California"},"type":"Feature","geometry":{"type":"Point","coordinates":[-64.381648402,60.300228544]}},{"properties":{"city":"Pasadena","county":"Los Angeles","geo_score":1.0,"disposal ton":145259,"country":"United States of America","id":"a68i42y9d40d","geo_precision":"zip","state":"California"},"type":"Feature","geometry":{"type":"Point","coordinates":[-57.598368708,49.016714544]}},{"properties":{"city":"Pico Rivera","county":"Los Angeles","geo_score":0.9,"disposal ton":59719,"country":"United States of America","id":"a68i42s2tyb7","geo_precision":"zip","state":"California"},"type":"Feature","geometry":{"type":"Point","coordinates":[-86.283209767,48.683397011]}},{"properties":{"city":"Rolling Hills","county":"Los Angeles","geo_score":0.869,"disposal ton":2383,"country":"United States of America","id":"a68i42po0qvc","geo_precision":"zip","state":"California"},"type":"Feature","geometry":{"type":"Point","coordinates":[-83.166488288,47.716815065]}},{"properties":{"city":"Rolling Hills Estates","county":"Los Angeles","geo_score":0.887,"disposal ton":9205,"country":"United States of America","id":"a68i42ub0bau","geo_precision":"zip","state":"California"},"type":"Feature","geometry":{"type":"Point","coordinates":[-83.166488288,47.716815065]}},{"properties":{"city":"San Dimas","county":"Los Angeles","geo_score":0.875,"disposal ton":30605,"country":"United States of America","id":"a68i42s9j1a5","geo_precision":"zip","state":"California"},"type":"Feature","geometry":{"type":"Point","coordinates":[-116.602093777,51.049964127]}},{"properties":{"city":"San Fernando","county":"Los Angeles","geo_score":0.909,"disposal ton":18455,"country":"United States of America","id":"a68i433f5653","geo_precision":"zip","state":"California"},"type":"Feature","geometry":{"type":"Point","coordinates":[-113.968764553,54.116853014]}},{"properties":{"city":"San Gabriel","county":"Los Angeles","geo_score":0.929,"disposal ton":27911,"country":"United States of America","id":"a68i433yhjeo","geo_precision":"zip","state":"California"},"type":"Feature","geometry":{"type":"Point","coordinates":[-123.849899547,49.170429781]}},{"properties":{"city":"San Marino","county":"Los Angeles","geo_score":0.937,"disposal ton":10819,"country":"United States of America","id":"a68i42sz605h","geo_precision":"zip","state":"California"},"type":"Feature","geometry":{"type":"Point","coordinates":[-75.649252849,49.366845854]}},{"properties":{"city":"Santa Clarita","county":"Los Angeles","geo_score":0.905,"disposal ton":123887,"country":"United States of America","id":"a68i430seryy","geo_precision":"zip","state":"California"},"type":"Feature","geometry":{"type":"Point","coordinates":[-78.316232779,44.283421244]}},{"properties":{"city":"Santa Fe Springs","county":"Los Angeles","geo_score":0.888,"disposal ton":85085,"country":"United States of America","id":"a68i431sy8fi","geo_precision":"zip","state":"California"},"type":"Feature","geometry":{"type":"Point","coordinates":[-64.048733464,45.650152852]}},{"properties":{"city":"Santa Monica","county":"Los Angeles","geo_score":0.883,"disposal ton":59352,"country":"United States of America","id":"a68i42t75r0f","geo_precision":"zip","state":"California"},"type":"Feature","geometry":{"type":"Point","coordinates":[-113.335365253,54.566865309]}},{"properties":{"city":"Signal Hill","county":"Los Angeles","geo_score":0.886,"disposal ton":13118,"country":"United States of America","id":"a68i42ssaqbs","geo_precision":"zip","state":"California"},"type":"Feature","geometry":{"type":"Point","coordinates":[-83.966559847,49.350206751]}},{"properties":{"city":"South El Monte","county":"Los Angeles","geo_score":0.881,"disposal ton":29313,"country":"United States of America","id":"a68i42tiy7tb","geo_precision":"zip","state":"California"},"type":"Feature","geometry":{"type":"Point","coordinates":[-83.233182423,46.216760816]}},{"properties":{"city":"South Pasadena","county":"Los Angeles","geo_score":0.945,"disposal ton":14914,"country":"United States of America","id":"a68i43291nu9","geo_precision":"zip","state":"California"},"type":"Feature","geometry":{"type":"Point","coordinates":[-57.598368708,49.016714544]}},{"properties":{"city":"Temple City","county":"Los Angeles","geo_score":0.857,"disposal ton":23163,"country":"United States of America","id":"a68i4346eg7p","geo_precision":"zip","state":"California"},"type":"Feature","geometry":{"type":"Point","coordinates":[-113.46034431,53.447356688]}},{"properties":{"city":"Vernon","county":"Los Angeles","geo_score":1.0,"disposal ton":176974,"country":"United States of America","id":"a68i433dgo54","geo_precision":"zip","state":"California"},"type":"Feature","geometry":{"type":"Point","coordinates":[-119.269054389,50.258088573]}}],"is_temporal":false,"author":{"url":"","metadata":"","contact_name":"","contact_address":"","source":"","contact_phone":""},"source":"","pagination":{"sort":null,"start":0,"total":69,"limit":1000000},"state":"complete","tags":"","published":"2014-08-12T23:52:31-04:00","id":192119}