{"type":"FeatureCollection","data_type":"Dataset","url_type":null,"permissions":[{"permissions":{"download":true,"view":true},"group_id":"everyone"}],"classification":null,"title":"Nov 2009 City Calls","count":61,"stream_id":19225,"contributor":{"url":"http://geocommons.com/users/8961","name":"rkreicker@hensleylegal.com"},"data_attributes":null,"calculation_params":null,"icon_link":null,"link":"http://geocommons.com/overlays/19225.json","extent":[-87.5558,37.9748,-84.8172,41.7187],"geometry_types":["point"],"unique_name":null,"name":"Nov 2009 City Calls","feature_count":61,"description":"","next_feature":null,"is_raster":false,"short_classification":"Y","stats":{"hits":{"max":122.0,"mean":4.16393442622951,"variance":242.439344262295,"stdev":15.5704638422333,"min":1.0,"median":1.0},"geo_score":{"max":0.857,"mean":0.837868852459016,"variance":0.00103581584699453,"stdev":0.0321840930739789,"min":0.755,"median":0.857}},"features":[{"properties":{"hits":1.0,"city":"Albion","geo_score":0.857,"id":"a656ri8xlvnn","geo_precision":"city","state":"IN"},"type":"Feature","geometry":{"type":"Point","coordinates":[-85.413862,41.376028]}},{"properties":{"hits":2.0,"city":"Alexandria","geo_score":0.857,"id":"a656riagodzn","geo_precision":"city","state":"IN"},"type":"Feature","geometry":{"type":"Point","coordinates":[-85.680698,40.213154]}},{"properties":{"hits":11.0,"city":"Anderson","geo_score":0.802,"id":"a656rids2ain","geo_precision":"city","state":"IN"},"type":"Feature","geometry":{"type":"Point","coordinates":[-85.288854,39.497549]}},{"properties":{"hits":1.0,"city":"Avon","geo_score":0.857,"id":"a656rijzrm9x","geo_precision":"city","state":"IN"},"type":"Feature","geometry":{"type":"Point","coordinates":[-86.399717,39.762823]}},{"properties":{"hits":1.0,"city":"Beech Grove","geo_score":0.857,"id":"a656ri8l6n3n","geo_precision":"city","state":"IN"},"type":"Feature","geometry":{"type":"Point","coordinates":[-86.446384,39.51727]}},{"properties":{"hits":1.0,"city":"Bloomington","geo_score":0.813,"id":"a656rin146mi","geo_precision":"city","state":"IN"},"type":"Feature","geometry":{"type":"Point","coordinates":[-85.064684,39.502272]}},{"properties":{"hits":2.0,"city":"Brownsburg","geo_score":0.857,"id":"a656ri8mp24f","geo_precision":"city","state":"IN"},"type":"Feature","geometry":{"type":"Point","coordinates":[-86.470429,39.807038]}},{"properties":{"hits":1.0,"city":"Cambridge","geo_score":0.813,"id":"a656ri95asp3","geo_precision":"city","state":"IN"},"type":"Feature","geometry":{"type":"Point","coordinates":[-85.035364,39.848569]}},{"properties":{"hits":1.0,"city":"Camby","geo_score":0.857,"id":"a656rijtlzl9","geo_precision":"city","state":"IN"},"type":"Feature","geometry":{"type":"Point","coordinates":[-86.30309,39.6533]}},{"properties":{"hits":3.0,"city":"Cicero","geo_score":0.857,"id":"a656rimha7t5","geo_precision":"city","state":"IN"},"type":"Feature","geometry":{"type":"Point","coordinates":[-86.038337,40.154903]}},{"properties":{"hits":2.0,"city":"Clayton","geo_score":0.857,"id":"a656riifysgi","geo_precision":"city","state":"IN"},"type":"Feature","geometry":{"type":"Point","coordinates":[-86.495365,39.711088]}},{"properties":{"hits":3.0,"city":"Columbus","geo_score":0.786,"id":"a656rig645rl","geo_precision":"city","state":"IN"},"type":"Feature","geometry":{"type":"Point","coordinates":[-85.50042,41.14956]}},{"properties":{"hits":2.0,"city":"Connersville","geo_score":0.857,"id":"a656ricgqrl9","geo_precision":"city","state":"IN"},"type":"Feature","geometry":{"type":"Point","coordinates":[-85.168099,39.656933]}},{"properties":{"hits":2.0,"city":"Crawfordsville","geo_score":0.776,"id":"a656rifufgyh","geo_precision":"city","state":"IN"},"type":"Feature","geometry":{"type":"Point","coordinates":[-85.574133,38.962833]}},{"properties":{"hits":1.0,"city":"Daleville","geo_score":0.857,"id":"a656ridptwgr","geo_precision":"city","state":"IN"},"type":"Feature","geometry":{"type":"Point","coordinates":[-85.508457,40.143843]}},{"properties":{"hits":4.0,"city":"Eaton","geo_score":0.771,"id":"a656riae3xoo","geo_precision":"city","state":"IN"},"type":"Feature","geometry":{"type":"Point","coordinates":[-85.769978,39.906153]}},{"properties":{"hits":1.0,"city":"Edinburgh","geo_score":0.857,"id":"a656ribi94lv","geo_precision":"city","state":"IN"},"type":"Feature","geometry":{"type":"Point","coordinates":[-86.099838,39.430795]}},{"properties":{"hits":1.0,"city":"Elkhart","geo_score":0.857,"id":"a656rickonuo","geo_precision":"city","state":"IN"},"type":"Feature","geometry":{"type":"Point","coordinates":[-85.937024,41.71873]}},{"properties":{"hits":1.0,"city":"Ellettsville","geo_score":0.857,"id":"a656rifkmesu","geo_precision":"city","state":"IN"},"type":"Feature","geometry":{"type":"Point","coordinates":[-86.62658,39.276356]}},{"properties":{"hits":1.0,"city":"Elwood","geo_score":0.857,"id":"a656rindi5t9","geo_precision":"city","state":"IN"},"type":"Feature","geometry":{"type":"Point","coordinates":[-85.719657,40.27843]}},{"properties":{"hits":1.0,"city":"Evansville","geo_score":0.857,"id":"a656rik4f02q","geo_precision":"city","state":"IN"},"type":"Feature","geometry":{"type":"Point","coordinates":[-87.555848,37.974764]}},{"properties":{"hits":2.0,"city":"Fairland","geo_score":0.774,"id":"a656rig2yowh","geo_precision":"city","state":"IN"},"type":"Feature","geometry":{"type":"Point","coordinates":[-87.491134,40.614481]}},{"properties":{"hits":1.0,"city":"Farmland","geo_score":0.857,"id":"a656rielwr46","geo_precision":"city","state":"IN"},"type":"Feature","geometry":{"type":"Point","coordinates":[-85.14558,40.187565]}},{"properties":{"hits":4.0,"city":"Fishers","geo_score":0.857,"id":"a656rigbfz0r","geo_precision":"city","state":"IN"},"type":"Feature","geometry":{"type":"Point","coordinates":[-85.964894,39.967406]}},{"properties":{"hits":1.0,"city":"Fountain Town","geo_score":0.81,"id":"a656riju9ld9","geo_precision":"city","state":"IN"},"type":"Feature","geometry":{"type":"Point","coordinates":[-87.335289,40.22226]}},{"properties":{"hits":1.0,"city":"Frankfort","geo_score":0.857,"id":"a656rigj5abm","geo_precision":"city","state":"IN"},"type":"Feature","geometry":{"type":"Point","coordinates":[-86.468915,40.304355]}},{"properties":{"hits":2.0,"city":"Franklin","geo_score":0.857,"id":"a656ridbe1k9","geo_precision":"city","state":"IN"},"type":"Feature","geometry":{"type":"Point","coordinates":[-85.191076,39.973936]}},{"properties":{"hits":8.0,"city":"Ft. Wayne","geo_score":0.755,"id":"a656rimcxf6h","geo_precision":"city","state":"IN"},"type":"Feature","geometry":{"type":"Point","coordinates":[-85.149971,40.553379]}},{"properties":{"hits":1.0,"city":"Gary","geo_score":0.771,"id":"a656ri9wh7da","geo_precision":"city","state":"IN"},"type":"Feature","geometry":{"type":"Point","coordinates":[-86.924734,40.540869]}},{"properties":{"hits":2.0,"city":"Green Castle","geo_score":0.779,"id":"a656rifoquxw","geo_precision":"city","state":"IN"},"type":"Feature","geometry":{"type":"Point","coordinates":[-85.005241,39.962269]}},{"properties":{"hits":2.0,"city":"Greenfield","geo_score":0.786,"id":"a656rij2fliy","geo_precision":"city","state":"IN"},"type":"Feature","geometry":{"type":"Point","coordinates":[-85.318582,40.317265]}},{"properties":{"hits":2.0,"city":"Greenwood","geo_score":0.857,"id":"a656ria9l49g","geo_precision":"city","state":"IN"},"type":"Feature","geometry":{"type":"Point","coordinates":[-85.232752,41.55005]}},{"properties":{"hits":122.0,"city":"Indianapolis","geo_score":0.857,"id":"a656rijxidos","geo_precision":"city","state":"IN"},"type":"Feature","geometry":{"type":"Point","coordinates":[-86.158042,39.768377]}},{"properties":{"hits":1.0,"city":"Kempton","geo_score":0.857,"id":"a656ri9654gw","geo_precision":"city","state":"IN"},"type":"Feature","geometry":{"type":"Point","coordinates":[-86.146767,40.307545]}},{"properties":{"hits":2.0,"city":"Kokomo","geo_score":0.857,"id":"a656rin5jvvv","geo_precision":"city","state":"IN"},"type":"Feature","geometry":{"type":"Point","coordinates":[-86.171054,40.506851]}},{"properties":{"hits":4.0,"city":"Lafayette","geo_score":0.857,"id":"a656rijb0ymw","geo_precision":"city","state":"IN"},"type":"Feature","geometry":{"type":"Point","coordinates":[-86.830286,40.39905]}},{"properties":{"hits":2.0,"city":"Lebanon","geo_score":0.857,"id":"a656riczbniz","geo_precision":"city","state":"IN"},"type":"Feature","geometry":{"type":"Point","coordinates":[-86.490381,40.050302]}},{"properties":{"hits":1.0,"city":"Logansport","geo_score":0.857,"id":"a656ria9vbyy","geo_precision":"city","state":"IN"},"type":"Feature","geometry":{"type":"Point","coordinates":[-86.375168,40.77927]}},{"properties":{"hits":2.0,"city":"Marion","geo_score":0.786,"id":"a656ribfsxzw","geo_precision":"city","state":"IN"},"type":"Feature","geometry":{"type":"Point","coordinates":[-86.515278,40.387536]}},{"properties":{"hits":1.0,"city":"Markleville","geo_score":0.857,"id":"a656rigb9984","geo_precision":"city","state":"IN"},"type":"Feature","geometry":{"type":"Point","coordinates":[-85.617925,39.985793]}},{"properties":{"hits":2.0,"city":"Martinsville","geo_score":0.798,"id":"a656rifv5yc3","geo_precision":"city","state":"IN"},"type":"Feature","geometry":{"type":"Point","coordinates":[-86.026084,38.443951]}},{"properties":{"hits":1.0,"city":"Mishawaka","geo_score":0.857,"id":"a656ribmd3xt","geo_precision":"city","state":"IN"},"type":"Feature","geometry":{"type":"Point","coordinates":[-86.287884,41.61536]}},{"properties":{"hits":1.0,"city":"Monrovia","geo_score":0.857,"id":"a656rieddmiz","geo_precision":"city","state":"IN"},"type":"Feature","geometry":{"type":"Point","coordinates":[-86.531957,39.555178]}},{"properties":{"hits":1.0,"city":"Mooreland","geo_score":0.857,"id":"a656rifps1fs","geo_precision":"city","state":"IN"},"type":"Feature","geometry":{"type":"Point","coordinates":[-85.293037,40.01641]}},{"properties":{"hits":1.0,"city":"Morgantown","geo_score":0.857,"id":"a656rilub7p1","geo_precision":"city","state":"IN"},"type":"Feature","geometry":{"type":"Point","coordinates":[-86.261102,39.371437]}},{"properties":{"hits":18.0,"city":"Muncie","geo_score":0.857,"id":"a656rigq8qzp","geo_precision":"city","state":"IN"},"type":"Feature","geometry":{"type":"Point","coordinates":[-85.389874,40.142124]}},{"properties":{"hits":1.0,"city":"Noblesville","geo_score":0.857,"id":"a656rinzxv9q","geo_precision":"city","state":"IN"},"type":"Feature","geometry":{"type":"Point","coordinates":[-85.999521,40.073328]}},{"properties":{"hits":1.0,"city":"Osgood","geo_score":0.857,"id":"a656ribl2p3m","geo_precision":"city","state":"IN"},"type":"Feature","geometry":{"type":"Point","coordinates":[-85.285367,39.172808]}},{"properties":{"hits":4.0,"city":"Peru","geo_score":0.786,"id":"a656ri867yfi","geo_precision":"city","state":"IN"},"type":"Feature","geometry":{"type":"Point","coordinates":[-84.817176,39.433386]}},{"properties":{"hits":4.0,"city":"Plainfield","geo_score":0.857,"id":"a656rifneqyw","geo_precision":"city","state":"IN"},"type":"Feature","geometry":{"type":"Point","coordinates":[-86.423412,39.729892]}},{"properties":{"hits":1.0,"city":"Portland","geo_score":0.802,"id":"a656ri9yxgm1","geo_precision":"city","state":"IN"},"type":"Feature","geometry":{"type":"Point","coordinates":[-87.009178,39.7781]}},{"properties":{"hits":1.0,"city":"RedKey","geo_score":0.857,"id":"a656rii87lz9","geo_precision":"city","state":"IN"},"type":"Feature","geometry":{"type":"Point","coordinates":[-85.151994,40.359568]}},{"properties":{"hits":1.0,"city":"Richmond","geo_score":0.857,"id":"a656ril7lgfi","geo_precision":"city","state":"IN"},"type":"Feature","geometry":{"type":"Point","coordinates":[-85.010442,39.84081]}},{"properties":{"hits":1.0,"city":"Ridgeville","geo_score":0.857,"id":"a656riggmuhm","geo_precision":"city","state":"IN"},"type":"Feature","geometry":{"type":"Point","coordinates":[-85.048286,40.167082]}},{"properties":{"hits":2.0,"city":"Shelbyville","geo_score":0.857,"id":"a656riesadhs","geo_precision":"city","state":"IN"},"type":"Feature","geometry":{"type":"Point","coordinates":[-85.791993,39.511568]}},{"properties":{"hits":4.0,"city":"South Bend","geo_score":0.857,"id":"a656rias9vxm","geo_precision":"city","state":"IN"},"type":"Feature","geometry":{"type":"Point","coordinates":[-86.250007,41.683381]}},{"properties":{"hits":1.0,"city":"Summitville","geo_score":0.857,"id":"a656rifytjuq","geo_precision":"city","state":"IN"},"type":"Feature","geometry":{"type":"Point","coordinates":[-85.666794,40.314012]}},{"properties":{"hits":1.0,"city":"Waldron","geo_score":0.857,"id":"a656rinbyz4b","geo_precision":"city","state":"IN"},"type":"Feature","geometry":{"type":"Point","coordinates":[-85.781538,39.515]}},{"properties":{"hits":1.0,"city":"Westfield","geo_score":0.857,"id":"a656riikmpd9","geo_precision":"city","state":"IN"},"type":"Feature","geometry":{"type":"Point","coordinates":[-86.125716,40.097028]}},{"properties":{"hits":1.0,"city":"Whiteland","geo_score":0.794,"id":"a656ricm7qys","geo_precision":"city","state":"IN"},"type":"Feature","geometry":{"type":"Point","coordinates":[-86.177226,41.564493]}},{"properties":{"hits":2.0,"city":"Winchester","geo_score":0.857,"id":"a656ria4qmps","geo_precision":"city","state":"IN"},"type":"Feature","geometry":{"type":"Point","coordinates":[-84.984682,40.159854]}}],"is_temporal":false,"author":{"url":"","metadata":"","contact_name":"","contact_address":"","source":"","contact_phone":""},"source":"","pagination":{"sort":null,"start":0,"total":61,"limit":1000000},"state":"complete","tags":"","published":"2014-08-11T01:04:15-04:00","id":19225}