{"type":"FeatureCollection","data_type":"Dataset","url_type":null,"permissions":[{"permissions":{"download":true,"view":true},"group_id":"everyone"}],"classification":null,"title":"Chinese_Provinces_Cos_ISO_Map","count":31,"stream_id":192774,"contributor":{"url":"http://geocommons.com/users/38116","name":"yawen0618"},"data_attributes":null,"calculation_params":null,"icon_link":null,"link":"http://geocommons.com/overlays/192774.json","extent":[0.0,0.0,0.0,0.0],"geometry_types":[],"unique_name":null,"name":"Chinese_Provinces_Cos_ISO_Map","feature_count":31,"description":"","next_feature":null,"is_raster":false,"short_classification":"Y","stats":{"no of companies":{"max":64996,"mean":13291.3870967742,"variance":315655935.445161,"stdev":17766.7086272377,"min":46,"median":6726}},"features":[{"properties":{"geo_score":0.0,"iso 3166":"CN-34","id":"a6lsnnzrmt4m","geo_precision":"unmatched","province":"Anhui","location":"w","no of companies":10600},"type":"Feature","geometry":null},{"properties":{"geo_score":0.0,"iso 3166":"CN-11","id":"a6lsnnvqpvns","geo_precision":"unmatched","province":"Beijing","location":"_","no of companies":8383},"type":"Feature","geometry":null},{"properties":{"geo_score":0.0,"iso 3166":"CN-50","id":"a6lsnnqjsmmn","geo_precision":"unmatched","province":"Chongqing","location":"?","no of companies":6534},"type":"Feature","geometry":null},{"properties":{"geo_score":0.0,"iso 3166":"CN-35","id":"a6lsnnqmnxzy","geo_precision":"unmatched","province":"Fujian","location":null,"no of companies":17383},"type":"Feature","geometry":null},{"properties":{"geo_score":0.0,"iso 3166":"CN-62","id":"a6lsnnwzblnj","geo_precision":"unmatched","province":"Gansu","location":"?","no of companies":1593},"type":"Feature","geometry":null},{"properties":{"geo_score":0.0,"iso 3166":"CN-44","id":"a6lsnnn9adsn","geo_precision":"unmatched","province":"Guangdong","location":"??","no of companies":59652},"type":"Feature","geometry":null},{"properties":{"geo_score":0.0,"iso 3166":"CN-45","id":"a6lsnnvjnqpq","geo_precision":"unmatched","province":"Guangxi","location":"?","no of companies":4664},"type":"Feature","geometry":null},{"properties":{"geo_score":0.0,"iso 3166":"CN-52","id":"a6lsno03jdd9","geo_precision":"unmatched","province":"Guizhou","location":"?{","no of companies":2244},"type":"Feature","geometry":null},{"properties":{"geo_score":0.0,"iso 3166":"CN-46","id":"a6lsnntypfei","geo_precision":"unmatched","province":"Hainan","location":"n","no of companies":398},"type":"Feature","geometry":null},{"properties":{"geo_score":0.0,"iso 3166":"CN-13","id":"a6lsnnzvyylr","geo_precision":"unmatched","province":"Hebei","location":"e_","no of companies":11995},"type":"Feature","geometry":null},{"properties":{"geo_score":0.0,"iso 3166":"CN-23","id":"a6lsnnpg5wbp","geo_precision":"unmatched","province":"Heilongjiang","location":"?","no of companies":3950},"type":"Feature","geometry":null},{"properties":{"geo_score":0.0,"iso 3166":"CN-41","id":"a6lsnnyv1gar","geo_precision":"unmatched","province":"Henan","location":"en","no of companies":14116},"type":"Feature","geometry":null},{"properties":{"geo_score":0.0,"iso 3166":"CN-42","id":"a6lsnnm9h70x","geo_precision":"unmatched","province":"Hubei","location":"_","no of companies":9216},"type":"Feature","geometry":null},{"properties":{"geo_score":0.0,"iso 3166":"CN-43","id":"a6lsnnu5edxz","geo_precision":"unmatched","province":"Hunan","location":"n","no of companies":10586},"type":"Feature","geometry":null},{"properties":{"geo_score":0.0,"iso 3166":"CN-32","id":"a6lsnnq26w74","geo_precision":"unmatched","province":"Jiangsu","location":"?","no of companies":64996},"type":"Feature","geometry":null},{"properties":{"geo_score":0.0,"iso 3166":"CN-36","id":"a6lsnnujyfqi","geo_precision":"unmatched","province":"Jiangxi","location":null,"no of companies":6726},"type":"Feature","geometry":null},{"properties":{"geo_score":0.0,"iso 3166":"CN-22","id":"a6lsnns0ehn0","geo_precision":"unmatched","province":"Jilin","location":"NL","no of companies":4587},"type":"Feature","geometry":null},{"properties":{"geo_score":0.0,"iso 3166":"CN-21","id":"a6lsnnuwk9cg","geo_precision":"unmatched","province":"Liaoning","location":"?r","no of companies":22239},"type":"Feature","geometry":null},{"properties":{"geo_score":0.0,"iso 3166":"CN-15","id":"a6lsnnzwa1rz","geo_precision":"unmatched","province":"Neimenggu","location":"?Xj","no of companies":2914},"type":"Feature","geometry":null},{"properties":{"geo_score":0.0,"iso 3166":"CN-64","id":"a6lsnnx16hbz","geo_precision":"unmatched","province":"Ningxia","location":"rL","no of companies":798},"type":"Feature","geometry":null},{"properties":{"geo_score":0.0,"iso 3166":"CN-63","id":"a6lsnnsaa7r4","geo_precision":"unmatched","province":"Qinghai","location":"C","no of companies":452},"type":"Feature","geometry":null},{"properties":{"geo_score":0.0,"iso 3166":"CN-61","id":"a6lsnns4t8e1","geo_precision":"unmatched","province":"Shaanxi","location":"?","no of companies":3242},"type":"Feature","geometry":null},{"properties":{"geo_score":0.0,"iso 3166":"CN-37","id":"a6lsnnqamblh","geo_precision":"unmatched","province":"Shandong","location":"s?","no of companies":34437},"type":"Feature","geometry":null},{"properties":{"geo_score":0.0,"iso 3166":"CN-31","id":"a6lsno2dot7t","geo_precision":"unmatched","province":"Shanghai","location":"W","no of companies":21025},"type":"Feature","geometry":null},{"properties":{"geo_score":0.0,"iso 3166":"CN-14","id":"a6lsno251n37","geo_precision":"unmatched","province":"Shanxi","location":"s","no of companies":4325},"type":"Feature","geometry":null},{"properties":{"geo_score":0.0,"iso 3166":"CN-51","id":"a6lsnnvy1i3j","geo_precision":"unmatched","province":"Sichuan","location":"|t","no of companies":11838},"type":"Feature","geometry":null},{"properties":{"geo_score":0.0,"iso 3166":"CN-12","id":"a6lsnnyi8tk0","geo_precision":"unmatched","province":"Tianjin","location":"z","no of companies":9056},"type":"Feature","geometry":null},{"properties":{"geo_score":0.0,"iso 3166":"CN-54","id":"a6lsno23uio1","geo_precision":"unmatched","province":"Tibet","location":null,"no of companies":46},"type":"Feature","geometry":null},{"properties":{"geo_score":0.0,"iso 3166":"CN-65","id":"a6lsno1hixa7","geo_precision":"unmatched","province":"Xinjiang","location":"s","no of companies":1413},"type":"Feature","geometry":null},{"properties":{"geo_score":0.0,"iso 3166":"CN-53","id":"a6lsnnwp8d9m","geo_precision":"unmatched","province":"Yunnan","location":"n","no of companies":2693},"type":"Feature","geometry":null},{"properties":{"geo_score":0.0,"iso 3166":"CN-33","id":"a6lsnnqox0q8","geo_precision":"unmatched","province":"Zhejiang","location":null,"no of companies":59932},"type":"Feature","geometry":null}],"is_temporal":false,"author":{"url":"","metadata":null,"contact_name":null,"contact_address":null,"source":null,"contact_phone":null},"source":"","pagination":{"sort":null,"start":0,"total":31,"limit":1000000},"state":"complete","tags":"","published":"2014-08-13T00:35:28-04:00","id":192774}