{"type":"FeatureCollection","data_type":"Dataset","url_type":null,"permissions":[{"permissions":{"download":true,"view":true},"group_id":"everyone"}],"classification":null,"title":"Victorian Muslims by Postcode","count":653,"stream_id":194324,"contributor":{"url":"http://geocommons.com/users/21090","name":"ummyasmin"},"data_attributes":null,"calculation_params":null,"icon_link":null,"link":"http://geocommons.com/overlays/194324.json","extent":[0.0,-38.7818,149.729,0.0],"geometry_types":["point"],"unique_name":null,"name":"Victorian Muslims by Postcode","feature_count":653,"description":"This maps those who indicated their religion as Islam on the 2006 Census (ABS) and residing in Victoria - by postcode.","next_feature":null,"is_raster":false,"short_classification":"Y","stats":{"no. of muslims":{"max":5962,"mean":167.258805513017,"variance":323435.958990602,"stdev":568.71430348691,"min":0,"median":3}},"features":[{"properties":{"postcode":"3000","no. of muslims":460,"id":"a63yyj461gly"},"type":"Feature","geometry":{"type":"Point","coordinates":[144.970267,-37.814563]}},{"properties":{"postcode":"3002","no. of muslims":13,"id":"a63yyj38k9hj"},"type":"Feature","geometry":{"type":"Point","coordinates":[144.987811,-37.81664]}},{"properties":{"postcode":"3003","no. of muslims":69,"id":"a63yyixklyji"},"type":"Feature","geometry":{"type":"Point","coordinates":[144.941123,-37.806255]}},{"properties":{"postcode":"3004","no. of muslims":81,"id":"a63yyj0b3y0l"},"type":"Feature","geometry":{"type":"Point","coordinates":[144.976335,-37.837324]}},{"properties":{"postcode":"3005","no. of muslims":15,"id":"a63yyj27a6e2"},"type":"Feature","geometry":{"type":"Point","coordinates":[144.954856,-37.822262]}},{"properties":{"postcode":"3006","no. of muslims":193,"id":"a63yyj5i5vi0"},"type":"Feature","geometry":{"type":"Point","coordinates":[144.965926,-37.823258]}},{"properties":{"postcode":"3008","no. of muslims":67,"id":"a63yyj1nhfgx"},"type":"Feature","geometry":{"type":"Point","coordinates":[144.948039,-37.814719]}},{"properties":{"postcode":"3010","no. of muslims":11,"id":"a63yyiwssd9h"},"type":"Feature","geometry":{"type":"Point","coordinates":[144.961351,-37.796152]}},{"properties":{"postcode":"3011","no. of muslims":828,"id":"a63yyj61z8od"},"type":"Feature","geometry":{"type":"Point","coordinates":[144.899587,-37.79977]}},{"properties":{"postcode":"3012","no. of muslims":914,"id":"a63yyj6awzjl"},"type":"Feature","geometry":{"type":"Point","coordinates":[144.847108,-37.814624]}},{"properties":{"postcode":"3013","no. of muslims":238,"id":"a63yyj7hzmno"},"type":"Feature","geometry":{"type":"Point","coordinates":[144.889774,-37.816178]}},{"properties":{"postcode":"3015","no. of muslims":571,"id":"a63yyixoqthh"},"type":"Feature","geometry":{"type":"Point","coordinates":[144.883145,-37.842477]}},{"properties":{"postcode":"3016","no. of muslims":121,"id":"a63yyj0zl8dp"},"type":"Feature","geometry":{"type":"Point","coordinates":[144.897698,-37.856902]}},{"properties":{"postcode":"3018","no. of muslims":115,"id":"a63yyj2dh1j1"},"type":"Feature","geometry":{"type":"Point","coordinates":[144.830286,-37.869275]}},{"properties":{"postcode":"3019","no. of muslims":520,"id":"a63yyj70ffid"},"type":"Feature","geometry":{"type":"Point","coordinates":[144.855359,-37.779309]}},{"properties":{"postcode":"3020","no. of muslims":1552,"id":"a63yyj1t3kua"},"type":"Feature","geometry":{"type":"Point","coordinates":[144.819395,-37.775954]}},{"properties":{"postcode":"3021","no. of muslims":2823,"id":"a63yyj0cnbmo"},"type":"Feature","geometry":{"type":"Point","coordinates":[144.770027,-37.745934]}},{"properties":{"postcode":"3022","no. of muslims":94,"id":"a63yyj4x6tvx"},"type":"Feature","geometry":{"type":"Point","coordinates":[144.801018,-37.78292]}},{"properties":{"postcode":"3023","no. of muslims":1984,"id":"a63yyj3noq41"},"type":"Feature","geometry":{"type":"Point","coordinates":[144.752618,-37.753381]}},{"properties":{"postcode":"3024","no. of muslims":169,"id":"a63yyj8flgu9"},"type":"Feature","geometry":{"type":"Point","coordinates":[144.556552,-37.899873]}},{"properties":{"postcode":"3025","no. of muslims":1495,"id":"a63yyiwgb8pq"},"type":"Feature","geometry":{"type":"Point","coordinates":[144.85995,-37.835657]}},{"properties":{"postcode":"3026","no. of muslims":7,"id":"a63yyj1n4rwp"},"type":"Feature","geometry":{"type":"Point","coordinates":[144.795959,-37.841653]}},{"properties":{"postcode":"3027","no. of muslims":0,"id":"a63yyj255gg2"},"type":"Feature","geometry":{"type":"Point","coordinates":[144.760517,-37.859941]}},{"properties":{"postcode":"3028","no. of muslims":1162,"id":"a63yyiwprj7j"},"type":"Feature","geometry":{"type":"Point","coordinates":[144.778084,-37.871632]}},{"properties":{"postcode":"3029","no. of muslims":2111,"id":"a63yyj640h8e"},"type":"Feature","geometry":{"type":"Point","coordinates":[144.700297,-37.882636]}},{"properties":{"postcode":"3030","no. of muslims":1461,"id":"a63yyj25u7bd"},"type":"Feature","geometry":{"type":"Point","coordinates":[144.582987,-37.969994]}},{"properties":{"postcode":"3031","no. of muslims":1200,"id":"a63yyix97c5z"},"type":"Feature","geometry":{"type":"Point","coordinates":[144.931472,-37.788375]}},{"properties":{"postcode":"3032","no. of muslims":670,"id":"a63yyiy50lsn"},"type":"Feature","geometry":{"type":"Point","coordinates":[144.923377,-37.77583]}},{"properties":{"postcode":"3033","no. of muslims":183,"id":"a63yyj2crfjk"},"type":"Feature","geometry":{"type":"Point","coordinates":[144.796336,-37.736264]}},{"properties":{"postcode":"3034","no. of muslims":148,"id":"a63yyj3z12np"},"type":"Feature","geometry":{"type":"Point","coordinates":[144.81515,-37.742284]}},{"properties":{"postcode":"3036","no. of muslims":74,"id":"a63yyj1wywil"},"type":"Feature","geometry":{"type":"Point","coordinates":[144.834166,-37.718965]}},{"properties":{"postcode":"3037","no. of muslims":2061,"id":"a63yyizoz01w"},"type":"Feature","geometry":{"type":"Point","coordinates":[144.780474,-37.715579]}},{"properties":{"postcode":"3038","no. of muslims":1487,"id":"a63yyiwe8bxe"},"type":"Feature","geometry":{"type":"Point","coordinates":[144.811346,-37.725726]}},{"properties":{"postcode":"3039","no. of muslims":143,"id":"a63yyivn2foz"},"type":"Feature","geometry":{"type":"Point","coordinates":[144.919163,-37.765707]}},{"properties":{"postcode":"3040","no. of muslims":194,"id":"a63yyixoneq7"},"type":"Feature","geometry":{"type":"Point","coordinates":[144.896259,-37.75669]}},{"properties":{"postcode":"3041","no. of muslims":149,"id":"a63yyiy5imyt"},"type":"Feature","geometry":{"type":"Point","coordinates":[144.909853,-37.744374]}},{"properties":{"postcode":"3042","no. of muslims":146,"id":"a63yyj471sff"},"type":"Feature","geometry":{"type":"Point","coordinates":[144.887037,-37.711698]}},{"properties":{"postcode":"3043","no. of muslims":569,"id":"a63yyiuyzjv0"},"type":"Feature","geometry":{"type":"Point","coordinates":[144.883628,-37.68861]}},{"properties":{"postcode":"3044","no. of muslims":982,"id":"a63yyivemyuc"},"type":"Feature","geometry":{"type":"Point","coordinates":[144.939122,-37.727568]}},{"properties":{"postcode":"3045","no. of muslims":0,"id":"a63yyj5skh1i"},"type":"Feature","geometry":{"type":"Point","coordinates":[144.833931,-37.668873]}},{"properties":{"postcode":"3046","no. of muslims":3094,"id":"a63yyixnbhgr"},"type":"Feature","geometry":{"type":"Point","coordinates":[144.915758,-37.704581]}},{"properties":{"postcode":"3047","no. of muslims":5039,"id":"a63yyj6nw59g"},"type":"Feature","geometry":{"type":"Point","coordinates":[144.921009,-37.680792]}},{"properties":{"postcode":"3048","no. of muslims":5962,"id":"a63yyitrctzn"},"type":"Feature","geometry":{"type":"Point","coordinates":[144.930466,-37.651811]}},{"properties":{"postcode":"3049","no. of muslims":443,"id":"a63yyivfyvf4"},"type":"Feature","geometry":{"type":"Point","coordinates":[144.88529,-37.667515]}},{"properties":{"postcode":"3050","no. of muslims":0,"id":"a63yyj8sknav"},"type":"Feature","geometry":{"type":"Point","coordinates":[144.955627,-37.798631]}},{"properties":{"postcode":"3051","no. of muslims":711,"id":"a63yyiw5v37o"},"type":"Feature","geometry":{"type":"Point","coordinates":[145.056254,-37.905996]}},{"properties":{"postcode":"3052","no. of muslims":56,"id":"a63yyj4ww1vg"},"type":"Feature","geometry":{"type":"Point","coordinates":[144.961351,-37.796152]}},{"properties":{"postcode":"3053","no. of muslims":1235,"id":"a63yyj08uesh"},"type":"Feature","geometry":{"type":"Point","coordinates":[144.969747,-37.784337]}},{"properties":{"postcode":"3054","no. of muslims":120,"id":"a63yyiucsqgt"},"type":"Feature","geometry":{"type":"Point","coordinates":[144.969747,-37.784337]}},{"properties":{"postcode":"3055","no. of muslims":644,"id":"a63yyiyh33dj"},"type":"Feature","geometry":{"type":"Point","coordinates":[144.944635,-37.772049]}},{"properties":{"postcode":"3056","no. of muslims":974,"id":"a63yyj4cjakj"},"type":"Feature","geometry":{"type":"Point","coordinates":[144.943778,-37.764829]}},{"properties":{"postcode":"3057","no. of muslims":177,"id":"a63yyix5qrxx"},"type":"Feature","geometry":{"type":"Point","coordinates":[144.979567,-37.76491]}},{"properties":{"postcode":"3058","no. of muslims":2619,"id":"a63yyj4olhvq"},"type":"Feature","geometry":{"type":"Point","coordinates":[144.962837,-37.733524]}},{"properties":{"postcode":"3059","no. of muslims":865,"id":"a63yyj3qdj3j"},"type":"Feature","geometry":{"type":"Point","coordinates":[144.88872,-37.642984]}},{"properties":{"postcode":"3060","no. of muslims":2036,"id":"a63yyj37peaf"},"type":"Feature","geometry":{"type":"Point","coordinates":[144.89571,-37.759823]}},{"properties":{"postcode":"3061","no. of muslims":1649,"id":"a63yyj5oi617"},"type":"Feature","geometry":{"type":"Point","coordinates":[144.951369,-37.643746]}},{"properties":{"postcode":"3062","no. of muslims":0,"id":"a63yyiuyx0ug"},"type":"Feature","geometry":{"type":"Point","coordinates":[144.944259,-37.642563]}},{"properties":{"postcode":"3064","no. of muslims":5132,"id":"a63yyj26qroh"},"type":"Feature","geometry":{"type":"Point","coordinates":[144.941287,-37.598975]}},{"properties":{"postcode":"3065","no. of muslims":333,"id":"a63yyj10lujt"},"type":"Feature","geometry":{"type":"Point","coordinates":[144.979165,-37.800917]}},{"properties":{"postcode":"3066","no. of muslims":342,"id":"a63yyj5llvzw"},"type":"Feature","geometry":{"type":"Point","coordinates":[144.984149,-37.800366]}},{"properties":{"postcode":"3067","no. of muslims":19,"id":"a63yyiv5nx9x"},"type":"Feature","geometry":{"type":"Point","coordinates":[144.998752,-37.801781]}},{"properties":{"postcode":"3068","no. of muslims":205,"id":"a63yyj0tlqrp"},"type":"Feature","geometry":{"type":"Point","coordinates":[144.992067,-37.788118]}},{"properties":{"postcode":"3070","no. of muslims":293,"id":"a63yyj451ggm"},"type":"Feature","geometry":{"type":"Point","coordinates":[144.995276,-37.769857]}},{"properties":{"postcode":"3071","no. of muslims":465,"id":"a63yyj6qu1lw"},"type":"Feature","geometry":{"type":"Point","coordinates":[144.998589,-37.75504]}},{"properties":{"postcode":"3072","no. of muslims":1406,"id":"a63yyiy2d31y"},"type":"Feature","geometry":{"type":"Point","coordinates":[145.027716,-37.742047]}},{"properties":{"postcode":"3073","no. of muslims":2337,"id":"a63yyiuiwl6q"},"type":"Feature","geometry":{"type":"Point","coordinates":[145.011907,-37.694672]}},{"properties":{"postcode":"3074","no. of muslims":2298,"id":"a63yyiubgs2v"},"type":"Feature","geometry":{"type":"Point","coordinates":[145.014287,-37.680338]}},{"properties":{"postcode":"3075","no. of muslims":2101,"id":"a63yyj387uoi"},"type":"Feature","geometry":{"type":"Point","coordinates":[145.017194,-37.665857]}},{"properties":{"postcode":"3076","no. of muslims":816,"id":"a63yyj8iqwnu"},"type":"Feature","geometry":{"type":"Point","coordinates":[145.009493,-37.638363]}},{"properties":{"postcode":"3078","no. of muslims":85,"id":"a63yyizpl1fm"},"type":"Feature","geometry":{"type":"Point","coordinates":[145.03116,-37.780767]}},{"properties":{"postcode":"3079","no. of muslims":150,"id":"a63yyj5vg8j6"},"type":"Feature","geometry":{"type":"Point","coordinates":[145.041425,-37.76964]}},{"properties":{"postcode":"3081","no. of muslims":1041,"id":"a63yyiy67nkr"},"type":"Feature","geometry":{"type":"Point","coordinates":[145.045449,-37.751819]}},{"properties":{"postcode":"3082","no. of muslims":1014,"id":"a63yyj3oln6v"},"type":"Feature","geometry":{"type":"Point","coordinates":[145.060693,-37.667957]}},{"properties":{"postcode":"3083","no. of muslims":664,"id":"a63yyj4hgq9t"},"type":"Feature","geometry":{"type":"Point","coordinates":[145.071967,-37.70132]}},{"properties":{"postcode":"3084","no. of muslims":190,"id":"a63yyj8dbo1a"},"type":"Feature","geometry":{"type":"Point","coordinates":[145.08793,-37.744219]}},{"properties":{"postcode":"3085","no. of muslims":130,"id":"a63yyivyrfwn"},"type":"Feature","geometry":{"type":"Point","coordinates":[145.068457,-37.726038]}},{"properties":{"postcode":"3086","no. of muslims":36,"id":"a63yyj6h9j17"},"type":"Feature","geometry":{"type":"Point","coordinates":[145.047012,-37.721328]}},{"properties":{"postcode":"3087","no. of muslims":30,"id":"a63yyj6l1wqq"},"type":"Feature","geometry":{"type":"Point","coordinates":[145.082098,-37.712531]}},{"properties":{"postcode":"3088","no. of muslims":178,"id":"a63yyj1pgpi8"},"type":"Feature","geometry":{"type":"Point","coordinates":[145.120135,-37.709483]}},{"properties":{"postcode":"3089","no. of muslims":41,"id":"a63yyj44saq4"},"type":"Feature","geometry":{"type":"Point","coordinates":[145.217595,-37.642629]}},{"properties":{"postcode":"3090","no. of muslims":0,"id":"a63yyixmrmpa"},"type":"Feature","geometry":{"type":"Point","coordinates":[145.124024,-37.671565]}},{"properties":{"postcode":"3091","no. of muslims":3,"id":"a63yyixdp3md"},"type":"Feature","geometry":{"type":"Point","coordinates":[145.132663,-37.639769]}},{"properties":{"postcode":"3093","no. of muslims":47,"id":"a63yyiw20h23"},"type":"Feature","geometry":{"type":"Point","coordinates":[145.088118,-37.730758]}},{"properties":{"postcode":"3094","no. of muslims":15,"id":"a63yyiuf3j0c"},"type":"Feature","geometry":{"type":"Point","coordinates":[145.121583,-37.715294]}},{"properties":{"postcode":"3095","no. of muslims":66,"id":"a63yyivzco6r"},"type":"Feature","geometry":{"type":"Point","coordinates":[145.148537,-37.71383]}},{"properties":{"postcode":"3096","no. of muslims":3,"id":"a63yyizm43z9"},"type":"Feature","geometry":{"type":"Point","coordinates":[145.190928,-37.670101]}},{"properties":{"postcode":"3097","no. of muslims":0,"id":"a63yyj2cswd6"},"type":"Feature","geometry":{"type":"Point","coordinates":[145.284134,-37.697232]}},{"properties":{"postcode":"3099","no. of muslims":3,"id":"a63yyj4eg7i0"},"type":"Feature","geometry":{"type":"Point","coordinates":[145.218156,-37.587697]}},{"properties":{"postcode":"3101","no. of muslims":98,"id":"a63yyj0xkjrn"},"type":"Feature","geometry":{"type":"Point","coordinates":[145.044922,-37.808497]}},{"properties":{"postcode":"3102","no. of muslims":36,"id":"a63yyj3g10j1"},"type":"Feature","geometry":{"type":"Point","coordinates":[145.049017,-37.796246]}},{"properties":{"postcode":"3103","no. of muslims":102,"id":"a63yyius1ewz"},"type":"Feature","geometry":{"type":"Point","coordinates":[145.082303,-37.809701]}},{"properties":{"postcode":"3104","no. of muslims":145,"id":"a63yyj2pt8me"},"type":"Feature","geometry":{"type":"Point","coordinates":[145.071727,-37.792835]}},{"properties":{"postcode":"3105","no. of muslims":101,"id":"a63yyivanpa4"},"type":"Feature","geometry":{"type":"Point","coordinates":[145.079543,-37.768554]}},{"properties":{"postcode":"3106","no. of muslims":425,"id":"a63yyj4o2z97"},"type":"Feature","geometry":{"type":"Point","coordinates":[145.117873,-37.768882]}},{"properties":{"postcode":"3107","no. of muslims":241,"id":"a63yyj2hxhcz"},"type":"Feature","geometry":{"type":"Point","coordinates":[145.102997,-37.7563]}},{"properties":{"postcode":"3108","no. of muslims":328,"id":"a63yyj3hcg25"},"type":"Feature","geometry":{"type":"Point","coordinates":[145.122517,-37.783031]}},{"properties":{"postcode":"3109","no. of muslims":618,"id":"a63yyiwmudmc"},"type":"Feature","geometry":{"type":"Point","coordinates":[145.19474,-37.811994]}},{"properties":{"postcode":"3111","no. of muslims":105,"id":"a63yyiwkdek8"},"type":"Feature","geometry":{"type":"Point","coordinates":[144.468019,-38.183899]}},{"properties":{"postcode":"3113","no. of muslims":44,"id":"a63yyixnk3ej"},"type":"Feature","geometry":{"type":"Point","coordinates":[145.221282,-37.731758]}},{"properties":{"postcode":"3114","no. of muslims":6,"id":"a63yyiv097id"},"type":"Feature","geometry":{"type":"Point","coordinates":[145.214586,-37.778442]}},{"properties":{"postcode":"3115","no. of muslims":0,"id":"a63yyj589w5h"},"type":"Feature","geometry":{"type":"Point","coordinates":[145.270483,-37.738666]}},{"properties":{"postcode":"3116","no. of muslims":46,"id":"a63yyj50espy"},"type":"Feature","geometry":{"type":"Point","coordinates":[145.326463,-37.750325]}},{"properties":{"postcode":"3121","no. of muslims":233,"id":"a63yyj44aht3"},"type":"Feature","geometry":{"type":"Point","coordinates":[145.007098,-37.826869]}},{"properties":{"postcode":"3122","no. of muslims":266,"id":"a63yyivy1l1w"},"type":"Feature","geometry":{"type":"Point","coordinates":[145.045951,-37.842105]}},{"properties":{"postcode":"3123","no. of muslims":124,"id":"a63yyitfeuqg"},"type":"Feature","geometry":{"type":"Point","coordinates":[145.044832,-37.832121]}},{"properties":{"postcode":"3124","no. of muslims":90,"id":"a63yyj7o3a4r"},"type":"Feature","geometry":{"type":"Point","coordinates":[145.057957,-37.824818]}},{"properties":{"postcode":"3125","no. of muslims":139,"id":"a63yyj6mez14"},"type":"Feature","geometry":{"type":"Point","coordinates":[145.115681,-37.844825]}},{"properties":{"postcode":"3126","no. of muslims":29,"id":"a63yyiv592ys"},"type":"Feature","geometry":{"type":"Point","coordinates":[145.094524,-37.840195]}},{"properties":{"postcode":"3127","no. of muslims":64,"id":"a63yyj9m44v0"},"type":"Feature","geometry":{"type":"Point","coordinates":[145.104996,-37.821232]}},{"properties":{"postcode":"3128","no. of muslims":120,"id":"a63yyj2vy20w"},"type":"Feature","geometry":{"type":"Point","coordinates":[145.119314,-37.817455]}},{"properties":{"postcode":"3129","no. of muslims":105,"id":"a63yyj683xcz"},"type":"Feature","geometry":{"type":"Point","coordinates":[145.126869,-37.801761]}},{"properties":{"postcode":"3130","no. of muslims":173,"id":"a63yyj4n9091"},"type":"Feature","geometry":{"type":"Point","coordinates":[145.153852,-37.819374]}},{"properties":{"postcode":"3131","no. of muslims":231,"id":"a63yyj705r7s"},"type":"Feature","geometry":{"type":"Point","coordinates":[145.183948,-37.837379]}},{"properties":{"postcode":"3132","no. of muslims":111,"id":"a63yyj747sap"},"type":"Feature","geometry":{"type":"Point","coordinates":[145.193712,-37.816878]}},{"properties":{"postcode":"3133","no. of muslims":174,"id":"a63yyj50x3zb"},"type":"Feature","geometry":{"type":"Point","coordinates":[145.194651,-37.836235]}},{"properties":{"postcode":"3134","no. of muslims":169,"id":"a63yyiw6cu5k"},"type":"Feature","geometry":{"type":"Point","coordinates":[145.227362,-37.81402]}},{"properties":{"postcode":"3135","no. of muslims":54,"id":"a63yyiznbzrw"},"type":"Feature","geometry":{"type":"Point","coordinates":[145.246663,-37.820951]}},{"properties":{"postcode":"3136","no. of muslims":132,"id":"a63yyj7n3rn7"},"type":"Feature","geometry":{"type":"Point","coordinates":[145.280685,-37.798729]}},{"properties":{"postcode":"3137","no. of muslims":27,"id":"a63yyivrmgux"},"type":"Feature","geometry":{"type":"Point","coordinates":[145.312198,-37.802304]}},{"properties":{"postcode":"3138","no. of muslims":33,"id":"a63yyj0owtvn"},"type":"Feature","geometry":{"type":"Point","coordinates":[145.329954,-37.774337]}},{"properties":{"postcode":"3139","no. of muslims":16,"id":"a63yyiyinfan"},"type":"Feature","geometry":{"type":"Point","coordinates":[145.538569,-37.795679]}},{"properties":{"postcode":"3140","no. of muslims":29,"id":"a63yyitpwabk"},"type":"Feature","geometry":{"type":"Point","coordinates":[145.347707,-37.755519]}},{"properties":{"postcode":"3141","no. of muslims":235,"id":"a63yyj8he68o"},"type":"Feature","geometry":{"type":"Point","coordinates":[144.063338,-36.990185]}},{"properties":{"postcode":"3142","no. of muslims":72,"id":"a63yyivu3do1"},"type":"Feature","geometry":{"type":"Point","coordinates":[145.001779,-37.842378]}},{"properties":{"postcode":"3143","no. of muslims":76,"id":"a63yyj4hl7lz"},"type":"Feature","geometry":{"type":"Point","coordinates":[145.018505,-37.85934]}},{"properties":{"postcode":"3144","no. of muslims":66,"id":"a63yyj2jn0w3"},"type":"Feature","geometry":{"type":"Point","coordinates":[145.032101,-37.840702]}},{"properties":{"postcode":"3145","no. of muslims":187,"id":"a63yyj1lvinb"},"type":"Feature","geometry":{"type":"Point","coordinates":[145.041976,-37.875412]}},{"properties":{"postcode":"3146","no. of muslims":144,"id":"a63yyj6ewgwn"},"type":"Feature","geometry":{"type":"Point","coordinates":[145.067215,-37.854687]}},{"properties":{"postcode":"3147","no. of muslims":164,"id":"a63yyj41kmzy"},"type":"Feature","geometry":{"type":"Point","coordinates":[145.07942,-37.863393]}},{"properties":{"postcode":"3148","no. of muslims":199,"id":"a63yyj39mu5u"},"type":"Feature","geometry":{"type":"Point","coordinates":[145.082527,-37.886372]}},{"properties":{"postcode":"3149","no. of muslims":207,"id":"a63yyj2cwhc3"},"type":"Feature","geometry":{"type":"Point","coordinates":[145.128398,-37.875273]}},{"properties":{"postcode":"3150","no. of muslims":696,"id":"a63yyj5y2bj6"},"type":"Feature","geometry":{"type":"Point","coordinates":[145.166222,-37.877631]}},{"properties":{"postcode":"3151","no. of muslims":95,"id":"a63yyj05jwtq"},"type":"Feature","geometry":{"type":"Point","coordinates":[145.138553,-37.858352]}},{"properties":{"postcode":"3152","no. of muslims":312,"id":"a63yyj8a69nu"},"type":"Feature","geometry":{"type":"Point","coordinates":[145.241382,-37.869224]}},{"properties":{"postcode":"3153","no. of muslims":136,"id":"a63yyj7yfirv"},"type":"Feature","geometry":{"type":"Point","coordinates":[145.266725,-37.84126]}},{"properties":{"postcode":"3154","no. of muslims":3,"id":"a63yyizwl26q"},"type":"Feature","geometry":{"type":"Point","coordinates":[145.307133,-37.851467]}},{"properties":{"postcode":"3155","no. of muslims":79,"id":"a63yyj487jru"},"type":"Feature","geometry":{"type":"Point","coordinates":[145.275762,-37.861504]}},{"properties":{"postcode":"3156","no. of muslims":217,"id":"a63yyj0ezxk7"},"type":"Feature","geometry":{"type":"Point","coordinates":[145.295404,-37.883019]}},{"properties":{"postcode":"3158","no. of muslims":17,"id":"a63yyj3u7z35"},"type":"Feature","geometry":{"type":"Point","coordinates":[145.33131,-37.903672]}},{"properties":{"postcode":"3159","no. of muslims":3,"id":"a63yyj758bvx"},"type":"Feature","geometry":{"type":"Point","coordinates":[145.403546,-37.921323]}},{"properties":{"postcode":"3160","no. of muslims":7,"id":"a63yyiw2bfdx"},"type":"Feature","geometry":{"type":"Point","coordinates":[145.355075,-37.908422]}},{"properties":{"postcode":"3161","no. of muslims":50,"id":"a63yyj63q6mu"},"type":"Feature","geometry":{"type":"Point","coordinates":[145.309748,-38.033451]}},{"properties":{"postcode":"3162","no. of muslims":77,"id":"a63yyj7g83cc"},"type":"Feature","geometry":{"type":"Point","coordinates":[145.026806,-37.880479]}},{"properties":{"postcode":"3163","no. of muslims":240,"id":"a63yyityc87x"},"type":"Feature","geometry":{"type":"Point","coordinates":[145.058121,-37.889336]}},{"properties":{"postcode":"3165","no. of muslims":118,"id":"a63yyivkg4gk"},"type":"Feature","geometry":{"type":"Point","coordinates":[145.059412,-37.927402]}},{"properties":{"postcode":"3166","no. of muslims":309,"id":"a63yyj0qalcp"},"type":"Feature","geometry":{"type":"Point","coordinates":[145.076545,-37.895763]}},{"properties":{"postcode":"3167","no. of muslims":151,"id":"a63yyj85xjki"},"type":"Feature","geometry":{"type":"Point","coordinates":[145.0964,-37.926986]}},{"properties":{"postcode":"3168","no. of muslims":644,"id":"a63yyixs59d5"},"type":"Feature","geometry":{"type":"Point","coordinates":[145.119662,-37.925488]}},{"properties":{"postcode":"3169","no. of muslims":591,"id":"a63yyitda6b6"},"type":"Feature","geometry":{"type":"Point","coordinates":[145.10244,-37.941228]}},{"properties":{"postcode":"3170","no. of muslims":242,"id":"a63yyiyegmp1"},"type":"Feature","geometry":{"type":"Point","coordinates":[145.102866,-37.869611]}},{"properties":{"postcode":"3171","no. of muslims":577,"id":"a63yyj1lswn6"},"type":"Feature","geometry":{"type":"Point","coordinates":[145.15696,-37.950802]}},{"properties":{"postcode":"3172","no. of muslims":501,"id":"a63yyiz94ao7"},"type":"Feature","geometry":{"type":"Point","coordinates":[145.119941,-37.973323]}},{"properties":{"postcode":"3173","no. of muslims":1087,"id":"a63yyj7c9t6r"},"type":"Feature","geometry":{"type":"Point","coordinates":[145.149037,-37.989707]}},{"properties":{"postcode":"3174","no. of muslims":2215,"id":"a63yyj3vxjib"},"type":"Feature","geometry":{"type":"Point","coordinates":[145.176167,-37.967254]}},{"properties":{"postcode":"3175","no. of muslims":5617,"id":"a63yyiwqbii4"},"type":"Feature","geometry":{"type":"Point","coordinates":[145.179482,-38.033107]}},{"properties":{"postcode":"3177","no. of muslims":545,"id":"a63yyixalt60"},"type":"Feature","geometry":{"type":"Point","coordinates":[145.240156,-37.995245]}},{"properties":{"postcode":"3178","no. of muslims":707,"id":"a63yyj1orwcx"},"type":"Feature","geometry":{"type":"Point","coordinates":[145.235811,-37.928005]}},{"properties":{"postcode":"3179","no. of muslims":92,"id":"a63yyiymggo3"},"type":"Feature","geometry":{"type":"Point","coordinates":[145.26427,-37.864883]}},{"properties":{"postcode":"3180","no. of muslims":40,"id":"a63yyj30d1fz"},"type":"Feature","geometry":{"type":"Point","coordinates":[145.248383,-37.888895]}},{"properties":{"postcode":"3181","no. of muslims":314,"id":"a63yyj2urugr"},"type":"Feature","geometry":{"type":"Point","coordinates":[144.993714,-37.849577]}},{"properties":{"postcode":"3182","no. of muslims":110,"id":"a63yyizirrec"},"type":"Feature","geometry":{"type":"Point","coordinates":[144.978814,-37.867573]}},{"properties":{"postcode":"3183","no. of muslims":144,"id":"a63yyj10cog1"},"type":"Feature","geometry":{"type":"Point","coordinates":[144.995478,-37.869023]}},{"properties":{"postcode":"3184","no. of muslims":60,"id":"a63yyj6jmts7"},"type":"Feature","geometry":{"type":"Point","coordinates":[144.996354,-37.882825]}},{"properties":{"postcode":"3185","no. of muslims":41,"id":"a63yyj5btxta"},"type":"Feature","geometry":{"type":"Point","coordinates":[145.004153,-37.884724]}},{"properties":{"postcode":"3186","no. of muslims":67,"id":"a63yyixxc90w"},"type":"Feature","geometry":{"type":"Point","coordinates":[144.991682,-37.913149]}},{"properties":{"postcode":"3187","no. of muslims":70,"id":"a63yyizb46qg"},"type":"Feature","geometry":{"type":"Point","coordinates":[145.002603,-37.904879]}},{"properties":{"postcode":"3188","no. of muslims":113,"id":"a63yyj80vz9l"},"type":"Feature","geometry":{"type":"Point","coordinates":[145.034175,-37.933603]}},{"properties":{"postcode":"3189","no. of muslims":74,"id":"a63yyiw4d5hr"},"type":"Feature","geometry":{"type":"Point","coordinates":[145.036735,-37.934352]}},{"properties":{"postcode":"3190","no. of muslims":95,"id":"a63yyj2d296x"},"type":"Feature","geometry":{"type":"Point","coordinates":[145.034294,-37.947848]}},{"properties":{"postcode":"3191","no. of muslims":24,"id":"a63yyj8xdvng"},"type":"Feature","geometry":{"type":"Point","coordinates":[145.012316,-37.952493]}},{"properties":{"postcode":"3192","no. of muslims":287,"id":"a63yyitp3c7s"},"type":"Feature","geometry":{"type":"Point","coordinates":[145.055873,-37.96451]}},{"properties":{"postcode":"3193","no. of muslims":52,"id":"a63yyj6d3j4o"},"type":"Feature","geometry":{"type":"Point","coordinates":[145.032876,-37.986285]}},{"properties":{"postcode":"3194","no. of muslims":116,"id":"a63yyj6utnh5"},"type":"Feature","geometry":{"type":"Point","coordinates":[145.0649,-37.982859]}},{"properties":{"postcode":"3195","no. of muslims":306,"id":"a63yyiydcye6"},"type":"Feature","geometry":{"type":"Point","coordinates":[145.101908,-38.026479]}},{"properties":{"postcode":"3196","no. of muslims":137,"id":"a63yyj0j57sp"},"type":"Feature","geometry":{"type":"Point","coordinates":[145.119404,-38.062472]}},{"properties":{"postcode":"3197","no. of muslims":126,"id":"a63yyj0qfvqb"},"type":"Feature","geometry":{"type":"Point","coordinates":[145.123205,-38.076364]}},{"properties":{"postcode":"3198","no. of muslims":51,"id":"a63yyizscpww"},"type":"Feature","geometry":{"type":"Point","coordinates":[145.158496,-38.10667]}},{"properties":{"postcode":"3199","no. of muslims":339,"id":"a63yyiysfm4s"},"type":"Feature","geometry":{"type":"Point","coordinates":[145.122477,-38.145001]}},{"properties":{"postcode":"3200","no. of muslims":60,"id":"a63yyiyvndvm"},"type":"Feature","geometry":{"type":"Point","coordinates":[145.188595,-38.165002]}},{"properties":{"postcode":"3201","no. of muslims":226,"id":"a63yyj30qhtr"},"type":"Feature","geometry":{"type":"Point","coordinates":[145.191719,-38.090783]}},{"properties":{"postcode":"3202","no. of muslims":53,"id":"a63yyiyfzc48"},"type":"Feature","geometry":{"type":"Point","coordinates":[145.214164,-37.969954]}},{"properties":{"postcode":"3204","no. of muslims":122,"id":"a63yyiz9xsj8"},"type":"Feature","geometry":{"type":"Point","coordinates":[145.035444,-37.918057]}},{"properties":{"postcode":"3205","no. of muslims":153,"id":"a63yyizvxgz2"},"type":"Feature","geometry":{"type":"Point","coordinates":[145.033718,-37.93291]}},{"properties":{"postcode":"3206","no. of muslims":16,"id":"a63yyj1pwrq4"},"type":"Feature","geometry":{"type":"Point","coordinates":[144.95571,-37.840705]}},{"properties":{"postcode":"3207","no. of muslims":247,"id":"a63yyj095g0a"},"type":"Feature","geometry":{"type":"Point","coordinates":[144.956207,-37.829244]}},{"properties":{"postcode":"3211","no. of muslims":0,"id":"a63yyiv6lqw9"},"type":"Feature","geometry":{"type":"Point","coordinates":[144.526585,-37.971627]}},{"properties":{"postcode":"3212","no. of muslims":78,"id":"a63yyj3eayce"},"type":"Feature","geometry":{"type":"Point","coordinates":[144.407891,-38.022416]}},{"properties":{"postcode":"3214","no. of muslims":426,"id":"a63yyj6mv0b8"},"type":"Feature","geometry":{"type":"Point","coordinates":[144.358659,-38.074162]}},{"properties":{"postcode":"3215","no. of muslims":141,"id":"a63yyj7whij1"},"type":"Feature","geometry":{"type":"Point","coordinates":[144.330983,-38.113738]}},{"properties":{"postcode":"3216","no. of muslims":191,"id":"a63yyiwbhg0p"},"type":"Feature","geometry":{"type":"Point","coordinates":[144.342666,-38.175587]}},{"properties":{"postcode":"3217","no. of muslims":0,"id":"a63yyiwdu2wm"},"type":"Feature","geometry":{"type":"Point","coordinates":[144.297736,-38.198946]}},{"properties":{"postcode":"3218","no. of muslims":39,"id":"a63yyj8fte2x"},"type":"Feature","geometry":{"type":"Point","coordinates":[144.348006,-38.142148]}},{"properties":{"postcode":"3219","no. of muslims":56,"id":"a63yyiw5x7s4"},"type":"Feature","geometry":{"type":"Point","coordinates":[144.382352,-38.180291]}},{"properties":{"postcode":"3220","no. of muslims":64,"id":"a63yyj4bwktw"},"type":"Feature","geometry":{"type":"Point","coordinates":[145.109544,-38.181164]}},{"properties":{"postcode":"3221","no. of muslims":42,"id":"a63yyiw4id8n"},"type":"Feature","geometry":{"type":"Point","coordinates":[144.253862,-37.896843]}},{"properties":{"postcode":"3222","no. of muslims":3,"id":"a63yyit966c0"},"type":"Feature","geometry":{"type":"Point","coordinates":[144.561541,-38.15748]}},{"properties":{"postcode":"3223","no. of muslims":3,"id":"a63yyj7bk1wa"},"type":"Feature","geometry":{"type":"Point","coordinates":[144.711239,-38.139121]}},{"properties":{"postcode":"3224","no. of muslims":23,"id":"a63yyiv38vzi"},"type":"Feature","geometry":{"type":"Point","coordinates":[144.459914,-38.183967]}},{"properties":{"postcode":"3225","no. of muslims":5,"id":"a63yyiylt6f0"},"type":"Feature","geometry":{"type":"Point","coordinates":[144.614489,-38.286113]}},{"properties":{"postcode":"3226","no. of muslims":15,"id":"a63yyiulb9vj"},"type":"Feature","geometry":{"type":"Point","coordinates":[144.540778,-38.270293]}},{"properties":{"postcode":"3227","no. of muslims":0,"id":"a63yyiy0fnp6"},"type":"Feature","geometry":{"type":"Point","coordinates":[144.49179,-38.281078]}},{"properties":{"postcode":"3228","no. of muslims":19,"id":"a63yyj4eudfx"},"type":"Feature","geometry":{"type":"Point","coordinates":[144.262559,-38.329558]}},{"properties":{"postcode":"3230","no. of muslims":3,"id":"a63yyj2unkaa"},"type":"Feature","geometry":{"type":"Point","coordinates":[144.189268,-38.405129]}},{"properties":{"postcode":"3231","no. of muslims":3,"id":"a63yyj8pe0sr"},"type":"Feature","geometry":{"type":"Point","coordinates":[144.106892,-38.459435]}},{"properties":{"postcode":"3232","no. of muslims":3,"id":"a63yyj7mgx7o"},"type":"Feature","geometry":{"type":"Point","coordinates":[143.99579,-38.518801]}},{"properties":{"postcode":"3233","no. of muslims":0,"id":"a63yyj20r6dh"},"type":"Feature","geometry":{"type":"Point","coordinates":[143.670432,-38.748434]}},{"properties":{"postcode":"3235","no. of muslims":0,"id":"a63yyiyf6w21"},"type":"Feature","geometry":{"type":"Point","coordinates":[143.93252,-38.472753]}},{"properties":{"postcode":"3236","no. of muslims":0,"id":"a63yyj32zv7v"},"type":"Feature","geometry":{"type":"Point","coordinates":[143.71457,-38.51882]}},{"properties":{"postcode":"3238","no. of muslims":0,"id":"a63yyj413kn7"},"type":"Feature","geometry":{"type":"Point","coordinates":[143.429978,-38.781787]}},{"properties":{"postcode":"3239","no. of muslims":0,"id":"a63yyiv4t4we"},"type":"Feature","geometry":{"type":"Point","coordinates":[143.398828,-38.556481]}},{"properties":{"postcode":"3240","no. of muslims":0,"id":"a63yyj8lja4a"},"type":"Feature","geometry":{"type":"Point","coordinates":[144.076977,-38.216777]}},{"properties":{"postcode":"3241","no. of muslims":0,"id":"a63yyitekfcw"},"type":"Feature","geometry":{"type":"Point","coordinates":[143.946392,-38.366594]}},{"properties":{"postcode":"3242","no. of muslims":0,"id":"a63yyj62zpuu"},"type":"Feature","geometry":{"type":"Point","coordinates":[143.789367,-38.314855]}},{"properties":{"postcode":"3243","no. of muslims":0,"id":"a63yyj4f9g7b"},"type":"Feature","geometry":{"type":"Point","coordinates":[143.758408,-38.468578]}},{"properties":{"postcode":"3249","no. of muslims":3,"id":"a63yyizr1opp"},"type":"Feature","geometry":{"type":"Point","coordinates":[143.481901,-38.244321]}},{"properties":{"postcode":"3250","no. of muslims":14,"id":"a63yyix1hlc1"},"type":"Feature","geometry":{"type":"Point","coordinates":[143.58166,-38.339298]}},{"properties":{"postcode":"3251","no. of muslims":0,"id":"a63yyj8vlt02"},"type":"Feature","geometry":{"type":"Point","coordinates":[143.640459,-38.193925]}},{"properties":{"postcode":"3260","no. of muslims":3,"id":"a63yyj6os13g"},"type":"Feature","geometry":{"type":"Point","coordinates":[143.102803,-38.134947]}},{"properties":{"postcode":"3264","no. of muslims":6,"id":"a63yyj82277e"},"type":"Feature","geometry":{"type":"Point","coordinates":[142.911483,-38.236207]}},{"properties":{"postcode":"3265","no. of muslims":0,"id":"a63yyj5znifd"},"type":"Feature","geometry":{"type":"Point","coordinates":[143.013298,-38.21456]}},{"properties":{"postcode":"3266","no. of muslims":3,"id":"a63yyj3gr86l"},"type":"Feature","geometry":{"type":"Point","coordinates":[143.141647,-38.343488]}},{"properties":{"postcode":"3268","no. of muslims":0,"id":"a63yyj2pywg0"},"type":"Feature","geometry":{"type":"Point","coordinates":[142.85945,-38.415663]}},{"properties":{"postcode":"3269","no. of muslims":0,"id":"a63yyj7v2ih7"},"type":"Feature","geometry":{"type":"Point","coordinates":[142.996136,-38.619083]}},{"properties":{"postcode":"3270","no. of muslims":0,"id":"a63yyj6fwvw5"},"type":"Feature","geometry":{"type":"Point","coordinates":[142.857049,-38.579938]}},{"properties":{"postcode":"3271","no. of muslims":0,"id":"a63yyj6i35r7"},"type":"Feature","geometry":{"type":"Point","coordinates":[143.051384,-37.998527]}},{"properties":{"postcode":"3272","no. of muslims":0,"id":"a63yyj30waqi"},"type":"Feature","geometry":{"type":"Point","coordinates":[142.807986,-38.081236]}},{"properties":{"postcode":"3274","no. of muslims":3,"id":"a63yyj7q009a"},"type":"Feature","geometry":{"type":"Point","coordinates":[142.523202,-37.912068]}},{"properties":{"postcode":"3275","no. of muslims":0,"id":"a63yyiv7lm9g"},"type":"Feature","geometry":{"type":"Point","coordinates":[142.457611,-38.301794]}},{"properties":{"postcode":"3276","no. of muslims":0,"id":"a63yyj66skfm"},"type":"Feature","geometry":{"type":"Point","coordinates":[142.441935,-38.035006]}},{"properties":{"postcode":"3277","no. of muslims":0,"id":"a63yyiw57jn5"},"type":"Feature","geometry":{"type":"Point","coordinates":[142.590674,-38.386474]}},{"properties":{"postcode":"3278","no. of muslims":0,"id":"a63yyj55a57p"},"type":"Feature","geometry":{"type":"Point","coordinates":[142.624719,-38.278013]}},{"properties":{"postcode":"3279","no. of muslims":0,"id":"a63yyj2ufws5"},"type":"Feature","geometry":{"type":"Point","coordinates":[142.657483,-38.214555]}},{"properties":{"postcode":"3280","no. of muslims":65,"id":"a63yyj140skd"},"type":"Feature","geometry":{"type":"Point","coordinates":[142.441982,-38.35811]}},{"properties":{"postcode":"3281","no. of muslims":3,"id":"a63yyj40t690"},"type":"Feature","geometry":{"type":"Point","coordinates":[142.505522,-38.325329]}},{"properties":{"postcode":"3282","no. of muslims":0,"id":"a63yyj3v0krl"},"type":"Feature","geometry":{"type":"Point","coordinates":[142.411507,-38.32991]}},{"properties":{"postcode":"3283","no. of muslims":0,"id":"a63yyj4v8ohi"},"type":"Feature","geometry":{"type":"Point","coordinates":[142.328761,-38.313434]}},{"properties":{"postcode":"3284","no. of muslims":7,"id":"a63yyj0p7091"},"type":"Feature","geometry":{"type":"Point","coordinates":[142.153594,-38.214987]}},{"properties":{"postcode":"3285","no. of muslims":0,"id":"a63yyj5x8m4x"},"type":"Feature","geometry":{"type":"Point","coordinates":[141.973181,-38.272587]}},{"properties":{"postcode":"3286","no. of muslims":0,"id":"a63yyj7r4q44"},"type":"Feature","geometry":{"type":"Point","coordinates":[141.833705,-37.972228]}},{"properties":{"postcode":"3287","no. of muslims":0,"id":"a63yyj82pkvt"},"type":"Feature","geometry":{"type":"Point","coordinates":[142.322188,-38.106999]}},{"properties":{"postcode":"3289","no. of muslims":0,"id":"a63yyiuurpj4"},"type":"Feature","geometry":{"type":"Point","coordinates":[142.174884,-37.897958]}},{"properties":{"postcode":"3292","no. of muslims":0,"id":"a63yyj5h9r8t"},"type":"Feature","geometry":{"type":"Point","coordinates":[141.006938,-38.04659]}},{"properties":{"postcode":"3293","no. of muslims":0,"id":"a63yyj5ixx3v"},"type":"Feature","geometry":{"type":"Point","coordinates":[142.545707,-37.636489]}},{"properties":{"postcode":"3294","no. of muslims":0,"id":"a63yyiwyprhg"},"type":"Feature","geometry":{"type":"Point","coordinates":[142.344662,-37.649713]}},{"properties":{"postcode":"3300","no. of muslims":7,"id":"a63yyiv5krzf"},"type":"Feature","geometry":{"type":"Point","coordinates":[141.960066,-37.880712]}},{"properties":{"postcode":"3301","no. of muslims":0,"id":"a63yyj5c9rmg"},"type":"Feature","geometry":{"type":"Point","coordinates":[141.927084,-37.704033]}},{"properties":{"postcode":"3302","no. of muslims":3,"id":"a63yyj442zyl"},"type":"Feature","geometry":{"type":"Point","coordinates":[141.794565,-37.856656]}},{"properties":{"postcode":"3303","no. of muslims":0,"id":"a63yyitz7qmn"},"type":"Feature","geometry":{"type":"Point","coordinates":[141.814595,-38.03119]}},{"properties":{"postcode":"3304","no. of muslims":4,"id":"a63yyj2bmvrf"},"type":"Feature","geometry":{"type":"Point","coordinates":[141.966132,-38.146567]}},{"properties":{"postcode":"3305","no. of muslims":17,"id":"a63yyj94xwbf"},"type":"Feature","geometry":{"type":"Point","coordinates":[141.646078,-38.274855]}},{"properties":{"postcode":"3310","no. of muslims":0,"id":"a63yyj1bgt8a"},"type":"Feature","geometry":{"type":"Point","coordinates":[141.548293,-37.720455]}},{"properties":{"postcode":"3311","no. of muslims":0,"id":"a63yyixekxtu"},"type":"Feature","geometry":{"type":"Point","coordinates":[141.405944,-37.584211]}},{"properties":{"postcode":"3312","no. of muslims":0,"id":"a63yyj3wn11x"},"type":"Feature","geometry":{"type":"Point","coordinates":[141.365747,-37.6391]}},{"properties":{"postcode":"3314","no. of muslims":0,"id":"a63yyiy9dukm"},"type":"Feature","geometry":{"type":"Point","coordinates":[141.935665,-37.586718]}},{"properties":{"postcode":"3315","no. of muslims":0,"id":"a63yyiwy2kba"},"type":"Feature","geometry":{"type":"Point","coordinates":[141.758617,-37.441278]}},{"properties":{"postcode":"3317","no. of muslims":0,"id":"a63yyj245k56"},"type":"Feature","geometry":{"type":"Point","coordinates":[141.600473,-37.119835]}},{"properties":{"postcode":"3318","no. of muslims":0,"id":"a63yyiyu918t"},"type":"Feature","geometry":{"type":"Point","coordinates":[141.510896,-36.986424]}},{"properties":{"postcode":"3319","no. of muslims":0,"id":"a63yyj2w01is"},"type":"Feature","geometry":{"type":"Point","coordinates":[141.080748,-36.967557]}},{"properties":{"postcode":"3321","no. of muslims":0,"id":"a63yyj5zn3yw"},"type":"Feature","geometry":{"type":"Point","coordinates":[143.855664,-38.111995]}},{"properties":{"postcode":"3322","no. of muslims":0,"id":"a63yyj1cp4u3"},"type":"Feature","geometry":{"type":"Point","coordinates":[143.643643,-38.028752]}},{"properties":{"postcode":"3323","no. of muslims":0,"id":"a63yyj34za5y"},"type":"Feature","geometry":{"type":"Point","coordinates":[143.486027,-37.991587]}},{"properties":{"postcode":"3324","no. of muslims":0,"id":"a63yyixe439n"},"type":"Feature","geometry":{"type":"Point","coordinates":[143.34368,-37.953552]}},{"properties":{"postcode":"3325","no. of muslims":0,"id":"a63yyitbekh2"},"type":"Feature","geometry":{"type":"Point","coordinates":[143.219987,-37.948485]}},{"properties":{"postcode":"3328","no. of muslims":0,"id":"a63yyj34vmj2"},"type":"Feature","geometry":{"type":"Point","coordinates":[144.048285,-38.039758]}},{"properties":{"postcode":"3330","no. of muslims":0,"id":"a63yyj8upmcu"},"type":"Feature","geometry":{"type":"Point","coordinates":[143.677351,-37.844281]}},{"properties":{"postcode":"3331","no. of muslims":3,"id":"a63yyj8k09ea"},"type":"Feature","geometry":{"type":"Point","coordinates":[144.171067,-38.046528]}},{"properties":{"postcode":"3332","no. of muslims":0,"id":"a63yyj41oblb"},"type":"Feature","geometry":{"type":"Point","coordinates":[144.139178,-37.962809]}},{"properties":{"postcode":"3333","no. of muslims":0,"id":"a63yyj5kigj2"},"type":"Feature","geometry":{"type":"Point","coordinates":[144.025575,-37.924962]}},{"properties":{"postcode":"3334","no. of muslims":0,"id":"a63yyixlp17n"},"type":"Feature","geometry":{"type":"Point","coordinates":[144.094545,-37.710436]}},{"properties":{"postcode":"3335","no. of muslims":59,"id":"a63yyiwd2y2n"},"type":"Feature","geometry":{"type":"Point","coordinates":[144.685449,-37.68584]}},{"properties":{"postcode":"3337","no. of muslims":246,"id":"a63yyiyjmpi7"},"type":"Feature","geometry":{"type":"Point","coordinates":[144.58855,-37.675127]}},{"properties":{"postcode":"3338","no. of muslims":94,"id":"a63yyj72onbe"},"type":"Feature","geometry":{"type":"Point","coordinates":[144.540792,-37.701172]}},{"properties":{"postcode":"3340","no. of muslims":18,"id":"a63yyiywbv92"},"type":"Feature","geometry":{"type":"Point","coordinates":[144.437663,-37.675855]}},{"properties":{"postcode":"3341","no. of muslims":7,"id":"a63yyj5rhw8x"},"type":"Feature","geometry":{"type":"Point","coordinates":[144.309955,-37.519237]}},{"properties":{"postcode":"3342","no. of muslims":3,"id":"a63yyixridul"},"type":"Feature","geometry":{"type":"Point","coordinates":[144.225458,-37.60016]}},{"properties":{"postcode":"3345","no. of muslims":0,"id":"a63yyiywunez"},"type":"Feature","geometry":{"type":"Point","coordinates":[144.099862,-37.594546]}},{"properties":{"postcode":"3350","no. of muslims":99,"id":"a63yyiu70sk5"},"type":"Feature","geometry":{"type":"Point","coordinates":[143.817225,-37.556958]}},{"properties":{"postcode":"3351","no. of muslims":4,"id":"a63yyj2q49p3"},"type":"Feature","geometry":{"type":"Point","coordinates":[143.683679,-37.770766]}},{"properties":{"postcode":"3352","no. of muslims":5,"id":"a63yyj8j4fvo"},"type":"Feature","geometry":{"type":"Point","coordinates":[143.672506,-37.384464]}},{"properties":{"postcode":"3355","no. of muslims":15,"id":"a63yyiyf43c5"},"type":"Feature","geometry":{"type":"Point","coordinates":[143.820973,-37.545723]}},{"properties":{"postcode":"3356","no. of muslims":9,"id":"a63yyj1riv6m"},"type":"Feature","geometry":{"type":"Point","coordinates":[143.828273,-37.591298]}},{"properties":{"postcode":"3357","no. of muslims":3,"id":"a63yyiwyzwj3"},"type":"Feature","geometry":{"type":"Point","coordinates":[143.918563,-37.648547]}},{"properties":{"postcode":"3360","no. of muslims":0,"id":"a63yyj3twm1l"},"type":"Feature","geometry":{"type":"Point","coordinates":[143.562977,-37.686374]}},{"properties":{"postcode":"3361","no. of muslims":0,"id":"a63yyixeq07s"},"type":"Feature","geometry":{"type":"Point","coordinates":[143.407202,-37.779772]}},{"properties":{"postcode":"3363","no. of muslims":3,"id":"a63yyixzmqyj"},"type":"Feature","geometry":{"type":"Point","coordinates":[143.894483,-37.424838]}},{"properties":{"postcode":"3364","no. of muslims":0,"id":"a63yyj1subyx"},"type":"Feature","geometry":{"type":"Point","coordinates":[143.938548,-37.368711]}},{"properties":{"postcode":"3370","no. of muslims":3,"id":"a63yyj1kt4dq"},"type":"Feature","geometry":{"type":"Point","coordinates":[143.787341,-37.293942]}},{"properties":{"postcode":"3371","no. of muslims":3,"id":"a63yyj65ehvv"},"type":"Feature","geometry":{"type":"Point","coordinates":[143.670166,-37.146466]}},{"properties":{"postcode":"3373","no. of muslims":0,"id":"a63yyj7a8kid"},"type":"Feature","geometry":{"type":"Point","coordinates":[143.383709,-37.429812]}},{"properties":{"postcode":"3375","no. of muslims":0,"id":"a63yyj2bkg0i"},"type":"Feature","geometry":{"type":"Point","coordinates":[143.132372,-37.427465]}},{"properties":{"postcode":"3377","no. of muslims":20,"id":"a63yyix09zym"},"type":"Feature","geometry":{"type":"Point","coordinates":[142.928227,-37.284301]}},{"properties":{"postcode":"3379","no. of muslims":0,"id":"a63yyivj328y"},"type":"Feature","geometry":{"type":"Point","coordinates":[142.521439,-37.534037]}},{"properties":{"postcode":"3380","no. of muslims":0,"id":"a63yyj5950y4"},"type":"Feature","geometry":{"type":"Point","coordinates":[142.699342,-37.157329]}},{"properties":{"postcode":"3381","no. of muslims":3,"id":"a63yyj459g9d"},"type":"Feature","geometry":{"type":"Point","coordinates":[143.211642,-36.941793]}},{"properties":{"postcode":"3384","no. of muslims":0,"id":"a63yyivyzwu8"},"type":"Feature","geometry":{"type":"Point","coordinates":[143.198999,-36.979212]}},{"properties":{"postcode":"3387","no. of muslims":0,"id":"a63yyj1764wv"},"type":"Feature","geometry":{"type":"Point","coordinates":[142.869768,-36.671662]}},{"properties":{"postcode":"3388","no. of muslims":0,"id":"a63yyj3thi6y"},"type":"Feature","geometry":{"type":"Point","coordinates":[142.816541,-36.572229]}},{"properties":{"postcode":"3390","no. of muslims":0,"id":"a63yyj647l0m"},"type":"Feature","geometry":{"type":"Point","coordinates":[142.422325,-36.449414]}},{"properties":{"postcode":"3391","no. of muslims":0,"id":"a63yyj2csfhr"},"type":"Feature","geometry":{"type":"Point","coordinates":[142.519496,-36.069357]}},{"properties":{"postcode":"3392","no. of muslims":0,"id":"a63yyiv5hg1j"},"type":"Feature","geometry":{"type":"Point","coordinates":[142.586163,-36.460553]}},{"properties":{"postcode":"3393","no. of muslims":12,"id":"a63yyiud6wkn"},"type":"Feature","geometry":{"type":"Point","coordinates":[142.363833,-36.331465]}},{"properties":{"postcode":"3395","no. of muslims":0,"id":"a63yyj8gmg9h"},"type":"Feature","geometry":{"type":"Point","coordinates":[142.418961,-35.93804]}},{"properties":{"postcode":"3396","no. of muslims":0,"id":"a63yyj1dibqn"},"type":"Feature","geometry":{"type":"Point","coordinates":[142.364734,-35.727235]}},{"properties":{"postcode":"3400","no. of muslims":52,"id":"a63yyitsz9dp"},"type":"Feature","geometry":{"type":"Point","coordinates":[142.204899,-36.711714]}},{"properties":{"postcode":"3401","no. of muslims":0,"id":"a63yyix2grhp"},"type":"Feature","geometry":{"type":"Point","coordinates":[142.30917,-36.455387]}},{"properties":{"postcode":"3407","no. of muslims":0,"id":"a63yyj1tepq1"},"type":"Feature","geometry":{"type":"Point","coordinates":[141.841762,-37.248109]}},{"properties":{"postcode":"3409","no. of muslims":0,"id":"a63yyixym0n2"},"type":"Feature","geometry":{"type":"Point","coordinates":[141.762526,-36.779163]}},{"properties":{"postcode":"3412","no. of muslims":0,"id":"a63yyiv5kpxm"},"type":"Feature","geometry":{"type":"Point","coordinates":[141.472623,-36.747329]}},{"properties":{"postcode":"3413","no. of muslims":0,"id":"a63yyj9913cz"},"type":"Feature","geometry":{"type":"Point","coordinates":[141.180738,-36.714185]}},{"properties":{"postcode":"3414","no. of muslims":0,"id":"a63yyj4pez8q"},"type":"Feature","geometry":{"type":"Point","coordinates":[142.024557,-36.298418]}},{"properties":{"postcode":"3418","no. of muslims":4,"id":"a63yyj4mc31x"},"type":"Feature","geometry":{"type":"Point","coordinates":[141.334582,-36.165178]}},{"properties":{"postcode":"3419","no. of muslims":0,"id":"a63yyj1dl1se"},"type":"Feature","geometry":{"type":"Point","coordinates":[141.244901,-36.377563]}},{"properties":{"postcode":"3420","no. of muslims":4,"id":"a63yyivdcstm"},"type":"Feature","geometry":{"type":"Point","coordinates":[141.117251,-36.361245]}},{"properties":{"postcode":"3423","no. of muslims":6,"id":"a63yyitwf5d1"},"type":"Feature","geometry":{"type":"Point","coordinates":[141.987191,-36.14057]}},{"properties":{"postcode":"3424","no. of muslims":0,"id":"a63yyj99fmv7"},"type":"Feature","geometry":{"type":"Point","coordinates":[141.974601,-35.691918]}},{"properties":{"postcode":"3427","no. of muslims":21,"id":"a63yyj19daer"},"type":"Feature","geometry":{"type":"Point","coordinates":[144.719981,-37.627752]}},{"properties":{"postcode":"3428","no. of muslims":0,"id":"a63yyj86dmaq"},"type":"Feature","geometry":{"type":"Point","coordinates":[144.804139,-37.637155]}},{"properties":{"postcode":"3429","no. of muslims":89,"id":"a63yyiteyn4f"},"type":"Feature","geometry":{"type":"Point","coordinates":[144.731425,-37.576859]}},{"properties":{"postcode":"3431","no. of muslims":11,"id":"a63yyiujimu9"},"type":"Feature","geometry":{"type":"Point","coordinates":[144.665048,-37.463999]}},{"properties":{"postcode":"3434","no. of muslims":9,"id":"a63yyj7c4w1d"},"type":"Feature","geometry":{"type":"Point","coordinates":[144.6379,-37.389195]}},{"properties":{"postcode":"3435","no. of muslims":0,"id":"a63yyj42y218"},"type":"Feature","geometry":{"type":"Point","coordinates":[144.692899,-37.189508]}},{"properties":{"postcode":"3437","no. of muslims":22,"id":"a63yyj4xff3y"},"type":"Feature","geometry":{"type":"Point","coordinates":[144.477431,-37.523331]}},{"properties":{"postcode":"3438","no. of muslims":0,"id":"a63yyj3htdgw"},"type":"Feature","geometry":{"type":"Point","coordinates":[144.599206,-37.459119]}},{"properties":{"postcode":"3440","no. of muslims":0,"id":"a63yyiu7c4tf"},"type":"Feature","geometry":{"type":"Point","coordinates":[144.588405,-37.399584]}},{"properties":{"postcode":"3441","no. of muslims":0,"id":"a63yyj3ktcty"},"type":"Feature","geometry":{"type":"Point","coordinates":[144.590721,-37.396044]}},{"properties":{"postcode":"3442","no. of muslims":3,"id":"a63yyj9ojoea"},"type":"Feature","geometry":{"type":"Point","coordinates":[144.446407,-37.385948]}},{"properties":{"postcode":"3444","no. of muslims":7,"id":"a63yyitzf8de"},"type":"Feature","geometry":{"type":"Point","coordinates":[144.50611,-37.091978]}},{"properties":{"postcode":"3446","no. of muslims":11,"id":"a63yyj4vbnql"},"type":"Feature","geometry":{"type":"Point","coordinates":[144.29344,-37.199978]}},{"properties":{"postcode":"3447","no. of muslims":0,"id":"a63yyiwpzght"},"type":"Feature","geometry":{"type":"Point","coordinates":[144.356519,-37.133438]}},{"properties":{"postcode":"3448","no. of muslims":0,"id":"a63yyivh2ah2"},"type":"Feature","geometry":{"type":"Point","coordinates":[144.337783,-37.105]}},{"properties":{"postcode":"3450","no. of muslims":7,"id":"a63yyj74bejc"},"type":"Feature","geometry":{"type":"Point","coordinates":[144.217101,-37.063869]}},{"properties":{"postcode":"3451","no. of muslims":0,"id":"a63yyj7l47kg"},"type":"Feature","geometry":{"type":"Point","coordinates":[144.239946,-37.0292]}},{"properties":{"postcode":"3453","no. of muslims":3,"id":"a63yyj2a7mlm"},"type":"Feature","geometry":{"type":"Point","coordinates":[144.262588,-36.998965]}},{"properties":{"postcode":"3458","no. of muslims":0,"id":"a63yyj9q5x0l"},"type":"Feature","geometry":{"type":"Point","coordinates":[144.293564,-37.451989]}},{"properties":{"postcode":"3460","no. of muslims":3,"id":"a63yyj4hslpu"},"type":"Feature","geometry":{"type":"Point","coordinates":[144.094647,-37.308233]}},{"properties":{"postcode":"3461","no. of muslims":7,"id":"a63yyivbbffi"},"type":"Feature","geometry":{"type":"Point","coordinates":[144.221001,-37.394334]}},{"properties":{"postcode":"3462","no. of muslims":0,"id":"a63yyj97kjfr"},"type":"Feature","geometry":{"type":"Point","coordinates":[144.095795,-37.107829]}},{"properties":{"postcode":"3463","no. of muslims":0,"id":"a63yyj1jctdh"},"type":"Feature","geometry":{"type":"Point","coordinates":[143.951487,-36.984271]}},{"properties":{"postcode":"3464","no. of muslims":0,"id":"a63yyj3cji9f"},"type":"Feature","geometry":{"type":"Point","coordinates":[143.796275,-37.007853]}},{"properties":{"postcode":"3465","no. of muslims":0,"id":"a63yyixuqr54"},"type":"Feature","geometry":{"type":"Point","coordinates":[143.677358,-37.074671]}},{"properties":{"postcode":"3467","no. of muslims":0,"id":"a63yyizrkehw"},"type":"Feature","geometry":{"type":"Point","coordinates":[143.473798,-37.088539]}},{"properties":{"postcode":"3468","no. of muslims":0,"id":"a63yyiyiibxi"},"type":"Feature","geometry":{"type":"Point","coordinates":[143.399915,-37.182344]}},{"properties":{"postcode":"3469","no. of muslims":0,"id":"a63yyiz1nop8"},"type":"Feature","geometry":{"type":"Point","coordinates":[143.249097,-37.179436]}},{"properties":{"postcode":"3472","no. of muslims":0,"id":"a63yyj478vxh"},"type":"Feature","geometry":{"type":"Point","coordinates":[143.756154,-36.924333]}},{"properties":{"postcode":"3475","no. of muslims":0,"id":"a63yyivnhav6"},"type":"Feature","geometry":{"type":"Point","coordinates":[143.502295,-36.830903]}},{"properties":{"postcode":"3478","no. of muslims":0,"id":"a63yyivo772g"},"type":"Feature","geometry":{"type":"Point","coordinates":[142.921227,-36.544552]}},{"properties":{"postcode":"3480","no. of muslims":0,"id":"a63yyiwej66u"},"type":"Feature","geometry":{"type":"Point","coordinates":[142.687307,-36.236565]}},{"properties":{"postcode":"3482","no. of muslims":0,"id":"a63yyj4nqetm"},"type":"Feature","geometry":{"type":"Point","coordinates":[142.859931,-36.226051]}},{"properties":{"postcode":"3483","no. of muslims":3,"id":"a63yyiyymhl8"},"type":"Feature","geometry":{"type":"Point","coordinates":[142.747934,-35.979172]}},{"properties":{"postcode":"3485","no. of muslims":0,"id":"a63yyj2nknjo"},"type":"Feature","geometry":{"type":"Point","coordinates":[142.766116,-35.635088]}},{"properties":{"postcode":"3487","no. of muslims":0,"id":"a63yyiv0fsx8"},"type":"Feature","geometry":{"type":"Point","coordinates":[142.578891,-35.606765]}},{"properties":{"postcode":"3490","no. of muslims":0,"id":"a63yyj9bc1m4"},"type":"Feature","geometry":{"type":"Point","coordinates":[141.600652,-35.199697]}},{"properties":{"postcode":"3491","no. of muslims":0,"id":"a63yyj462y80"},"type":"Feature","geometry":{"type":"Point","coordinates":[142.1895,-35.382896]}},{"properties":{"postcode":"3494","no. of muslims":3,"id":"a63yyiv9xdg5"},"type":"Feature","geometry":{"type":"Point","coordinates":[142.230811,-34.457991]}},{"properties":{"postcode":"3496","no. of muslims":44,"id":"a63yyj8wftt5"},"type":"Feature","geometry":{"type":"Point","coordinates":[142.145463,-34.292017]}},{"properties":{"postcode":"3498","no. of muslims":25,"id":"a63yyix2zq0s"},"type":"Feature","geometry":{"type":"Point","coordinates":[142.181724,-34.234604]}},{"properties":{"postcode":"3500","no. of muslims":720,"id":"a63yyj5htnlm"},"type":"Feature","geometry":{"type":"Point","coordinates":[142.163072,-34.181714]}},{"properties":{"postcode":"3501","no. of muslims":17,"id":"a63yyix35x0o"},"type":"Feature","geometry":{"type":"Point","coordinates":[142.327634,-34.850899]}},{"properties":{"postcode":"3505","no. of muslims":30,"id":"a63yyj8j5n1k"},"type":"Feature","geometry":{"type":"Point","coordinates":[142.057629,-34.19768]}},{"properties":{"postcode":"3507","no. of muslims":0,"id":"a63yyiwn4dr9"},"type":"Feature","geometry":{"type":"Point","coordinates":[142.02364,-35.191803]}},{"properties":{"postcode":"3509","no. of muslims":0,"id":"a63yyj0mv0j9"},"type":"Feature","geometry":{"type":"Point","coordinates":[141.692549,-35.173454]}},{"properties":{"postcode":"3512","no. of muslims":0,"id":"a63yyj7gcrbo"},"type":"Feature","geometry":{"type":"Point","coordinates":[141.090483,-35.218149]}},{"properties":{"postcode":"3515","no. of muslims":0,"id":"a63yyj7w6lcf"},"type":"Feature","geometry":{"type":"Point","coordinates":[144.132572,-36.736592]}},{"properties":{"postcode":"3516","no. of muslims":0,"id":"a63yyj4ltjtm"},"type":"Feature","geometry":{"type":"Point","coordinates":[143.924643,-36.593021]}},{"properties":{"postcode":"3517","no. of muslims":0,"id":"a63yyiy504gd"},"type":"Feature","geometry":{"type":"Point","coordinates":[143.915229,-36.298881]}},{"properties":{"postcode":"3518","no. of muslims":0,"id":"a63yyj78n641"},"type":"Feature","geometry":{"type":"Point","coordinates":[143.456459,-36.501479]}},{"properties":{"postcode":"3520","no. of muslims":3,"id":"a63yyix5hpvj"},"type":"Feature","geometry":{"type":"Point","coordinates":[143.83557,-36.331469]}},{"properties":{"postcode":"3521","no. of muslims":0,"id":"a63yyj2e0xmv"},"type":"Feature","geometry":{"type":"Point","coordinates":[144.882105,-37.120609]}},{"properties":{"postcode":"3522","no. of muslims":0,"id":"a63yyj8xoyo8"},"type":"Feature","geometry":{"type":"Point","coordinates":[144.750364,-37.126178]}},{"properties":{"postcode":"3523","no. of muslims":4,"id":"a63yyj0de329"},"type":"Feature","geometry":{"type":"Point","coordinates":[144.732986,-36.944132]}},{"properties":{"postcode":"3525","no. of muslims":3,"id":"a63yyj98xhor"},"type":"Feature","geometry":{"type":"Point","coordinates":[143.426085,-36.268867]}},{"properties":{"postcode":"3527","no. of muslims":3,"id":"a63yyix7c3la"},"type":"Feature","geometry":{"type":"Point","coordinates":[143.38661,-36.055958]}},{"properties":{"postcode":"3529","no. of muslims":0,"id":"a63yyj6tkj3z"},"type":"Feature","geometry":{"type":"Point","coordinates":[143.259314,-35.780006]}},{"properties":{"postcode":"3530","no. of muslims":0,"id":"a63yyj0mzat3"},"type":"Feature","geometry":{"type":"Point","coordinates":[143.107379,-35.718468]}},{"properties":{"postcode":"3531","no. of muslims":0,"id":"a63yyj64bl93"},"type":"Feature","geometry":{"type":"Point","coordinates":[142.991804,-35.635336]}},{"properties":{"postcode":"3533","no. of muslims":0,"id":"a63yyj1d66wt"},"type":"Feature","geometry":{"type":"Point","coordinates":[142.786824,-35.360723]}},{"properties":{"postcode":"3537","no. of muslims":0,"id":"a63yyizyzewy"},"type":"Feature","geometry":{"type":"Point","coordinates":[143.671965,-36.011488]}},{"properties":{"postcode":"3540","no. of muslims":0,"id":"a63yyiv302qx"},"type":"Feature","geometry":{"type":"Point","coordinates":[143.445376,-35.75855]}},{"properties":{"postcode":"3542","no. of muslims":0,"id":"a63yyiywuqmu"},"type":"Feature","geometry":{"type":"Point","coordinates":[143.284751,-35.758096]}},{"properties":{"postcode":"3544","no. of muslims":0,"id":"a63yyj8t9mlm"},"type":"Feature","geometry":{"type":"Point","coordinates":[143.197025,-35.513341]}},{"properties":{"postcode":"3546","no. of muslims":0,"id":"a63yyj7klem9"},"type":"Feature","geometry":{"type":"Point","coordinates":[142.884361,-34.96464]}},{"properties":{"postcode":"3549","no. of muslims":44,"id":"a63yyiyv6o1y"},"type":"Feature","geometry":{"type":"Point","coordinates":[142.830117,-34.847699]}},{"properties":{"postcode":"3550","no. of muslims":99,"id":"a63yyizjhcdo"},"type":"Feature","geometry":{"type":"Point","coordinates":[144.280075,-36.758492]}},{"properties":{"postcode":"3551","no. of muslims":10,"id":"a63yyj8jibdu"},"type":"Feature","geometry":{"type":"Point","coordinates":[143.868371,-36.690822]}},{"properties":{"postcode":"3555","no. of muslims":21,"id":"a63yyj10lh5t"},"type":"Feature","geometry":{"type":"Point","coordinates":[144.230004,-36.834685]}},{"properties":{"postcode":"3556","no. of muslims":3,"id":"a63yyj7g8a0x"},"type":"Feature","geometry":{"type":"Point","coordinates":[144.257173,-36.732656]}},{"properties":{"postcode":"3557","no. of muslims":0,"id":"a63yyj5m3h5a"},"type":"Feature","geometry":{"type":"Point","coordinates":[144.506417,-36.653535]}},{"properties":{"postcode":"3558","no. of muslims":0,"id":"a63yyj1hyd8o"},"type":"Feature","geometry":{"type":"Point","coordinates":[144.713905,-36.485796]}},{"properties":{"postcode":"3559","no. of muslims":6,"id":"a63yyj5hk00e"},"type":"Feature","geometry":{"type":"Point","coordinates":[144.604459,-36.529882]}},{"properties":{"postcode":"3561","no. of muslims":5,"id":"a63yyiwkms5n"},"type":"Feature","geometry":{"type":"Point","coordinates":[144.673529,-36.298882]}},{"properties":{"postcode":"3562","no. of muslims":0,"id":"a63yyixa4fu9"},"type":"Feature","geometry":{"type":"Point","coordinates":[144.459855,-35.975398]}},{"properties":{"postcode":"3563","no. of muslims":0,"id":"a63yyj5f4pqt"},"type":"Feature","geometry":{"type":"Point","coordinates":[144.481629,-36.271227]}},{"properties":{"postcode":"3564","no. of muslims":6,"id":"a63yyixlrxlo"},"type":"Feature","geometry":{"type":"Point","coordinates":[144.728548,-36.131154]}},{"properties":{"postcode":"3566","no. of muslims":0,"id":"a63yyj5un9uz"},"type":"Feature","geometry":{"type":"Point","coordinates":[144.366659,-35.957441]}},{"properties":{"postcode":"3567","no. of muslims":0,"id":"a63yyj08hn75"},"type":"Feature","geometry":{"type":"Point","coordinates":[144.242273,-35.886223]}},{"properties":{"postcode":"3568","no. of muslims":0,"id":"a63yyj9act5f"},"type":"Feature","geometry":{"type":"Point","coordinates":[144.336635,-35.836345]}},{"properties":{"postcode":"3570","no. of muslims":0,"id":"a63yyiz3smnm"},"type":"Feature","geometry":{"type":"Point","coordinates":[144.1055,-36.474005]}},{"properties":{"postcode":"3571","no. of muslims":3,"id":"a63yyj619uc1"},"type":"Feature","geometry":{"type":"Point","coordinates":[144.231949,-36.370912]}},{"properties":{"postcode":"3573","no. of muslims":0,"id":"a63yyiwm6nry"},"type":"Feature","geometry":{"type":"Point","coordinates":[144.085645,-36.298763]}},{"properties":{"postcode":"3575","no. of muslims":3,"id":"a63yyixma664"},"type":"Feature","geometry":{"type":"Point","coordinates":[143.990513,-36.042544]}},{"properties":{"postcode":"3579","no. of muslims":0,"id":"a63yyiz37pgi"},"type":"Feature","geometry":{"type":"Point","coordinates":[143.872782,-35.878433]}},{"properties":{"postcode":"3580","no. of muslims":0,"id":"a63yyiy7gbgq"},"type":"Feature","geometry":{"type":"Point","coordinates":[144.108584,-35.64272]}},{"properties":{"postcode":"3581","no. of muslims":0,"id":"a63yyj02cq3v"},"type":"Feature","geometry":{"type":"Point","coordinates":[143.804041,-35.620733]}},{"properties":{"postcode":"3584","no. of muslims":4,"id":"a63yyixqp6o8"},"type":"Feature","geometry":{"type":"Point","coordinates":[143.634454,-35.461804]}},{"properties":{"postcode":"3585","no. of muslims":74,"id":"a63yyiyobw30"},"type":"Feature","geometry":{"type":"Point","coordinates":[143.594275,-35.418038]}},{"properties":{"postcode":"3586","no. of muslims":0,"id":"a63yyixpih30"},"type":"Feature","geometry":{"type":"Point","coordinates":[143.359804,-35.304516]}},{"properties":{"postcode":"3588","no. of muslims":0,"id":"a63yyj4s1ypp"},"type":"Feature","geometry":{"type":"Point","coordinates":[143.454012,-35.270527]}},{"properties":{"postcode":"3589","no. of muslims":0,"id":"a63yyiyf72ku"},"type":"Feature","geometry":{"type":"Point","coordinates":[143.471892,-35.264373]}},{"properties":{"postcode":"3590","no. of muslims":5,"id":"a63yyj9puajb"},"type":"Feature","geometry":{"type":"Point","coordinates":[143.480953,-35.235882]}},{"properties":{"postcode":"3591","no. of muslims":9,"id":"a63yyivdsgdb"},"type":"Feature","geometry":{"type":"Point","coordinates":[143.405908,-35.217734]}},{"properties":{"postcode":"3594","no. of muslims":0,"id":"a63yyizebhgi"},"type":"Feature","geometry":{"type":"Point","coordinates":[143.362249,-35.152584]}},{"properties":{"postcode":"3595","no. of muslims":3,"id":"a63yyit9bied"},"type":"Feature","geometry":{"type":"Point","coordinates":[143.348862,-35.187893]}},{"properties":{"postcode":"3597","no. of muslims":3,"id":"a63yyiwjylbx"},"type":"Feature","geometry":{"type":"Point","coordinates":[143.341123,-34.856397]}},{"properties":{"postcode":"3599","no. of muslims":0,"id":"a63yyj3zsey6"},"type":"Feature","geometry":{"type":"Point","coordinates":[143.144838,-34.742098]}},{"properties":{"postcode":"3608","no. of muslims":0,"id":"a63yyj3sx1tb"},"type":"Feature","geometry":{"type":"Point","coordinates":[145.034359,-36.699872]}},{"properties":{"postcode":"3610","no. of muslims":3,"id":"a63yyj1ems31"},"type":"Feature","geometry":{"type":"Point","coordinates":[145.277533,-36.542846]}},{"properties":{"postcode":"3612","no. of muslims":10,"id":"a63yyj0usvzl"},"type":"Feature","geometry":{"type":"Point","coordinates":[144.948216,-36.591412]}},{"properties":{"postcode":"3614","no. of muslims":15,"id":"a63yyj1o0kwj"},"type":"Feature","geometry":{"type":"Point","coordinates":[145.259357,-36.484229]}},{"properties":{"postcode":"3616","no. of muslims":136,"id":"a63yyj0idbun"},"type":"Feature","geometry":{"type":"Point","coordinates":[145.068244,-36.421146]}},{"properties":{"postcode":"3618","no. of muslims":8,"id":"a63yyiubt3oj"},"type":"Feature","geometry":{"type":"Point","coordinates":[145.170237,-36.372412]}},{"properties":{"postcode":"3620","no. of muslims":51,"id":"a63yyiwprqyz"},"type":"Feature","geometry":{"type":"Point","coordinates":[145.049552,-36.308063]}},{"properties":{"postcode":"3621","no. of muslims":4,"id":"a63yyix972xx"},"type":"Feature","geometry":{"type":"Point","coordinates":[144.850248,-36.269418]}},{"properties":{"postcode":"3622","no. of muslims":0,"id":"a63yyj3sqxcf"},"type":"Feature","geometry":{"type":"Point","coordinates":[144.765651,-36.161595]}},{"properties":{"postcode":"3623","no. of muslims":0,"id":"a63yyiusofu3"},"type":"Feature","geometry":{"type":"Point","coordinates":[144.904277,-36.462334]}},{"properties":{"postcode":"3624","no. of muslims":5,"id":"a63yyiul634q"},"type":"Feature","geometry":{"type":"Point","coordinates":[145.068304,-36.443573]}},{"properties":{"postcode":"3629","no. of muslims":121,"id":"a63yyithv6vz"},"type":"Feature","geometry":{"type":"Point","coordinates":[145.295366,-36.378536]}},{"properties":{"postcode":"3630","no. of muslims":1579,"id":"a63yyj7j88ob"},"type":"Feature","geometry":{"type":"Point","coordinates":[145.401927,-36.360193]}},{"properties":{"postcode":"3631","no. of muslims":306,"id":"a63yyj5s06sz"},"type":"Feature","geometry":{"type":"Point","coordinates":[145.362556,-36.541604]}},{"properties":{"postcode":"3633","no. of muslims":6,"id":"a63yyivzutr8"},"type":"Feature","geometry":{"type":"Point","coordinates":[145.481126,-36.299252]}},{"properties":{"postcode":"3634","no. of muslims":5,"id":"a63yyiu5nmoz"},"type":"Feature","geometry":{"type":"Point","coordinates":[145.344007,-36.220101]}},{"properties":{"postcode":"3635","no. of muslims":0,"id":"a63yyj1t9xvf"},"type":"Feature","geometry":{"type":"Point","coordinates":[145.301771,-36.16323]}},{"properties":{"postcode":"3636","no. of muslims":6,"id":"a63yyitilo4o"},"type":"Feature","geometry":{"type":"Point","coordinates":[145.504192,-36.135713]}},{"properties":{"postcode":"3637","no. of muslims":0,"id":"a63yyj4hk98c"},"type":"Feature","geometry":{"type":"Point","coordinates":[145.33176,-36.05372]}},{"properties":{"postcode":"3638","no. of muslims":3,"id":"a63yyivnbg6e"},"type":"Feature","geometry":{"type":"Point","coordinates":[145.165703,-36.145467]}},{"properties":{"postcode":"3639","no. of muslims":0,"id":"a63yyiuk5wdj"},"type":"Feature","geometry":{"type":"Point","coordinates":[144.973324,-36.023458]}},{"properties":{"postcode":"3640","no. of muslims":0,"id":"a63yyiu80rgb"},"type":"Feature","geometry":{"type":"Point","coordinates":[145.460399,-35.973776]}},{"properties":{"postcode":"3641","no. of muslims":0,"id":"a63yyitq5320"},"type":"Feature","geometry":{"type":"Point","coordinates":[145.33172,-35.918029]}},{"properties":{"postcode":"3644","no. of muslims":228,"id":"a63yyj4kw07k"},"type":"Feature","geometry":{"type":"Point","coordinates":[145.688503,-35.913566]}},{"properties":{"postcode":"3646","no. of muslims":0,"id":"a63yyj8af5y3"},"type":"Feature","geometry":{"type":"Point","coordinates":[145.686223,-36.327503]}},{"properties":{"postcode":"3649","no. of muslims":0,"id":"a63yyitpy9p6"},"type":"Feature","geometry":{"type":"Point","coordinates":[145.688645,-36.078387]}},{"properties":{"postcode":"3658","no. of muslims":12,"id":"a63yyj5twbyu"},"type":"Feature","geometry":{"type":"Point","coordinates":[145.050171,-37.203001]}},{"properties":{"postcode":"3659","no. of muslims":0,"id":"a63yyitc9m0n"},"type":"Feature","geometry":{"type":"Point","coordinates":[145.024365,-37.128108]}},{"properties":{"postcode":"3660","no. of muslims":14,"id":"a63yyj03zn7q"},"type":"Feature","geometry":{"type":"Point","coordinates":[145.495713,-37.091133]}},{"properties":{"postcode":"3662","no. of muslims":18,"id":"a63yyiyagv5a"},"type":"Feature","geometry":{"type":"Point","coordinates":[0.0,0.0]}},{"properties":{"postcode":"3664","no. of muslims":0,"id":"a63yyj00fp0g"},"type":"Feature","geometry":{"type":"Point","coordinates":[145.23059,-36.892793]}},{"properties":{"postcode":"3665","no. of muslims":0,"id":"a63yyj2tczsx"},"type":"Feature","geometry":{"type":"Point","coordinates":[145.35517,-36.81576]}},{"properties":{"postcode":"3666","no. of muslims":7,"id":"a63yyj77orsy"},"type":"Feature","geometry":{"type":"Point","coordinates":[145.640263,-36.705961]}},{"properties":{"postcode":"3669","no. of muslims":3,"id":"a63yyiv5lpra"},"type":"Feature","geometry":{"type":"Point","coordinates":[145.771354,-36.696659]}},{"properties":{"postcode":"3670","no. of muslims":0,"id":"a63yyj6jkrtg"},"type":"Feature","geometry":{"type":"Point","coordinates":[145.861036,-36.592633]}},{"properties":{"postcode":"3672","no. of muslims":21,"id":"a63yyj70eabh"},"type":"Feature","geometry":{"type":"Point","coordinates":[145.98565,-36.546895]}},{"properties":{"postcode":"3673","no. of muslims":0,"id":"a63yyiylxfie"},"type":"Feature","geometry":{"type":"Point","coordinates":[145.890351,-36.434779]}},{"properties":{"postcode":"3675","no. of muslims":0,"id":"a63yyix9i0gs"},"type":"Feature","geometry":{"type":"Point","coordinates":[146.131319,-36.269789]}},{"properties":{"postcode":"3677","no. of muslims":44,"id":"a63yyixwcpx6"},"type":"Feature","geometry":{"type":"Point","coordinates":[146.297244,-36.353243]}},{"properties":{"postcode":"3678","no. of muslims":10,"id":"a63yyj791ixv"},"type":"Feature","geometry":{"type":"Point","coordinates":[146.498737,-36.521737]}},{"properties":{"postcode":"3682","no. of muslims":0,"id":"a63yyityf2ys"},"type":"Feature","geometry":{"type":"Point","coordinates":[146.411677,-36.243951]}},{"properties":{"postcode":"3683","no. of muslims":0,"id":"a63yyj9lgg2q"},"type":"Feature","geometry":{"type":"Point","coordinates":[146.610311,-36.148307]}},{"properties":{"postcode":"3685","no. of muslims":3,"id":"a63yyj77ayms"},"type":"Feature","geometry":{"type":"Point","coordinates":[146.222359,-36.098847]}},{"properties":{"postcode":"3687","no. of muslims":0,"id":"a63yyizfohdj"},"type":"Feature","geometry":{"type":"Point","coordinates":[146.40193,-36.011553]}},{"properties":{"postcode":"3688","no. of muslims":0,"id":"a63yyj63c27r"},"type":"Feature","geometry":{"type":"Point","coordinates":[146.673164,-36.105488]}},{"properties":{"postcode":"3690","no. of muslims":82,"id":"a63yyj4hc085"},"type":"Feature","geometry":{"type":"Point","coordinates":[146.821149,-36.099768]}},{"properties":{"postcode":"3691","no. of muslims":3,"id":"a63yyj9q9i5t"},"type":"Feature","geometry":{"type":"Point","coordinates":[146.909823,-36.276114]}},{"properties":{"postcode":"3694","no. of muslims":0,"id":"a63yyj9m0ahl"},"type":"Feature","geometry":{"type":"Point","coordinates":[146.916596,-36.141317]}},{"properties":{"postcode":"3695","no. of muslims":0,"id":"a63yyiup11hq"},"type":"Feature","geometry":{"type":"Point","coordinates":[147.139316,-36.30384]}},{"properties":{"postcode":"3697","no. of muslims":6,"id":"a63yyj6epi73"},"type":"Feature","geometry":{"type":"Point","coordinates":[147.205089,-36.66901]}},{"properties":{"postcode":"3698","no. of muslims":0,"id":"a63yyj8xbh65"},"type":"Feature","geometry":{"type":"Point","coordinates":[0.0,0.0]}},{"properties":{"postcode":"3699","no. of muslims":0,"id":"a63yyiyz4wwy"},"type":"Feature","geometry":{"type":"Point","coordinates":[147.224996,-36.80517]}},{"properties":{"postcode":"3700","no. of muslims":0,"id":"a63yyj2f125f"},"type":"Feature","geometry":{"type":"Point","coordinates":[147.338065,-36.175761]}},{"properties":{"postcode":"3701","no. of muslims":0,"id":"a63yyiun3yaj"},"type":"Feature","geometry":{"type":"Point","coordinates":[147.497235,-36.533461]}},{"properties":{"postcode":"3705","no. of muslims":0,"id":"a63yyj619ism"},"type":"Feature","geometry":{"type":"Point","coordinates":[147.771573,-36.190684]}},{"properties":{"postcode":"3707","no. of muslims":0,"id":"a63yyj7unqaq"},"type":"Feature","geometry":{"type":"Point","coordinates":[148.025563,-36.279153]}},{"properties":{"postcode":"3709","no. of muslims":0,"id":"a63yyj7dkj15"},"type":"Feature","geometry":{"type":"Point","coordinates":[147.561427,-36.048847]}},{"properties":{"postcode":"3711","no. of muslims":0,"id":"a63yyitmx0kc"},"type":"Feature","geometry":{"type":"Point","coordinates":[145.712999,-37.420458]}},{"properties":{"postcode":"3712","no. of muslims":0,"id":"a63yyitmc8oe"},"type":"Feature","geometry":{"type":"Point","coordinates":[145.862023,-37.326297]}},{"properties":{"postcode":"3713","no. of muslims":0,"id":"a63yyj1l5893"},"type":"Feature","geometry":{"type":"Point","coordinates":[145.910525,-37.234547]}},{"properties":{"postcode":"3714","no. of muslims":0,"id":"a63yyj43yait"},"type":"Feature","geometry":{"type":"Point","coordinates":[145.702015,-37.252433]}},{"properties":{"postcode":"3717","no. of muslims":0,"id":"a63yyiubyqpi"},"type":"Feature","geometry":{"type":"Point","coordinates":[145.289109,-37.344477]}},{"properties":{"postcode":"3719","no. of muslims":0,"id":"a63yyj95j0gm"},"type":"Feature","geometry":{"type":"Point","coordinates":[145.617965,-37.014402]}},{"properties":{"postcode":"3720","no. of muslims":3,"id":"a63yyj4lxtyq"},"type":"Feature","geometry":{"type":"Point","coordinates":[145.86227,-37.023006]}},{"properties":{"postcode":"3722","no. of muslims":4,"id":"a63yyiua6oef"},"type":"Feature","geometry":{"type":"Point","coordinates":[146.21744,-37.009455]}},{"properties":{"postcode":"3723","no. of muslims":9,"id":"a63yyj3aubcn"},"type":"Feature","geometry":{"type":"Point","coordinates":[146.256507,-36.894465]}},{"properties":{"postcode":"3725","no. of muslims":0,"id":"a63yyiy040vm"},"type":"Feature","geometry":{"type":"Point","coordinates":[145.79839,-36.323886]}},{"properties":{"postcode":"3726","no. of muslims":0,"id":"a63yyj3kx06l"},"type":"Feature","geometry":{"type":"Point","coordinates":[146.057876,-36.28166]}},{"properties":{"postcode":"3727","no. of muslims":0,"id":"a63yyj8nnt0g"},"type":"Feature","geometry":{"type":"Point","coordinates":[146.056216,-36.232281]}},{"properties":{"postcode":"3728","no. of muslims":0,"id":"a63yyj0fgl24"},"type":"Feature","geometry":{"type":"Point","coordinates":[146.084897,-36.099254]}},{"properties":{"postcode":"3730","no. of muslims":3,"id":"a63yyj32w4bt"},"type":"Feature","geometry":{"type":"Point","coordinates":[146.084897,-36.026715]}},{"properties":{"postcode":"3732","no. of muslims":0,"id":"a63yyiugoo2v"},"type":"Feature","geometry":{"type":"Point","coordinates":[146.378463,-36.578223]}},{"properties":{"postcode":"3733","no. of muslims":3,"id":"a63yyiuajys0"},"type":"Feature","geometry":{"type":"Point","coordinates":[146.413426,-36.749752]}},{"properties":{"postcode":"3735","no. of muslims":8,"id":"a63yyj4tgu3h"},"type":"Feature","geometry":{"type":"Point","coordinates":[146.577229,-36.520364]}},{"properties":{"postcode":"3737","no. of muslims":24,"id":"a63yyj4ef09d"},"type":"Feature","geometry":{"type":"Point","coordinates":[146.782515,-36.976415]}},{"properties":{"postcode":"3738","no. of muslims":0,"id":"a63yyiy1iser"},"type":"Feature","geometry":{"type":"Point","coordinates":[146.792102,-36.606337]}},{"properties":{"postcode":"3739","no. of muslims":10,"id":"a63yyj64cxss"},"type":"Feature","geometry":{"type":"Point","coordinates":[146.84579,-36.703255]}},{"properties":{"postcode":"3740","no. of muslims":0,"id":"a63yyiuc8514"},"type":"Feature","geometry":{"type":"Point","coordinates":[146.852777,-36.815383]}},{"properties":{"postcode":"3741","no. of muslims":6,"id":"a63yyj09tr59"},"type":"Feature","geometry":{"type":"Point","coordinates":[146.960491,-36.727237]}},{"properties":{"postcode":"3744","no. of muslims":0,"id":"a63yyituz60q"},"type":"Feature","geometry":{"type":"Point","coordinates":[146.982157,-36.753565]}},{"properties":{"postcode":"3746","no. of muslims":0,"id":"a63yyiw4ah3m"},"type":"Feature","geometry":{"type":"Point","coordinates":[146.584447,-36.30376]}},{"properties":{"postcode":"3747","no. of muslims":0,"id":"a63yyj6xawwx"},"type":"Feature","geometry":{"type":"Point","coordinates":[146.687966,-36.360341]}},{"properties":{"postcode":"3749","no. of muslims":3,"id":"a63yyive0pw5"},"type":"Feature","geometry":{"type":"Point","coordinates":[146.862235,-36.414545]}},{"properties":{"postcode":"3750","no. of muslims":6,"id":"a63yyj69c5mu"},"type":"Feature","geometry":{"type":"Point","coordinates":[144.811911,-38.380955]}},{"properties":{"postcode":"3752","no. of muslims":205,"id":"a63yyj71lr7b"},"type":"Feature","geometry":{"type":"Point","coordinates":[145.095043,-37.653074]}},{"properties":{"postcode":"3753","no. of muslims":5,"id":"a63yyj5iwpko"},"type":"Feature","geometry":{"type":"Point","coordinates":[144.996239,-37.468668]}},{"properties":{"postcode":"3754","no. of muslims":4,"id":"a63yyj346s7d"},"type":"Feature","geometry":{"type":"Point","coordinates":[145.154899,-37.617671]}},{"properties":{"postcode":"3756","no. of muslims":63,"id":"a63yyj8mu46x"},"type":"Feature","geometry":{"type":"Point","coordinates":[144.80284,-37.402359]}},{"properties":{"postcode":"3757","no. of muslims":11,"id":"a63yyj0ulen6"},"type":"Feature","geometry":{"type":"Point","coordinates":[145.106435,-37.450676]}},{"properties":{"postcode":"3758","no. of muslims":0,"id":"a63yyj99whal"},"type":"Feature","geometry":{"type":"Point","coordinates":[145.029955,-37.383]}},{"properties":{"postcode":"3759","no. of muslims":0,"id":"a63yyiyud9e6"},"type":"Feature","geometry":{"type":"Point","coordinates":[145.240086,-37.641394]}},{"properties":{"postcode":"3761","no. of muslims":0,"id":"a63yyiznh0q1"},"type":"Feature","geometry":{"type":"Point","coordinates":[0.0,0.0]}},{"properties":{"postcode":"3763","no. of muslims":0,"id":"a63yyj0kepts"},"type":"Feature","geometry":{"type":"Point","coordinates":[145.277344,-37.481664]}},{"properties":{"postcode":"3764","no. of muslims":18,"id":"a63yyj3j2lcm"},"type":"Feature","geometry":{"type":"Point","coordinates":[144.889007,-37.31432]}},{"properties":{"postcode":"3765","no. of muslims":11,"id":"a63yyj50n2bc"},"type":"Feature","geometry":{"type":"Point","coordinates":[145.339514,-37.805976]}},{"properties":{"postcode":"3766","no. of muslims":3,"id":"a63yyj25wrvd"},"type":"Feature","geometry":{"type":"Point","coordinates":[145.367371,-37.816839]}},{"properties":{"postcode":"3767","no. of muslims":0,"id":"a63yyj0dn8f4"},"type":"Feature","geometry":{"type":"Point","coordinates":[145.357831,-37.835062]}},{"properties":{"postcode":"3770","no. of muslims":0,"id":"a63yyitd2mnr"},"type":"Feature","geometry":{"type":"Point","coordinates":[145.378596,-37.724701]}},{"properties":{"postcode":"3775","no. of muslims":0,"id":"a63yyj45frex"},"type":"Feature","geometry":{"type":"Point","coordinates":[145.317827,-37.650855]}},{"properties":{"postcode":"3777","no. of muslims":15,"id":"a63yyj1knxor"},"type":"Feature","geometry":{"type":"Point","coordinates":[145.541351,-37.686067]}},{"properties":{"postcode":"3778","no. of muslims":0,"id":"a63yyiukn4gx"},"type":"Feature","geometry":{"type":"Point","coordinates":[145.699176,-37.632252]}},{"properties":{"postcode":"3779","no. of muslims":0,"id":"a63yyj2ank5n"},"type":"Feature","geometry":{"type":"Point","coordinates":[145.885335,-37.560312]}},{"properties":{"postcode":"3781","no. of muslims":5,"id":"a63yyixrt625"},"type":"Feature","geometry":{"type":"Point","coordinates":[145.49137,-37.93626]}},{"properties":{"postcode":"3782","no. of muslims":16,"id":"a63yyj8ykcff"},"type":"Feature","geometry":{"type":"Point","coordinates":[145.467246,-37.920702]}},{"properties":{"postcode":"3783","no. of muslims":0,"id":"a63yyiuz21zz"},"type":"Feature","geometry":{"type":"Point","coordinates":[145.550457,-37.952497]}},{"properties":{"postcode":"3785","no. of muslims":0,"id":"a63yyiw0g4wd"},"type":"Feature","geometry":{"type":"Point","coordinates":[144.491163,-38.27059]}},{"properties":{"postcode":"3786","no. of muslims":0,"id":"a63yyj2tqr7z"},"type":"Feature","geometry":{"type":"Point","coordinates":[145.342274,-37.881284]}},{"properties":{"postcode":"3787","no. of muslims":4,"id":"a63yyj0ea55u"},"type":"Feature","geometry":{"type":"Point","coordinates":[145.36695,-37.876027]}},{"properties":{"postcode":"3788","no. of muslims":5,"id":"a63yyj84tg6d"},"type":"Feature","geometry":{"type":"Point","coordinates":[145.363835,-37.85984]}},{"properties":{"postcode":"3789","no. of muslims":0,"id":"a63yyivnqmpr"},"type":"Feature","geometry":{"type":"Point","coordinates":[145.364031,-37.883737]}},{"properties":{"postcode":"3791","no. of muslims":0,"id":"a63yyj2xz9th"},"type":"Feature","geometry":{"type":"Point","coordinates":[145.410171,-37.900585]}},{"properties":{"postcode":"3792","no. of muslims":0,"id":"a63yyj0ijn9j"},"type":"Feature","geometry":{"type":"Point","coordinates":[145.392574,-37.887353]}},{"properties":{"postcode":"3793","no. of muslims":4,"id":"a63yyitezf4g"},"type":"Feature","geometry":{"type":"Point","coordinates":[145.408664,-37.867678]}},{"properties":{"postcode":"3795","no. of muslims":0,"id":"a63yyiuocirh"},"type":"Feature","geometry":{"type":"Point","coordinates":[145.413447,-37.844151]}},{"properties":{"postcode":"3796","no. of muslims":6,"id":"a63yyj4ocke6"},"type":"Feature","geometry":{"type":"Point","coordinates":[145.375605,-37.792515]}},{"properties":{"postcode":"3797","no. of muslims":0,"id":"a63yyiw7bfbh"},"type":"Feature","geometry":{"type":"Point","coordinates":[145.711284,-37.855038]}},{"properties":{"postcode":"3799","no. of muslims":12,"id":"a63yyiyayary"},"type":"Feature","geometry":{"type":"Point","coordinates":[145.746221,-37.763917]}},{"properties":{"postcode":"3800","no. of muslims":164,"id":"a63yyiuqduua"},"type":"Feature","geometry":{"type":"Point","coordinates":[145.134935,-37.910545]}},{"properties":{"postcode":"3802","no. of muslims":2140,"id":"a63yyj8uaist"},"type":"Feature","geometry":{"type":"Point","coordinates":[145.254481,-37.975281]}},{"properties":{"postcode":"3803","no. of muslims":860,"id":"a63yyj3ytgx6"},"type":"Feature","geometry":{"type":"Point","coordinates":[145.269261,-38.004302]}},{"properties":{"postcode":"3804","no. of muslims":96,"id":"a63yyiw93hu0"},"type":"Feature","geometry":{"type":"Point","coordinates":[145.363213,-37.96602]}},{"properties":{"postcode":"3805","no. of muslims":1797,"id":"a63yyj6q74xn"},"type":"Feature","geometry":{"type":"Point","coordinates":[145.299771,-38.021278]}},{"properties":{"postcode":"3806","no. of muslims":398,"id":"a63yyiuq6jty"},"type":"Feature","geometry":{"type":"Point","coordinates":[145.344621,-38.030467]}},{"properties":{"postcode":"3807","no. of muslims":20,"id":"a63yyj4t1zmi"},"type":"Feature","geometry":{"type":"Point","coordinates":[145.36746,-38.045159]}},{"properties":{"postcode":"3808","no. of muslims":9,"id":"a63yyiv83ygv"},"type":"Feature","geometry":{"type":"Point","coordinates":[145.409755,-38.004643]}},{"properties":{"postcode":"3809","no. of muslims":4,"id":"a63yyj52mbnf"},"type":"Feature","geometry":{"type":"Point","coordinates":[145.40958,-38.063056]}},{"properties":{"postcode":"3810","no. of muslims":65,"id":"a63yyj6411n9"},"type":"Feature","geometry":{"type":"Point","coordinates":[145.493402,-38.077355]}},{"properties":{"postcode":"3812","no. of muslims":3,"id":"a63yyivipby8"},"type":"Feature","geometry":{"type":"Point","coordinates":[145.609548,-38.035781]}},{"properties":{"postcode":"3813","no. of muslims":0,"id":"a63yyiz4jnp2"},"type":"Feature","geometry":{"type":"Point","coordinates":[145.625456,-38.085068]}},{"properties":{"postcode":"3814","no. of muslims":0,"id":"a63yyivnqld7"},"type":"Feature","geometry":{"type":"Point","coordinates":[145.60591,-38.145284]}},{"properties":{"postcode":"3815","no. of muslims":3,"id":"a63yyj8xjoce"},"type":"Feature","geometry":{"type":"Point","coordinates":[145.715492,-38.09708]}},{"properties":{"postcode":"3816","no. of muslims":0,"id":"a63yyj5agzgk"},"type":"Feature","geometry":{"type":"Point","coordinates":[145.82875,-38.049843]}},{"properties":{"postcode":"3818","no. of muslims":3,"id":"a63yyiug4pfi"},"type":"Feature","geometry":{"type":"Point","coordinates":[145.779817,-38.239904]}},{"properties":{"postcode":"3820","no. of muslims":23,"id":"a63yyiuim80y"},"type":"Feature","geometry":{"type":"Point","coordinates":[145.964873,-38.206715]}},{"properties":{"postcode":"3821","no. of muslims":0,"id":"a63yyiudazzy"},"type":"Feature","geometry":{"type":"Point","coordinates":[145.923506,-38.099914]}},{"properties":{"postcode":"3822","no. of muslims":0,"id":"a63yyixgs9ei"},"type":"Feature","geometry":{"type":"Point","coordinates":[145.999245,-38.244952]}},{"properties":{"postcode":"3823","no. of muslims":0,"id":"a63yyiyjo9qu"},"type":"Feature","geometry":{"type":"Point","coordinates":[146.034059,-38.263213]}},{"properties":{"postcode":"3824","no. of muslims":0,"id":"a63yyj1zlbfl"},"type":"Feature","geometry":{"type":"Point","coordinates":[146.114577,-38.298917]}},{"properties":{"postcode":"3825","no. of muslims":62,"id":"a63yyj4rztur"},"type":"Feature","geometry":{"type":"Point","coordinates":[146.364064,-37.696566]}},{"properties":{"postcode":"3831","no. of muslims":0,"id":"a63yyj8ipvec"},"type":"Feature","geometry":{"type":"Point","coordinates":[145.993328,-37.962769]}},{"properties":{"postcode":"3832","no. of muslims":0,"id":"a63yyj0vg3yt"},"type":"Feature","geometry":{"type":"Point","coordinates":[145.9339,-37.9133]}},{"properties":{"postcode":"3833","no. of muslims":0,"id":"a63yyj26u8gk"},"type":"Feature","geometry":{"type":"Point","coordinates":[145.849688,-37.84087]}},{"properties":{"postcode":"3835","no. of muslims":0,"id":"a63yyj2k9jtv"},"type":"Feature","geometry":{"type":"Point","coordinates":[146.118691,-38.331875]}},{"properties":{"postcode":"3840","no. of muslims":37,"id":"a63yyix9kd10"},"type":"Feature","geometry":{"type":"Point","coordinates":[146.321254,-38.278708]}},{"properties":{"postcode":"3842","no. of muslims":62,"id":"a63yyix7stjt"},"type":"Feature","geometry":{"type":"Point","coordinates":[146.417986,-38.321315]}},{"properties":{"postcode":"3844","no. of muslims":67,"id":"a63yyitvfzwi"},"type":"Feature","geometry":{"type":"Point","coordinates":[146.637984,-38.406405]}},{"properties":{"postcode":"3847","no. of muslims":0,"id":"a63yyj5v3sv0"},"type":"Feature","geometry":{"type":"Point","coordinates":[146.753319,-38.26363]}},{"properties":{"postcode":"3850","no. of muslims":48,"id":"a63yyj3zh2zd"},"type":"Feature","geometry":{"type":"Point","coordinates":[147.083536,-38.415897]}},{"properties":{"postcode":"3851","no. of muslims":8,"id":"a63yyit9qw3x"},"type":"Feature","geometry":{"type":"Point","coordinates":[147.084398,-38.035548]}},{"properties":{"postcode":"3852","no. of muslims":3,"id":"a63yyj74o95c"},"type":"Feature","geometry":{"type":"Point","coordinates":[147.134356,-38.106731]}},{"properties":{"postcode":"3854","no. of muslims":3,"id":"a63yyj8yzb4g"},"type":"Feature","geometry":{"type":"Point","coordinates":[146.573643,-38.124641]}},{"properties":{"postcode":"3856","no. of muslims":0,"id":"a63yyixgl7b7"},"type":"Feature","geometry":{"type":"Point","coordinates":[146.670202,-38.066096]}},{"properties":{"postcode":"3857","no. of muslims":0,"id":"a63yyixr0xx6"},"type":"Feature","geometry":{"type":"Point","coordinates":[146.688721,-38.003449]}},{"properties":{"postcode":"3858","no. of muslims":3,"id":"a63yyivc9cas"},"type":"Feature","geometry":{"type":"Point","coordinates":[146.689838,-37.974475]}},{"properties":{"postcode":"3859","no. of muslims":0,"id":"a63yyiut0icg"},"type":"Feature","geometry":{"type":"Point","coordinates":[146.848259,-37.886136]}},{"properties":{"postcode":"3860","no. of muslims":3,"id":"a63yyj4mq2nd"},"type":"Feature","geometry":{"type":"Point","coordinates":[146.987326,-37.880398]}},{"properties":{"postcode":"3862","no. of muslims":4,"id":"a63yyixmh2f9"},"type":"Feature","geometry":{"type":"Point","coordinates":[147.187425,-37.573541]}},{"properties":{"postcode":"3865","no. of muslims":0,"id":"a63yyizm4uin"},"type":"Feature","geometry":{"type":"Point","coordinates":[147.458491,-37.800359]}},{"properties":{"postcode":"3869","no. of muslims":0,"id":"a63yyj04fuz6"},"type":"Feature","geometry":{"type":"Point","coordinates":[146.424652,-38.398143]}},{"properties":{"postcode":"3870","no. of muslims":0,"id":"a63yyj7g10x7"},"type":"Feature","geometry":{"type":"Point","coordinates":[146.275377,-38.378924]}},{"properties":{"postcode":"3871","no. of muslims":3,"id":"a63yyj0ajnie"},"type":"Feature","geometry":{"type":"Point","coordinates":[146.054894,-38.285262]}},{"properties":{"postcode":"3874","no. of muslims":0,"id":"a63yyiz2gcgf"},"type":"Feature","geometry":{"type":"Point","coordinates":[146.791268,-38.379257]}},{"properties":{"postcode":"3875","no. of muslims":6,"id":"a63yyj8n4vtw"},"type":"Feature","geometry":{"type":"Point","coordinates":[147.628962,-37.825114]}},{"properties":{"postcode":"3878","no. of muslims":3,"id":"a63yyj8rk4b5"},"type":"Feature","geometry":{"type":"Point","coordinates":[147.670253,-37.89463]}},{"properties":{"postcode":"3880","no. of muslims":0,"id":"a63yyj6kvfdt"},"type":"Feature","geometry":{"type":"Point","coordinates":[147.693728,-37.924908]}},{"properties":{"postcode":"3882","no. of muslims":0,"id":"a63yyj2f5o5o"},"type":"Feature","geometry":{"type":"Point","coordinates":[147.734243,-37.815478]}},{"properties":{"postcode":"3885","no. of muslims":0,"id":"a63yyiu4bwfx"},"type":"Feature","geometry":{"type":"Point","coordinates":[147.831322,-37.70793]}},{"properties":{"postcode":"3886","no. of muslims":0,"id":"a63yyj08ar6h"},"type":"Feature","geometry":{"type":"Point","coordinates":[148.433878,-37.735401]}},{"properties":{"postcode":"3887","no. of muslims":0,"id":"a63yyj5wu175"},"type":"Feature","geometry":{"type":"Point","coordinates":[148.121299,-37.841038]}},{"properties":{"postcode":"3888","no. of muslims":14,"id":"a63yyj0aidbs"},"type":"Feature","geometry":{"type":"Point","coordinates":[148.884272,-37.146838]}},{"properties":{"postcode":"3889","no. of muslims":0,"id":"a63yyiv2stvo"},"type":"Feature","geometry":{"type":"Point","coordinates":[145.906217,-37.927902]}},{"properties":{"postcode":"3890","no. of muslims":0,"id":"a63yyj2v6u9v"},"type":"Feature","geometry":{"type":"Point","coordinates":[149.144376,-37.270391]}},{"properties":{"postcode":"3891","no. of muslims":0,"id":"a63yyixq9bbk"},"type":"Feature","geometry":{"type":"Point","coordinates":[149.592844,-37.475736]}},{"properties":{"postcode":"3892","no. of muslims":0,"id":"a63yyj09hxyy"},"type":"Feature","geometry":{"type":"Point","coordinates":[149.729223,-37.549486]}},{"properties":{"postcode":"3895","no. of muslims":0,"id":"a63yyizn954q"},"type":"Feature","geometry":{"type":"Point","coordinates":[147.748627,-37.298674]}},{"properties":{"postcode":"3896","no. of muslims":0,"id":"a63yyiugy02o"},"type":"Feature","geometry":{"type":"Point","coordinates":[147.812864,-37.112351]}},{"properties":{"postcode":"3898","no. of muslims":4,"id":"a63yyj6f885g"},"type":"Feature","geometry":{"type":"Point","coordinates":[147.470661,-37.019423]}},{"properties":{"postcode":"3900","no. of muslims":0,"id":"a63yyitsmb79"},"type":"Feature","geometry":{"type":"Point","coordinates":[147.703226,-36.949754]}},{"properties":{"postcode":"3902","no. of muslims":3,"id":"a63yyj1ycqsb"},"type":"Feature","geometry":{"type":"Point","coordinates":[147.830756,-37.792719]}},{"properties":{"postcode":"3904","no. of muslims":0,"id":"a63yyj60zkx0"},"type":"Feature","geometry":{"type":"Point","coordinates":[147.847355,-37.87152]}},{"properties":{"postcode":"3909","no. of muslims":15,"id":"a63yyj6ptlgi"},"type":"Feature","geometry":{"type":"Point","coordinates":[147.922922,-37.857772]}},{"properties":{"postcode":"3910","no. of muslims":17,"id":"a63yyj30ycsv"},"type":"Feature","geometry":{"type":"Point","coordinates":[145.185851,-38.153809]}},{"properties":{"postcode":"3911","no. of muslims":4,"id":"a63yyiwnt0h0"},"type":"Feature","geometry":{"type":"Point","coordinates":[145.158007,-38.195383]}},{"properties":{"postcode":"3912","no. of muslims":12,"id":"a63yyiuzktn5"},"type":"Feature","geometry":{"type":"Point","coordinates":[145.232339,-38.202617]}},{"properties":{"postcode":"3913","no. of muslims":3,"id":"a63yyj5co3de"},"type":"Feature","geometry":{"type":"Point","coordinates":[145.186464,-38.259808]}},{"properties":{"postcode":"3915","no. of muslims":7,"id":"a63yyiwqzsyv"},"type":"Feature","geometry":{"type":"Point","coordinates":[145.190507,-38.30771]}},{"properties":{"postcode":"3916","no. of muslims":0,"id":"a63yyj79b48d"},"type":"Feature","geometry":{"type":"Point","coordinates":[145.085801,-38.392646]}},{"properties":{"postcode":"3918","no. of muslims":0,"id":"a63yyiyz7k03"},"type":"Feature","geometry":{"type":"Point","coordinates":[145.177993,-38.337376]}},{"properties":{"postcode":"3919","no. of muslims":0,"id":"a63yyj8p2vby"},"type":"Feature","geometry":{"type":"Point","coordinates":[145.204068,-38.366119]}},{"properties":{"postcode":"3920","no. of muslims":0,"id":"a63yyj5kwkts"},"type":"Feature","geometry":{"type":"Point","coordinates":[0.0,0.0]}},{"properties":{"postcode":"3921","no. of muslims":0,"id":"a63yyj3eeou2"},"type":"Feature","geometry":{"type":"Point","coordinates":[145.338749,-38.342506]}},{"properties":{"postcode":"3922","no. of muslims":10,"id":"a63yyj46ntvq"},"type":"Feature","geometry":{"type":"Point","coordinates":[145.239003,-38.450286]}},{"properties":{"postcode":"3923","no. of muslims":0,"id":"a63yyj6xlwxw"},"type":"Feature","geometry":{"type":"Point","coordinates":[145.307964,-38.460584]}},{"properties":{"postcode":"3925","no. of muslims":3,"id":"a63yyj5povdk"},"type":"Feature","geometry":{"type":"Point","coordinates":[145.340775,-38.54338]}},{"properties":{"postcode":"3926","no. of muslims":3,"id":"a63yyium4c1z"},"type":"Feature","geometry":{"type":"Point","coordinates":[145.126733,-38.373497]}},{"properties":{"postcode":"3927","no. of muslims":0,"id":"a63yyivbojb9"},"type":"Feature","geometry":{"type":"Point","coordinates":[145.147627,-38.383442]}},{"properties":{"postcode":"3928","no. of muslims":0,"id":"a63yyj6rzeow"},"type":"Feature","geometry":{"type":"Point","coordinates":[144.970958,-38.400438]}},{"properties":{"postcode":"3929","no. of muslims":0,"id":"a63yyj1cz84i"},"type":"Feature","geometry":{"type":"Point","coordinates":[145.01628,-38.473815]}},{"properties":{"postcode":"3930","no. of muslims":29,"id":"a63yyj8nehgw"},"type":"Feature","geometry":{"type":"Point","coordinates":[145.079095,-38.191618]}},{"properties":{"postcode":"3931","no. of muslims":32,"id":"a63yyj7in79c"},"type":"Feature","geometry":{"type":"Point","coordinates":[145.064195,-38.238386]}},{"properties":{"postcode":"3933","no. of muslims":0,"id":"a63yyj7pdpjm"},"type":"Feature","geometry":{"type":"Point","coordinates":[145.087375,-38.237072]}},{"properties":{"postcode":"3934","no. of muslims":10,"id":"a63yyix9r8vm"},"type":"Feature","geometry":{"type":"Point","coordinates":[144.994873,-38.302366]}},{"properties":{"postcode":"3936","no. of muslims":44,"id":"a63yyj038rt5"},"type":"Feature","geometry":{"type":"Point","coordinates":[144.949793,-38.354428]}},{"properties":{"postcode":"3937","no. of muslims":0,"id":"a63yyj8dm39n"},"type":"Feature","geometry":{"type":"Point","coordinates":[145.012073,-38.37014]}},{"properties":{"postcode":"3938","no. of muslims":0,"id":"a63yyj53n9s1"},"type":"Feature","geometry":{"type":"Point","coordinates":[145.21956,-37.990225]}},{"properties":{"postcode":"3939","no. of muslims":4,"id":"a63yyj7bvpwn"},"type":"Feature","geometry":{"type":"Point","coordinates":[144.904098,-38.398469]}},{"properties":{"postcode":"3940","no. of muslims":9,"id":"a63yyivpotlo"},"type":"Feature","geometry":{"type":"Point","coordinates":[0.0,0.0]}},{"properties":{"postcode":"3941","no. of muslims":18,"id":"a63yyit8qp1u"},"type":"Feature","geometry":{"type":"Point","coordinates":[144.824741,-38.370692]}},{"properties":{"postcode":"3942","no. of muslims":0,"id":"a63yyiu28epq"},"type":"Feature","geometry":{"type":"Point","coordinates":[144.768511,-38.359005]}},{"properties":{"postcode":"3943","no. of muslims":0,"id":"a63yyj8wbl01"},"type":"Feature","geometry":{"type":"Point","coordinates":[144.73807,-38.344297]}},{"properties":{"postcode":"3944","no. of muslims":0,"id":"a63yyj7n09nz"},"type":"Feature","geometry":{"type":"Point","coordinates":[144.709285,-38.338347]}},{"properties":{"postcode":"3945","no. of muslims":0,"id":"a63yyj7h8goj"},"type":"Feature","geometry":{"type":"Point","coordinates":[145.155125,-37.970297]}},{"properties":{"postcode":"3946","no. of muslims":0,"id":"a63yyj2jghu5"},"type":"Feature","geometry":{"type":"Point","coordinates":[145.722184,-38.433031]}},{"properties":{"postcode":"3950","no. of muslims":0,"id":"a63yyizk0ars"},"type":"Feature","geometry":{"type":"Point","coordinates":[145.877524,-38.449367]}},{"properties":{"postcode":"3951","no. of muslims":3,"id":"a63yyj6w1gve"},"type":"Feature","geometry":{"type":"Point","coordinates":[145.888218,-38.394907]}},{"properties":{"postcode":"3953","no. of muslims":3,"id":"a63yyiydynnq"},"type":"Feature","geometry":{"type":"Point","coordinates":[146.069703,-38.406667]}},{"properties":{"postcode":"3954","no. of muslims":0,"id":"a63yyj88u1b4"},"type":"Feature","geometry":{"type":"Point","coordinates":[145.948111,-38.547015]}},{"properties":{"postcode":"3956","no. of muslims":6,"id":"a63yyj8drs4y"},"type":"Feature","geometry":{"type":"Point","coordinates":[146.095008,-38.531629]}},{"properties":{"postcode":"3958","no. of muslims":0,"id":"a63yyj1hclw1"},"type":"Feature","geometry":{"type":"Point","coordinates":[146.074806,-38.642608]}},{"properties":{"postcode":"3959","no. of muslims":3,"id":"a63yyixvcvml"},"type":"Feature","geometry":{"type":"Point","coordinates":[146.082083,-38.694358]}},{"properties":{"postcode":"3960","no. of muslims":3,"id":"a63yyj8rfa4p"},"type":"Feature","geometry":{"type":"Point","coordinates":[146.266751,-38.668395]}},{"properties":{"postcode":"3962","no. of muslims":3,"id":"a63yyj2dafoh"},"type":"Feature","geometry":{"type":"Point","coordinates":[146.396151,-38.670149]}},{"properties":{"postcode":"3964","no. of muslims":0,"id":"a63yyj4vzsua"},"type":"Feature","geometry":{"type":"Point","coordinates":[146.270581,-38.679229]}},{"properties":{"postcode":"3965","no. of muslims":0,"id":"a63yyj2jjjn6"},"type":"Feature","geometry":{"type":"Point","coordinates":[146.454398,-38.691833]}},{"properties":{"postcode":"3966","no. of muslims":0,"id":"a63yyiyir7mg"},"type":"Feature","geometry":{"type":"Point","coordinates":[146.453313,-38.584197]}},{"properties":{"postcode":"3971","no. of muslims":0,"id":"a63yyitl6bsy"},"type":"Feature","geometry":{"type":"Point","coordinates":[146.66598,-38.611394]}},{"properties":{"postcode":"3975","no. of muslims":305,"id":"a63yyj8nz8oy"},"type":"Feature","geometry":{"type":"Point","coordinates":[145.257531,-38.050457]}},{"properties":{"postcode":"3976","no. of muslims":916,"id":"a63yyj36ue7z"},"type":"Feature","geometry":{"type":"Point","coordinates":[145.267863,-38.032221]}},{"properties":{"postcode":"3977","no. of muslims":468,"id":"a63yyj2argra"},"type":"Feature","geometry":{"type":"Point","coordinates":[145.315447,-38.212992]}},{"properties":{"postcode":"3978","no. of muslims":9,"id":"a63yyj7uwcaw"},"type":"Feature","geometry":{"type":"Point","coordinates":[145.423291,-38.145962]}},{"properties":{"postcode":"3980","no. of muslims":3,"id":"a63yyj4iv4ff"},"type":"Feature","geometry":{"type":"Point","coordinates":[145.340207,-38.211236]}},{"properties":{"postcode":"3981","no. of muslims":3,"id":"a63yyj0y72kg"},"type":"Feature","geometry":{"type":"Point","coordinates":[145.573638,-38.179036]}},{"properties":{"postcode":"3984","no. of muslims":3,"id":"a63yyj2ghgn4"},"type":"Feature","geometry":{"type":"Point","coordinates":[145.539805,-38.323843]}},{"properties":{"postcode":"3987","no. of muslims":8,"id":"a63yyiuf06kl"},"type":"Feature","geometry":{"type":"Point","coordinates":[145.670441,-38.333067]}},{"properties":{"postcode":"3988","no. of muslims":6,"id":"a63yyiwv09xb"},"type":"Feature","geometry":{"type":"Point","coordinates":[145.886342,-38.294339]}},{"properties":{"postcode":"3991","no. of muslims":0,"id":"a63yyj9ez0ca"},"type":"Feature","geometry":{"type":"Point","coordinates":[145.467733,-38.480541]}},{"properties":{"postcode":"3992","no. of muslims":3,"id":"a63yyj0d7kg8"},"type":"Feature","geometry":{"type":"Point","coordinates":[145.616162,-38.493513]}},{"properties":{"postcode":"3995","no. of muslims":3,"id":"a63yyj5ac6m3"},"type":"Feature","geometry":{"type":"Point","coordinates":[145.446731,-38.527605]}},{"properties":{"postcode":"3996","no. of muslims":4,"id":"a63yyizmjfjf"},"type":"Feature","geometry":{"type":"Point","coordinates":[145.729641,-38.632958]}}],"is_temporal":false,"author":{"url":"http://www.abs.gov.au/cdataonline","metadata":"","contact_name":"Rachel Woodlock","contact_address":"c/- Centre for Islam and the Modern World, Monash University, Victoria, Australia","source":"ABS","contact_phone":""},"source":"http://www.abs.gov.au/cdataonline","pagination":{"sort":null,"start":0,"total":653,"limit":1000000},"state":"complete","tags":"abs,muslims,postcodes,victoria","published":"2012-01-11T09:55:39Z","id":194324}