{"type":"FeatureCollection","data_type":"Dataset","url_type":null,"permissions":[{"permissions":{"download":true,"view":true},"group_id":"everyone"}],"classification":null,"title":"Miscellaneous ","count":20,"stream_id":195222,"contributor":{"url":"http://geocommons.com/users/38376","name":"gonink"},"data_attributes":null,"calculation_params":null,"icon_link":null,"link":"http://geocommons.com/overlays/195222.json","extent":[-85.3282,41.2262,-85.3166,41.2317],"geometry_types":["point"],"unique_name":null,"name":"Miscellaneous ","feature_count":20,"description":"","next_feature":null,"is_raster":false,"short_classification":"Y","stats":{"times responded":{"max":11,"mean":6.5,"variance":26.0526315789474,"stdev":5.1041778553404,"min":1,"median":11}},"features":[{"properties":{"city":"Churubusco","incident":"Weather Watch","landmark":"Fire Station","geo_score":0.902,"times responded":11,"id":"a63uk5wl98e3","geo_precision":"range","address":"204 North Line Street","state":"Indiana"},"type":"Feature","geometry":{"type":"Point","coordinates":[-85.31924,41.23172]}},{"properties":{"city":"Churubusco","incident":"Weather Watch","landmark":"Fire Station","geo_score":0.902,"times responded":11,"id":"a63uk62s2pxo","geo_precision":"range","address":"204 North Line Street","state":"Indiana"},"type":"Feature","geometry":{"type":"Point","coordinates":[-85.31924,41.23172]}},{"properties":{"city":"Churubusco","incident":"Standby","landmark":"Fire Station","geo_score":0.902,"times responded":11,"id":"a63uk665ez8b","geo_precision":"range","address":"204 North Line Street","state":"Indiana"},"type":"Feature","geometry":{"type":"Point","coordinates":[-85.31924,41.23172]}},{"properties":{"city":"Churubusco","incident":"Standby","landmark":"Fire Station","geo_score":0.902,"times responded":11,"id":"a63uk5s38g4b","geo_precision":"range","address":"204 North Line Street","state":"Indiana"},"type":"Feature","geometry":{"type":"Point","coordinates":[-85.31924,41.23172]}},{"properties":{"city":"Churubusco","incident":"Weather Watch","landmark":"Fire Station","geo_score":0.902,"times responded":11,"id":"a63uk5vs0sy0","geo_precision":"range","address":"204 North Line Street","state":"Indiana"},"type":"Feature","geometry":{"type":"Point","coordinates":[-85.31924,41.23172]}},{"properties":{"city":"Churubusco","incident":"Weather Watch","landmark":"Fire Station","geo_score":0.902,"times responded":11,"id":"a63uk62cwi4c","geo_precision":"range","address":"204 North Line Street","state":"Indiana"},"type":"Feature","geometry":{"type":"Point","coordinates":[-85.31924,41.23172]}},{"properties":{"city":"Churubusco","incident":"Weather Watch","landmark":"Fire Station","geo_score":0.902,"times responded":11,"id":"a63uk5v55gel","geo_precision":"range","address":"204 North Line Street","state":"Indiana"},"type":"Feature","geometry":{"type":"Point","coordinates":[-85.31924,41.23172]}},{"properties":{"city":"Churubusco","incident":"Weather Watch","landmark":"Fire Station","geo_score":0.902,"times responded":11,"id":"a63uk5xwgxm4","geo_precision":"range","address":"204 North Line Street","state":"Indiana"},"type":"Feature","geometry":{"type":"Point","coordinates":[-85.31924,41.23172]}},{"properties":{"city":"Churubusco","incident":"Weather Watch","landmark":"Fire Station","geo_score":0.902,"times responded":11,"id":"a63uk5yteltz","geo_precision":"range","address":"204 North Line Street","state":"Indiana"},"type":"Feature","geometry":{"type":"Point","coordinates":[-85.31924,41.23172]}},{"properties":{"city":"Churubusco","incident":"Standby","landmark":"Fire Station","geo_score":0.902,"times responded":11,"id":"a63uk63l8fzq","geo_precision":"range","address":"204 North Line Street","state":"Indiana"},"type":"Feature","geometry":{"type":"Point","coordinates":[-85.31924,41.23172]}},{"properties":{"city":"Churubusco","incident":"Standby","landmark":"Fire Station","geo_score":0.902,"times responded":11,"id":"a63uk63fmcwc","geo_precision":"range","address":"204 North Line Street","state":"Indiana"},"type":"Feature","geometry":{"type":"Point","coordinates":[-85.31924,41.23172]}},{"properties":{"city":"Churubusco","incident":"Wires Down","landmark":"N/A","geo_score":0.727,"times responded":1,"id":"a63uk62wnmoj","geo_precision":"range","address":"230 Railroad Street","state":"Indiana"},"type":"Feature","geometry":{"type":"Point","coordinates":[-85.316602,41.230205]}},{"properties":{"city":"Churubusco","incident":"CO Detector","landmark":"N/A","geo_score":0.902,"times responded":1,"id":"a63uk5uz45vk","geo_precision":"range","address":"302 West Pleasant Street","state":"Indiana"},"type":"Feature","geometry":{"type":"Point","coordinates":[-85.322244,41.227132]}},{"properties":{"city":"Churubusco","incident":"Tree Down","landmark":"N/A","geo_score":0.902,"times responded":1,"id":"a63uk5reibc4","geo_precision":"range","address":"306 West Pleasant Street","state":"Indiana"},"type":"Feature","geometry":{"type":"Point","coordinates":[-85.322331,41.227074]}},{"properties":{"city":"Churubusco","incident":"CO Detector","landmark":"N/A","geo_score":0.902,"times responded":1,"id":"a63uk5sr3kf5","geo_precision":"range","address":"307 South Main Street","state":"Indiana"},"type":"Feature","geometry":{"type":"Point","coordinates":[-85.318831,41.229905]}},{"properties":{"city":"Churubusco","incident":"Tree Down","landmark":"N/A","geo_score":0.902,"times responded":1,"id":"a63uk5sh718j","geo_precision":"range","address":"400 South Main Street","state":"Indiana"},"type":"Feature","geometry":{"type":"Point","coordinates":[-85.318642,41.22959]}},{"properties":{"city":"Churubusco","incident":"CO Detector","landmark":"N/A","geo_score":0.902,"times responded":1,"id":"a63uk613tjv9","geo_precision":"range","address":"407 Woodland Place","state":"Indiana"},"type":"Feature","geometry":{"type":"Point","coordinates":[-85.328176,41.231502]}},{"properties":{"city":"Churubusco","incident":"CO Detector","landmark":"N/A","geo_score":0.902,"times responded":1,"id":"a63uk668ijcs","geo_precision":"range","address":"414 West Pleasant Street","state":"Indiana"},"type":"Feature","geometry":{"type":"Point","coordinates":[-85.32605,41.226234]}},{"properties":{"city":"Churubusco","incident":"Cat In Tree","landmark":"N/A","geo_score":0.902,"times responded":1,"id":"a63uk61yrlba","geo_precision":"range","address":"513 Rapp Drive","state":"Indiana"},"type":"Feature","geometry":{"type":"Point","coordinates":[-85.326838,41.231061]}},{"properties":{"city":"Churubusco","incident":"Gas Spill","landmark":"BP Gas Station","geo_score":0.902,"times responded":1,"id":"a63uk5rpeo83","geo_precision":"range","address":"560 South Main Street","state":"Indiana"},"type":"Feature","geometry":{"type":"Point","coordinates":[-85.318074,41.227724]}}],"is_temporal":false,"author":{"url":"","metadata":null,"contact_name":null,"contact_address":null,"source":null,"contact_phone":null},"source":"","pagination":{"sort":null,"start":0,"total":20,"limit":1000000},"state":"complete","tags":"","published":"2014-08-13T04:04:24-04:00","id":195222}