{"type":"FeatureCollection","data_type":"Dataset","url_type":null,"permissions":[{"permissions":{"download":true,"view":true},"group_id":"everyone"}],"classification":null,"title":"Atlantic_City_Taverns_1954","count":34,"stream_id":195514,"contributor":{"url":"http://geocommons.com/users/34911","name":"JCReut"},"data_attributes":null,"calculation_params":null,"icon_link":null,"link":"http://geocommons.com/overlays/195514.json","extent":[-74.4366,39.3586,-74.419,39.3685],"geometry_types":["point"],"unique_name":null,"name":"Atlantic_City_Taverns_1954","feature_count":34,"description":"","next_feature":null,"is_raster":false,"short_classification":"Y","stats":{},"features":[{"properties":{"city":"Atlantic CITY","zip":"08401","geo_score":0.61,"type":"BP","business name":"C.E. Newsome","id":"a647mccpyaz7","geo_precision":"street","address":"225 N. Indiana","state":"NJ"},"type":"Feature","geometry":{"type":"Point","coordinates":[-74.433593,39.360876]}},{"properties":{"city":"Atlantic CITY","zip":"08401","geo_score":0.607,"type":"BP","business name":"Grace's","id":"a647mcgk2xkn","geo_precision":"street","address":"43 N. Kentucky Ave","state":"NJ"},"type":"Feature","geometry":{"type":"Point","coordinates":[-74.430568,39.361118]}},{"properties":{"city":"Atlantic CITY","zip":"08401","geo_score":0.614,"type":"BS","business name":"No Name","id":"a647mc5k1i6p","geo_precision":"street","address":"42 N. Illinois Ave","state":"NJ"},"type":"Feature","geometry":{"type":"Point","coordinates":[-74.430227,39.360605]}},{"properties":{"city":"Atlantic CITY","zip":"08401","geo_score":1.0,"type":"BS","business name":"Hollywood","id":"a647mcdaxtyq","geo_precision":"range","address":"811 Arctic Ave","state":"NJ"},"type":"Feature","geometry":{"type":"Point","coordinates":[-74.42167,39.366628]}},{"properties":{"city":"Atlantic CITY","zip":"08401","geo_score":0.805,"type":"BS","business name":"Hunter's","id":"a647mc9sidcz","geo_precision":"street","address":"1816 1/2 Arctic Ave","state":"NJ"},"type":"Feature","geometry":{"type":"Point","coordinates":[-74.419041,39.367733]}},{"properties":{"city":"Atlantic CITY","zip":"08401","geo_score":0.769,"type":"DS","business name":"London's","id":"a647mcfnpuu9","geo_precision":"street","address":"Corner Kentucky and Arctic Ave","state":"NJ"},"type":"Feature","geometry":{"type":"Point","coordinates":[-74.430568,39.361118]}},{"properties":{"city":"Atlantic CITY","zip":"08401","geo_score":0.773,"type":"LS","business name":"Tumble Inn","id":"a647mcex23y1","geo_precision":"street","address":"Delaware and Baltic","state":"NJ"},"type":"Feature","geometry":{"type":"Point","coordinates":[-74.421491,39.36672]}},{"properties":{"city":"Atlantic CITY","zip":"08401","geo_score":0.607,"type":"NC","business name":"Harlem","id":"a647mceuo9k1","geo_precision":"street","address":"32 N. Kentucky Ave","state":"NJ"},"type":"Feature","geometry":{"type":"Point","coordinates":[-74.430568,39.361118]}},{"properties":{"city":"Atlantic CITY","zip":"08401","geo_score":0.614,"type":"NC","business name":"Paradise","id":"a647mcjdalp2","geo_precision":"street","address":"220 N. Illinois Ave","state":"NJ"},"type":"Feature","geometry":{"type":"Point","coordinates":[-74.430227,39.360605]}},{"properties":{"city":"Atlantic CITY","zip":"08401","geo_score":1.0,"type":"R","business name":"J + J","id":"a647mc975mts","geo_precision":"range","address":"1700 Arctic Ave","state":"NJ"},"type":"Feature","geometry":{"type":"Point","coordinates":[-74.432841,39.362139]}},{"properties":{"city":"Atlantic CITY","zip":"08401","geo_score":0.607,"type":"R","business name":"Golden's","id":"a647mc6u82wu","geo_precision":"street","address":"41 N. Kentucky Ave","state":"NJ"},"type":"Feature","geometry":{"type":"Point","coordinates":[-74.430568,39.361118]}},{"properties":{"city":"Atlantic CITY","zip":"08401","geo_score":1.0,"type":"R","business name":"Kelly's","id":"a647mc65imar","geo_precision":"range","address":"1311 Arctic Ave","state":"NJ"},"type":"Feature","geometry":{"type":"Point","coordinates":[-74.427898,39.36411]}},{"properties":{"city":"Atlantic CITY","zip":"08401","geo_score":0.902,"type":"SS","business name":"Mundy's","id":"a647mcdqg1ya","geo_precision":"range","address":"1818 Arctic Street","state":"NJ"},"type":"Feature","geometry":{"type":"Point","coordinates":[-74.434752,39.361358]}},{"properties":{"city":"Atlantic CITY","zip":"08401","geo_score":0.947,"type":"T","business name":"Mack's","id":"a647mc64orod","geo_precision":"range","address":"132 new York Avw","state":"NJ"},"type":"Feature","geometry":{"type":"Point","coordinates":[-74.427706,39.359015]}},{"properties":{"city":"Atlantic CITY","zip":"08401","geo_score":1.0,"type":"T","business name":"Tom Buck's","id":"a647mcbv4psm","geo_precision":"range","address":"1608 Arctic Ave","state":"NJ"},"type":"Feature","geometry":{"type":"Point","coordinates":[-74.431834,39.362516]}},{"properties":{"city":"Atlantic CITY","zip":"08401","geo_score":1.0,"type":"T","business name":"Wonder Bar","id":"a647mcj4q6ee","geo_precision":"range","address":"1601 Arctic Ave","state":"NJ"},"type":"Feature","geometry":{"type":"Point","coordinates":[-74.431592,39.362643]}},{"properties":{"city":"Atlantic CITY","zip":"08401","geo_score":0.607,"type":"T","business name":"Little Belmont","id":"a647mc8zlfcy","geo_precision":"street","address":"37 N. Kentucky Ave","state":"NJ"},"type":"Feature","geometry":{"type":"Point","coordinates":[-74.430568,39.361118]}},{"properties":{"city":"Atlantic CITY","zip":"08401","geo_score":1.0,"type":"T","business name":"Hattie's","id":"a647mc7cokg4","geo_precision":"range","address":"1913 Arctic Ave","state":"NJ"},"type":"Feature","geometry":{"type":"Point","coordinates":[-74.436014,39.360849]}},{"properties":{"city":"Atlantic CITY","zip":"08401","geo_score":0.714,"type":"T","business name":"Daddy Lew's","id":"a647mc3kolau","geo_precision":"street","address":"Bay and Baltic","state":"NJ"},"type":"Feature","geometry":{"type":"Point","coordinates":[-74.429896,39.363322]}},{"properties":{"city":"Atlantic CITY","zip":"08401","geo_score":1.0,"type":"T","business name":"Popular","id":"a647mciu9gl1","geo_precision":"range","address":"1923 Arctic Ave","state":"NJ"},"type":"Feature","geometry":{"type":"Point","coordinates":[-74.436059,39.360826]}},{"properties":{"city":"Atlantic CITY","zip":"08401","geo_score":0.837,"type":"T","business name":"Elite","id":"a647mca6rswj","geo_precision":"street","address":"Baltic and Chalfonte Ave","state":"NJ"},"type":"Feature","geometry":{"type":"Point","coordinates":[-74.427959,39.365766]}},{"properties":{"city":"Atlantic CITY","zip":"08401","geo_score":0.798,"type":"T","business name":"Herman's","id":"a647mcfldpd5","geo_precision":"street","address":"Maryland and Arctic","state":"NJ"},"type":"Feature","geometry":{"type":"Point","coordinates":[-74.419585,39.36137]}},{"properties":{"city":"Atlantic CITY","zip":"08401","geo_score":0.607,"type":"T","business name":"Prince's","id":"a647mccjumr2","geo_precision":"street","address":"37 N. Michigan Ave","state":"NJ"},"type":"Feature","geometry":{"type":"Point","coordinates":[-74.435301,39.358629]}},{"properties":{"city":"Atlantic CITY","zip":"08401","geo_score":0.798,"type":"T","business name":"Austin's","id":"a647mca6gk7d","geo_precision":"street","address":"Maryland and Baltic","state":"NJ"},"type":"Feature","geometry":{"type":"Point","coordinates":[-74.419585,39.36137]}},{"properties":{"city":"Atlantic CITY","zip":"08401","geo_score":1.0,"type":"T","business name":"Elk's Bar and Grill","id":"a647mc4cekg6","geo_precision":"range","address":"1613 Arctic Ave","state":"NJ"},"type":"Feature","geometry":{"type":"Point","coordinates":[-74.431954,39.362453]}},{"properties":{"city":"Atlantic CITY","zip":"08401","geo_score":0.743,"type":"T","business name":"New Jersey","id":"a647mcgbcund","geo_precision":"street","address":"New Jersey and Mediterranean","state":"NJ"},"type":"Feature","geometry":{"type":"Point","coordinates":[-74.41926,39.365673]}},{"properties":{"city":"Atlantic CITY","zip":"08401","geo_score":0.607,"type":"T","business name":"Circus","id":"a647mchc3ozv","geo_precision":"street","address":"37 N. Michigan Ave","state":"NJ"},"type":"Feature","geometry":{"type":"Point","coordinates":[-74.435301,39.358629]}},{"properties":{"city":"Atlantic CITY","zip":"08401","geo_score":1.0,"type":"T","business name":"My Own","id":"a647mcec7a3m","geo_precision":"range","address":"701 Baltic Ave","state":"NJ"},"type":"Feature","geometry":{"type":"Point","coordinates":[-74.421154,39.368516]}},{"properties":{"city":"Atlantic CITY","zip":"08401","geo_score":1.0,"type":"T","business name":"Bill Marks","id":"a647mcj1o248","geo_precision":"range","address":"1923 Arctic Ave","state":"NJ"},"type":"Feature","geometry":{"type":"Point","coordinates":[-74.436059,39.360826]}},{"properties":{"city":"Atlantic CITY","zip":"08401","geo_score":1.0,"type":"T","business name":"Fannie's","id":"a647mc7vmhrm","geo_precision":"range","address":"2001 Arctic Ave","state":"NJ"},"type":"Feature","geometry":{"type":"Point","coordinates":[-74.436617,39.360606]}},{"properties":{"city":"Atlantic CITY","zip":"08401","geo_score":0.786,"type":"T","business name":"Shangri-La","id":"a647mc6yvg6s","geo_precision":"street","address":"Kentucky and Arctic Ave","state":"NJ"},"type":"Feature","geometry":{"type":"Point","coordinates":[-74.430568,39.361118]}},{"properties":{"city":"Atlantic CITY","zip":"08401","geo_score":1.0,"type":"T","business name":"Perry's","id":"a647mcgbbhqc","geo_precision":"range","address":"1228 Arctic Ave","state":"NJ"},"type":"Feature","geometry":{"type":"Point","coordinates":[-74.427202,39.364393]}},{"properties":{"city":"Atlantic CITY","zip":"08401","geo_score":0.607,"type":"T","business name":"Johnson's","id":"a647mcjx6usd","geo_precision":"street","address":"10 N. Kentucky Ave","state":"NJ"},"type":"Feature","geometry":{"type":"Point","coordinates":[-74.430568,39.361118]}},{"properties":{"city":"Atlantic CITY","zip":"08401","geo_score":1.0,"type":"T","business name":"Hi-Hat","id":"a647mc7y3wgv","geo_precision":"range","address":"1317 Arctic Ave","state":"NJ"},"type":"Feature","geometry":{"type":"Point","coordinates":[-74.427958,39.364079]}}],"is_temporal":false,"author":{"url":"","metadata":"","contact_name":"","contact_address":"","source":"","contact_phone":""},"source":"","pagination":{"sort":null,"start":0,"total":34,"limit":1000000},"state":"complete","tags":"","published":"2014-08-13T04:27:02-04:00","id":195514}