{"type":"FeatureCollection","data_type":"Dataset","url_type":null,"permissions":[{"permissions":{"download":true,"view":true},"group_id":"everyone"}],"classification":null,"title":"Single Line Geocoding","count":3,"stream_id":19593,"contributor":{"url":"http://geocommons.com/users/10308","name":"mrtester"},"data_attributes":null,"calculation_params":null,"icon_link":null,"link":"http://geocommons.com/overlays/19593.json","extent":[-77.392,38.8912,-77.0858,39.0411],"geometry_types":["point"],"unique_name":null,"name":"Single Line Geocoding","feature_count":3,"description":"Testing single line geocoding","next_feature":null,"is_raster":false,"short_classification":"Y","stats":{"geo_score":{"max":1.0,"mean":0.991,"variance":0.000243,"stdev":0.0155884572681199,"min":0.973,"median":1.0},"id":{"max":3.0,"mean":2.0,"variance":1.0,"stdev":1.0,"min":1.0,"median":2.0}},"features":[{"properties":{"city":"Arlington","zip":"22201","geo_score":0.973,"id":"a654fngqnb35","street":"2200 Wilson Blvd","geo_precision":"range","state":"VA"},"type":"Feature","geometry":{"type":"Point","coordinates":[-77.085816,38.89123]}},{"properties":{"city":"Sterling","zip":"20164","geo_score":1.0,"id":"a654fnednneo","street":"242 Avondale Dr","geo_precision":"range","state":"VA"},"type":"Feature","geometry":{"type":"Point","coordinates":[-77.376139,39.041053]}},{"properties":{"city":"Herndon","zip":"20171","geo_score":1.0,"id":"a654fnde1b6u","street":"12731 Franklin Farm Rd","geo_precision":"range","state":"VA"},"type":"Feature","geometry":{"type":"Point","coordinates":[-77.392043,38.905149]}}],"is_temporal":false,"author":{"url":"","metadata":"","contact_name":"Mr Tester","contact_address":"123 Testville\nTestland, Test 12345","source":"","contact_phone":"11111111"},"source":"","pagination":{"sort":null,"start":0,"total":3,"limit":1000000},"state":"complete","tags":"geocoding,line,single","published":"2009-12-30T16:44:17Z","id":19593}