{"type":"FeatureCollection","data_type":"Dataset","url_type":null,"permissions":[{"permissions":{"download":true,"view":true},"group_id":"everyone"}],"classification":null,"title":"Wisconsin SFSP sponsors (2011)","count":37,"stream_id":196111,"contributor":{"url":"http://geocommons.com/users/32532","name":"rrieder"},"data_attributes":null,"calculation_params":null,"icon_link":null,"link":"http://geocommons.com/overlays/196111.json","extent":[-92.6753,43.5771,-90.2908,45.9461],"geometry_types":["point"],"unique_name":null,"name":"Wisconsin SFSP sponsors (2011)","feature_count":37,"description":"","next_feature":null,"is_raster":false,"short_classification":"Y","stats":{"open sites":{"max":4,"mean":1.37837837837838,"variance":0.463963963963964,"stdev":0.681149002762218,"min":0,"median":1},"phone":{"max":7159862597,"mean":7126689783.40541,"variance":3.10913681217918e+16,"stdev":176327445.741699,"min":6083233334,"median":7155323183}},"features":[{"properties":{"open sites":2,"column_4":"Chetek","column_5":"WI","column_6":"54728","county":"Barron","geo_score":1.0,"contact":"Judi","sponsor name":"Chetek-Weyerhaeuser School District","phone":7159243137,"id":"a66jd76t6u8f","geo_precision":"range","address":"1001 Knapp Street","person":"Schindler"},"type":"Feature","geometry":{"type":"Point","coordinates":[-91.66111,45.314533]}},{"properties":{"open sites":2,"column_4":"Cumberland","column_5":"WI","column_6":"54829","county":"Barron","geo_score":0.857,"contact":"Gary","sponsor name":"Cumberland School District","phone":7158225120,"id":"a66jd786mq5m","geo_precision":"street","address":"1010 - 8th Avenue","person":"Puig"},"type":"Feature","geometry":{"type":"Point","coordinates":[-92.031594,45.524436]}},{"properties":{"open sites":1,"column_4":"Turtle Lake","column_5":"WI","column_6":"54889","county":"Barron","geo_score":0.902,"contact":"Donald","sponsor name":"Turtle Lake School District","phone":7159862597,"id":"a66jd7cu4tw8","geo_precision":"range","address":"205 Oak Street North","person":"Hauck"},"type":"Feature","geometry":{"type":"Point","coordinates":[-92.137838,45.398237]}},{"properties":{"open sites":0,"column_4":"Rice Lake","column_5":"WI","column_6":"54868","county":"Barron","geo_score":0.915,"contact":"Adam","sponsor name":"Boys and Girls Clubs of BC","phone":7157367445,"id":"a66jd7hr4lk6","geo_precision":"range","address":"702 N Main St","person":"Cabrera"},"type":"Feature","geometry":{"type":"Point","coordinates":[-91.733595,45.508028]}},{"properties":{"open sites":4,"column_4":"Grantsburg","column_5":"WI","column_6":"54840","county":"Burnett","geo_score":0.922,"contact":"Joni","sponsor name":"Grantsburg School District","phone":7154635499,"id":"a66jd730pchl","geo_precision":"range","address":"480 East James Avenue","person":"Burgin"},"type":"Feature","geometry":{"type":"Point","coordinates":[-92.675343,45.77462]}},{"properties":{"open sites":1,"column_4":"Siren","column_5":"WI","column_6":"54872","county":"Burnett","geo_score":0.854,"contact":"Scott","sponsor name":"Siren School District","phone":7153497392,"id":"a66jd7aa8jtf","geo_precision":"range","address":"24022 Fourth Ave North","person":"Johnson"},"type":"Feature","geometry":{"type":"Point","coordinates":[-92.377965,45.785512]}},{"properties":{"open sites":2,"column_4":"Webster","column_5":"WI","column_6":"54893","county":"Burnett","geo_score":1.0,"contact":"Kathy","sponsor name":"Webster School District","phone":7158664281,"id":"a66jd7aottyo","geo_precision":"range","address":"7564 Alder Street West","person":"Eckstrom"},"type":"Feature","geometry":{"type":"Point","coordinates":[-92.369936,45.874316]}},{"properties":{"open sites":2,"column_4":"Cornell","column_5":"WI","column_6":"54732","county":"Chippewa","geo_score":0.626,"contact":"Peggy","sponsor name":"Cornell School District","phone":7152396577,"id":"a66jd736baew","geo_precision":"street","address":"708 Bridge Street","person":"Patten"},"type":"Feature","geometry":{"type":"Point","coordinates":[-91.141562,45.165178]}},{"properties":{"open sites":1,"column_4":"Stanley","column_5":"WI","column_6":"54768","county":"Chippewa","geo_score":0.819,"contact":"Jim","sponsor name":"Stanley-Boyd School District","phone":7156445534,"id":"a66jd7f77gaj","geo_precision":"range","address":"507 East 1st Avenue","person":"Jones"},"type":"Feature","geometry":{"type":"Point","coordinates":[-90.927805,44.959318]}},{"properties":{"open sites":1,"column_4":"Chippewa Falls","column_5":"WI","column_6":"54729","county":"Chippewa","geo_score":0.498,"contact":"Mary E","sponsor name":"Starting Points, Inc","phone":7157267937,"id":"a66jd77xsq5a","geo_precision":"street","address":"13 E Spruce St, Suite 107","person":"ClaySantineau"},"type":"Feature","geometry":{"type":"Point","coordinates":[-91.396512,44.939792]}},{"properties":{"open sites":1,"column_4":"Abbotsford","column_5":"WI","column_6":"54405","county":"Clark","geo_score":0.794,"contact":"Reed","sponsor name":"Abbotsford School District","phone":7152236715,"id":"a66jd77ddpbv","geo_precision":"range","address":"307 North 4th Avenue","person":"Welsh"},"type":"Feature","geometry":{"type":"Point","coordinates":[-90.329242,44.948457]}},{"properties":{"open sites":1,"column_4":"Granton","column_5":"WI","column_6":"54436","county":"Clark","geo_score":0.628,"contact":"Matt","sponsor name":"Granton Area School District","phone":7152387292,"id":"a66jd7h0gssr","geo_precision":"street","address":"217 North Main Street","person":"Raatz"},"type":"Feature","geometry":{"type":"Point","coordinates":[-90.461496,44.591615]}},{"properties":{"open sites":1,"column_4":"Greenwood","column_5":"WI","column_6":"54437","county":"Clark","geo_score":0.807,"contact":"Jennifer","sponsor name":"Greenwood School District","phone":7152676101,"id":"a66jd7h45y37","geo_precision":"street","address":"306 West Central Avenue","person":"Vogler"},"type":"Feature","geometry":{"type":"Point","coordinates":[-90.599741,44.764959]}},{"properties":{"open sites":1,"column_4":"Loyal","column_5":"WI","column_6":"54446","county":"Clark","geo_score":0.824,"contact":"Graeme","sponsor name":"Loyal School District","phone":7152558511,"id":"a66jd7eilwbr","geo_precision":"street","address":"514 West Central Street","person":"Williams"},"type":"Feature","geometry":{"type":"Point","coordinates":[-90.504713,44.735195]}},{"properties":{"open sites":1,"column_4":"Owen","column_5":"WI","column_6":"54460","county":"Clark","geo_score":0.699,"contact":"Jolyn","sponsor name":"Owen-Withee School District","phone":7152292151,"id":"a66jd7fcj0oa","geo_precision":"range","address":"832 West 3rd Street","person":"Miller"},"type":"Feature","geometry":{"type":"Point","coordinates":[-90.577399,44.951184]}},{"properties":{"open sites":1,"column_4":"Thorp","column_5":"WI","column_6":"54771","county":"Clark","geo_score":0.916,"contact":"James A","sponsor name":"Thorp School District","phone":7156695548,"id":"a66jd734pamd","geo_precision":"range","address":"605 S Clark St","person":"Montgomery"},"type":"Feature","geometry":{"type":"Point","coordinates":[-90.795913,44.954239]}},{"properties":{"open sites":2,"column_4":"Menomonie","column_5":"WI","column_6":"54751","county":"Dunn","geo_score":0.837,"contact":"Judith","sponsor name":"Menomonie School District","phone":7152322609,"id":"a66jd7cboagi","geo_precision":"range","address":"1715 5th street West","person":"Smith"},"type":"Feature","geometry":{"type":"Point","coordinates":[-91.934908,44.867741]}},{"properties":{"open sites":1,"column_4":"Augusta","column_5":"WI","column_6":"54722","county":"Eau Claire","geo_score":0.286,"contact":"Nancy","sponsor name":"Augusta School District","phone":7152863310,"id":"a66jd7e0fifd","geo_precision":"street","address":"E19320 Bartig Rd","person":"Mlsna"},"type":"Feature","geometry":{"type":"Point","coordinates":[-91.150177,44.719142]}},{"properties":{"open sites":2,"column_4":"Eau Claire","column_5":"WI","column_6":"54701","county":"Eau Claire","geo_score":0.924,"contact":"Susan","sponsor name":"Eau Claire Area School District","phone":7158523021,"id":"a66jd7genp9y","geo_precision":"range","address":"500 Main St","person":"Brown"},"type":"Feature","geometry":{"type":"Point","coordinates":[-91.496598,44.811126]}},{"properties":{"open sites":1,"column_4":"Eau Claire","column_5":"WI","column_6":"54701","county":"Eau Claire","geo_score":0.924,"contact":"Tracey","sponsor name":"Boys &amp; Girls Club - Chippewa Valley","phone":7158550081,"id":"a66jd79rp3zc","geo_precision":"range","address":"201 East Lake Street","person":"Smiskey"},"type":"Feature","geometry":{"type":"Point","coordinates":[-91.498063,44.808296]}},{"properties":{"open sites":1,"column_4":"Alma Center","column_5":"WI","column_6":"54611","county":"Jackson","geo_score":0.772,"contact":"Cynthia","sponsor name":"Alma Center School District","phone":7159645311,"id":"a66jd782sx99","geo_precision":"range","address":"124 South School Street","person":"Jacoby"},"type":"Feature","geometry":{"type":"Point","coordinates":[-90.636276,43.577054]}},{"properties":{"open sites":2,"column_4":"Black River Falls","column_5":"WI","column_6":"54615","county":"Jackson","geo_score":0.805,"contact":"Connie","sponsor name":"Black River Falls Schools","phone":7152844357,"id":"a66jd73efv55","geo_precision":"range","address":"301 North Fourth Street","person":"Seiber"},"type":"Feature","geometry":{"type":"Point","coordinates":[-90.8522,44.297204]}},{"properties":{"open sites":2,"column_4":"Amery","column_5":"WI","column_6":"540011522","county":"Polk","geo_score":0.935,"contact":"Twila","sponsor name":"Amery School District","phone":7152689771,"id":"a66jd76d92m1","geo_precision":"range","address":"543 Minneapolis Avenue South","person":"Sikkink"},"type":"Feature","geometry":{"type":"Point","coordinates":[-92.351943,45.302481]}},{"properties":{"open sites":1,"column_4":"Balsam Lake","column_5":"WI","column_6":"54810","county":"Polk","geo_score":0.461,"contact":"Brandon","sponsor name":"Unity School District","phone":7158252101,"id":"a66jd762pd61","geo_precision":"street","address":"1908 - 150th Street, Hwy. 46 N","person":"Robinson"},"type":"Feature","geometry":{"type":"Point","coordinates":[-92.468555,45.453399]}},{"properties":{"open sites":1,"column_4":"Clayton","column_5":"WI","column_6":"54004","county":"Polk","geo_score":0.529,"contact":"Joyce","sponsor name":"Clayton School District","phone":7159482163,"id":"a66jd7bmifpu","geo_precision":"street","address":"221 S. Prentice St.","person":"Hilton"},"type":"Feature","geometry":{"type":"Point","coordinates":[-92.172226,45.327248]}},{"properties":{"open sites":1,"column_4":"Park Falls","column_5":"WI","column_6":"54552","county":"Price","geo_score":0.814,"contact":"Lexi","sponsor name":"Chequamegon School District","phone":7157622474,"id":"a66jd7eiufmw","geo_precision":"range","address":"420 9th Street North","person":"Witt"},"type":"Feature","geometry":{"type":"Point","coordinates":[-90.454697,45.946059]}},{"properties":{"open sites":1,"column_4":"Prentice","column_5":"WI","column_6":"54556","county":"Price","geo_score":1.0,"contact":"Randy","sponsor name":"Prentice School District","phone":7154282811,"id":"a66jd7hswzkm","geo_precision":"range","address":"1025 Town Street","person":"Bergman"},"type":"Feature","geometry":{"type":"Point","coordinates":[-90.290779,45.543689]}},{"properties":{"open sites":2,"column_4":"Ladysmith","column_5":"WI","column_6":"54848","county":"Rusk","geo_score":0.807,"contact":"Chris","sponsor name":"Ladysmith School District","phone":7155325531,"id":"a66jd75b1bu6","geo_precision":"street","address":"1700 Edgewood Avenue East","person":"Poradish"},"type":"Feature","geometry":{"type":"Point","coordinates":[-91.082928,45.473411]}},{"properties":{"open sites":1,"column_4":"Tony","column_5":"WI","column_6":"54563","county":"Rusk","geo_score":1.0,"contact":"William","sponsor name":"Flambeau School District","phone":7155323183,"id":"a66jd7a5580s","geo_precision":"zip","address":"N4540 CTH I","person":"Pfalzgraf"},"type":"Feature","geometry":{"type":"Point","coordinates":[-90.964443,45.45197]}},{"properties":{"open sites":1,"column_4":"Somerset","column_5":"WI","column_6":"54025","county":"St. Croix","geo_score":1.0,"contact":"Duana","sponsor name":"The Salvation Army/Grace Place","phone":7154851221,"id":"a66jd75vx0id","geo_precision":"range","address":"203 Church Hill Rd","person":"Bremer"},"type":"Feature","geometry":{"type":"Point","coordinates":[-92.672338,45.128488]}},{"properties":{"open sites":1,"column_4":"Hayward","column_5":"WI","column_6":"54843","county":"Sawyer","geo_score":0.902,"contact":"Shelley","sponsor name":"Boys &amp; Girls Club-Lac Courte Oreilles","phone":7156344030,"id":"a66jd774ucj3","geo_precision":"range","address":"13526 W Trepania Rd","person":"Woller"},"type":"Feature","geometry":{"type":"Point","coordinates":[-91.365141,45.941801]}},{"properties":{"open sites":2,"column_4":"Gilman","column_5":"WI","column_6":"54433","county":"Taylor","geo_score":0.835,"contact":"Heidi","sponsor name":"Gilman School District","phone":7154478211,"id":"a66jd7ayu56n","geo_precision":"range","address":"325 North Fifth Avenue","person":"Mnichowicz"},"type":"Feature","geometry":{"type":"Point","coordinates":[-90.807746,45.168537]}},{"properties":{"open sites":1,"column_4":"Arcadia","column_5":"WI","column_6":"54612","county":"Trempeauleau","geo_score":0.598,"contact":"Kathy","sponsor name":"Arcadia School District","phone":6083233334,"id":"a66jd7bcbdve","geo_precision":"zip","address":"756 Raider Drive","person":"Erickson"},"type":"Feature","geometry":{"type":"Point","coordinates":[-91.44793,44.174962]}},{"properties":{"open sites":1,"column_4":"Independence","column_5":"WI","column_6":"54747","county":"Trempeauleau","geo_score":0.724,"contact":"Sarah","sponsor name":"Independence School District","phone":7159853172,"id":"a66jd7g2nbu9","geo_precision":"street","address":"23786 Indee Boulevard","person":"Suchla"},"type":"Feature","geometry":{"type":"Point","coordinates":[-91.417537,44.368305]}},{"properties":{"open sites":1,"column_4":"Birchwood","column_5":"WI","column_6":"54817","county":"Washburn","geo_score":0.902,"contact":"Frank","sponsor name":"Birchwood School District","phone":7153543471,"id":"a66jd796awvx","geo_precision":"range","address":"300 South Wilson Street","person":"Helquist"},"type":"Feature","geometry":{"type":"Point","coordinates":[-91.552917,45.654483]}},{"properties":{"open sites":2,"column_4":"Shell Lake","column_5":"WI","column_6":"54871","county":"Washburn","geo_score":0.624,"contact":"Brian","sponsor name":"Shell Lake School District","phone":7154687816,"id":"a66jd7hwbjd8","geo_precision":"street","address":"271 Highway 63","person":"Nord"},"type":"Feature","geometry":{"type":"Point","coordinates":[-91.982159,45.682485]}},{"properties":{"open sites":2,"column_4":"Spooner","column_5":"WI","column_6":"54801","county":"Washburn","geo_score":0.62,"contact":"Donald","sponsor name":"Spooner Area School District","phone":7156352171,"id":"a66jd7bj8kjq","geo_precision":"street","address":"801 Cty Rd A","person":"Haack"},"type":"Feature","geometry":{"type":"Point","coordinates":[-92.032495,45.886967]}}],"is_temporal":false,"author":{"url":"","metadata":"","contact_name":"","contact_address":"","source":"","contact_phone":""},"source":"","pagination":{"sort":null,"start":0,"total":37,"limit":1000000},"state":"complete","tags":"","published":"2014-08-13T05:43:12-04:00","id":196111}