{"type":"FeatureCollection","data_type":"Dataset","url_type":null,"permissions":[{"permissions":{"download":true,"view":true},"group_id":"everyone"}],"classification":null,"title":"1930 New Orleans Export","count":50,"stream_id":197299,"contributor":{"url":"http://geocommons.com/users/38660","name":"bkeenan"},"data_attributes":null,"calculation_params":null,"icon_link":null,"link":"http://geocommons.com/overlays/197299.json","extent":[0.0,0.0,0.0,0.0],"geometry_types":[],"unique_name":null,"name":"1930 New Orleans Export","feature_count":50,"description":"","next_feature":null,"is_raster":false,"short_classification":"Y","stats":{"strnbr":{"max":5417,"mean":2684.4,"variance":2404636.04081633,"stdev":1550.68889233667,"min":1803,"median":1831},"cdate":{"max":1930,"mean":1930.0,"variance":0.0,"stdev":0.0,"min":1930,"median":1930}},"features":[{"properties":{"person2":null,"city":"New Orleans, Orleans, Louisiana","geo_score":0.0,"strnbr":5417,"street":"Danneel Street","full address":"5417 Danneel Street, New Orleans, Orleans, Louisiana","id":"a649m3qqqqph","geo_precision":"unmatched","cdate":1930,"person1":"Katherine Pescay"},"type":"Feature","geometry":null},{"properties":{"person2":null,"city":"New Orleans, Orleans, Louisiana","geo_score":0.0,"strnbr":5417,"street":"Danneel Street","full address":"5417 Danneel Street, New Orleans, Orleans, Louisiana","id":"a649m3r7eiip","geo_precision":"unmatched","cdate":1930,"person1":"Joseph C Wiggin"},"type":"Feature","geometry":null},{"properties":{"person2":null,"city":"New Orleans, Orleans, Louisiana","geo_score":0.0,"strnbr":5417,"street":"Danneel Street","full address":"5417 Danneel Street, New Orleans, Orleans, Louisiana","id":"a649m3qpleuu","geo_precision":"unmatched","cdate":1930,"person1":"Jane Wiggin"},"type":"Feature","geometry":null},{"properties":{"person2":null,"city":"New Orleans, Orleans, Louisiana","geo_score":0.0,"strnbr":1805,"street":"Octavia Street","full address":"1805 Octavia Street, New Orleans, Orleans, Louisiana","id":"a649m43sblcy","geo_precision":"unmatched","cdate":1930,"person1":"Anne S Keenan"},"type":"Feature","geometry":null},{"properties":{"person2":"Anne S","city":"New Orleans, Orleans, Louisiana","geo_score":0.0,"strnbr":1805,"street":"Octavia Street","full address":"1805 Octavia Street, New Orleans, Orleans, Louisiana","id":"a649m3y6d2y0","geo_precision":"unmatched","cdate":1930,"person1":"William S Keenan"},"type":"Feature","geometry":null},{"properties":{"person2":"Anne S","city":"New Orleans, Orleans, Louisiana","geo_score":0.0,"strnbr":1805,"street":"Octavia Street","full address":"1805 Octavia Street, New Orleans, Orleans, Louisiana","id":"a649m44vq674","geo_precision":"unmatched","cdate":1930,"person1":"Bruce Keenan"},"type":"Feature","geometry":null},{"properties":{"person2":"Anne S","city":"New Orleans, Orleans, Louisiana","geo_score":0.0,"strnbr":1805,"street":"Octavia Street","full address":"1805 Octavia Street, New Orleans, Orleans, Louisiana","id":"a649m3vdnfq3","geo_precision":"unmatched","cdate":1930,"person1":"Anita Keenan"},"type":"Feature","geometry":null},{"properties":{"person2":null,"city":"New Orleans, Orleans, Louisiana","geo_score":0.0,"strnbr":1805,"street":"Octavia Street","full address":"1805 Octavia Street, New Orleans, Orleans, Louisiana","id":"a649m41ylllm","geo_precision":"unmatched","cdate":1930,"person1":"Ethel Stone"},"type":"Feature","geometry":null},{"properties":{"person2":"May C","city":"New Orleans, Orleans, Louisiana","geo_score":0.0,"strnbr":1815,"street":"Octavia Street","full address":"1815 Octavia Street, New Orleans, Orleans, Louisiana","id":"a649m3t5bhkc","geo_precision":"unmatched","cdate":1930,"person1":"Charles E Wright"},"type":"Feature","geometry":null},{"properties":{"person2":"Charles E","city":"New Orleans, Orleans, Louisiana","geo_score":0.0,"strnbr":1815,"street":"Octavia Street","full address":"1815 Octavia Street, New Orleans, Orleans, Louisiana","id":"a649m3r6ygtv","geo_precision":"unmatched","cdate":1930,"person1":"May C Wright"},"type":"Feature","geometry":null},{"properties":{"person2":"Charles E, May C","city":"New Orleans, Orleans, Louisiana","geo_score":0.0,"strnbr":1815,"street":"Octavia Street","full address":"1815 Octavia Street, New Orleans, Orleans, Louisiana","id":"a649m447pqra","geo_precision":"unmatched","cdate":1930,"person1":"Dorothy Wright"},"type":"Feature","geometry":null},{"properties":{"person2":"Charles E, May C","city":"New Orleans, Orleans, Louisiana","geo_score":0.0,"strnbr":1815,"street":"Octavia Street","full address":"1815 Octavia Street, New Orleans, Orleans, Louisiana","id":"a649m423nk20","geo_precision":"unmatched","cdate":1930,"person1":"Mildred Wright"},"type":"Feature","geometry":null},{"properties":{"person2":"Charles E, May C","city":"New Orleans, Orleans, Louisiana","geo_score":0.0,"strnbr":1815,"street":"Octavia Street","full address":"1815 Octavia Street, New Orleans, Orleans, Louisiana","id":"a649m41dl291","geo_precision":"unmatched","cdate":1930,"person1":"Charles N Wright"},"type":"Feature","geometry":null},{"properties":{"person2":"Charles E, May C","city":"New Orleans, Orleans, Louisiana","geo_score":0.0,"strnbr":1815,"street":"Octavia Street","full address":"1815 Octavia Street, New Orleans, Orleans, Louisiana","id":"a649m3sxggxw","geo_precision":"unmatched","cdate":1930,"person1":"Artemis Wright"},"type":"Feature","geometry":null},{"properties":{"person2":null,"city":"New Orleans, Orleans, Louisiana","geo_score":0.0,"strnbr":1815,"street":"Octavia Street","full address":"1815 Octavia Street, New Orleans, Orleans, Louisiana","id":"a649m43tr7gq","geo_precision":"unmatched","cdate":1930,"person1":"Laura Wright"},"type":"Feature","geometry":null},{"properties":{"person2":"Margaret","city":"New Orleans, Orleans, Louisiana","geo_score":0.0,"strnbr":1835,"street":"Octavia Street","full address":"1835 Octavia Street, New Orleans, Orleans, Louisiana","id":"a649m3vxo37h","geo_precision":"unmatched","cdate":1930,"person1":"Randolph New May"},"type":"Feature","geometry":null},{"properties":{"person2":"Randolph","city":"New Orleans, Orleans, Louisiana","geo_score":0.0,"strnbr":1835,"street":"Octavia Street","full address":"1835 Octavia Street, New Orleans, Orleans, Louisiana","id":"a649m3y0lgb2","geo_precision":"unmatched","cdate":1930,"person1":"Margaret Newmay"},"type":"Feature","geometry":null},{"properties":{"person2":"Randolph, Margaret","city":"New Orleans, Orleans, Louisiana","geo_score":0.0,"strnbr":1835,"street":"Octavia Street","full address":"1835 Octavia Street, New Orleans, Orleans, Louisiana","id":"a649m4047vpf","geo_precision":"unmatched","cdate":1930,"person1":"Richard T Newmay"},"type":"Feature","geometry":null},{"properties":{"person2":"Randolph, Margaret","city":"New Orleans, Orleans, Louisiana","geo_score":0.0,"strnbr":1835,"street":"Octavia Street","full address":"1835 Octavia Street, New Orleans, Orleans, Louisiana","id":"a649m3q97gmj","geo_precision":"unmatched","cdate":1930,"person1":"Julian Newmay"},"type":"Feature","geometry":null},{"properties":{"person2":"Randolph, Margaret","city":"New Orleans, Orleans, Louisiana","geo_score":0.0,"strnbr":1835,"street":"Octavia Street","full address":"1835 Octavia Street, New Orleans, Orleans, Louisiana","id":"a649m3zk2bw2","geo_precision":"unmatched","cdate":1930,"person1":"Randolph Newmay"},"type":"Feature","geometry":null},{"properties":{"person2":null,"city":"New Orleans, Orleans, Louisiana","geo_score":0.0,"strnbr":1835,"street":"Octavia Street","full address":"1835 Octavia Street, New Orleans, Orleans, Louisiana","id":"a649m3vm1ed6","geo_precision":"unmatched","cdate":1930,"person1":"May James"},"type":"Feature","geometry":null},{"properties":{"person2":null,"city":"New Orleans, Orleans, Louisiana","geo_score":0.0,"strnbr":1835,"street":"Octavia Street","full address":"1835 Octavia Street, New Orleans, Orleans, Louisiana","id":"a649m3uoltq9","geo_precision":"unmatched","cdate":1930,"person1":"Mary Keller"},"type":"Feature","geometry":null},{"properties":{"person2":"Lucy","city":"New Orleans, Orleans, Louisiana","geo_score":0.0,"strnbr":5416,"street":"Saratoga Street","full address":"5416 Saratoga Street, New Orleans, Orleans, Louisiana","id":"a649m424ho7y","geo_precision":"unmatched","cdate":1930,"person1":"Joseph Culotta"},"type":"Feature","geometry":null},{"properties":{"person2":"Joseph","city":"New Orleans, Orleans, Louisiana","geo_score":0.0,"strnbr":5416,"street":"Saratoga Street","full address":"5416 Saratoga Street, New Orleans, Orleans, Louisiana","id":"a649m45f1kig","geo_precision":"unmatched","cdate":1930,"person1":"Lucy Culotta"},"type":"Feature","geometry":null},{"properties":{"person2":"Joseph, Lucy","city":"New Orleans, Orleans, Louisiana","geo_score":0.0,"strnbr":5416,"street":"Saratoga Street","full address":"5416 Saratoga Street, New Orleans, Orleans, Louisiana","id":"a649m3t7ew0k","geo_precision":"unmatched","cdate":1930,"person1":"James Culotta"},"type":"Feature","geometry":null},{"properties":{"person2":"Randolph, Margaret","city":"New Orleans, Orleans, Louisiana","geo_score":0.0,"strnbr":5416,"street":"Saratoga Street","full address":"5416 Saratoga Street, New Orleans, Orleans, Louisiana","id":"a649m3r0dhxe","geo_precision":"unmatched","cdate":1930,"person1":"Loria Culotta"},"type":"Feature","geometry":null},{"properties":{"person2":"Randolph, Margaret","city":"New Orleans, Orleans, Louisiana","geo_score":0.0,"strnbr":5416,"street":"Saratoga Street","full address":"5416 Saratoga Street, New Orleans, Orleans, Louisiana","id":"a649m42aq1u5","geo_precision":"unmatched","cdate":1930,"person1":"Rosie Culotta"},"type":"Feature","geometry":null},{"properties":{"person2":"Joseph, Lucy","city":"New Orleans, Orleans, Louisiana","geo_score":0.0,"strnbr":5416,"street":"Saratoga Street","full address":"5416 Saratoga Street, New Orleans, Orleans, Louisiana","id":"a649m3u6gme3","geo_precision":"unmatched","cdate":1930,"person1":"Vincent Culotta"},"type":"Feature","geometry":null},{"properties":{"person2":"Joseph, Lucy","city":"New Orleans, Orleans, Louisiana","geo_score":0.0,"strnbr":5416,"street":"Saratoga Street","full address":"5416 Saratoga Street, New Orleans, Orleans, Louisiana","id":"a649m3rl9jjx","geo_precision":"unmatched","cdate":1930,"person1":"Josephine Culotta"},"type":"Feature","geometry":null},{"properties":{"person2":"Miriam","city":"New Orleans, Orleans, Louisiana","geo_score":0.0,"strnbr":1820,"street":"Peters Avenue","full address":"1820 Peters Avenue, New Orleans, Orleans, Louisiana","id":"a649m3wli66i","geo_precision":"unmatched","cdate":1930,"person1":"Edwin K Newburger"},"type":"Feature","geometry":null},{"properties":{"person2":"Edwin K","city":"New Orleans, Orleans, Louisiana","geo_score":0.0,"strnbr":1820,"street":"Peters Avenue","full address":"1820 Peters Avenue, New Orleans, Orleans, Louisiana","id":"a649m40ke7ho","geo_precision":"unmatched","cdate":1930,"person1":"Miriam Newburger"},"type":"Feature","geometry":null},{"properties":{"person2":"Ruth L","city":"New Orleans, Orleans, Louisiana","geo_score":0.0,"strnbr":1820,"street":"Peters Avenue","full address":"1820 Peters Avenue, New Orleans, Orleans, Louisiana","id":"a649m41k2qdm","geo_precision":"unmatched","cdate":1930,"person1":"Harald A Kelly"},"type":"Feature","geometry":null},{"properties":{"person2":"Harald A","city":"New Orleans, Orleans, Louisiana","geo_score":0.0,"strnbr":1820,"street":"Peters Avenue","full address":"1820 Peters Avenue, New Orleans, Orleans, Louisiana","id":"a649m3z7w6nf","geo_precision":"unmatched","cdate":1930,"person1":"Ruth L Kelly"},"type":"Feature","geometry":null},{"properties":{"person2":null,"city":"New Orleans, Orleans, Louisiana","geo_score":0.0,"strnbr":1838,"street":"Octavia Street","full address":"1838 Octavia Street, New Orleans, Orleans, Louisiana","id":"a649m44rsluv","geo_precision":"unmatched","cdate":1930,"person1":"Mary C Yore"},"type":"Feature","geometry":null},{"properties":{"person2":"Annie","city":"New Orleans, Orleans, Louisiana","geo_score":0.0,"strnbr":1831,"street":"Octavia Street","full address":"1831 Octavia Street, New Orleans, Orleans, Louisiana","id":"a649m45n5lf8","geo_precision":"unmatched","cdate":1930,"person1":"August E Flasfeller"},"type":"Feature","geometry":null},{"properties":{"person2":"Anne L, August E","city":"New Orleans, Orleans, Louisiana","geo_score":0.0,"strnbr":1831,"street":"Octavia Street","full address":"1831 Octavia Street, New Orleans, Orleans, Louisiana","id":"a649m43hu3ex","geo_precision":"unmatched","cdate":1930,"person1":"Annie Flasfeller"},"type":"Feature","geometry":null},{"properties":{"person2":"August E, Annie","city":"New Orleans, Orleans, Louisiana","geo_score":0.0,"strnbr":1831,"street":"Octavia Street","full address":"1831 Octavia Street, New Orleans, Orleans, Louisiana","id":"a649m3sk7sr2","geo_precision":"unmatched","cdate":1930,"person1":"Ovalie Flasfeller"},"type":"Feature","geometry":null},{"properties":{"person2":"August E, Annie","city":"New Orleans, Orleans, Louisiana","geo_score":0.0,"strnbr":1831,"street":"Octavia Street","full address":"1831 Octavia Street, New Orleans, Orleans, Louisiana","id":"a649m42fsjap","geo_precision":"unmatched","cdate":1930,"person1":"Kathleen Flasfeller"},"type":"Feature","geometry":null},{"properties":{"person2":"August E, Annie","city":"New Orleans, Orleans, Louisiana","geo_score":0.0,"strnbr":1831,"street":"Octavia Street","full address":"1831 Octavia Street, New Orleans, Orleans, Louisiana","id":"a649m40h8nvb","geo_precision":"unmatched","cdate":1930,"person1":"Ernestine Flasfeller"},"type":"Feature","geometry":null},{"properties":{"person2":"August E, Annie","city":"New Orleans, Orleans, Louisiana","geo_score":0.0,"strnbr":1831,"street":"Octavia Street","full address":"1831 Octavia Street, New Orleans, Orleans, Louisiana","id":"a649m45zndzn","geo_precision":"unmatched","cdate":1930,"person1":"August Flasfeller"},"type":"Feature","geometry":null},{"properties":{"person2":"August E, Annie","city":"New Orleans, Orleans, Louisiana","geo_score":0.0,"strnbr":1831,"street":"Octavia Street","full address":"1831 Octavia Street, New Orleans, Orleans, Louisiana","id":"a649m457mx3v","geo_precision":"unmatched","cdate":1930,"person1":"Shelby Flasfeller"},"type":"Feature","geometry":null},{"properties":{"person2":null,"city":"New Orleans, Orleans, Louisiana","geo_score":0.0,"strnbr":1831,"street":"Octavia Street","full address":"1831 Octavia Street, New Orleans, Orleans, Louisiana","id":"a649m42mrybx","geo_precision":"unmatched","cdate":1930,"person1":"Anne L Eager"},"type":"Feature","geometry":null},{"properties":{"person2":"James","city":"New Orleans, Orleans, Louisiana","geo_score":0.0,"strnbr":1803,"street":"Octavia Street","full address":"1803 Octavia Street, New Orleans, Orleans, Louisiana","id":"a649m40ds3cf","geo_precision":"unmatched","cdate":1930,"person1":"Ariel B Murman"},"type":"Feature","geometry":null},{"properties":{"person2":"Ariel B","city":"New Orleans, Orleans, Louisiana","geo_score":0.0,"strnbr":1803,"street":"Octavia Street","full address":"1803 Octavia Street, New Orleans, Orleans, Louisiana","id":"a649m3x7bahy","geo_precision":"unmatched","cdate":1930,"person1":"Jennie Murman"},"type":"Feature","geometry":null},{"properties":{"person2":"Rachael W","city":"New Orleans, Orleans, Louisiana","geo_score":0.0,"strnbr":1820,"street":"Peters Avenue","full address":"1820 Peters Avenue, New Orleans, Orleans, Louisiana","id":"a649m3vn7fgy","geo_precision":"unmatched","cdate":1930,"person1":"Lydia C Wickliffe"},"type":"Feature","geometry":null},{"properties":{"person2":"Lydia C","city":"New Orleans, Orleans, Louisiana","geo_score":0.0,"strnbr":1820,"street":"Peters Avenue","full address":"1820 Peters Avenue, New Orleans, Orleans, Louisiana","id":"a649m447bcu9","geo_precision":"unmatched","cdate":1930,"person1":"Brent Wickliffe"},"type":"Feature","geometry":null},{"properties":{"person2":null,"city":"New Orleans, Orleans, Louisiana","geo_score":0.0,"strnbr":1820,"street":"Peters Avenue","full address":"1820 Peters Avenue, New Orleans, Orleans, Louisiana","id":"a649m3rre83h","geo_precision":"unmatched","cdate":1930,"person1":"Rachael W Cooke"},"type":"Feature","geometry":null},{"properties":{"person2":null,"city":"New Orleans, Orleans, Louisiana","geo_score":0.0,"strnbr":1820,"street":"Peters Avenue","full address":"1820 Peters Avenue, New Orleans, Orleans, Louisiana","id":"a649m3rztw7c","geo_precision":"unmatched","cdate":1930,"person1":"Dorathy Crounse"},"type":"Feature","geometry":null},{"properties":{"person2":"Sadie","city":"New Orleans, Orleans, Louisiana","geo_score":0.0,"strnbr":5415,"street":"Danneel Street","full address":"5415 Danneel Street, New Orleans, Orleans, Louisiana","id":"a649m3ssdaiz","geo_precision":"unmatched","cdate":1930,"person1":"Joseph Heiman"},"type":"Feature","geometry":null},{"properties":{"person2":"Joseph","city":"New Orleans, Orleans, Louisiana","geo_score":0.0,"strnbr":5415,"street":"Danneel Street","full address":"5415 Danneel Street, New Orleans, Orleans, Louisiana","id":"a649m3yzp2gv","geo_precision":"unmatched","cdate":1930,"person1":"Sadie Heiman"},"type":"Feature","geometry":null}],"is_temporal":false,"author":{"url":"","metadata":"","contact_name":"","contact_address":"","source":"","contact_phone":""},"source":"","pagination":{"sort":null,"start":0,"total":50,"limit":1000000},"state":"complete","tags":"","published":"2014-08-13T07:31:36-04:00","id":197299}