{"type":"FeatureCollection","data_type":"Dataset","url_type":null,"permissions":[{"permissions":{"download":true,"view":true},"group_id":"everyone"}],"classification":null,"title":"7-Eleven_Geocoding","count":244,"stream_id":197276,"contributor":{"url":"http://geocommons.com/users/38657","name":"mralston@solarcity.com"},"data_attributes":null,"calculation_params":null,"icon_link":null,"link":"http://geocommons.com/overlays/197276.json","extent":[-122.786,32.5664,-115.31,40.7163],"geometry_types":["point"],"unique_name":null,"name":"7-Eleven_Geocoding","feature_count":244,"description":"","next_feature":null,"is_raster":false,"short_classification":"Y","stats":{"no. of mpds":{"max":12,"variance":3.5247082237064,"mean":3.45491803278689,"stdev":1.87742063046788,"min":1,"median":2},"site":{"max":34671,"variance":44975052.6319065,"mean":25817.118852459,"stdev":6706.34420768175,"min":13588,"median":25629}},"features":[{"properties":{"city":"Anaheim","address line":"107 West Ball Rd","no. of mpds":2,"geo_score":1.0,"service territory":"ANAHEIM, city of (ca)","zip code":"928056045","site":26216,"id":"a66dvmogzl4b","geo_precision":"zip","state":"CA"},"type":"Feature","geometry":{"type":"Point","coordinates":[-117.769442,33.640302]}},{"properties":{"city":"Azusa","address line":"803 W. Arrow Hwy.","no. of mpds":5,"geo_score":1.0,"service territory":"AZUSA LIGHT &amp; WATER (CA)","zip code":"917025411","site":33554,"id":"a66dvmn8t1sa","geo_precision":"zip","state":"CA"},"type":"Feature","geometry":{"type":"Point","coordinates":[-118.298662,33.786594]}},{"properties":{"city":"Big Bear City","address line":"41901 Big Bear Blvd","no. of mpds":4,"geo_score":1.0,"service territory":"BEAR VALLEY ELECTRIC (CA)","zip code":"923141984","site":32151,"id":"a66dvmfj4x46","geo_precision":"zip","state":"CA"},"type":"Feature","geometry":{"type":"Point","coordinates":[-116.110086,34.50514]}},{"properties":{"city":"Colton","address line":"1511 N Mt Vernon Ave","no. of mpds":2,"geo_score":0.869,"service territory":"COLTON, CITY OF (CA)","zip code":"92324","site":32941,"id":"a66dvmpu5oqd","geo_precision":"zip","state":"CA"},"type":"Feature","geometry":{"type":"Point","coordinates":[-117.313654,34.033903]}},{"properties":{"city":"Colton","address line":"202 N. Mt. Vernon Avenue","no. of mpds":6,"geo_score":0.869,"service territory":"COLTON, CITY OF (CA)","zip code":"923243179","site":33604,"id":"a66dvmb8o6nv","geo_precision":"zip","state":"CA"},"type":"Feature","geometry":{"type":"Point","coordinates":[-117.313654,34.033903]}},{"properties":{"city":"Glendale","address line":"2055 W. Glenoaks Blvd","no. of mpds":2,"geo_score":1.0,"service territory":"Glendale, City of (CA)","zip code":"912011346","site":25174,"id":"a66dvmg4tzzn","geo_precision":"zip","state":"CA"},"type":"Feature","geometry":{"type":"Point","coordinates":[-118.298662,33.786594]}},{"properties":{"city":"Gridley","address line":"7 E. Gridley Rd.","no. of mpds":2,"geo_score":0.948,"service territory":"Gridley, City of (CA)","zip code":"959482603","site":22468,"id":"a66dvmpsoksi","geo_precision":"zip","state":"CA"},"type":"Feature","geometry":{"type":"Point","coordinates":[-121.661916,39.363222]}},{"properties":{"city":"EL Centro","address line":"1485 Ocotillo Dr","no. of mpds":4,"geo_score":0.875,"service territory":"Imperial Irrigation District","zip code":"922434212","site":21028,"id":"a66dvmnn8q8z","geo_precision":"zip","state":"CA"},"type":"Feature","geometry":{"type":"Point","coordinates":[-115.44749,32.803108]}},{"properties":{"city":"EL Centro","address line":"2050 4th Street","no. of mpds":4,"geo_score":0.875,"service territory":"Imperial Irrigation District","zip code":"922434513","site":21836,"id":"a66dvmof7ffs","geo_precision":"zip","state":"CA"},"type":"Feature","geometry":{"type":"Point","coordinates":[-115.44749,32.803108]}},{"properties":{"city":"Brawley","address line":"580 S. 1st St.","no. of mpds":2,"geo_score":0.878,"service territory":"Imperial Irrigation District","zip code":"922272317","site":22818,"id":"a66dvmnqmihr","geo_precision":"zip","state":"CA"},"type":"Feature","geometry":{"type":"Point","coordinates":[-115.448318,33.058653]}},{"properties":{"city":"Holtville","address line":"211 Fifth Ave","no. of mpds":2,"geo_score":0.873,"service territory":"Imperial Irrigation District","zip code":"922501114","site":22906,"id":"a66dvmjm2b0s","geo_precision":"zip","state":"CA"},"type":"Feature","geometry":{"type":"Point","coordinates":[-115.309983,32.793104]}},{"properties":{"city":"Brawley","address line":"184 W. Main St.","no. of mpds":2,"geo_score":0.878,"service territory":"Imperial Irrigation District","zip code":"922272353","site":23229,"id":"a66dvmdm88wu","geo_precision":"zip","state":"CA"},"type":"Feature","geometry":{"type":"Point","coordinates":[-115.448318,33.058653]}},{"properties":{"city":"Calexico","address line":"904 Imperial Ave","no. of mpds":2,"geo_score":0.87,"service territory":"Imperial Irrigation District","zip code":"922313125","site":23409,"id":"a66dvmii5bxq","geo_precision":"zip","state":"CA"},"type":"Feature","geometry":{"type":"Point","coordinates":[-115.639166,32.678394]}},{"properties":{"city":"EL Centro","address line":"815 West Adams Ave","no. of mpds":2,"geo_score":0.875,"service territory":"Imperial Irrigation District","zip code":"922432003","site":24811,"id":"a66dvmhm87g9","geo_precision":"zip","state":"CA"},"type":"Feature","geometry":{"type":"Point","coordinates":[-115.44749,32.803108]}},{"properties":{"city":"EL Centro","address line":"485 East Main St","no. of mpds":4,"geo_score":0.875,"service territory":"Imperial Irrigation District","zip code":"922432619","site":26684,"id":"a66dvmm6lwoj","geo_precision":"zip","state":"CA"},"type":"Feature","geometry":{"type":"Point","coordinates":[-115.44749,32.803108]}},{"properties":{"city":"Calexico","address line":"168 E. Cole Rd.","no. of mpds":6,"geo_score":0.87,"service territory":"Imperial Irrigation District","zip code":"922319735","site":32300,"id":"a66dvmik57lb","geo_precision":"zip","state":"CA"},"type":"Feature","geometry":{"type":"Point","coordinates":[-115.639166,32.678394]}},{"properties":{"city":"Van Nuys","address line":"7858 Van Nuys Blvd","no. of mpds":6,"geo_score":0.881,"service territory":"LOS ANGELES DEPT OF WTR &amp; PWR","zip code":"91402","site":33610,"id":"a66dvmaki1gj","geo_precision":"zip","state":"CA"},"type":"Feature","geometry":{"type":"Point","coordinates":[-118.298662,33.786594]}},{"properties":{"city":"Stockton","address line":"3040 W. Benjamin Holt","no. of mpds":6,"geo_score":1.0,"service territory":"Pacific Gas &amp; Electric Co","zip code":"952193743","site":14113,"id":"a66dvmi3jr3z","geo_precision":"zip","state":"CA"},"type":"Feature","geometry":{"type":"Point","coordinates":[-121.455259,38.001613]}},{"properties":{"city":"Stockton","address line":"2725 Country Club Bvd","no. of mpds":1,"geo_score":1.0,"service territory":"Pacific Gas &amp; Electric Co","zip code":"952043937","site":14117,"id":"a66dvmaoed3h","geo_precision":"zip","state":"CA"},"type":"Feature","geometry":{"type":"Point","coordinates":[-121.323758,37.975473]}},{"properties":{"city":"Salinas","address line":"22760 Portola Dr","no. of mpds":4,"geo_score":1.0,"service territory":"Pacific Gas &amp; Electric Co","zip code":"939081119","site":14258,"id":"a66dvma50lpk","geo_precision":"zip","state":"CA"},"type":"Feature","geometry":{"type":"Point","coordinates":[-121.63741,36.641676]}},{"properties":{"city":"Bakersfield","address line":"1701 Pacheco Rd","no. of mpds":2,"geo_score":1.0,"service territory":"Pacific Gas &amp; Electric Co","zip code":"933046930","site":16329,"id":"a66dvma3ycol","geo_precision":"zip","state":"CA"},"type":"Feature","geometry":{"type":"Point","coordinates":[-119.022134,35.332109]}},{"properties":{"city":"Lemoore","address line":"1110 N Lemoore Ave","no. of mpds":2,"geo_score":0.889,"service territory":"Pacific Gas &amp; Electric Co","zip code":"932452348","site":16373,"id":"a66dvmlqcr9z","geo_precision":"zip","state":"CA"},"type":"Feature","geometry":{"type":"Point","coordinates":[-119.99486,36.22662]}},{"properties":{"city":"Merced","address line":"2255 Gerard Ave","no. of mpds":2,"geo_score":0.857,"service territory":"Pacific Gas &amp; Electric Co","zip code":"953405429","site":16459,"id":"a66dvmec150c","geo_precision":"zip","state":"CA"},"type":"Feature","geometry":{"type":"Point","coordinates":[-120.378797,37.296053]}},{"properties":{"city":"Bakersfield","address line":"4647 Wilson Rd","no. of mpds":2,"geo_score":1.0,"service territory":"Pacific Gas &amp; Electric Co","zip code":"933095823","site":16549,"id":"a66dvmfb38vs","geo_precision":"zip","state":"CA"},"type":"Feature","geometry":{"type":"Point","coordinates":[-118.905173,35.294405]}},{"properties":{"city":"Pittsburg","address line":"774 Port Chicago Hwy","no. of mpds":2,"geo_score":0.956,"service territory":"Pacific Gas &amp; Electric Co","zip code":"945651504","site":16693,"id":"a66dvmfpsnrd","geo_precision":"zip","state":"CA"},"type":"Feature","geometry":{"type":"Point","coordinates":[-121.937182,38.026865]}},{"properties":{"city":"Seaside","address line":"1212 Fremont Ave","no. of mpds":2,"geo_score":0.893,"service territory":"Pacific Gas &amp; Electric Co","zip code":"939555734","site":16747,"id":"a66dvmedgnn3","geo_precision":"zip","state":"CA"},"type":"Feature","geometry":{"type":"Point","coordinates":[-121.848286,36.617182]}},{"properties":{"city":"Madera","address line":"904 Cleveland St","no. of mpds":2,"geo_score":0.865,"service territory":"Pacific Gas &amp; Electric Co","zip code":"936382503","site":17117,"id":"a66dvmno78em","geo_precision":"zip","state":"CA"},"type":"Feature","geometry":{"type":"Point","coordinates":[-120.106552,36.931058]}},{"properties":{"city":"Watsonville","address line":"261 East Lake Ave","no. of mpds":2,"geo_score":0.87,"service territory":"Pacific Gas &amp; Electric Co","zip code":"950764717","site":17296,"id":"a66dvmhyfzkm","geo_precision":"zip","state":"CA"},"type":"Feature","geometry":{"type":"Point","coordinates":[-121.748561,36.90412]}},{"properties":{"city":"Stockton","address line":"4501 N. Pershing Ave","no. of mpds":2,"geo_score":0.867,"service territory":"Pacific Gas &amp; Electric Co","zip code":"952076705","site":17334,"id":"a66dvmdjmq0g","geo_precision":"zip","state":"CA"},"type":"Feature","geometry":{"type":"Point","coordinates":[-121.328281,38.005201]}},{"properties":{"city":"Marina","address line":"320 Reservation Rd","no. of mpds":2,"geo_score":1.0,"service territory":"Pacific Gas &amp; Electric Co","zip code":"939333219","site":17488,"id":"a66dvmq4fbly","geo_precision":"zip","state":"CA"},"type":"Feature","geometry":{"type":"Point","coordinates":[-121.812711,36.643259]}},{"properties":{"city":"San Jose","address line":"452 E. Santa Clara St","no. of mpds":2,"geo_score":1.0,"service territory":"Pacific Gas &amp; Electric Co","zip code":"951123515","site":17496,"id":"a66dvmnx9e3e","geo_precision":"zip","state":"CA"},"type":"Feature","geometry":{"type":"Point","coordinates":[-121.892093,37.37004]}},{"properties":{"city":"Manteca","address line":"1048 West Yosemite","no. of mpds":2,"geo_score":1.0,"service territory":"Pacific Gas &amp; Electric Co","zip code":"953375341","site":17647,"id":"a66dvmgl4qum","geo_precision":"zip","state":"CA"},"type":"Feature","geometry":{"type":"Point","coordinates":[-121.227351,37.743327]}},{"properties":{"city":"Pismo Beach","address line":"99 South Dolliver","no. of mpds":2,"geo_score":0.929,"service territory":"Pacific Gas &amp; Electric Co","zip code":"934492903","site":17658,"id":"a66dvmq2zt3g","geo_precision":"zip","state":"CA"},"type":"Feature","geometry":{"type":"Point","coordinates":[-120.672395,35.155253]}},{"properties":{"city":"Bakersfield","address line":"3601 Stockdale Hwy","no. of mpds":2,"geo_score":1.0,"service territory":"Pacific Gas &amp; Electric Co","zip code":"933092152","site":17721,"id":"a66dvmeyhdjl","geo_precision":"zip","state":"CA"},"type":"Feature","geometry":{"type":"Point","coordinates":[-118.905173,35.294405]}},{"properties":{"city":"Bakersfield","address line":"300 North Chester Ave","no. of mpds":1,"geo_score":0.87,"service territory":"Pacific Gas &amp; Electric Co","zip code":"933084442","site":18655,"id":"a66dvmhn34j9","geo_precision":"zip","state":"CA"},"type":"Feature","geometry":{"type":"Point","coordinates":[-119.083159,35.383292]}},{"properties":{"city":"Fremont","address line":"35015 Fremont Blvd","no. of mpds":4,"geo_score":1.0,"service territory":"Pacific Gas &amp; Electric Co","zip code":"945363340","site":18916,"id":"a66dvmpkij0c","geo_precision":"zip","state":"CA"},"type":"Feature","geometry":{"type":"Point","coordinates":[-121.982721,37.565285]}},{"properties":{"city":"Fresno","address line":"420 E Bullard","no. of mpds":2,"geo_score":1.0,"service territory":"Pacific Gas &amp; Electric Co","zip code":"937105309","site":18922,"id":"a66dvmojqt1p","geo_precision":"zip","state":"CA"},"type":"Feature","geometry":{"type":"Point","coordinates":[-119.750294,36.896749]}},{"properties":{"city":"Fremont","address line":"3868 Delaware Dr","no. of mpds":2,"geo_score":1.0,"service territory":"Pacific Gas &amp; Electric Co","zip code":"945365512","site":19168,"id":"a66dvmkpsiu6","geo_precision":"zip","state":"CA"},"type":"Feature","geometry":{"type":"Point","coordinates":[-121.982721,37.565285]}},{"properties":{"city":"Daly City","address line":"2700 Bayshore","no. of mpds":6,"geo_score":0.875,"service territory":"Pacific Gas &amp; Electric Co","zip code":"940141632","site":19235,"id":"a66dvm9utoak","geo_precision":"zip","state":"CA"},"type":"Feature","geometry":{"type":"Point","coordinates":[-122.459695,37.676878]}},{"properties":{"city":"Fresno","address line":"6015 E Kings Canyon","no. of mpds":2,"geo_score":0.857,"service territory":"Pacific Gas &amp; Electric Co","zip code":"937273508","site":19835,"id":"a66dvmhwr52w","geo_precision":"zip","state":"CA"},"type":"Feature","geometry":{"type":"Point","coordinates":[-119.700696,36.787728]}},{"properties":{"city":"Manteca","address line":"1399 N. Main St.","no. of mpds":2,"geo_score":0.948,"service territory":"Pacific Gas &amp; Electric Co","zip code":"953363212","site":19976,"id":"a66dvma80snq","geo_precision":"zip","state":"CA"},"type":"Feature","geometry":{"type":"Point","coordinates":[-121.251887,37.79715]}},{"properties":{"city":"Corning","address line":"1425 Solano St","no. of mpds":2,"geo_score":0.873,"service territory":"Pacific Gas &amp; Electric Co","zip code":"960213054","site":20054,"id":"a66dvmlezz61","geo_precision":"zip","state":"CA"},"type":"Feature","geometry":{"type":"Point","coordinates":[-122.176657,39.974879]}},{"properties":{"city":"Anderson","address line":"3100 North St","no. of mpds":2,"geo_score":0.886,"service territory":"Pacific Gas &amp; Electric Co","zip code":"960073729","site":20220,"id":"a66dvmekfwh6","geo_precision":"zip","state":"CA"},"type":"Feature","geometry":{"type":"Point","coordinates":[-122.475844,40.473484]}},{"properties":{"city":"Watsonville","address line":"455 Airport Blvd","no. of mpds":2,"geo_score":0.87,"service territory":"Pacific Gas &amp; Electric Co","zip code":"950762001","site":20608,"id":"a66dvmq7f76i","geo_precision":"zip","state":"CA"},"type":"Feature","geometry":{"type":"Point","coordinates":[-121.748561,36.90412]}},{"properties":{"city":"Stockton","address line":"4627 Da Vinci Drive","no. of mpds":2,"geo_score":0.867,"service territory":"Pacific Gas &amp; Electric Co","zip code":"952076575","site":20632,"id":"a66dvmpbcsd6","geo_precision":"zip","state":"CA"},"type":"Feature","geometry":{"type":"Point","coordinates":[-121.328281,38.005201]}},{"properties":{"city":"Oroville","address line":"2125 Monte Vista","no. of mpds":2,"geo_score":1.0,"service territory":"Pacific Gas &amp; Electric Co","zip code":"959666968","site":21324,"id":"a66dvmdk951y","geo_precision":"zip","state":"CA"},"type":"Feature","geometry":{"type":"Point","coordinates":[-121.417372,39.463113]}},{"properties":{"city":"Oroville","address line":"98 Tablemountain Blvd","no. of mpds":2,"geo_score":0.886,"service territory":"Pacific Gas &amp; Electric Co","zip code":"959653578","site":22474,"id":"a66dvmcd12l7","geo_precision":"zip","state":"CA"},"type":"Feature","geometry":{"type":"Point","coordinates":[-121.522192,39.703496]}},{"properties":{"city":"Bakersfield","address line":"12916 Rosedale Hwy","no. of mpds":2,"geo_score":1.0,"service territory":"Pacific Gas &amp; Electric Co","zip code":"93314-9201","site":22647,"id":"a66dvma1lxqb","geo_precision":"zip","state":"CA"},"type":"Feature","geometry":{"type":"Point","coordinates":[-119.018713,35.373292]}},{"properties":{"city":"Los Banos","address line":"603a Pacheco Blvd","no. of mpds":2,"geo_score":0.893,"service territory":"Pacific Gas &amp; Electric Co","zip code":"936354231","site":22736,"id":"a66dvmg18gzg","geo_precision":"zip","state":"CA"},"type":"Feature","geometry":{"type":"Point","coordinates":[-120.92603,37.097444]}},{"properties":{"city":"Vacaville","address line":"2490 Nut Tree Rd","no. of mpds":2,"geo_score":1.0,"service territory":"Pacific Gas &amp; Electric Co","zip code":"956876452","site":22837,"id":"a66dvm9u9fjy","geo_precision":"zip","state":"CA"},"type":"Feature","geometry":{"type":"Point","coordinates":[-121.912773,38.35056]}},{"properties":{"city":"Monterey","address line":"2301 Fremont St","no. of mpds":2,"geo_score":0.961,"service territory":"Pacific Gas &amp; Electric Co","zip code":"939405406","site":23135,"id":"a66dvmp0du2t","geo_precision":"zip","state":"CA"},"type":"Feature","geometry":{"type":"Point","coordinates":[-121.902177,36.614682]}},{"properties":{"city":"Dixon","address line":"1075 North First St","no. of mpds":2,"geo_score":0.881,"service territory":"Pacific Gas &amp; Electric Co","zip code":"956202428","site":23584,"id":"a66dvmpe93dt","geo_precision":"zip","state":"CA"},"type":"Feature","geometry":{"type":"Point","coordinates":[-121.705514,38.410187]}},{"properties":{"city":"Martinez","address line":"4001 Pacheco Blvd","no. of mpds":2,"geo_score":0.857,"service territory":"Pacific Gas &amp; Electric Co","zip code":"945532223","site":23837,"id":"a66dvmdmhbh6","geo_precision":"zip","state":"CA"},"type":"Feature","geometry":{"type":"Point","coordinates":[-122.096075,38.008533]}},{"properties":{"city":"Fresno","address line":"4246 W Ashlan","no. of mpds":2,"geo_score":1.0,"service territory":"Pacific Gas &amp; Electric Co","zip code":"937226331","site":24180,"id":"a66dvmbly50g","geo_precision":"zip","state":"CA"},"type":"Feature","geometry":{"type":"Point","coordinates":[-119.931132,36.793291]}},{"properties":{"city":"Vacaville","address line":"1097 E. Monte Vista Ave","no. of mpds":2,"geo_score":0.889,"service territory":"Pacific Gas &amp; Electric Co","zip code":"956883007","site":24248,"id":"a66dvmjmfbf2","geo_precision":"zip","state":"CA"},"type":"Feature","geometry":{"type":"Point","coordinates":[-121.943022,38.444631]}},{"properties":{"city":"Salinas","address line":"335 S. Sanborn Rd.","no. of mpds":4,"geo_score":1.0,"service territory":"Pacific Gas &amp; Electric Co","zip code":"939053127","site":24340,"id":"a66dvmlp4wgf","geo_precision":"zip","state":"CA"},"type":"Feature","geometry":{"type":"Point","coordinates":[-121.612105,36.682888]}},{"properties":{"city":"Oakdale","address line":"711 East F Street","no. of mpds":2,"geo_score":0.869,"service territory":"Pacific Gas &amp; Electric Co","zip code":"953614102","site":24490,"id":"a66dvmn4rivk","geo_precision":"zip","state":"CA"},"type":"Feature","geometry":{"type":"Point","coordinates":[-120.672149,37.81965]}},{"properties":{"city":"Fresno","address line":"3005 W. Ashlan Ave.","no. of mpds":2,"geo_score":1.0,"service territory":"Pacific Gas &amp; Electric Co","zip code":"937224502","site":24526,"id":"a66dvmck96k8","geo_precision":"zip","state":"CA"},"type":"Feature","geometry":{"type":"Point","coordinates":[-119.931132,36.793291]}},{"properties":{"city":"Atascadero","address line":"8000 El Camino Real","no. of mpds":2,"geo_score":0.87,"service territory":"Pacific Gas &amp; Electric Co","zip code":"934225212","site":25473,"id":"a66dvmggb37z","geo_precision":"zip","state":"CA"},"type":"Feature","geometry":{"type":"Point","coordinates":[-120.606279,35.418029]}},{"properties":{"city":"Clovis","address line":"1170 Clovis Ave","no. of mpds":2,"geo_score":0.905,"service territory":"Pacific Gas &amp; Electric Co","zip code":"936122241","site":25585,"id":"a66dvma4y3gz","geo_precision":"zip","state":"CA"},"type":"Feature","geometry":{"type":"Point","coordinates":[-119.700975,36.808561]}},{"properties":{"city":"Marina","address line":"3076 Del Monte Blvd","no. of mpds":4,"geo_score":1.0,"service territory":"Pacific Gas &amp; Electric Co","zip code":"939333521","site":25802,"id":"a66dvmccg9ic","geo_precision":"zip","state":"CA"},"type":"Feature","geometry":{"type":"Point","coordinates":[-121.812711,36.643259]}},{"properties":{"city":"Benicia","address line":"500 Military East","no. of mpds":2,"geo_score":1.0,"service territory":"Pacific Gas &amp; Electric Co","zip code":"945103518","site":26231,"id":"a66dvmlvyeeo","geo_precision":"zip","state":"CA"},"type":"Feature","geometry":{"type":"Point","coordinates":[-122.032061,38.1012]}},{"properties":{"city":"Bakersfield","address line":"6529 East Brundage Ln","no. of mpds":2,"geo_score":1.0,"service territory":"Pacific Gas &amp; Electric Co","zip code":"933073011","site":26599,"id":"a66dvmo8m6j8","geo_precision":"zip","state":"CA"},"type":"Feature","geometry":{"type":"Point","coordinates":[-118.716613,35.105383]}},{"properties":{"city":"Arvin","address line":"1540 Bear Mt Blvd","no. of mpds":2,"geo_score":0.867,"service territory":"Pacific Gas &amp; Electric Co","zip code":"932031234","site":26701,"id":"a66dvmglq25x","geo_precision":"zip","state":"CA"},"type":"Feature","geometry":{"type":"Point","coordinates":[-118.823153,35.228851]}},{"properties":{"city":"Oildale","address line":"3124 N Chester","no. of mpds":2,"geo_score":0.921,"service territory":"Pacific Gas &amp; Electric Co","zip code":"933081560","site":26819,"id":"a66dvmj7a21q","geo_precision":"zip","state":"CA"},"type":"Feature","geometry":{"type":"Point","coordinates":[-119.083159,35.383292]}},{"properties":{"city":"Taft","address line":"1124 6th St","no. of mpds":1,"geo_score":0.87,"service territory":"Pacific Gas &amp; Electric Co","zip code":"932682315","site":27122,"id":"a66dvml58o2c","geo_precision":"zip","state":"CA"},"type":"Feature","geometry":{"type":"Point","coordinates":[-119.406783,35.206076]}},{"properties":{"city":"Suisun City","address line":"801 Sunset Ave","no. of mpds":2,"geo_score":0.857,"service territory":"Pacific Gas &amp; Electric Co","zip code":"945851800","site":32180,"id":"a66dvmm67e4g","geo_precision":"zip","state":"CA"},"type":"Feature","geometry":{"type":"Point","coordinates":[-122.122191,38.244082]}},{"properties":{"city":"Oakland","address line":"4193 Piedmont Ave","no. of mpds":2,"geo_score":0.875,"service territory":"Pacific Gas &amp; Electric Co","zip code":"946115109","site":32181,"id":"a66dvmo378ce","geo_precision":"zip","state":"CA"},"type":"Feature","geometry":{"type":"Point","coordinates":[-122.231635,37.824372]}},{"properties":{"city":"Stockton","address line":"4943 S. State Rt. 99","no. of mpds":6,"geo_score":1.0,"service territory":"Pacific Gas &amp; Electric Co","zip code":"952158234","site":32190,"id":"a66dvmc0ehtb","geo_precision":"zip","state":"CA"},"type":"Feature","geometry":{"type":"Point","coordinates":[-121.128903,37.964123]}},{"properties":{"city":"Martinez","address line":"530 Morello Ave.","no. of mpds":6,"geo_score":0.857,"service territory":"Pacific Gas &amp; Electric Co","zip code":"945534119","site":32235,"id":"a66dvmd7y3nq","geo_precision":"zip","state":"CA"},"type":"Feature","geometry":{"type":"Point","coordinates":[-122.096075,38.008533]}},{"properties":{"city":"Bakersfield","address line":"4101 Calloway Drive","no. of mpds":4,"geo_score":0.883,"service territory":"Pacific Gas &amp; Electric Co","zip code":"933122302","site":32241,"id":"a66dvmajp6ay","geo_precision":"zip","state":"CA"},"type":"Feature","geometry":{"type":"Point","coordinates":[-119.109827,35.383293]}},{"properties":{"city":"Bakersfield","address line":"5203 Olive Dr.","no. of mpds":4,"geo_score":0.87,"service territory":"Pacific Gas &amp; Electric Co","zip code":"933082919","site":32257,"id":"a66dvmn1tdsw","geo_precision":"zip","state":"CA"},"type":"Feature","geometry":{"type":"Point","coordinates":[-119.083159,35.383292]}},{"properties":{"city":"Tracy","address line":"2360 West Grantline Rd","no. of mpds":6,"geo_score":0.878,"service territory":"Pacific Gas &amp; Electric Co","zip code":"95376","site":32262,"id":"a66dvmongysg","geo_precision":"zip","state":"CA"},"type":"Feature","geometry":{"type":"Point","coordinates":[-121.412166,37.696041]}},{"properties":{"city":"Salinas","address line":"1991 Natividad Road","no. of mpds":6,"geo_score":1.0,"service territory":"Pacific Gas &amp; Electric Co","zip code":"93906","site":32264,"id":"a66dvmogozcp","geo_precision":"zip","state":"CA"},"type":"Feature","geometry":{"type":"Point","coordinates":[-121.487916,36.620989]}},{"properties":{"city":"Livermore","address line":"1339 N Vasco Rd","no. of mpds":6,"geo_score":0.889,"service territory":"Pacific Gas &amp; Electric Co","zip code":"945509287","site":32266,"id":"a66dvmml1dpt","geo_precision":"zip","state":"CA"},"type":"Feature","geometry":{"type":"Point","coordinates":[-121.716063,37.702985]}},{"properties":{"city":"Antioch","address line":"4901 Lone Tree Way","no. of mpds":6,"geo_score":0.871,"service territory":"Pacific Gas &amp; Electric Co","zip code":"94509","site":32305,"id":"a66dvmhmr801","geo_precision":"zip","state":"CA"},"type":"Feature","geometry":{"type":"Point","coordinates":[-121.75551,38.004922]}},{"properties":{"city":"Watsonville","address line":"1461 Main Street","no. of mpds":6,"geo_score":0.87,"service territory":"Pacific Gas &amp; Electric Co","zip code":"95076","site":32323,"id":"a66dvmm1ozvo","geo_precision":"zip","state":"CA"},"type":"Feature","geometry":{"type":"Point","coordinates":[-121.748561,36.90412]}},{"properties":{"city":"Bakersfield","address line":"9600 Brimhall Road","no. of mpds":6,"geo_score":0.883,"service territory":"Pacific Gas &amp; Electric Co","zip code":"933122200","site":32376,"id":"a66dvmby8zb9","geo_precision":"zip","state":"CA"},"type":"Feature","geometry":{"type":"Point","coordinates":[-119.109827,35.383293]}},{"properties":{"city":"Chico","address line":"1111 Forest Street","no. of mpds":6,"geo_score":0.857,"service territory":"Pacific Gas &amp; Electric Co","zip code":"95926","site":32401,"id":"a66dvmhcuz5b","geo_precision":"zip","state":"CA"},"type":"Feature","geometry":{"type":"Point","coordinates":[-121.957202,39.779604]}},{"properties":{"city":"Marina","address line":"140 Beach Rd","no. of mpds":6,"geo_score":1.0,"service territory":"Pacific Gas &amp; Electric Co","zip code":"93933-2513","site":32415,"id":"a66dvmfc4g90","geo_precision":"zip","state":"CA"},"type":"Feature","geometry":{"type":"Point","coordinates":[-121.812711,36.643259]}},{"properties":{"city":"Concord","address line":"4101 Concord Blvd","no. of mpds":6,"geo_score":1.0,"service territory":"Pacific Gas &amp; Electric Co","zip code":"945191516","site":32604,"id":"a66dvmmqxtk6","geo_precision":"zip","state":"CA"},"type":"Feature","geometry":{"type":"Point","coordinates":[-122.011272,37.984821]}},{"properties":{"city":"Fresno","address line":"6875 North Milburn","no. of mpds":6,"geo_score":1.0,"service territory":"Pacific Gas &amp; Electric Co","zip code":"93722","site":32625,"id":"a66dvmkjqqtl","geo_precision":"zip","state":"CA"},"type":"Feature","geometry":{"type":"Point","coordinates":[-119.931132,36.793291]}},{"properties":{"city":"Rocklin","address line":"4281 Sierra College Blvd","no. of mpds":6,"geo_score":1.0,"service territory":"Pacific Gas &amp; Electric Co","zip code":"95677","site":32636,"id":"a66dvmhlfizu","geo_precision":"zip","state":"CA"},"type":"Feature","geometry":{"type":"Point","coordinates":[-121.230374,38.801233]}},{"properties":{"city":"Livermore","address line":"2222 Las Positas Rd","no. of mpds":6,"geo_score":0.889,"service territory":"Pacific Gas &amp; Electric Co","zip code":"94550","site":32734,"id":"a66dvmeg8i17","geo_precision":"zip","state":"CA"},"type":"Feature","geometry":{"type":"Point","coordinates":[-121.716063,37.702985]}},{"properties":{"city":"Oakley","address line":"2437 Main Street","no. of mpds":6,"geo_score":1.0,"service territory":"Pacific Gas &amp; Electric Co","zip code":"945611864","site":32787,"id":"a66dvmchzdfd","geo_precision":"zip","state":"CA"},"type":"Feature","geometry":{"type":"Point","coordinates":[-121.68972,37.996516]}},{"properties":{"city":"Rocklin","address line":"2101 Sunset Blvd","no. of mpds":4,"geo_score":1.0,"service territory":"Pacific Gas &amp; Electric Co","zip code":"95765","site":32867,"id":"a66dvmezkyop","geo_precision":"zip","state":"CA"},"type":"Feature","geometry":{"type":"Point","coordinates":[-121.277439,38.819795]}},{"properties":{"city":"Livermore","address line":"245 Vasco Rd South","no. of mpds":4,"geo_score":0.889,"service territory":"Pacific Gas &amp; Electric Co","zip code":"94550","site":33005,"id":"a66dvmiacsk3","geo_precision":"zip","state":"CA"},"type":"Feature","geometry":{"type":"Point","coordinates":[-121.716063,37.702985]}},{"properties":{"city":"Del Rey Oaks","address line":"425 Canyon Del Rey Blvd","no. of mpds":6,"geo_score":0.87,"service territory":"Pacific Gas &amp; Electric Co","zip code":"939405705","site":33011,"id":"a66dvmk05wjv","geo_precision":"zip","state":"CA"},"type":"Feature","geometry":{"type":"Point","coordinates":[-121.902177,36.614682]}},{"properties":{"city":"Dublin","address line":"7100 Dougherty Rd.","no. of mpds":4,"geo_score":0.857,"service territory":"Pacific Gas &amp; Electric Co","zip code":"94568","site":33163,"id":"a66dvmjdl4ot","geo_precision":"zip","state":"CA"},"type":"Feature","geometry":{"type":"Point","coordinates":[-121.988017,38.041309]}},{"properties":{"city":"Santa Rosa","address line":"2648 Santa Rosa Ave","no. of mpds":6,"geo_score":1.0,"service territory":"Pacific Gas &amp; Electric Co","zip code":"95405","site":33277,"id":"a66dvmd9w8ge","geo_precision":"zip","state":"CA"},"type":"Feature","geometry":{"type":"Point","coordinates":[-122.786392,38.444714]}},{"properties":{"city":"Pittsburg","address line":"4600 Century Blv","no. of mpds":6,"geo_score":0.956,"service territory":"Pacific Gas &amp; Electric Co","zip code":"945657106","site":33374,"id":"a66dvmcdsida","geo_precision":"zip","state":"CA"},"type":"Feature","geometry":{"type":"Point","coordinates":[-121.937182,38.026865]}},{"properties":{"city":"Rohnert Park","address line":"1704 E. Cotati Ave","no. of mpds":4,"geo_score":1.0,"service territory":"Pacific Gas &amp; Electric Co","zip code":"94928","site":33389,"id":"a66dvmg6btt4","geo_precision":"zip","state":"CA"},"type":"Feature","geometry":{"type":"Point","coordinates":[-122.698398,38.345663]}},{"properties":{"city":"West Sacramento","address line":"4010 Lake Road","no. of mpds":6,"geo_score":1.0,"service territory":"Pacific Gas &amp; Electric Co","zip code":"95691","site":33646,"id":"a66dvmipu8gp","geo_precision":"zip","state":"CA"},"type":"Feature","geometry":{"type":"Point","coordinates":[-121.610919,38.608615]}},{"properties":{"city":"Fairfield","address line":"4449 Central Place","no. of mpds":6,"geo_score":0.889,"service territory":"Pacific Gas &amp; Electric Co","zip code":"94534","site":34158,"id":"a66dvmmxrdgw","geo_precision":"zip","state":"CA"},"type":"Feature","geometry":{"type":"Point","coordinates":[-122.264316,38.107945]}},{"properties":{"city":"Rocklin","address line":"6001 Stanford Ranch Rd","no. of mpds":6,"geo_score":1.0,"service territory":"Pacific Gas &amp; Electric Co","zip code":"95765","site":34671,"id":"a66dvmq3iamx","geo_precision":"zip","state":"CA"},"type":"Feature","geometry":{"type":"Point","coordinates":[-121.277439,38.819795]}},{"properties":{"city":"Redding","address line":"1860 Eureka Way","no. of mpds":2,"geo_score":0.893,"service territory":"Redding, City of (CA)","zip code":"960010453","site":18860,"id":"a66dvmno15eo","geo_precision":"zip","state":"CA"},"type":"Feature","geometry":{"type":"Point","coordinates":[-122.331674,40.716261]}},{"properties":{"city":"Rancho Cordova","address line":"10246 Mills Station Rd","no. of mpds":2,"geo_score":0.868,"service territory":"Sacramento Municipal Util Dist","zip code":"956705421","site":14098,"id":"a66dvmlmasnl","geo_precision":"zip","state":"CA"},"type":"Feature","geometry":{"type":"Point","coordinates":[-121.215226,38.629071]}},{"properties":{"city":"Sacramento","address line":"5791 Broadway","no. of mpds":2,"geo_score":1.0,"service territory":"Sacramento Municipal Util Dist","zip code":"958201801","site":18185,"id":"a66dvmfb9urw","geo_precision":"zip","state":"CA"},"type":"Feature","geometry":{"type":"Point","coordinates":[-121.446414,38.536606]}},{"properties":{"city":"Citrus Heights","address line":"6701 Auburn Blvd","no. of mpds":2,"geo_score":1.0,"service territory":"Sacramento Municipal Util Dist","zip code":"956214211","site":22979,"id":"a66dvmhg9ew5","geo_precision":"zip","state":"CA"},"type":"Feature","geometry":{"type":"Point","coordinates":[-121.309461,38.693052]}},{"properties":{"city":"Citrus Heights","address line":"6180 Auburn Blvd","no. of mpds":4,"geo_score":1.0,"service territory":"Sacramento Municipal Util Dist","zip code":"956214739","site":24815,"id":"a66dvmnkhkyk","geo_precision":"zip","state":"CA"},"type":"Feature","geometry":{"type":"Point","coordinates":[-121.309461,38.693052]}},{"properties":{"city":"Sacramento","address line":"5500 Florin Perkins Rd","no. of mpds":6,"geo_score":0.893,"service territory":"Sacramento Municipal Util Dist","zip code":"95826","site":32836,"id":"a66dvmq6z2wv","geo_precision":"zip","state":"CA"},"type":"Feature","geometry":{"type":"Point","coordinates":[-121.334673,38.528796]}},{"properties":{"city":"Sacramento","address line":"5501 Auburn Blvd.","no. of mpds":6,"geo_score":0.857,"service territory":"Sacramento Municipal Util Dist","zip code":"958412901","site":33315,"id":"a66dvmgai2xm","geo_precision":"zip","state":"CA"},"type":"Feature","geometry":{"type":"Point","coordinates":[-121.351144,38.678773]}},{"properties":{"city":"San Diego","address line":"1285 Picador Blvd","no. of mpds":2,"geo_score":1.0,"service territory":"San Diego Gas &amp; Electric Co","zip code":"921543550","site":13588,"id":"a66dvmey1x1b","geo_precision":"zip","state":"CA"},"type":"Feature","geometry":{"type":"Point","coordinates":[-117.035225,32.628038]}},{"properties":{"city":"Escondido","address line":"522 West 9th Avenue","no. of mpds":2,"geo_score":0.857,"service territory":"San Diego Gas &amp; Electric Co","zip code":"920254708","site":13597,"id":"a66dvmkolw7v","geo_precision":"zip","state":"CA"},"type":"Feature","geometry":{"type":"Point","coordinates":[-116.953918,33.091709]}},{"properties":{"city":"Escondido","address line":"1702 S. Escondido","no. of mpds":6,"geo_score":0.857,"service territory":"San Diego Gas &amp; Electric Co","zip code":"920256520","site":13619,"id":"a66dvmb3qhqx","geo_precision":"zip","state":"CA"},"type":"Feature","geometry":{"type":"Point","coordinates":[-116.953918,33.091709]}},{"properties":{"city":"Vista","address line":"470 North Melrose","no. of mpds":2,"geo_score":0.886,"service territory":"San Diego Gas &amp; Electric Co","zip code":"92083-4816","site":13625,"id":"a66dvmb5fhiv","geo_precision":"zip","state":"CA"},"type":"Feature","geometry":{"type":"Point","coordinates":[-117.208646,33.173371]}},{"properties":{"city":"Leucadia","address line":"102 Leucadia Blvd","no. of mpds":2,"geo_score":0.9,"service territory":"San Diego Gas &amp; Electric Co","zip code":"920241714","site":13627,"id":"a66dvmi9p5r7","geo_precision":"zip","state":"CA"},"type":"Feature","geometry":{"type":"Point","coordinates":[-117.234758,33.046153]}},{"properties":{"city":"San Diego","address line":"6615 Linda Vista Rd","no. of mpds":2,"geo_score":0.9,"service territory":"San Diego Gas &amp; Electric Co","zip code":"921117325","site":13643,"id":"a66dvmgspysi","geo_precision":"zip","state":"CA"},"type":"Feature","geometry":{"type":"Point","coordinates":[-117.171423,32.783383]}},{"properties":{"city":"Santee","address line":"9251 Carlton Hills Blvd","no. of mpds":2,"geo_score":1.0,"service territory":"San Diego Gas &amp; Electric Co","zip code":"920712941","site":13661,"id":"a66dvmlrqbk8","geo_precision":"zip","state":"CA"},"type":"Feature","geometry":{"type":"Point","coordinates":[-116.994511,32.843956]}},{"properties":{"city":"Lakeside","address line":"8625 Los Coches Rd","no. of mpds":2,"geo_score":0.89,"service territory":"San Diego Gas &amp; Electric Co","zip code":"920405135","site":13662,"id":"a66dvmmwvskj","geo_precision":"zip","state":"CA"},"type":"Feature","geometry":{"type":"Point","coordinates":[-116.93336,32.831161]}},{"properties":{"city":"LA Mesa","address line":"4610 Avocado Blvd","no. of mpds":2,"geo_score":1.0,"service territory":"San Diego Gas &amp; Electric Co","zip code":"919417134","site":13664,"id":"a66dvmo9u4f2","geo_precision":"zip","state":"CA"},"type":"Feature","geometry":{"type":"Point","coordinates":[-116.998102,32.76105]}},{"properties":{"city":"Lakeside","address line":"11610 Riverside Drive","no. of mpds":2,"geo_score":0.89,"service territory":"San Diego Gas &amp; Electric Co","zip code":"920402316","site":13666,"id":"a66dvma812ch","geo_precision":"zip","state":"CA"},"type":"Feature","geometry":{"type":"Point","coordinates":[-116.93336,32.831161]}},{"properties":{"city":"Spring Valley","address line":"10777 Jamacha Blvd","no. of mpds":2,"geo_score":1.0,"service territory":"San Diego Gas &amp; Electric Co","zip code":"919781802","site":15070,"id":"a66dvma4t9wb","geo_precision":"zip","state":"CA"},"type":"Feature","geometry":{"type":"Point","coordinates":[-116.957898,32.733452]}},{"properties":{"city":"Vista","address line":"1501 N. Santa Fe Ave","no. of mpds":2,"geo_score":1.0,"service territory":"San Diego Gas &amp; Electric Co","zip code":"920843001","site":15923,"id":"a66dvmlosuq4","geo_precision":"zip","state":"CA"},"type":"Feature","geometry":{"type":"Point","coordinates":[-116.846046,33.016928]}},{"properties":{"city":"Spring Valley","address line":"9365 Jamacha Blvd","no. of mpds":2,"geo_score":0.857,"service territory":"San Diego Gas &amp; Electric Co","zip code":"919775043","site":15944,"id":"a66dvmaxy21h","geo_precision":"zip","state":"CA"},"type":"Feature","geometry":{"type":"Point","coordinates":[-116.98086,32.748941]}},{"properties":{"city":"EL Cajon","address line":"14110 Olde Highway 80","no. of mpds":2,"geo_score":0.875,"service territory":"San Diego Gas &amp; Electric Co","zip code":"920212823","site":16439,"id":"a66dvmd9ksbt","geo_precision":"zip","state":"CA"},"type":"Feature","geometry":{"type":"Point","coordinates":[-116.905859,32.832273]}},{"properties":{"city":"Spring Valley","address line":"103 Worthington St","no. of mpds":2,"geo_score":0.857,"service territory":"San Diego Gas &amp; Electric Co","zip code":"919776106","site":16498,"id":"a66dvmpqpdau","geo_precision":"zip","state":"CA"},"type":"Feature","geometry":{"type":"Point","coordinates":[-116.98086,32.748941]}},{"properties":{"city":"EL Cajon","address line":"1522 Graves Ave","no. of mpds":2,"geo_score":0.875,"service territory":"San Diego Gas &amp; Electric Co","zip code":"920212992","site":17637,"id":"a66dvmcpv01b","geo_precision":"zip","state":"CA"},"type":"Feature","geometry":{"type":"Point","coordinates":[-116.905859,32.832273]}},{"properties":{"city":"San Marcos","address line":"578 E. Mission Road","no. of mpds":2,"geo_score":0.889,"service territory":"San Diego Gas &amp; Electric Co","zip code":"920691825","site":18977,"id":"a66dvmgs6tlx","geo_precision":"zip","state":"CA"},"type":"Feature","geometry":{"type":"Point","coordinates":[-117.154756,33.185315]}},{"properties":{"city":"Santee","address line":"9111 Mission Gorge Rd","no. of mpds":2,"geo_score":1.0,"service territory":"San Diego Gas &amp; Electric Co","zip code":"920713723","site":19006,"id":"a66dvmikwdxg","geo_precision":"zip","state":"CA"},"type":"Feature","geometry":{"type":"Point","coordinates":[-116.994511,32.843956]}},{"properties":{"city":"San Diego","address line":"7801 Clairemont Mesa Blvd","no. of mpds":4,"geo_score":0.9,"service territory":"San Diego Gas &amp; Electric Co","zip code":"921111618","site":19273,"id":"a66dvmo1yat9","geo_precision":"zip","state":"CA"},"type":"Feature","geometry":{"type":"Point","coordinates":[-117.171423,32.783383]}},{"properties":{"city":"San Diego","address line":"3792 Fourth Ave","no. of mpds":2,"geo_score":1.0,"service territory":"San Diego Gas &amp; Electric Co","zip code":"921034203","site":19526,"id":"a66dvmdeheqb","geo_precision":"zip","state":"CA"},"type":"Feature","geometry":{"type":"Point","coordinates":[-117.170517,32.746085]}},{"properties":{"city":"Del Mar","address line":"13801 Mango Dr","no. of mpds":4,"geo_score":1.0,"service territory":"San Diego Gas &amp; Electric Co","zip code":"920143101","site":19548,"id":"a66dvmpym98i","geo_precision":"zip","state":"CA"},"type":"Feature","geometry":{"type":"Point","coordinates":[-117.224167,32.974074]}},{"properties":{"city":"San Diego","address line":"2101 Fern St","no. of mpds":2,"geo_score":0.857,"service territory":"San Diego Gas &amp; Electric Co","zip code":"921045517","site":19628,"id":"a66dvmiwpmon","geo_precision":"zip","state":"CA"},"type":"Feature","geometry":{"type":"Point","coordinates":[-117.130588,32.740884]}},{"properties":{"city":"San Diego","address line":"3603 College Ave","no. of mpds":2,"geo_score":1.0,"service territory":"San Diego Gas &amp; Electric Co","zip code":"921157041","site":19987,"id":"a66dvmbwt7uc","geo_precision":"zip","state":"CA"},"type":"Feature","geometry":{"type":"Point","coordinates":[-117.070688,32.7576]}},{"properties":{"city":"San Diego","address line":"6571 El Cajon Blvd","no. of mpds":2,"geo_score":1.0,"service territory":"San Diego Gas &amp; Electric Co","zip code":"921152706","site":20174,"id":"a66dvmg6o91m","geo_precision":"zip","state":"CA"},"type":"Feature","geometry":{"type":"Point","coordinates":[-117.070688,32.7576]}},{"properties":{"city":"Ramona","address line":"1076 Main St","no. of mpds":2,"geo_score":0.889,"service territory":"San Diego Gas &amp; Electric Co","zip code":"920652121","site":20211,"id":"a66dvmlyvypk","geo_precision":"zip","state":"CA"},"type":"Feature","geometry":{"type":"Point","coordinates":[-116.911694,32.968102]}},{"properties":{"city":"Santee","address line":"9750 Cuyamaca St","no. of mpds":2,"geo_score":1.0,"service territory":"San Diego Gas &amp; Electric Co","zip code":"920712626","site":20321,"id":"a66dvma7fxu9","geo_precision":"zip","state":"CA"},"type":"Feature","geometry":{"type":"Point","coordinates":[-116.994511,32.843956]}},{"properties":{"city":"San Diego","address line":"2805 Garnet Ave","no. of mpds":4,"geo_score":0.893,"service territory":"San Diego Gas &amp; Electric Co","zip code":"921093824","site":20337,"id":"a66dvmgerd01","geo_precision":"zip","state":"CA"},"type":"Feature","geometry":{"type":"Point","coordinates":[-117.240314,32.797827]}},{"properties":{"city":"Oceanside","address line":"487 Vandegrift Blvd","no. of mpds":2,"geo_score":1.0,"service territory":"San Diego Gas &amp; Electric Co","zip code":"920574335","site":20342,"id":"a66dvmmo46pa","geo_precision":"zip","state":"CA"},"type":"Feature","geometry":{"type":"Point","coordinates":[-116.846046,33.016928]}},{"properties":{"city":"Spring Valley","address line":"948 Grand Ave","no. of mpds":2,"geo_score":0.857,"service territory":"San Diego Gas &amp; Electric Co","zip code":"919774914","site":20508,"id":"a66dvmlz20zc","geo_precision":"zip","state":"CA"},"type":"Feature","geometry":{"type":"Point","coordinates":[-116.98086,32.748941]}},{"properties":{"city":"San Diego","address line":"1602 University Ave","no. of mpds":2,"geo_score":1.0,"service territory":"San Diego Gas &amp; Electric Co","zip code":"921033415","site":20551,"id":"a66dvmn9bsbr","geo_precision":"zip","state":"CA"},"type":"Feature","geometry":{"type":"Point","coordinates":[-117.170517,32.746085]}},{"properties":{"city":"LA Mesa","address line":"4253 Palm Ave","no. of mpds":1,"geo_score":1.0,"service territory":"San Diego Gas &amp; Electric Co","zip code":"919416503","site":20884,"id":"a66dvmigyy5v","geo_precision":"zip","state":"CA"},"type":"Feature","geometry":{"type":"Point","coordinates":[-116.998102,32.76105]}},{"properties":{"city":"Escondido","address line":"260 E. Mission Avenue","no. of mpds":2,"geo_score":0.857,"service territory":"San Diego Gas &amp; Electric Co","zip code":"920251826","site":21785,"id":"a66dvmd82t48","geo_precision":"zip","state":"CA"},"type":"Feature","geometry":{"type":"Point","coordinates":[-116.953918,33.091709]}},{"properties":{"city":"EL Cajon","address line":"1498 Jamacha Rd","no. of mpds":4,"geo_score":1.0,"service territory":"San Diego Gas &amp; Electric Co","zip code":"920193752","site":21798,"id":"a66dvmdnigpg","geo_precision":"zip","state":"CA"},"type":"Feature","geometry":{"type":"Point","coordinates":[-117.041287,32.865113]}},{"properties":{"city":"Fallbrook","address line":"631 S. Main St.","no. of mpds":1,"geo_score":0.871,"service territory":"San Diego Gas &amp; Electric Co","zip code":"920282945","site":21800,"id":"a66dvmm27pt6","geo_precision":"zip","state":"CA"},"type":"Feature","geometry":{"type":"Point","coordinates":[-117.222257,33.340865]}},{"properties":{"city":"Jamul","address line":"12918 Campo Rd","no. of mpds":3,"geo_score":1.0,"service territory":"San Diego Gas &amp; Electric Co","zip code":"919351912","site":21802,"id":"a66dvmg8ck02","geo_precision":"zip","state":"CA"},"type":"Feature","geometry":{"type":"Point","coordinates":[-116.846046,33.016928]}},{"properties":{"city":"Lakeside","address line":"10205 Lake Jennings Pk Rd","no. of mpds":2,"geo_score":0.89,"service territory":"San Diego Gas &amp; Electric Co","zip code":"920402522","site":22481,"id":"a66dvmnp2u44","geo_precision":"zip","state":"CA"},"type":"Feature","geometry":{"type":"Point","coordinates":[-116.93336,32.831161]}},{"properties":{"city":"San Diego","address line":"1826 Rosecrans Street","no. of mpds":1,"geo_score":1.0,"service territory":"San Diego Gas &amp; Electric Co","zip code":"921061929","site":22872,"id":"a66dvmg3is90","geo_precision":"zip","state":"CA"},"type":"Feature","geometry":{"type":"Point","coordinates":[-117.232764,32.709355]}},{"properties":{"city":"Escondido","address line":"1030 N Broadway","no. of mpds":2,"geo_score":1.0,"service territory":"San Diego Gas &amp; Electric Co","zip code":"920263044","site":22894,"id":"a66dvmoimvam","geo_precision":"zip","state":"CA"},"type":"Feature","geometry":{"type":"Point","coordinates":[-116.846046,33.016928]}},{"properties":{"city":"Imperial Beach","address line":"1303 Imperial Beach Blvd","no. of mpds":2,"geo_score":1.0,"service territory":"San Diego Gas &amp; Electric Co","zip code":"919322837","site":23982,"id":"a66dvmhsdp6s","geo_precision":"zip","state":"CA"},"type":"Feature","geometry":{"type":"Point","coordinates":[-117.117351,32.578991]}},{"properties":{"city":"Chula Vista","address line":"1482 Hilltop Dr","no. of mpds":2,"geo_score":1.0,"service territory":"San Diego Gas &amp; Electric Co","zip code":"919115243","site":24070,"id":"a66dvmg76fxw","geo_precision":"zip","state":"CA"},"type":"Feature","geometry":{"type":"Point","coordinates":[-117.034012,32.615983]}},{"properties":{"city":"Vista","address line":"900 North Santa Fe","no. of mpds":2,"geo_score":0.886,"service territory":"San Diego Gas &amp; Electric Co","zip code":"920833636","site":24085,"id":"a66dvmj5y576","geo_precision":"zip","state":"CA"},"type":"Feature","geometry":{"type":"Point","coordinates":[-117.208646,33.173371]}},{"properties":{"city":"San Diego","address line":"1702 Gateway Drive","no. of mpds":1,"geo_score":0.952,"service territory":"San Diego Gas &amp; Electric Co","zip code":"921055102","site":24155,"id":"a66dvmohh39g","geo_precision":"zip","state":"CA"},"type":"Feature","geometry":{"type":"Point","coordinates":[-117.110032,32.749495]}},{"properties":{"city":"Encinitas","address line":"1988 Village Park Way","no. of mpds":2,"geo_score":0.871,"service territory":"San Diego Gas &amp; Electric Co","zip code":"920241960","site":24335,"id":"a66dvmiy4vs2","geo_precision":"zip","state":"CA"},"type":"Feature","geometry":{"type":"Point","coordinates":[-117.234758,33.046153]}},{"properties":{"city":"Imperial Beach","address line":"1311 Palm Ave","no. of mpds":2,"geo_score":1.0,"service territory":"San Diego Gas &amp; Electric Co","zip code":"919323027","site":24344,"id":"a66dvmm0jf4q","geo_precision":"zip","state":"CA"},"type":"Feature","geometry":{"type":"Point","coordinates":[-117.117351,32.578991]}},{"properties":{"city":"San Diego","address line":"3385 Sand Rock Rd","no. of mpds":2,"geo_score":0.889,"service territory":"San Diego Gas &amp; Electric Co","zip code":"921232239","site":25165,"id":"a66dvmnuhgxv","geo_precision":"zip","state":"CA"},"type":"Feature","geometry":{"type":"Point","coordinates":[-117.138366,32.802827]}},{"properties":{"city":"EL Cajon","address line":"711 Jamacha Rd","no. of mpds":2,"geo_score":1.0,"service territory":"San Diego Gas &amp; Electric Co","zip code":"920193202","site":25302,"id":"a66dvmdj1gei","geo_precision":"zip","state":"CA"},"type":"Feature","geometry":{"type":"Point","coordinates":[-117.041287,32.865113]}},{"properties":{"city":"San Diego","address line":"11205 Camino Ruiz","no. of mpds":4,"geo_score":0.875,"service territory":"San Diego Gas &amp; Electric Co","zip code":"921264674","site":25629,"id":"a66dvmd9qjd0","geo_precision":"zip","state":"CA"},"type":"Feature","geometry":{"type":"Point","coordinates":[-117.143923,32.915602]}},{"properties":{"city":"Cardiff BY The Sea","address line":"2211 San Elijo Avenue","no. of mpds":2,"geo_score":1.0,"service territory":"San Diego Gas &amp; Electric Co","zip code":"920071923","site":25766,"id":"a66dvmp5jtz5","geo_precision":"zip","state":"CA"},"type":"Feature","geometry":{"type":"Point","coordinates":[-117.274469,33.023042]}},{"properties":{"city":"South Laguna","address line":"31702 Pacific Coast Hwy","no. of mpds":2,"geo_score":0.869,"service territory":"San Diego Gas &amp; Electric Co","zip code":"926773024","site":25801,"id":"a66dvmeejbhj","geo_precision":"zip","state":"CA"},"type":"Feature","geometry":{"type":"Point","coordinates":[-117.732276,33.490861]}},{"properties":{"city":"Spring Valley","address line":"1075 Elkelton Rd.","no. of mpds":2,"geo_score":0.857,"service territory":"San Diego Gas &amp; Electric Co","zip code":"919774720","site":25807,"id":"a66dvmhy8oqx","geo_precision":"zip","state":"CA"},"type":"Feature","geometry":{"type":"Point","coordinates":[-116.98086,32.748941]}},{"properties":{"city":"Oceanside","address line":"2255 Mission Ave","no. of mpds":2,"geo_score":0.882,"service territory":"San Diego Gas &amp; Electric Co","zip code":"920542328","site":25818,"id":"a66dvmocbixg","geo_precision":"zip","state":"CA"},"type":"Feature","geometry":{"type":"Point","coordinates":[-117.36865,33.181704]}},{"properties":{"city":"Poway","address line":"14225 Poway Road","no. of mpds":2,"geo_score":1.0,"service territory":"San Diego Gas &amp; Electric Co","zip code":"920644928","site":26182,"id":"a66dvmaabr45","geo_precision":"zip","state":"CA"},"type":"Feature","geometry":{"type":"Point","coordinates":[-117.030299,32.994097]}},{"properties":{"city":"Oceanside","address line":"1749 South Coast Hwy","no. of mpds":2,"geo_score":0.882,"service territory":"San Diego Gas &amp; Electric Co","zip code":"920545319","site":26190,"id":"a66dvmlq567f","geo_precision":"zip","state":"CA"},"type":"Feature","geometry":{"type":"Point","coordinates":[-117.36865,33.181704]}},{"properties":{"city":"Lakeside","address line":"10195 Riverford Rd","no. of mpds":2,"geo_score":0.89,"service territory":"San Diego Gas &amp; Electric Co","zip code":"920402741","site":26651,"id":"a66dvmm2opy0","geo_precision":"zip","state":"CA"},"type":"Feature","geometry":{"type":"Point","coordinates":[-116.93336,32.831161]}},{"properties":{"city":"San Ysidro","address line":"4210 Beyer Blvd","no. of mpds":2,"geo_score":1.0,"service territory":"San Diego Gas &amp; Electric Co","zip code":"921732136","site":26909,"id":"a66dvm9yot3s","geo_precision":"zip","state":"CA"},"type":"Feature","geometry":{"type":"Point","coordinates":[-116.997475,32.566356]}},{"properties":{"city":"Carlsbad","address line":"901 Palomar Airport Road","no. of mpds":2,"geo_score":1.0,"service territory":"San Diego Gas &amp; Electric Co","zip code":"920091110","site":27109,"id":"a66dvmk322ie","geo_precision":"zip","state":"CA"},"type":"Feature","geometry":{"type":"Point","coordinates":[-117.267169,33.082192]}},{"properties":{"city":"Escondido","address line":"1177 N Escondido Blvd","no. of mpds":2,"geo_score":1.0,"service territory":"San Diego Gas &amp; Electric Co","zip code":"920262922","site":27524,"id":"a66dvmarjcu8","geo_precision":"zip","state":"CA"},"type":"Feature","geometry":{"type":"Point","coordinates":[-116.846046,33.016928]}},{"properties":{"city":"San Diego","address line":"6401 Mission Gorge Rd.","no. of mpds":2,"geo_score":0.9,"service territory":"San Diego Gas &amp; Electric Co","zip code":"921202504","site":27623,"id":"a66dvmb3f3iv","geo_precision":"zip","state":"CA"},"type":"Feature","geometry":{"type":"Point","coordinates":[-117.097254,32.78755]}},{"properties":{"city":"San Diego","address line":"1771 Oro Vista Rd","no. of mpds":2,"geo_score":1.0,"service territory":"San Diego Gas &amp; Electric Co","zip code":"921544560","site":27771,"id":"a66dvmmo64bo","geo_precision":"zip","state":"CA"},"type":"Feature","geometry":{"type":"Point","coordinates":[-117.035225,32.628038]}},{"properties":{"city":"Chula Vista","address line":"7 Naples St","no. of mpds":2,"geo_score":1.0,"service territory":"San Diego Gas &amp; Electric Co","zip code":"919112205","site":29540,"id":"a66dvmcev986","geo_precision":"zip","state":"CA"},"type":"Feature","geometry":{"type":"Point","coordinates":[-117.034012,32.615983]}},{"properties":{"city":"San Diego","address line":"8261 Gold Coast Drive","no. of mpds":4,"geo_score":0.875,"service territory":"San Diego Gas &amp; Electric Co","zip code":"921263660","site":32131,"id":"a66dvmow0i36","geo_precision":"zip","state":"CA"},"type":"Feature","geometry":{"type":"Point","coordinates":[-117.143923,32.915602]}},{"properties":{"city":"San Diego","address line":"8395 Otay Mesa Road","no. of mpds":12,"geo_score":1.0,"service territory":"San Diego Gas &amp; Electric Co","zip code":"921547703","site":32290,"id":"a66dvmldxrs9","geo_precision":"zip","state":"CA"},"type":"Feature","geometry":{"type":"Point","coordinates":[-117.035225,32.628038]}},{"properties":{"city":"Vista","address line":"3251 Business Park Drive","no. of mpds":8,"geo_score":0.886,"service territory":"San Diego Gas &amp; Electric Co","zip code":"920838526","site":32326,"id":"a66dvmfnbyw5","geo_precision":"zip","state":"CA"},"type":"Feature","geometry":{"type":"Point","coordinates":[-117.208646,33.173371]}},{"properties":{"city":"San Diego","address line":"9609 Aero Drive","no. of mpds":6,"geo_score":0.889,"service territory":"San Diego Gas &amp; Electric Co","zip code":"921231805","site":32606,"id":"a66dvmak935u","geo_precision":"zip","state":"CA"},"type":"Feature","geometry":{"type":"Point","coordinates":[-117.138366,32.802827]}},{"properties":{"city":"Bonita","address line":"5188 Bonita Road","no. of mpds":4,"geo_score":1.0,"service territory":"San Diego Gas &amp; Electric Co","zip code":"919022002","site":32825,"id":"a66dvmgsmn2b","geo_precision":"zip","state":"CA"},"type":"Feature","geometry":{"type":"Point","coordinates":[-117.020668,32.67387]}},{"properties":{"city":"Carlsbad","address line":"5802 Van Allen Way","no. of mpds":4,"geo_score":1.0,"service territory":"San Diego Gas &amp; Electric Co","zip code":"920087300","site":32942,"id":"a66dvmhl5yrc","geo_precision":"zip","state":"CA"},"type":"Feature","geometry":{"type":"Point","coordinates":[-116.846046,33.016928]}},{"properties":{"city":"Oceanside","address line":"4625 Frazee Rd","no. of mpds":6,"geo_score":1.0,"service territory":"San Diego Gas &amp; Electric Co","zip code":"920576100","site":33053,"id":"a66dvmhs03lb","geo_precision":"zip","state":"CA"},"type":"Feature","geometry":{"type":"Point","coordinates":[-116.846046,33.016928]}},{"properties":{"city":"San Diego","address line":"4080 Convoy Street","no. of mpds":6,"geo_score":0.9,"service territory":"San Diego Gas &amp; Electric Co","zip code":"921113726","site":33100,"id":"a66dvmpawc73","geo_precision":"zip","state":"CA"},"type":"Feature","geometry":{"type":"Point","coordinates":[-117.171423,32.783383]}},{"properties":{"city":"Vista","address line":"298 Sycamore Ave","no. of mpds":4,"geo_score":0.886,"service territory":"San Diego Gas &amp; Electric Co","zip code":"920837795","site":33160,"id":"a66dvmk195y3","geo_precision":"zip","state":"CA"},"type":"Feature","geometry":{"type":"Point","coordinates":[-117.208646,33.173371]}},{"properties":{"city":"Vista","address line":"1610 S. Melrose","no. of mpds":6,"geo_score":0.886,"service territory":"San Diego Gas &amp; Electric Co","zip code":"920835470","site":33376,"id":"a66dvmex163x","geo_precision":"zip","state":"CA"},"type":"Feature","geometry":{"type":"Point","coordinates":[-117.208646,33.173371]}},{"properties":{"city":"San Diego","address line":"5102 Waring Road","no. of mpds":4,"geo_score":0.9,"service territory":"San Diego Gas &amp; Electric Co","zip code":"92120","site":33694,"id":"a66dvmg3hcy3","geo_precision":"zip","state":"CA"},"type":"Feature","geometry":{"type":"Point","coordinates":[-117.097254,32.78755]}},{"properties":{"city":"San Marcos","address line":"696 W. San Marcos Blvd.","no. of mpds":6,"geo_score":0.889,"service territory":"San Diego Gas &amp; Electric Co","zip code":"92069","site":33971,"id":"a66dvmi6s1ah","geo_precision":"zip","state":"CA"},"type":"Feature","geometry":{"type":"Point","coordinates":[-117.154756,33.185315]}},{"properties":{"city":"San Diego","address line":"13985 Torrey Del Mar","no. of mpds":6,"geo_score":1.0,"service territory":"San Diego Gas &amp; Electric Co","zip code":"92130","site":34358,"id":"a66dvmn42yg1","geo_precision":"zip","state":"CA"},"type":"Feature","geometry":{"type":"Point","coordinates":[-117.161871,32.952467]}},{"properties":{"city":"Goleta","address line":"7390 Calle Real","no. of mpds":2,"geo_score":0.857,"service territory":"SOUTHERN CALIFORNIA EDISON","zip code":"931171219","site":15191,"id":"a66dvmirmhhk","geo_precision":"zip","state":"CA"},"type":"Feature","geometry":{"type":"Point","coordinates":[-120.22904,34.508044]}},{"properties":{"city":"Lancaster","address line":"3210 West Ave L","no. of mpds":2,"geo_score":0.889,"service territory":"SOUTHERN CALIFORNIA EDISON","zip code":"935364127","site":15968,"id":"a66dvmpb3css","geo_precision":"zip","state":"CA"},"type":"Feature","geometry":{"type":"Point","coordinates":[-118.288688,34.689707]}},{"properties":{"city":"Cathedral City","address line":"67510 Ramon Rd","no. of mpds":1,"geo_score":1.0,"service territory":"SOUTHERN CALIFORNIA EDISON","zip code":"922343392","site":16525,"id":"a66dvmj1g2wn","geo_precision":"zip","state":"CA"},"type":"Feature","geometry":{"type":"Point","coordinates":[-116.277152,33.647301]}},{"properties":{"city":"Riverside","address line":"16970 Van Buren Blvd","no. of mpds":2,"geo_score":0.857,"service territory":"SOUTHERN CALIFORNIA EDISON","zip code":"925045890","site":16552,"id":"a66dvmhcr5ge","geo_precision":"zip","state":"CA"},"type":"Feature","geometry":{"type":"Point","coordinates":[-117.357265,33.882239]}},{"properties":{"city":"Bloomington","address line":"10492 Cedar Ave","no. of mpds":2,"geo_score":0.857,"service territory":"SOUTHERN CALIFORNIA EDISON","zip code":"923162404","site":16755,"id":"a66dvmhocssl","geo_precision":"zip","state":"CA"},"type":"Feature","geometry":{"type":"Point","coordinates":[-117.396157,34.044458]}},{"properties":{"city":"Pedley","address line":"6060 Camino Real","no. of mpds":2,"geo_score":0.871,"service territory":"SOUTHERN CALIFORNIA EDISON","zip code":"925095362","site":16825,"id":"a66dvmhwkjyy","geo_precision":"zip","state":"CA"},"type":"Feature","geometry":{"type":"Point","coordinates":[-117.433381,34.011958]}},{"properties":{"city":"Fontana","address line":"18091 Arrow Blvd","no. of mpds":2,"geo_score":0.94,"service territory":"SOUTHERN CALIFORNIA EDISON","zip code":"923354123","site":17813,"id":"a66dvmkteypn","geo_precision":"zip","state":"CA"},"type":"Feature","geometry":{"type":"Point","coordinates":[-117.488939,34.06279]}},{"properties":{"city":"Lancaster","address line":"844 East Ave. J","no. of mpds":2,"geo_score":0.889,"service territory":"SOUTHERN CALIFORNIA EDISON","zip code":"935353842","site":19597,"id":"a66dvmac4ztq","geo_precision":"zip","state":"CA"},"type":"Feature","geometry":{"type":"Point","coordinates":[-117.777285,34.734986]}},{"properties":{"city":"Orange","address line":"290 S. Main St.","no. of mpds":2,"geo_score":1.0,"service territory":"SOUTHERN CALIFORNIA EDISON","zip code":"928683844","site":19969,"id":"a66dvmgs9np5","geo_precision":"zip","state":"CA"},"type":"Feature","geometry":{"type":"Point","coordinates":[-117.769442,33.640302]}},{"properties":{"city":"Lakewood","address line":"5315 Paramount Blvd","no. of mpds":6,"geo_score":1.0,"service territory":"SOUTHERN CALIFORNIA EDISON","zip code":"907122123","site":20314,"id":"a66dvml7xgor","geo_precision":"zip","state":"CA"},"type":"Feature","geometry":{"type":"Point","coordinates":[-118.14645,33.845624]}},{"properties":{"city":"Yucca Valley","address line":"55277 Twenty Nine Palms","no. of mpds":2,"geo_score":1.0,"service territory":"SOUTHERN CALIFORNIA EDISON","zip code":"922842407","site":21036,"id":"a66dvmhimrme","geo_precision":"zip","state":"CA"},"type":"Feature","geometry":{"type":"Point","coordinates":[-115.896753,34.451263]}},{"properties":{"city":"Visalia","address line":"518 S Lovers Lane","no. of mpds":2,"geo_score":1.0,"service territory":"SOUTHERN CALIFORNIA EDISON","zip code":"932923223","site":22014,"id":"a66dvmdwbw3s","geo_precision":"zip","state":"CA"},"type":"Feature","geometry":{"type":"Point","coordinates":[-119.228324,36.19457]}},{"properties":{"city":"Visalia","address line":"111 W Walnut","no. of mpds":2,"geo_score":1.0,"service territory":"SOUTHERN CALIFORNIA EDISON","zip code":"932775366","site":22738,"id":"a66dvmi9xaow","geo_precision":"zip","state":"CA"},"type":"Feature","geometry":{"type":"Point","coordinates":[-119.355559,36.13188]}},{"properties":{"city":"Apple Valley","address line":"21718 Bear Valley Rd","no. of mpds":3,"geo_score":1.0,"service territory":"SOUTHERN CALIFORNIA EDISON","zip code":"923087206","site":23008,"id":"a66dvmlyblga","geo_precision":"zip","state":"CA"},"type":"Feature","geometry":{"type":"Point","coordinates":[-116.726751,34.450143]}},{"properties":{"city":"Moreno Valley","address line":"23021 Sunnymead","no. of mpds":5,"geo_score":0.945,"service territory":"SOUTHERN CALIFORNIA EDISON","zip code":"925535223","site":23520,"id":"a66dvmlwsa42","geo_precision":"zip","state":"CA"},"type":"Feature","geometry":{"type":"Point","coordinates":[-116.505017,32.679501]}},{"properties":{"city":"Crestline","address line":"24156 Lake Dr","no. of mpds":2,"geo_score":0.88,"service territory":"SOUTHERN CALIFORNIA EDISON","zip code":"923253997","site":23818,"id":"a66dvmhggb50","geo_precision":"zip","state":"CA"},"type":"Feature","geometry":{"type":"Point","coordinates":[-117.304767,34.246673]}},{"properties":{"city":"Carpinteria","address line":"4410 Via Real","no. of mpds":2,"geo_score":0.883,"service territory":"SOUTHERN CALIFORNIA EDISON","zip code":"930131619","site":23855,"id":"a66dvme94eo0","geo_precision":"zip","state":"CA"},"type":"Feature","geometry":{"type":"Point","coordinates":[-119.572627,34.418606]}},{"properties":{"city":"Palmdale","address line":"703 E. Palmdale Blvd","no. of mpds":2,"geo_score":0.857,"service territory":"SOUTHERN CALIFORNIA EDISON","zip code":"935504741","site":24483,"id":"a66dvmmp906o","geo_precision":"zip","state":"CA"},"type":"Feature","geometry":{"type":"Point","coordinates":[-118.116462,34.500549]}},{"properties":{"city":"Hesperia","address line":"16767 Main St/pob 401501","no. of mpds":1,"geo_score":0.857,"service territory":"SOUTHERN CALIFORNIA EDISON","zip code":"923456027","site":25517,"id":"a66dvmlxvr08","geo_precision":"zip","state":"CA"},"type":"Feature","geometry":{"type":"Point","coordinates":[-115.967051,34.839964]}},{"properties":{"city":"Hanford","address line":"395 North 11th Avenue","no. of mpds":2,"geo_score":0.893,"service territory":"SOUTHERN CALIFORNIA EDISON","zip code":"932304511","site":26170,"id":"a66dvmc8cx92","geo_precision":"zip","state":"CA"},"type":"Feature","geometry":{"type":"Point","coordinates":[-119.718744,36.401339]}},{"properties":{"city":"San Bernardino","address line":"3211 Kendall Dr","no. of mpds":1,"geo_score":0.857,"service territory":"SOUTHERN CALIFORNIA EDISON","zip code":"924072011","site":26934,"id":"a66dvm9sokfc","geo_precision":"zip","state":"CA"},"type":"Feature","geometry":{"type":"Point","coordinates":[-117.415604,34.237229]}},{"properties":{"city":"Castaic","address line":"27680 Lake Hughes Rd","no. of mpds":2,"geo_score":1.0,"service territory":"SOUTHERN CALIFORNIA EDISON","zip code":"913843118","site":26945,"id":"a66dvmnvqvaz","geo_precision":"zip","state":"CA"},"type":"Feature","geometry":{"type":"Point","coordinates":[-118.298662,33.786594]}},{"properties":{"city":"Hesperia","address line":"14519 Main St Ste 'a'","no. of mpds":2,"geo_score":0.857,"service territory":"SOUTHERN CALIFORNIA EDISON","zip code":"923453322","site":27678,"id":"a66dvmpqqa05","geo_precision":"zip","state":"CA"},"type":"Feature","geometry":{"type":"Point","coordinates":[-115.967051,34.839964]}},{"properties":{"city":"Twentynine Palms","address line":"73740 29 Palms Hwy","no. of mpds":4,"geo_score":1.0,"service territory":"SOUTHERN CALIFORNIA EDISON","zip code":"922773102","site":29172,"id":"a66dvmbmbiux","geo_precision":"zip","state":"CA"},"type":"Feature","geometry":{"type":"Point","coordinates":[-116.235073,34.234411]}},{"properties":{"city":"Costa Mesa","address line":"204 E. 17th Street","no. of mpds":4,"geo_score":1.0,"service territory":"SOUTHERN CALIFORNIA EDISON","zip code":"926277300","site":32938,"id":"a66dvmncm5sn","geo_precision":"zip","state":"CA"},"type":"Feature","geometry":{"type":"Point","coordinates":[-117.763886,33.685069]}},{"properties":{"city":"Ontario","address line":"3490 E. Jurupa Street","no. of mpds":6,"geo_score":1.0,"service territory":"SOUTHERN CALIFORNIA EDISON","zip code":"917612904","site":33035,"id":"a66dvmajcqey","geo_precision":"zip","state":"CA"},"type":"Feature","geometry":{"type":"Point","coordinates":[-115.967051,34.839964]}},{"properties":{"city":"Murrieta","address line":"41260 Murrieta Hot Sprgs","no. of mpds":6,"geo_score":1.0,"service territory":"SOUTHERN CALIFORNIA EDISON","zip code":"925629479","site":33062,"id":"a66dvmcvf8ds","geo_precision":"zip","state":"CA"},"type":"Feature","geometry":{"type":"Point","coordinates":[-116.861027,33.44204]}},{"properties":{"city":"Pomona","address line":"2055 N. Towne Avenue","no. of mpds":6,"geo_score":1.0,"service territory":"SOUTHERN CALIFORNIA EDISON","zip code":"917672420","site":33092,"id":"a66dvmn21h78","geo_precision":"zip","state":"CA"},"type":"Feature","geometry":{"type":"Point","coordinates":[-118.298662,33.786594]}},{"properties":{"city":"Whittier","address line":"13019 Imperial Highway","no. of mpds":6,"geo_score":0.945,"service territory":"SOUTHERN CALIFORNIA EDISON","zip code":"906054142","site":33149,"id":"a66dvmdcaihp","geo_precision":"zip","state":"CA"},"type":"Feature","geometry":{"type":"Point","coordinates":[-118.041733,33.960846]}},{"properties":{"city":"Santa Clarita","address line":"27602 Newhall Ranch Rd.","no. of mpds":4,"geo_score":0.905,"service territory":"SOUTHERN CALIFORNIA EDISON","zip code":"913554013","site":33154,"id":"a66dvmocedfp","geo_precision":"zip","state":"CA"},"type":"Feature","geometry":{"type":"Point","coordinates":[-118.298662,33.786594]}},{"properties":{"city":"Santa Ana","address line":"1700 E Dyer Road","no. of mpds":8,"geo_score":0.895,"service territory":"SOUTHERN CALIFORNIA EDISON","zip code":"927055704","site":33155,"id":"a66dvmmq9av4","geo_precision":"zip","state":"CA"},"type":"Feature","geometry":{"type":"Point","coordinates":[-117.79811,33.777795]}},{"properties":{"city":"Moreno Valley","address line":"15020 Perris Blvd.","no. of mpds":6,"geo_score":1.0,"service territory":"SOUTHERN CALIFORNIA EDISON","zip code":"925514597","site":33157,"id":"a66dvm9zjlu2","geo_precision":"zip","state":"CA"},"type":"Feature","geometry":{"type":"Point","coordinates":[-116.055617,33.752886]}},{"properties":{"city":"Oxnard","address line":"1501 W. 5th Street","no. of mpds":6,"geo_score":0.857,"service territory":"SOUTHERN CALIFORNIA EDISON","zip code":"930306512","site":33159,"id":"a66dvmbfyg11","geo_precision":"zip","state":"CA"},"type":"Feature","geometry":{"type":"Point","coordinates":[-119.16383,34.235783]}},{"properties":{"city":"Westminster","address line":"15991 Magnolia Street","no. of mpds":6,"geo_score":0.87,"service territory":"SOUTHERN CALIFORNIA EDISON","zip code":"926837329","site":33161,"id":"a66dvmkfvgti","geo_precision":"zip","state":"CA"},"type":"Feature","geometry":{"type":"Point","coordinates":[-118.024228,33.758905]}},{"properties":{"city":"Thousand Oaks","address line":"609 Rancho Conejo","no. of mpds":4,"geo_score":0.869,"service territory":"SOUTHERN CALIFORNIA EDISON","zip code":"913201710","site":33162,"id":"a66dvmgb6v2i","geo_precision":"zip","state":"CA"},"type":"Feature","geometry":{"type":"Point","coordinates":[-118.905874,34.175921]}},{"properties":{"city":"Garden Grove","address line":"13472 Euclid St.","no. of mpds":6,"geo_score":1.0,"service territory":"SOUTHERN CALIFORNIA EDISON","zip code":"928432516","site":33168,"id":"a66dvmke9jh8","geo_precision":"zip","state":"CA"},"type":"Feature","geometry":{"type":"Point","coordinates":[-117.769442,33.640302]}},{"properties":{"city":"Rosemead","address line":"3366 San Gabriel Blvd","no. of mpds":4,"geo_score":0.886,"service territory":"SOUTHERN CALIFORNIA EDISON","zip code":"917702542","site":33242,"id":"a66dvmprutx7","geo_precision":"zip","state":"CA"},"type":"Feature","geometry":{"type":"Point","coordinates":[-118.090347,34.06251]}},{"properties":{"city":"Fontana","address line":"16096 Slover Avenue","no. of mpds":6,"geo_score":1.0,"service territory":"SOUTHERN CALIFORNIA EDISON","zip code":"923377337","site":33245,"id":"a66dvmklcmhh","geo_precision":"zip","state":"CA"},"type":"Feature","geometry":{"type":"Point","coordinates":[-115.967051,34.839964]}},{"properties":{"city":"Irvine","address line":"8693 Irvine Center Dr","no. of mpds":4,"geo_score":1.0,"service territory":"SOUTHERN CALIFORNIA EDISON","zip code":"926184219","site":33252,"id":"a66dvm9t6kmm","geo_precision":"zip","state":"CA"},"type":"Feature","geometry":{"type":"Point","coordinates":[-117.73269,33.641579]}},{"properties":{"city":"Fullerton","address line":"1000 W Orangethorpe Ave","no. of mpds":6,"geo_score":1.0,"service territory":"SOUTHERN CALIFORNIA EDISON","zip code":"928334734","site":33257,"id":"a66dvmdndt19","geo_precision":"zip","state":"CA"},"type":"Feature","geometry":{"type":"Point","coordinates":[-117.769442,33.640302]}},{"properties":{"city":"Norwalk","address line":"11461 E. Firestone Blvd.","no. of mpds":5,"geo_score":0.871,"service territory":"SOUTHERN CALIFORNIA EDISON","zip code":"906508849","site":33289,"id":"a66dvmb8r5x2","geo_precision":"zip","state":"CA"},"type":"Feature","geometry":{"type":"Point","coordinates":[-118.096178,33.919737]}},{"properties":{"city":"Redlands","address line":"1161 W. Lugonia Avenue","no. of mpds":6,"geo_score":1.0,"service territory":"SOUTHERN CALIFORNIA EDISON","zip code":"923742000","site":33292,"id":"a66dvmdwhagj","geo_precision":"zip","state":"CA"},"type":"Feature","geometry":{"type":"Point","coordinates":[-116.898232,34.153575]}},{"properties":{"city":"Rancho Cucamonga","address line":"10477 Alta Loma Drive","no. of mpds":6,"geo_score":0.895,"service territory":"SOUTHERN CALIFORNIA EDISON","zip code":"917373848","site":33308,"id":"a66dvmjluz16","geo_precision":"zip","state":"CA"},"type":"Feature","geometry":{"type":"Point","coordinates":[-115.967051,34.839964]}},{"properties":{"city":"Norwalk","address line":"10962 Alondra Blvd.","no. of mpds":4,"geo_score":0.871,"service territory":"SOUTHERN CALIFORNIA EDISON","zip code":"906505402","site":33325,"id":"a66dvmoawuwy","geo_precision":"zip","state":"CA"},"type":"Feature","geometry":{"type":"Point","coordinates":[-118.096178,33.919737]}},{"properties":{"city":"Chino Hills","address line":"15450 Fairfield Ranch","no. of mpds":6,"geo_score":0.87,"service territory":"SOUTHERN CALIFORNIA EDISON","zip code":"917098813","site":33369,"id":"a66dvmleakmz","geo_precision":"zip","state":"CA"},"type":"Feature","geometry":{"type":"Point","coordinates":[-117.708111,33.972791]}},{"properties":{"city":"Oxnard","address line":"2201 E. Gonzales","no. of mpds":4,"geo_score":1.0,"service territory":"SOUTHERN CALIFORNIA EDISON","zip code":"93036-0620","site":33399,"id":"a66dvmfkrfje","geo_precision":"zip","state":"CA"},"type":"Feature","geometry":{"type":"Point","coordinates":[-119.21216,34.199838]}},{"properties":{"city":"EL Monte","address line":"10707 Lower Azusa Road","no. of mpds":4,"geo_score":1.0,"service territory":"SOUTHERN CALIFORNIA EDISON","zip code":"917311305","site":33403,"id":"a66dvmh1kehf","geo_precision":"zip","state":"CA"},"type":"Feature","geometry":{"type":"Point","coordinates":[-118.298662,33.786594]}},{"properties":{"city":"Inglewood","address line":"3311 W. Century","no. of mpds":6,"geo_score":1.0,"service territory":"SOUTHERN CALIFORNIA EDISON","zip code":"903031366","site":33404,"id":"a66dvmbg5i0t","geo_precision":"zip","state":"CA"},"type":"Feature","geometry":{"type":"Point","coordinates":[-118.298662,33.786594]}},{"properties":{"city":"Santa Ana","address line":"2217 E. 17th Street","no. of mpds":6,"geo_score":0.895,"service territory":"SOUTHERN CALIFORNIA EDISON","zip code":"927058613","site":33436,"id":"a66dvmedypgg","geo_precision":"zip","state":"CA"},"type":"Feature","geometry":{"type":"Point","coordinates":[-117.79811,33.777795]}},{"properties":{"city":"Rialto","address line":"1276 W Baseline Rd","no. of mpds":6,"geo_score":1.0,"service territory":"SOUTHERN CALIFORNIA EDISON","zip code":"923768605","site":33442,"id":"a66dvme1cicz","geo_precision":"zip","state":"CA"},"type":"Feature","geometry":{"type":"Point","coordinates":[-115.567483,34.202339]}},{"properties":{"city":"Commerce","address line":"5536 E Washington Blvd","no. of mpds":4,"geo_score":1.0,"service territory":"SOUTHERN CALIFORNIA EDISON","zip code":"900401404","site":33459,"id":"a66dvmq06ttt","geo_precision":"zip","state":"CA"},"type":"Feature","geometry":{"type":"Point","coordinates":[-118.159793,34.000569]}},{"properties":{"city":"Murrieta","address line":"28015 Scott Road","no. of mpds":6,"geo_score":0.921,"service territory":"SOUTHERN CALIFORNIA EDISON","zip code":"925637428","site":33484,"id":"a66dvmcqlp90","geo_precision":"zip","state":"CA"},"type":"Feature","geometry":{"type":"Point","coordinates":[-117.158088,33.560581]}},{"properties":{"city":"Covina","address line":"1075 Grand Avenue","no. of mpds":3,"geo_score":0.886,"service territory":"SOUTHERN CALIFORNIA EDISON","zip code":"917242048","site":33500,"id":"a66dvmi7vuo9","geo_precision":"zip","state":"CA"},"type":"Feature","geometry":{"type":"Point","coordinates":[-117.845894,34.103065]}},{"properties":{"city":"Fillmore","address line":"903 Ventura Street","no. of mpds":6,"geo_score":0.875,"service territory":"SOUTHERN CALIFORNIA EDISON","zip code":"930151756","site":33513,"id":"a66dvmetzqph","geo_precision":"zip","state":"CA"},"type":"Feature","geometry":{"type":"Point","coordinates":[-118.950378,34.399997]}},{"properties":{"city":"Ontario","address line":"1544 E 4th St","no. of mpds":4,"geo_score":1.0,"service territory":"SOUTHERN CALIFORNIA EDISON","zip code":"917642636","site":33547,"id":"a66dvmmnn2r4","geo_precision":"zip","state":"CA"},"type":"Feature","geometry":{"type":"Point","coordinates":[-115.967051,34.839964]}},{"properties":{"city":"Murrieta","address line":"40210 Murrieta Ht Spgs Rd","no. of mpds":8,"geo_score":0.921,"service territory":"SOUTHERN CALIFORNIA EDISON","zip code":"925636400","site":33552,"id":"a66dvmfi3wcc","geo_precision":"zip","state":"CA"},"type":"Feature","geometry":{"type":"Point","coordinates":[-117.158088,33.560581]}},{"properties":{"city":"Corona","address line":"7014 Archibald","no. of mpds":6,"geo_score":1.0,"service territory":"SOUTHERN CALIFORNIA EDISON","zip code":"92880","site":33560,"id":"a66dvmifwz6r","geo_precision":"zip","state":"CA"},"type":"Feature","geometry":{"type":"Point","coordinates":[-116.055617,33.752886]}},{"properties":{"city":"Camarillo","address line":"255 Carmen Drive","no. of mpds":4,"geo_score":0.896,"service territory":"SOUTHERN CALIFORNIA EDISON","zip code":"93010","site":33567,"id":"a66dvmltcds4","geo_precision":"zip","state":"CA"},"type":"Feature","geometry":{"type":"Point","coordinates":[-119.095938,34.22056]}},{"properties":{"city":"Hemet","address line":"104 N. San Jacinto","no. of mpds":6,"geo_score":1.0,"service territory":"SOUTHERN CALIFORNIA EDISON","zip code":"925434450","site":33571,"id":"a66dvmavosed","geo_precision":"zip","state":"CA"},"type":"Feature","geometry":{"type":"Point","coordinates":[-116.777014,33.651652]}},{"properties":{"city":"Whittier","address line":"11807 Valley View Ave","no. of mpds":4,"geo_score":1.0,"service territory":"SOUTHERN CALIFORNIA EDISON","zip code":"90604","site":33578,"id":"a66dvmbxwgfu","geo_precision":"zip","state":"CA"},"type":"Feature","geometry":{"type":"Point","coordinates":[-118.009085,33.932663]}},{"properties":{"city":"San Jacinto","address line":"1210 N State Street","no. of mpds":6,"geo_score":0.893,"service territory":"SOUTHERN CALIFORNIA EDISON","zip code":"92583","site":33587,"id":"a66dvmg15wqh","geo_precision":"zip","state":"CA"},"type":"Feature","geometry":{"type":"Point","coordinates":[-116.92919,33.799741]}},{"properties":{"city":"Whittier","address line":"14968 Mulberry Dr","no. of mpds":4,"geo_score":1.0,"service territory":"SOUTHERN CALIFORNIA EDISON","zip code":"90604","site":33590,"id":"a66dvmldg43r","geo_precision":"zip","state":"CA"},"type":"Feature","geometry":{"type":"Point","coordinates":[-118.009085,33.932663]}},{"properties":{"city":"Wildomar","address line":"32060 Clinton Keith Rd","no. of mpds":4,"geo_score":1.0,"service territory":"SOUTHERN CALIFORNIA EDISON","zip code":"92595","site":33595,"id":"a66dvmmd7uah","geo_precision":"zip","state":"CA"},"type":"Feature","geometry":{"type":"Point","coordinates":[-116.055617,33.752886]}},{"properties":{"city":"Rancho Palos Verdes","address line":"31186 Hawthorne Blvd","no. of mpds":4,"geo_score":1.0,"service territory":"SOUTHERN CALIFORNIA EDISON","zip code":"90275","site":33601,"id":"a66dvmohr3z4","geo_precision":"zip","state":"CA"},"type":"Feature","geometry":{"type":"Point","coordinates":[-118.298662,33.786594]}},{"properties":{"city":"Westminster","address line":"13982 Bolsa Chica Rd","no. of mpds":4,"geo_score":0.87,"service territory":"SOUTHERN CALIFORNIA EDISON","zip code":"92683","site":33611,"id":"a66dvmlycri9","geo_precision":"zip","state":"CA"},"type":"Feature","geometry":{"type":"Point","coordinates":[-118.024228,33.758905]}},{"properties":{"city":"Temecula","address line":"44260 Apis Road","no. of mpds":6,"geo_score":1.0,"service territory":"SOUTHERN CALIFORNIA EDISON","zip code":"92592","site":33613,"id":"a66dvmkqahrf","geo_precision":"zip","state":"CA"},"type":"Feature","geometry":{"type":"Point","coordinates":[-116.055617,33.752886]}},{"properties":{"city":"Fontana","address line":"15264 Summit Ave","no. of mpds":6,"geo_score":1.0,"service territory":"SOUTHERN CALIFORNIA EDISON","zip code":"92336","site":33656,"id":"a66dvmekmvwe","geo_precision":"zip","state":"CA"},"type":"Feature","geometry":{"type":"Point","coordinates":[-116.247005,34.122307]}},{"properties":{"city":"Norco","address line":"445 Hidden Valley Plwy","no. of mpds":5,"geo_score":1.0,"service territory":"SOUTHERN CALIFORNIA EDISON","zip code":"92860","site":34032,"id":"a66dvme5j6hz","geo_precision":"zip","state":"CA"},"type":"Feature","geometry":{"type":"Point","coordinates":[-116.055617,33.752886]}},{"properties":{"city":"San Bernardino","address line":"2885 N Del Rosa Avenue","no. of mpds":4,"geo_score":0.879,"service territory":"SOUTHERN CALIFORNIA EDISON","zip code":"92404","site":34175,"id":"a66dvmiylnl1","geo_precision":"zip","state":"CA"},"type":"Feature","geometry":{"type":"Point","coordinates":[-117.243375,34.148899]}}],"is_temporal":false,"author":{"url":"","metadata":null,"contact_name":null,"contact_address":null,"source":null,"contact_phone":null},"source":"","pagination":{"sort":null,"start":0,"total":244,"limit":1000000},"state":"complete","tags":"","published":"2014-08-13T07:30:32-04:00","id":197276}