{"type":"FeatureCollection","data_type":"Dataset","url_type":null,"permissions":[{"permissions":{"download":true,"view":true},"group_id":"everyone"}],"classification":null,"title":"Producers","count":21,"stream_id":19740,"contributor":{"url":"http://geocommons.com/users/10358","name":"commonrootscafe"},"data_attributes":null,"calculation_params":null,"icon_link":null,"link":"http://geocommons.com/overlays/19740.json","extent":[-99.113,43.7149,-90.8872,47.4509],"geometry_types":["point"],"unique_name":null,"name":"Producers","feature_count":21,"description":"","next_feature":null,"is_raster":false,"short_classification":"Y","stats":{"geo_score":{"max":1.0,"mean":0.783190476190476,"variance":0.0404851619047619,"stdev":0.20120924905372,"min":0.286,"median":0.846}},"features":[{"properties":{"city":"Delano","zip":"55388","geo_score":0.827,"producer":"Ames Farm Limited","id":"a65lrjmjb0w7","geo_precision":"range","address":"11225 County Road 20","state":"MN"},"type":"Feature","geometry":{"type":"Point","coordinates":[-93.808706,44.963273]}},{"properties":{"city":"Elmwood","zip":"54740","geo_score":0.286,"producer":"Angelica's Garden LLC","id":"a65lrjjpsym4","geo_precision":"street","address":"W1267 490th Ave","state":"WI"},"type":"Feature","geometry":{"type":"Point","coordinates":[-92.185561,44.713713]}},{"properties":{"city":"Grantsburg","zip":"54840","geo_score":0.922,"producer":"Beaver Creek Ranch","id":"a65lrjbjymr1","geo_precision":"range","address":"12402 State Road 48","state":"WI"},"type":"Feature","geometry":{"type":"Point","coordinates":[-92.621863,45.707978]}},{"properties":{"city":"Maple Lake","zip":"55358","geo_score":1.0,"producer":"Breezy Hill Organic Orchard","id":"a65lrjcdf65j","geo_precision":"range","address":"3944 Iresfeld Ave NW","state":"MN"},"type":"Feature","geometry":{"type":"Point","coordinates":[-94.06394,45.208078]}},{"properties":{"city":"Cannon Falls","zip":"55009","geo_score":0.902,"producer":"Cannon River Winery","id":"a65lrjpw05k2","geo_precision":"range","address":"421 Mill St W","state":"MN"},"type":"Feature","geometry":{"type":"Point","coordinates":[-92.90585,44.507961]}},{"properties":{"city":"Sparta","zip":"54656","geo_score":0.902,"producer":"Chad Forsberg","id":"a65lrjmef1el","geo_precision":"range","address":"5512 Canine Rd","state":"WI"},"type":"Feature","geometry":{"type":"Point","coordinates":[-90.887162,44.092254]}},{"properties":{"city":"Carrington","zip":"58421","geo_score":0.681,"producer":"Dakota Growers Pasta","id":"a65lrjnc6mlz","geo_precision":"street","address":"One Pasta Ave","state":"ND"},"type":"Feature","geometry":{"type":"Point","coordinates":[-99.112951,47.450945]}},{"properties":{"city":"Farmington","zip":"55024","geo_score":0.815,"producer":"Gardens of Eagan","id":"a65lrjn7lgej","geo_precision":"range","address":"25494 Highview Ave","state":"MN"},"type":"Feature","geometry":{"type":"Point","coordinates":[-93.238204,44.579363]}},{"properties":{"city":"Wykoff","zip":"55990","geo_score":0.551,"producer":"Hill &amp; Vale Farms","id":"a65lrjiqvoew","geo_precision":"street","address":"21975 183rd Ave","state":"MN"},"type":"Feature","geometry":{"type":"Point","coordinates":[-92.11501,44.082599]}},{"properties":{"city":"Hope","zip":"56046","geo_score":0.74,"producer":"Hope Creamery","id":"a65lrjd0sgdg","geo_precision":"range","address":"9043 SW 37 Ave","state":"MN"},"type":"Feature","geometry":{"type":"Point","coordinates":[-93.276269,43.960217]}},{"properties":{"city":"Glenwood","zip":"56334","geo_score":0.446,"producer":"Kadejan","id":"a65lrjmz8gdx","geo_precision":"street","address":"PO Box 311","state":"MN"},"type":"Feature","geometry":{"type":"Point","coordinates":[-93.825558,45.822117]}},{"properties":{"city":"Owatonna","zip":"55060","geo_score":0.846,"producer":"Larry Schultz Organic Farm","id":"a65lrjexyi6j","geo_precision":"range","address":"4950 SW 82nd Ave","state":"MN"},"type":"Feature","geometry":{"type":"Point","coordinates":[-93.366435,44.011732]}},{"properties":{"city":"Callaway","zip":"56521","geo_score":0.878,"producer":"Native Harvest","id":"a65lrjgqywqk","geo_precision":"range","address":"607 Main Ave","state":"MN"},"type":"Feature","geometry":{"type":"Point","coordinates":[-95.909344,46.984081]}},{"properties":{"city":"Minneapolis","zip":"55407","geo_score":0.732,"producer":"Peace Coffee","id":"a65lrjhd8k7e","geo_precision":"street","address":"2801 21st Ave S, #130","state":"MN"},"type":"Feature","geometry":{"type":"Point","coordinates":[-93.242683,44.951614]}},{"properties":{"city":"Delano","zip":"55328","geo_score":1.0,"producer":"Riverbend Farm","id":"a65lrjnthrhx","geo_precision":"range","address":"5405 Calder Ave SE","state":"MN"},"type":"Feature","geometry":{"type":"Point","coordinates":[-93.848332,45.066354]}},{"properties":{"city":"Barron","zip":"54812","geo_score":0.756,"producer":"Six Rivers Cooperative","id":"a65lrjp76i29","geo_precision":"range","address":"1346 16 1/2 Ave","state":"WI"},"type":"Feature","geometry":{"type":"Point","coordinates":[-91.8566,45.401482]}},{"properties":{"city":"Brooklyn Center","zip":"55429","geo_score":1.0,"producer":"Surly Brewing Company","id":"a65lrjgwnda4","geo_precision":"range","address":"4811 Dusharme Drive","state":"MN"},"type":"Feature","geometry":{"type":"Point","coordinates":[-93.324476,45.041972]}},{"properties":{"city":"Canon Falls","zip":"55009","geo_score":0.429,"producer":"Thousand Hills Cattle Company","id":"a65lrje2lrqm","geo_precision":"street","address":"PO Box 68","state":"MN"},"type":"Feature","geometry":{"type":"Point","coordinates":[-92.901206,44.496027]}},{"properties":{"city":"Welcome","zip":"56181","geo_score":0.916,"producer":"Whole Grain Milling","id":"a65lrjbjj77m","geo_precision":"range","address":"1579 120th Ave","state":"MN"},"type":"Feature","geometry":{"type":"Point","coordinates":[-94.634684,43.714898]}},{"properties":{"city":"Pequot Lakes","zip":"56472","geo_score":0.902,"producer":"Wild Acres","id":"a65lrjoql9t8","geo_precision":"range","address":"7443 Wild Acres Rd","state":"MN"},"type":"Feature","geometry":{"type":"Point","coordinates":[-94.246223,46.632769]}},{"properties":{"city":"Minneapolis","zip":"55408","geo_score":0.916,"producer":"Youth Farm and Market","id":"a65lrji5998i","geo_precision":"range","address":"128 W 33rd St","state":"MN"},"type":"Feature","geometry":{"type":"Point","coordinates":[-93.280016,44.942936]}}],"is_temporal":false,"author":{"url":"","metadata":"","contact_name":"","contact_address":"","source":"","contact_phone":""},"source":"","pagination":{"sort":null,"start":0,"total":21,"limit":1000000},"state":"complete","tags":"","published":"2014-08-11T01:24:39-04:00","id":19740}