{"type":"FeatureCollection","data_type":"Dataset","url_type":null,"permissions":[{"permissions":{"download":true,"view":true},"group_id":"everyone"}],"classification":null,"title":"Canada Zip Codes sample","count":177,"stream_id":197590,"contributor":{"url":"http://geocommons.com/users/38291","name":"egreenberg"},"data_attributes":null,"calculation_params":null,"icon_link":null,"link":"http://geocommons.com/overlays/197590.json","extent":[-125.234,42.3077,-52.8389,55.7741],"geometry_types":["point"],"unique_name":null,"name":"Canada Zip Codes sample","feature_count":177,"description":"","next_feature":null,"is_raster":false,"short_classification":"Y","stats":{"fips region code":{"max":11,"mean":6.28248587570621,"variance":11.8288392398562,"stdev":3.43930795943838,"min":1,"median":8}},"features":[{"properties":{"city":"Paradise","zip 1":"A","fips region code":5,"zip 3":"A1L","zip 6":"A1L3L1","id":"a63dvpz3zucg","province":"New  Foundland"},"type":"Feature","geometry":{"type":"Point","coordinates":[-52.8389,47.5363]}},{"properties":{"city":"Sydney","zip 1":"B","fips region code":7,"zip 3":"B1N","zip 6":"B1N2H5","id":"a63dvpwunblw","province":"Nova Scotia"},"type":"Feature","geometry":{"type":"Point","coordinates":[-60.1943,46.167]}},{"properties":{"city":"Dartmouth","zip 1":"B","fips region code":7,"zip 3":"B2W","zip 6":"B2W3R8","id":"a63dvq5zxbwk","province":"Nova Scotia"},"type":"Feature","geometry":{"type":"Point","coordinates":[-63.5433,44.6449]}},{"properties":{"city":"Halifax","zip 1":"B","fips region code":7,"zip 3":"B3K","zip 6":"B3K3C2","id":"a63dvq8b740l","province":"Nova Scotia"},"type":"Feature","geometry":{"type":"Point","coordinates":[-63.5818,44.6514]}},{"properties":{"city":"Bedford","zip 1":"B","fips region code":7,"zip 3":"B4A","zip 6":"B4A3B7","id":"a63dvpw0ib1u","province":"Nova Scotia"},"type":"Feature","geometry":{"type":"Point","coordinates":[-63.6676,44.7089]}},{"properties":{"city":"Charlottetown","zip 1":"C","fips region code":9,"zip 3":"C1A","zip 6":"C1A5P8","id":"a63dvq5qwwtp","province":"Prince Edward Island"},"type":"Feature","geometry":{"type":"Point","coordinates":[-63.1192,46.2318]}},{"properties":{"city":"Moncton","zip 1":"E","fips region code":4,"zip 3":"E1C","zip 6":"E1C5X7","id":"a63dvpxvkzyk","province":"New Brunswick"},"type":"Feature","geometry":{"type":"Point","coordinates":[-64.7723,46.0888]}},{"properties":{"city":"Quispamsis","zip 1":"E","fips region code":4,"zip 3":"E2G","zip 6":"E2G1X5","id":"a63dvq03rdtl","province":"New Brunswick"},"type":"Feature","geometry":{"type":"Point","coordinates":[-65.9392,45.4397]}},{"properties":{"city":"Fredericton","zip 1":"E","fips region code":4,"zip 3":"E3A","zip 6":"E3A6K4","id":"a63dvq8aqyys","province":"New Brunswick"},"type":"Feature","geometry":{"type":"Point","coordinates":[-66.6905,45.9784]}},{"properties":{"city":"Moncton","zip 1":"E","fips region code":4,"zip 3":"E4L","zip 6":"E4L1A9","id":"a63dvpzez41o","province":"New Brunswick"},"type":"Feature","geometry":{"type":"Point","coordinates":[-64.3699,45.8919]}},{"properties":{"city":"Woodstock","zip 1":"E","fips region code":4,"zip 3":"E7M","zip 6":"E7M6B5","id":"a63dvq3ahqvx","province":"New Brunswick"},"type":"Feature","geometry":{"type":"Point","coordinates":[-67.5817,46.1368]}},{"properties":{"city":"Quebec","zip 1":"G","fips region code":10,"zip 3":"G1E","zip 6":"G1E7A7","id":"a63dvqa4xgbi","province":"Quebec"},"type":"Feature","geometry":{"type":"Point","coordinates":[-71.192,46.876]}},{"properties":{"city":"Quebec","zip 1":"G","fips region code":10,"zip 3":"G1N","zip 6":"G1N2X3","id":"a63dvq00grk7","province":"Quebec"},"type":"Feature","geometry":{"type":"Point","coordinates":[-71.2526,46.81]}},{"properties":{"city":"Quebec","zip 1":"G","fips region code":10,"zip 3":"G1X","zip 6":"G1X5C6","id":"a63dvpx4xbi1","province":"Quebec"},"type":"Feature","geometry":{"type":"Point","coordinates":[-71.3149,46.7828]}},{"properties":{"city":"La Malbaie","zip 1":"G","fips region code":10,"zip 3":"G5A","zip 6":"G5A1K6","id":"a63dvq9xle93","province":"Quebec"},"type":"Feature","geometry":{"type":"Point","coordinates":[-70.0967,47.6259]}},{"properties":{"city":"Thetford Mines","zip 1":"G","fips region code":10,"zip 3":"G6G","zip 6":"G6G3L5","id":"a63dvq2a4goc","province":"Quebec"},"type":"Feature","geometry":{"type":"Point","coordinates":[-71.3108,46.1134]}},{"properties":{"city":"Saint-nicolas","zip 1":"G","fips region code":10,"zip 3":"G7A","zip 6":"G7A1E3","id":"a63dvq69lt2c","province":"Quebec"},"type":"Feature","geometry":{"type":"Point","coordinates":[-71.3548,46.6709]}},{"properties":{"city":"Alma","zip 1":"G","fips region code":10,"zip 3":"G8B","zip 6":"G8B2P9","id":"a63dvq6hj0jk","province":"Quebec"},"type":"Feature","geometry":{"type":"Point","coordinates":[-71.6399,48.5468]}},{"properties":{"city":"Trois-rivieres","zip 1":"G","fips region code":10,"zip 3":"G8Z","zip 6":"G8Z2N8","id":"a63dvqbd3999","province":"Quebec"},"type":"Feature","geometry":{"type":"Point","coordinates":[-72.5564,46.3648]}},{"properties":{"city":"Montreal-est","zip 1":"H","fips region code":10,"zip 3":"H1B","zip 6":"H1B5W6","id":"a63dvpzsaaer","province":"Quebec"},"type":"Feature","geometry":{"type":"Point","coordinates":[-73.5502,45.6454]}},{"properties":{"city":"Montreal","zip 1":"H","fips region code":10,"zip 3":"H1L","zip 6":"H1L3B3","id":"a63dvq1ebotz","province":"Quebec"},"type":"Feature","geometry":{"type":"Point","coordinates":[-73.5362,45.5943]}},{"properties":{"city":"Montreal","zip 1":"H","fips region code":10,"zip 3":"H1V","zip 6":"H1V2X9","id":"a63dvqa71hmt","province":"Quebec"},"type":"Feature","geometry":{"type":"Point","coordinates":[-73.551,45.5702]}},{"properties":{"city":"Montreal","zip 1":"H","fips region code":10,"zip 3":"H2E","zip 6":"H2E2N4","id":"a63dvpzsbywt","province":"Quebec"},"type":"Feature","geometry":{"type":"Point","coordinates":[-73.6256,45.5522]}},{"properties":{"city":"Montreal","zip 1":"H","fips region code":10,"zip 3":"H2R","zip 6":"H2R2B2","id":"a63dvq3jff68","province":"Quebec"},"type":"Feature","geometry":{"type":"Point","coordinates":[-73.6266,45.5452]}},{"properties":{"city":"Montreal","zip 1":"H","fips region code":10,"zip 3":"H3C","zip 6":"H3C4S4","id":"a63dvq3uccmc","province":"Quebec"},"type":"Feature","geometry":{"type":"Point","coordinates":[-73.5679,45.503]}},{"properties":{"city":"Montreal","zip 1":"H","fips region code":10,"zip 3":"H3S","zip 6":"H3S2S2","id":"a63dvq9l81i0","province":"Quebec"},"type":"Feature","geometry":{"type":"Point","coordinates":[-73.6292,45.5155]}},{"properties":{"city":"Montreal","zip 1":"H","fips region code":10,"zip 3":"H4E","zip 6":"H4E2X8","id":"a63dvq1xxmzt","province":"Quebec"},"type":"Feature","geometry":{"type":"Point","coordinates":[-73.5863,45.468]}},{"properties":{"city":"Montreal","zip 1":"H","fips region code":10,"zip 3":"H4S","zip 6":"H4S1X1","id":"a63dvpyox2ak","province":"Quebec"},"type":"Feature","geometry":{"type":"Point","coordinates":[-73.754,45.4958]}},{"properties":{"city":"Laval","zip 1":"H","fips region code":10,"zip 3":"H7K","zip 6":"H7K2R2","id":"a63dvq7hkriz","province":"Quebec"},"type":"Feature","geometry":{"type":"Point","coordinates":[-73.7898,45.6121]}},{"properties":{"city":"Laval","zip 1":"H","fips region code":10,"zip 3":"H7R","zip 6":"H7R4M2","id":"a63dvq2aziw2","province":"Quebec"},"type":"Feature","geometry":{"type":"Point","coordinates":[-73.8578,45.5483]}},{"properties":{"city":"Lasalle","zip 1":"H","fips region code":10,"zip 3":"H8P","zip 6":"H8P3K4","id":"a63dvpwk0b5l","province":"Quebec"},"type":"Feature","geometry":{"type":"Point","coordinates":[-73.5979,45.4371]}},{"properties":{"city":"Dollard-des-ormeaux","zip 1":"H","fips region code":10,"zip 3":"H9G","zip 6":"H9G2R6","id":"a63dvqbloz7d","province":"Quebec"},"type":"Feature","geometry":{"type":"Point","coordinates":[-73.8446,45.4794]}},{"properties":{"city":"Beaconsfield","zip 1":"H","fips region code":10,"zip 3":"H9W","zip 6":"H9W5S8","id":"a63dvq284ibt","province":"Quebec"},"type":"Feature","geometry":{"type":"Point","coordinates":[-73.8727,45.4407]}},{"properties":{"city":"Sherbrooke","zip 1":"J","fips region code":10,"zip 3":"J1K","zip 6":"J1K1S7","id":"a63dvqa96prw","province":"Quebec"},"type":"Feature","geometry":{"type":"Point","coordinates":[-71.9441,45.3928]}},{"properties":{"city":"Drummondville","zip 1":"J","fips region code":10,"zip 3":"J2C","zip 6":"J2C7Z8","id":"a63dvq3jp045","province":"Quebec"},"type":"Feature","geometry":{"type":"Point","coordinates":[-72.4808,45.9092]}},{"properties":{"city":"Saint-jean","zip 1":"J","fips region code":10,"zip 3":"J2W","zip 6":"J2W1E5","id":"a63dvpw8djh9","province":"Quebec"},"type":"Feature","geometry":{"type":"Point","coordinates":[-73.3723,45.3988]}},{"properties":{"city":"Chambly","zip 1":"J","fips region code":10,"zip 3":"J3L","zip 6":"J3L1Y7","id":"a63dvqceyrf2","province":"Quebec"},"type":"Feature","geometry":{"type":"Point","coordinates":[-73.289,45.4694]}},{"properties":{"city":"Montreal","zip 1":"J","fips region code":10,"zip 3":"J3Y","zip 6":"J3Y9C7","id":"a63dvq81oc5b","province":"Quebec"},"type":"Feature","geometry":{"type":"Point","coordinates":[-73.4329,45.4841]}},{"properties":{"city":"Longueuil","zip 1":"J","fips region code":10,"zip 3":"J4L","zip 6":"J4L4C7","id":"a63dvpyyz2q6","province":"Quebec"},"type":"Feature","geometry":{"type":"Point","coordinates":[-73.4708,45.5291]}},{"properties":{"city":"Brossard","zip 1":"J","fips region code":10,"zip 3":"J4Z","zip 6":"J4Z2M9","id":"a63dvpxnob4f","province":"Quebec"},"type":"Feature","geometry":{"type":"Point","coordinates":[-73.4649,45.4814]}},{"properties":{"city":"Repentigny","zip 1":"J","fips region code":10,"zip 3":"J5X","zip 6":"J5X3W9","id":"a63dvq70muz4","province":"Quebec"},"type":"Feature","geometry":{"type":"Point","coordinates":[-73.4824,45.8508]}},{"properties":{"city":"Chateauguay","zip 1":"J","fips region code":10,"zip 3":"J6K","zip 6":"J6K3B1","id":"a63dvq2wvqnw","province":"Quebec"},"type":"Feature","geometry":{"type":"Point","coordinates":[-73.7085,45.3631]}},{"properties":{"city":"Rosemere","zip 1":"J","fips region code":10,"zip 3":"J7A","zip 6":"J7A1H8","id":"a63dvq9gcrd7","province":"Quebec"},"type":"Feature","geometry":{"type":"Point","coordinates":[-73.8038,45.6179]}},{"properties":{"city":"Terrebonne","zip 1":"J","fips region code":10,"zip 3":"J7M","zip 6":"J7M1G1","id":"a63dvq83f58l","province":"Quebec"},"type":"Feature","geometry":{"type":"Point","coordinates":[-73.7559,45.7915]}},{"properties":{"city":"Saint-jerome","zip 1":"J","fips region code":10,"zip 3":"J7Y","zip 6":"J7Y3N3","id":"a63dvq0dwsqd","province":"Quebec"},"type":"Feature","geometry":{"type":"Point","coordinates":[-74.0176,45.814]}},{"properties":{"city":"Gatineau","zip 1":"J","fips region code":10,"zip 3":"J8R","zip 6":"J8R2N1","id":"a63dvq5jyuoy","province":"Quebec"},"type":"Feature","geometry":{"type":"Point","coordinates":[-75.6057,45.4914]}},{"properties":{"city":"Gatineau","zip 1":"J","fips region code":10,"zip 3":"J9A","zip 6":"J9A3J2","id":"a63dvpx2gd2u","province":"Quebec"},"type":"Feature","geometry":{"type":"Point","coordinates":[-75.7538,45.4206]}},{"properties":{"city":"Finch","zip 1":"K","fips region code":8,"zip 3":"K0C","zip 6":"K0C1K0","id":"a63dvpxg5u1v","province":"Ontario"},"type":"Feature","geometry":{"type":"Point","coordinates":[-75.032,45.2228]}},{"properties":{"city":"Ottawa","zip 1":"K","fips region code":8,"zip 3":"K1H","zip 6":"K1H7A4","id":"a63dvq3rh2y4","province":"Ontario"},"type":"Feature","geometry":{"type":"Point","coordinates":[-75.6639,45.3938]}},{"properties":{"city":"Ottawa","zip 1":"K","fips region code":8,"zip 3":"K1R","zip 6":"K1R6E6","id":"a63dvq25nvx0","province":"Ontario"},"type":"Feature","geometry":{"type":"Point","coordinates":[-75.7235,45.4]}},{"properties":{"city":"Ottawa","zip 1":"K","fips region code":8,"zip 3":"K1Y","zip 6":"K1Y2P1","id":"a63dvq4i4vp2","province":"Ontario"},"type":"Feature","geometry":{"type":"Point","coordinates":[-75.7304,45.399]}},{"properties":{"city":"Nepean","zip 1":"K","fips region code":8,"zip 3":"K2G","zip 6":"K2G2R4","id":"a63dvpwgrvjb","province":"Ontario"},"type":"Feature","geometry":{"type":"Point","coordinates":[-75.7703,45.3286]}},{"properties":{"city":"Kanata","zip 1":"K","fips region code":8,"zip 3":"K2L","zip 6":"K2L3N6","id":"a63dvq3p31kl","province":"Ontario"},"type":"Feature","geometry":{"type":"Point","coordinates":[-75.8838,45.3125]}},{"properties":{"city":"Cornwall","zip 1":"K","fips region code":8,"zip 3":"K6H","zip 6":"K6H0A2","id":"a63dvpympioo","province":"Ontario"},"type":"Feature","geometry":{"type":"Point","coordinates":[-74.7129,45.0186]}},{"properties":{"city":"Kingston","zip 1":"K","fips region code":8,"zip 3":"K7K","zip 6":"K7K2Z6","id":"a63dvpzd7hx8","province":"Ontario"},"type":"Feature","geometry":{"type":"Point","coordinates":[-76.4799,44.2322]}},{"properties":{"city":"Arnprior","zip 1":"K","fips region code":8,"zip 3":"K7S","zip 6":"K7S1Y4","id":"a63dvq5o5vng","province":"Ontario"},"type":"Feature","geometry":{"type":"Point","coordinates":[-76.3624,45.4238]}},{"properties":{"city":"Cobourg","zip 1":"K","fips region code":8,"zip 3":"K9A","zip 6":"K9A2P3","id":"a63dvq2824ee","province":"Ontario"},"type":"Feature","geometry":{"type":"Point","coordinates":[-78.1621,43.9851]}},{"properties":{"city":"Beamsville","zip 1":"L","fips region code":8,"zip 3":"L0R","zip 6":"L0R1B0","id":"a63dvpxs1vqe","province":"Ontario"},"type":"Feature","geometry":{"type":"Point","coordinates":[-80.0702,43.1661]}},{"properties":{"city":"Oshawa","zip 1":"L","fips region code":8,"zip 3":"L1H","zip 6":"L1H6K6","id":"a63dvqbxoklo","province":"Ontario"},"type":"Feature","geometry":{"type":"Point","coordinates":[-78.8641,43.8973]}},{"properties":{"city":"Whitby","zip 1":"L","fips region code":8,"zip 3":"L1P","zip 6":"L1P1L6","id":"a63dvqbdvjul","province":"Ontario"},"type":"Feature","geometry":{"type":"Point","coordinates":[-78.9638,43.8744]}},{"properties":{"city":"Pickering","zip 1":"L","fips region code":8,"zip 3":"L1V","zip 6":"L1V6Y9","id":"a63dvq98h46k","province":"Ontario"},"type":"Feature","geometry":{"type":"Point","coordinates":[-79.1307,43.8087]}},{"properties":{"city":"Niagara Falls","zip 1":"L","fips region code":8,"zip 3":"L2H","zip 6":"L2H3E2","id":"a63dvpz39zoz","province":"Ontario"},"type":"Feature","geometry":{"type":"Point","coordinates":[-79.1238,43.1148]}},{"properties":{"city":"Saint Catharines","zip 1":"L","fips region code":8,"zip 3":"L2S","zip 6":"L2S2M2","id":"a63dvpyldaf2","province":"Ontario"},"type":"Feature","geometry":{"type":"Point","coordinates":[-79.2631,43.1275]}},{"properties":{"city":"Grimsby","zip 1":"L","fips region code":8,"zip 3":"L3M","zip 6":"L3M4G5","id":"a63dvpyazk2n","province":"Ontario"},"type":"Feature","geometry":{"type":"Point","coordinates":[-79.6292,43.2005]}},{"properties":{"city":"Markham","zip 1":"L","fips region code":8,"zip 3":"L3S","zip 6":"L3S3P1","id":"a63dvq7g25q2","province":"Ontario"},"type":"Feature","geometry":{"type":"Point","coordinates":[-79.2768,43.831]}},{"properties":{"city":"Toronto","zip 1":"L","fips region code":8,"zip 3":"L3Y","zip 6":"L3Y5V6","id":"a63dvq5qdp96","province":"Ontario"},"type":"Feature","geometry":{"type":"Point","coordinates":[-79.4534,44.0414]}},{"properties":{"city":"Richmond Hill","zip 1":"L","fips region code":8,"zip 3":"L4C","zip 6":"L4C8Y3","id":"a63dvqagnl6s","province":"Ontario"},"type":"Feature","geometry":{"type":"Point","coordinates":[-79.4381,43.8759]}},{"properties":{"city":"Thornhill","zip 1":"L","fips region code":8,"zip 3":"L4J","zip 6":"L4J6E6","id":"a63dvq7f7ibk","province":"Ontario"},"type":"Feature","geometry":{"type":"Point","coordinates":[-79.4278,43.7964]}},{"properties":{"city":"Barrie","zip 1":"L","fips region code":8,"zip 3":"L4M","zip 6":"L4M6G8","id":"a63dvq1xyz0h","province":"Ontario"},"type":"Feature","geometry":{"type":"Point","coordinates":[-79.6886,44.3885]}},{"properties":{"city":"Richmond Hill","zip 1":"L","fips region code":8,"zip 3":"L4S","zip 6":"L4S2W2","id":"a63dvqadrc3o","province":"Ontario"},"type":"Feature","geometry":{"type":"Point","coordinates":[-79.4415,43.8975]}},{"properties":{"city":"Mississauga","zip 1":"L","fips region code":8,"zip 3":"L5B","zip 6":"L5B2S5","id":"a63dvq8r8kwt","province":"Ontario"},"type":"Feature","geometry":{"type":"Point","coordinates":[-79.6035,43.5665]}},{"properties":{"city":"Mississauga","zip 1":"L","fips region code":8,"zip 3":"L5L","zip 6":"L5L1W7","id":"a63dvq61jo8c","province":"Ontario"},"type":"Feature","geometry":{"type":"Point","coordinates":[-79.6667,43.5372]}},{"properties":{"city":"Mississauga","zip 1":"L","fips region code":8,"zip 3":"L5N","zip 6":"L5N7N5","id":"a63dvqbb7pkk","province":"Ontario"},"type":"Feature","geometry":{"type":"Point","coordinates":[-79.7239,43.5892]}},{"properties":{"city":"Markham","zip 1":"L","fips region code":8,"zip 3":"L6C","zip 6":"L6C2P2","id":"a63dvpzqls8f","province":"Ontario"},"type":"Feature","geometry":{"type":"Point","coordinates":[-79.3359,43.8842]}},{"properties":{"city":"Oakville","zip 1":"L","fips region code":8,"zip 3":"L6L","zip 6":"L6L2S7","id":"a63dvpxkucdg","province":"Ontario"},"type":"Feature","geometry":{"type":"Point","coordinates":[-79.6934,43.4037]}},{"properties":{"city":"Brampton","zip 1":"L","fips region code":8,"zip 3":"L6S","zip 6":"L6S4A3","id":"a63dvq49g20s","province":"Ontario"},"type":"Feature","geometry":{"type":"Point","coordinates":[-79.7321,43.7153]}},{"properties":{"city":"Brampton","zip 1":"L","fips region code":8,"zip 3":"L6Y","zip 6":"L6Y3M7","id":"a63dvq8ccvlz","province":"Ontario"},"type":"Feature","geometry":{"type":"Point","coordinates":[-79.7444,43.6699]}},{"properties":{"city":"Georgetown","zip 1":"L","fips region code":8,"zip 3":"L7G","zip 6":"L7G3E5","id":"a63dvq1oj8il","province":"Ontario"},"type":"Feature","geometry":{"type":"Point","coordinates":[-79.8787,43.644]}},{"properties":{"city":"Burlington","zip 1":"L","fips region code":8,"zip 3":"L7P","zip 6":"L7P1X3","id":"a63dvpxbfwt2","province":"Ontario"},"type":"Feature","geometry":{"type":"Point","coordinates":[-79.8117,43.3503]}},{"properties":{"city":"Hamilton","zip 1":"L","fips region code":8,"zip 3":"L8H","zip 6":"L8H5J1","id":"a63dvpwmzvgq","province":"Ontario"},"type":"Feature","geometry":{"type":"Point","coordinates":[-79.7991,43.2369]}},{"properties":{"city":"Hamilton","zip 1":"L","fips region code":8,"zip 3":"L8P","zip 6":"L8P3J5","id":"a63dvpz4z6qm","province":"Ontario"},"type":"Feature","geometry":{"type":"Point","coordinates":[-79.8697,43.257]}},{"properties":{"city":"Hamilton","zip 1":"L","fips region code":8,"zip 3":"L9B","zip 6":"L9B1Z6","id":"a63dvq373cji","province":"Ontario"},"type":"Feature","geometry":{"type":"Point","coordinates":[-79.8915,43.2116]}},{"properties":{"city":"Uxbridge","zip 1":"L","fips region code":8,"zip 3":"L9P","zip 6":"L9P1X9","id":"a63dvpwws7xj","province":"Ontario"},"type":"Feature","geometry":{"type":"Point","coordinates":[-79.1427,44.1065]}},{"properties":{"city":"Wasaga Beach","zip 1":"L","fips region code":8,"zip 3":"L9Z","zip 6":"L9Z2C9","id":"a63dvqc84oep","province":"Ontario"},"type":"Feature","geometry":{"type":"Point","coordinates":[-80.0162,44.5208]}},{"properties":{"city":"Scarborough","zip 1":"M","fips region code":8,"zip 3":"M1J","zip 6":"M1J2N8","id":"a63dvpwyvyl3","province":"Ontario"},"type":"Feature","geometry":{"type":"Point","coordinates":[-79.246,43.7315]}},{"properties":{"city":"Scarborough","zip 1":"M","fips region code":8,"zip 3":"M1R","zip 6":"M1R5P8","id":"a63dvq31m83w","province":"Ontario"},"type":"Feature","geometry":{"type":"Point","coordinates":[-79.3038,43.7293]}},{"properties":{"city":"York","zip 1":"M","fips region code":8,"zip 3":"M2J","zip 6":"M2J3C3","id":"a63dvq2gvf89","province":"Ontario"},"type":"Feature","geometry":{"type":"Point","coordinates":[-79.3584,43.7685]}},{"properties":{"city":"Toronto","zip 1":"M","fips region code":8,"zip 3":"M3A","zip 6":"M3A1C1","id":"a63dvq8zrdis","province":"Ontario"},"type":"Feature","geometry":{"type":"Point","coordinates":[-79.328,43.7358]}},{"properties":{"city":"York","zip 1":"M","fips region code":8,"zip 3":"M3N","zip 6":"M3N2A2","id":"a63dvpzjpkf5","province":"Ontario"},"type":"Feature","geometry":{"type":"Point","coordinates":[-79.5166,43.7387]}},{"properties":{"city":"Toronto","zip 1":"M","fips region code":8,"zip 3":"M4J","zip 6":"M4J3B2","id":"a63dvq7pvub8","province":"Ontario"},"type":"Feature","geometry":{"type":"Point","coordinates":[-79.3412,43.6713]}},{"properties":{"city":"Toronto","zip 1":"M","fips region code":8,"zip 3":"M4S","zip 6":"M4S2L7","id":"a63dvq5gyj4r","province":"Ontario"},"type":"Feature","geometry":{"type":"Point","coordinates":[-79.3953,43.6964]}},{"properties":{"city":"Toronto","zip 1":"M","fips region code":8,"zip 3":"M5M","zip 6":"M5M1J2","id":"a63dvpzt6g4d","province":"Ontario"},"type":"Feature","geometry":{"type":"Point","coordinates":[-79.4033,43.7248]}},{"properties":{"city":"Toronto","zip 1":"M","fips region code":8,"zip 3":"M6A","zip 6":"M6A2E5","id":"a63dvpytumi2","province":"Ontario"},"type":"Feature","geometry":{"type":"Point","coordinates":[-79.43,43.7193]}},{"properties":{"city":"Toronto","zip 1":"M","fips region code":8,"zip 3":"M6J","zip 6":"M6J2A1","id":"a63dvq9jakvs","province":"Ontario"},"type":"Feature","geometry":{"type":"Point","coordinates":[-79.4062,43.644]}},{"properties":{"city":"Toronto","zip 1":"M","fips region code":8,"zip 3":"M6R","zip 6":"M6R2E3","id":"a63dvq7mjdir","province":"Ontario"},"type":"Feature","geometry":{"type":"Point","coordinates":[-79.4374,43.6403]}},{"properties":{"city":"Etobicoke","zip 1":"M","fips region code":8,"zip 3":"M9A","zip 6":"M9A1B2","id":"a63dvq7i1quk","province":"Ontario"},"type":"Feature","geometry":{"type":"Point","coordinates":[-79.5297,43.6434]}},{"properties":{"city":"Etobicoke","zip 1":"M","fips region code":8,"zip 3":"M9R","zip 6":"M9R2N1","id":"a63dvq6s6tys","province":"Ontario"},"type":"Feature","geometry":{"type":"Point","coordinates":[-79.5438,43.6808]}},{"properties":{"city":"Guelph","zip 1":"N","fips region code":8,"zip 3":"N1G","zip 6":"N1G2L1","id":"a63dvpx8qcoi","province":"Ontario"},"type":"Feature","geometry":{"type":"Point","coordinates":[-80.2531,43.5325]}},{"properties":{"city":"Cambridge","zip 1":"N","fips region code":8,"zip 3":"N1S","zip 6":"N1S2R6","id":"a63dvq9i4l3d","province":"Ontario"},"type":"Feature","geometry":{"type":"Point","coordinates":[-80.3457,43.3742]}},{"properties":{"city":"Kitchener","zip 1":"N","fips region code":8,"zip 3":"N2H","zip 6":"N2H4W7","id":"a63dvq4t4sj8","province":"Ontario"},"type":"Feature","geometry":{"type":"Point","coordinates":[-80.4849,43.4487]}},{"properties":{"city":"Kitchener","zip 1":"N","fips region code":8,"zip 3":"N2P","zip 6":"N2P1B5","id":"a63dvq9t7z7c","province":"Ontario"},"type":"Feature","geometry":{"type":"Point","coordinates":[-80.4443,43.3938]}},{"properties":{"city":"Waterloo","zip 1":"N","fips region code":8,"zip 3":"N3L","zip 6":"N3L6K8","id":"a63dvq7mr7rs","province":"Ontario"},"type":"Feature","geometry":{"type":"Point","coordinates":[-80.3749,43.1834]}},{"properties":{"city":"Tillsonburg","zip 1":"N","fips region code":8,"zip 3":"N4G","zip 6":"N4G1H8","id":"a63dvpywopog","province":"Ontario"},"type":"Feature","geometry":{"type":"Point","coordinates":[-80.7527,42.8806]}},{"properties":{"city":"Stratford","zip 1":"N","fips region code":8,"zip 3":"N5A","zip 6":"N5A7K4","id":"a63dvq3mq6d8","province":"Ontario"},"type":"Feature","geometry":{"type":"Point","coordinates":[-80.9844,43.3717]}},{"properties":{"city":"London","zip 1":"N","fips region code":8,"zip 3":"N5X","zip 6":"N5X2J8","id":"a63dvq47q17k","province":"Ontario"},"type":"Feature","geometry":{"type":"Point","coordinates":[-81.2676,43.0303]}},{"properties":{"city":"London","zip 1":"N","fips region code":8,"zip 3":"N6C","zip 6":"N6C5J2","id":"a63dvq6j9jxh","province":"Ontario"},"type":"Feature","geometry":{"type":"Point","coordinates":[-81.2609,42.9799]}},{"properties":{"city":"London","zip 1":"N","fips region code":8,"zip 3":"N6K","zip 6":"N6K4J2","id":"a63dvqcf8wib","province":"Ontario"},"type":"Feature","geometry":{"type":"Point","coordinates":[-81.2948,42.9627]}},{"properties":{"city":"Sarnia","zip 1":"N","fips region code":8,"zip 3":"N7T","zip 6":"N7T4B2","id":"a63dvq7tg098","province":"Ontario"},"type":"Feature","geometry":{"type":"Point","coordinates":[-82.4084,42.971]}},{"properties":{"city":"Windsor","zip 1":"N","fips region code":8,"zip 3":"N8S","zip 6":"N8S4G1","id":"a63dvq9b0d70","province":"Ontario"},"type":"Feature","geometry":{"type":"Point","coordinates":[-82.9752,42.3307]}},{"properties":{"city":"Windsor","zip 1":"N","fips region code":8,"zip 3":"N9C","zip 6":"N9C1J9","id":"a63dvpzv28ho","province":"Ontario"},"type":"Feature","geometry":{"type":"Point","coordinates":[-83.0724,42.3077]}},{"properties":{"city":"North Bay","zip 1":"P","fips region code":8,"zip 3":"P1B","zip 6":"P1B3C3","id":"a63dvpy416b8","province":"Ontario"},"type":"Feature","geometry":{"type":"Point","coordinates":[-79.464,46.3094]}},{"properties":{"city":"Sudbury","zip 1":"P","fips region code":8,"zip 3":"P3C","zip 6":"P3C1Z5","id":"a63dvq7kzap6","province":"Ontario"},"type":"Feature","geometry":{"type":"Point","coordinates":[-81.0291,46.4727]}},{"properties":{"city":"Kapuskasing","zip 1":"P","fips region code":8,"zip 3":"P5N","zip 6":"P5N1Z2","id":"a63dvpyyiqwg","province":"Ontario"},"type":"Feature","geometry":{"type":"Point","coordinates":[-82.4203,49.4134]}},{"properties":{"city":"Thunder Bay","zip 1":"P","fips region code":8,"zip 3":"P7B","zip 6":"P7B4N1","id":"a63dvq0mnb4k","province":"Ontario"},"type":"Feature","geometry":{"type":"Point","coordinates":[-89.2192,48.4349]}},{"properties":{"city":"Selkirk","zip 1":"R","fips region code":3,"zip 3":"R0C","zip 6":"R0C2L0","id":"a63dvq497ero","province":"Manitoba"},"type":"Feature","geometry":{"type":"Point","coordinates":[-97.1462,50.7011]}},{"properties":{"city":"Winnipeg","zip 1":"R","fips region code":3,"zip 3":"R2J","zip 6":"R2J1H5","id":"a63dvpvxjak9","province":"Manitoba"},"type":"Feature","geometry":{"type":"Point","coordinates":[-97.0765,49.8717]}},{"properties":{"city":"Winnipeg","zip 1":"R","fips region code":3,"zip 3":"R2P","zip 6":"R2P1M9","id":"a63dvpx0a51n","province":"Manitoba"},"type":"Feature","geometry":{"type":"Point","coordinates":[-97.1796,49.9585]}},{"properties":{"city":"Winnipeg","zip 1":"R","fips region code":3,"zip 3":"R3C","zip 6":"R3C0V5","id":"a63dvpw4uel4","province":"Manitoba"},"type":"Feature","geometry":{"type":"Point","coordinates":[-97.159,49.8788]}},{"properties":{"city":"Winnipeg","zip 1":"R","fips region code":3,"zip 3":"R3M","zip 6":"R3M3P5","id":"a63dvq62q0xh","province":"Manitoba"},"type":"Feature","geometry":{"type":"Point","coordinates":[-97.1639,49.8663]}},{"properties":{"city":"Winnipeg","zip 1":"R","fips region code":3,"zip 3":"R4A","zip 6":"R4A7A8","id":"a63dvq2m1om3","province":"Manitoba"},"type":"Feature","geometry":{"type":"Point","coordinates":[-97.0633,49.977]}},{"properties":{"city":"Regina","zip 1":"S","fips region code":11,"zip 3":"S0G","zip 6":"S0G5B0","id":"a63dvq81n2ni","province":"Sasketchwan"},"type":"Feature","geometry":{"type":"Point","coordinates":[-105.9973,51.3669]}},{"properties":{"city":"Regina","zip 1":"S","fips region code":11,"zip 3":"S4R","zip 6":"S4R2Z4","id":"a63dvpxci8ch","province":"Sasketchwan"},"type":"Feature","geometry":{"type":"Point","coordinates":[-104.6116,50.4707]}},{"properties":{"city":"Regina","zip 1":"S","fips region code":11,"zip 3":"S4V","zip 6":"S4V2Z2","id":"a63dvqbb0sgg","province":"Sasketchwan"},"type":"Feature","geometry":{"type":"Point","coordinates":[-104.5438,50.4364]}},{"properties":{"city":"Saskatoon","zip 1":"S","fips region code":11,"zip 3":"S7H","zip 6":"S7H4S3","id":"a63dvq1gry4k","province":"Sasketchwan"},"type":"Feature","geometry":{"type":"Point","coordinates":[-106.622,52.1131]}},{"properties":{"city":"Saskatoon","zip 1":"S","fips region code":11,"zip 3":"S7M","zip 6":"S7M0P1","id":"a63dvq2hl0lb","province":"Sasketchwan"},"type":"Feature","geometry":{"type":"Point","coordinates":[-106.6985,52.1261]}},{"properties":{"city":"Edmonton","zip 1":"T","fips region code":1,"zip 3":"T0B","zip 6":"T0B1T0","id":"a63dvq15rpem","province":"Alberta"},"type":"Feature","geometry":{"type":"Point","coordinates":[-112.3067,53.0635]}},{"properties":{"city":"Lethbridge","zip 1":"T","fips region code":1,"zip 3":"T1H","zip 6":"T1H5P8","id":"a63dvq1oilsu","province":"Alberta"},"type":"Feature","geometry":{"type":"Point","coordinates":[-112.8196,49.7118]}},{"properties":{"city":"Canmore","zip 1":"T","fips region code":1,"zip 3":"T1W","zip 6":"T1W1B3","id":"a63dvqb9rfc0","province":"Alberta"},"type":"Feature","geometry":{"type":"Point","coordinates":[-115.3384,51.0868]}},{"properties":{"city":"Calgary","zip 1":"T","fips region code":1,"zip 3":"T2B","zip 6":"T2B0P5","id":"a63dvq37f9d1","province":"Alberta"},"type":"Feature","geometry":{"type":"Point","coordinates":[-113.9786,51.0318]}},{"properties":{"city":"Calgary","zip 1":"T","fips region code":1,"zip 3":"T2H","zip 6":"T2H1X3","id":"a63dvq7vl335","province":"Alberta"},"type":"Feature","geometry":{"type":"Point","coordinates":[-114.0631,50.9857]}},{"properties":{"city":"Calgary","zip 1":"T","fips region code":1,"zip 3":"T2M","zip 6":"T2M2C8","id":"a63dvq8n9i88","province":"Alberta"},"type":"Feature","geometry":{"type":"Point","coordinates":[-114.0862,51.0696]}},{"properties":{"city":"Calgary","zip 1":"T","fips region code":1,"zip 3":"T2T","zip 6":"T2T4N1","id":"a63dvq4yxz4b","province":"Alberta"},"type":"Feature","geometry":{"type":"Point","coordinates":[-114.0994,51.0316]}},{"properties":{"city":"Calgary","zip 1":"T","fips region code":1,"zip 3":"T2Y","zip 6":"T2Y2P2","id":"a63dvq5pabn7","province":"Alberta"},"type":"Feature","geometry":{"type":"Point","coordinates":[-114.0721,50.9093]}},{"properties":{"city":"Calgary","zip 1":"T","fips region code":1,"zip 3":"T3B","zip 6":"T3B3K3","id":"a63dvpyxd0xw","province":"Alberta"},"type":"Feature","geometry":{"type":"Point","coordinates":[-114.1616,51.0809]}},{"properties":{"city":"Calgary","zip 1":"T","fips region code":1,"zip 3":"T3G","zip 6":"T3G6A7","id":"a63dvq8xlse9","province":"Alberta"},"type":"Feature","geometry":{"type":"Point","coordinates":[-114.1796,51.1147]}},{"properties":{"city":"Calgary","zip 1":"T","fips region code":1,"zip 3":"T3L","zip 6":"T3L1H8","id":"a63dvq92yfwq","province":"Alberta"},"type":"Feature","geometry":{"type":"Point","coordinates":[-114.2089,51.1162]}},{"properties":{"city":"Red Deer","zip 1":"T","fips region code":1,"zip 3":"T4N","zip 6":"T4N0G5","id":"a63dvq864s52","province":"Alberta"},"type":"Feature","geometry":{"type":"Point","coordinates":[-113.8237,52.2592]}},{"properties":{"city":"Camrose","zip 1":"T","fips region code":1,"zip 3":"T4V","zip 6":"T4V4Y8","id":"a63dvqbfj20i","province":"Alberta"},"type":"Feature","geometry":{"type":"Point","coordinates":[-112.8129,53.0204]}},{"properties":{"city":"Edmonton","zip 1":"T","fips region code":1,"zip 3":"T5G","zip 6":"T5G2E8","id":"a63dvq8b7tv4","province":"Alberta"},"type":"Feature","geometry":{"type":"Point","coordinates":[-113.4822,53.5682]}},{"properties":{"city":"Edmonton","zip 1":"T","fips region code":1,"zip 3":"T5P","zip 6":"T5P0S2","id":"a63dvq8vnkmj","province":"Alberta"},"type":"Feature","geometry":{"type":"Point","coordinates":[-113.584,53.5529]}},{"properties":{"city":"Edmonton","zip 1":"T","fips region code":1,"zip 3":"T5W","zip 6":"T5W3G3","id":"a63dvq9pwqx0","province":"Alberta"},"type":"Feature","geometry":{"type":"Point","coordinates":[-113.4036,53.5705]}},{"properties":{"city":"Edmonton","zip 1":"T","fips region code":1,"zip 3":"T6C","zip 6":"T6C0G4","id":"a63dvq420ttv","province":"Alberta"},"type":"Feature","geometry":{"type":"Point","coordinates":[-113.4769,53.5182]}},{"properties":{"city":"Edmonton","zip 1":"T","fips region code":1,"zip 3":"T6J","zip 6":"T6J2L8","id":"a63dvpxfolxv","province":"Alberta"},"type":"Feature","geometry":{"type":"Point","coordinates":[-113.5269,53.4822]}},{"properties":{"city":"Edmonton","zip 1":"T","fips region code":1,"zip 3":"T6R","zip 6":"T6R0L4","id":"a63dvq4uy3tw","province":"Alberta"},"type":"Feature","geometry":{"type":"Point","coordinates":[-113.5873,53.4782]}},{"properties":{"city":"Spruce Grove","zip 1":"T","fips region code":1,"zip 3":"T7X","zip 6":"T7X4J7","id":"a63dvqb4n958","province":"Alberta"},"type":"Feature","geometry":{"type":"Point","coordinates":[-113.8995,53.549]}},{"properties":{"city":"Saint Albert","zip 1":"T","fips region code":1,"zip 3":"T8N","zip 6":"T8N2X2","id":"a63dvq2bn2p8","province":"Alberta"},"type":"Feature","geometry":{"type":"Point","coordinates":[-113.6377,53.6199]}},{"properties":{"city":"Vegreville","zip 1":"T","fips region code":1,"zip 3":"T9C","zip 6":"T9C1R6","id":"a63dvqbnh8q6","province":"Alberta"},"type":"Feature","geometry":{"type":"Point","coordinates":[-112.0636,53.4874]}},{"properties":{"city":"Lloydminster","zip 1":"T","fips region code":1,"zip 3":"T9V","zip 6":"T9V2R4","id":"a63dvpyoamx3","province":"Alberta"},"type":"Feature","geometry":{"type":"Point","coordinates":[-110.0233,53.2786]}},{"properties":{"city":"Dawson Creek","zip 1":"V","fips region code":2,"zip 3":"V1G","zip 6":"V1G1P4","id":"a63dvpyjqjb2","province":"British Columbia"},"type":"Feature","geometry":{"type":"Point","coordinates":[-120.2533,55.7741]}},{"properties":{"city":"Trail","zip 1":"V","fips region code":2,"zip 3":"V1R","zip 6":"V1R3A3","id":"a63dvpzvqhf6","province":"British Columbia"},"type":"Feature","geometry":{"type":"Point","coordinates":[-117.716,49.1135]}},{"properties":{"city":"Kelowna","zip 1":"V","fips region code":2,"zip 3":"V1X","zip 6":"V1X8B8","id":"a63dvqbi1sc3","province":"British Columbia"},"type":"Feature","geometry":{"type":"Point","coordinates":[-119.3958,49.8754]}},{"properties":{"city":"Kamloops","zip 1":"V","fips region code":2,"zip 3":"V2B","zip 6":"V2B6V2","id":"a63dvq8ibquc","province":"British Columbia"},"type":"Feature","geometry":{"type":"Point","coordinates":[-120.3634,50.6903]}},{"properties":{"city":"Prince George","zip 1":"V","fips region code":2,"zip 3":"V2L","zip 6":"V2L1K6","id":"a63dvpxeqfwa","province":"British Columbia"},"type":"Feature","geometry":{"type":"Point","coordinates":[-122.728,53.9112]}},{"properties":{"city":"Chilliwack","zip 1":"V","fips region code":2,"zip 3":"V2R","zip 6":"V2R3Y8","id":"a63dvq17ji8k","province":"British Columbia"},"type":"Feature","geometry":{"type":"Point","coordinates":[-121.962,49.1409]}},{"properties":{"city":"Maple Ridge","zip 1":"V","fips region code":2,"zip 3":"V2W","zip 6":"V2W0B3","id":"a63dvq8zwgqt","province":"British Columbia"},"type":"Feature","geometry":{"type":"Point","coordinates":[-122.4985,49.2201]}},{"properties":{"city":"Langley","zip 1":"V","fips region code":2,"zip 3":"V3A","zip 6":"V3A8A1","id":"a63dvpzan9gh","province":"British Columbia"},"type":"Feature","geometry":{"type":"Point","coordinates":[-122.6797,49.0764]}},{"properties":{"city":"Port Moody","zip 1":"V","fips region code":2,"zip 3":"V3H","zip 6":"V3H2S8","id":"a63dvqa6lp7m","province":"British Columbia"},"type":"Feature","geometry":{"type":"Point","coordinates":[-122.883,49.2707]}},{"properties":{"city":"New Westminster","zip 1":"V","fips region code":2,"zip 3":"V3M","zip 6":"V3M3M4","id":"a63dvpwg6bpa","province":"British Columbia"},"type":"Feature","geometry":{"type":"Point","coordinates":[-122.9074,49.2007]}},{"properties":{"city":"Surrey","zip 1":"V","fips region code":2,"zip 3":"V3S","zip 6":"V3S6E9","id":"a63dvq4kic3d","province":"British Columbia"},"type":"Feature","geometry":{"type":"Point","coordinates":[-122.8141,49.1011]}},{"properties":{"city":"Surrey","zip 1":"V","fips region code":2,"zip 3":"V3W","zip 6":"V3W6B8","id":"a63dvq2pytsf","province":"British Columbia"},"type":"Feature","geometry":{"type":"Point","coordinates":[-122.8691,49.0992]}},{"properties":{"city":"Delta","zip 1":"V","fips region code":2,"zip 3":"V4C","zip 6":"V4C3K3","id":"a63dvq21a1qs","province":"British Columbia"},"type":"Feature","geometry":{"type":"Point","coordinates":[-122.9131,49.1348]}},{"properties":{"city":"Surrey","zip 1":"V","fips region code":2,"zip 3":"V4N","zip 6":"V4N5K8","id":"a63dvpwb1x8r","province":"British Columbia"},"type":"Feature","geometry":{"type":"Point","coordinates":[-122.7677,49.1636]}},{"properties":{"city":"Burnaby","zip 1":"V","fips region code":2,"zip 3":"V5B","zip 6":"V5B3X8","id":"a63dvq8z7mky","province":"British Columbia"},"type":"Feature","geometry":{"type":"Point","coordinates":[-122.9914,49.2846]}},{"properties":{"city":"Vancouver","zip 1":"V","fips region code":2,"zip 3":"V5K","zip 6":"V5K1T4","id":"a63dvq5h7kpz","province":"British Columbia"},"type":"Feature","geometry":{"type":"Point","coordinates":[-123.0489,49.293]}},{"properties":{"city":"Vancouver","zip 1":"V","fips region code":2,"zip 3":"V5R","zip 6":"V5R1N8","id":"a63dvq9fj23q","province":"British Columbia"},"type":"Feature","geometry":{"type":"Point","coordinates":[-123.0556,49.2499]}},{"properties":{"city":"Vancouver","zip 1":"V","fips region code":2,"zip 3":"V5X","zip 6":"V5X1T2","id":"a63dvq9aekhb","province":"British Columbia"},"type":"Feature","geometry":{"type":"Point","coordinates":[-123.1052,49.2249]}},{"properties":{"city":"Vancouver","zip 1":"V","fips region code":2,"zip 3":"V6H","zip 6":"V6H1J6","id":"a63dvq86fiq1","province":"British Columbia"},"type":"Feature","geometry":{"type":"Point","coordinates":[-123.1276,49.2661]}},{"properties":{"city":"Vancouver","zip 1":"V","fips region code":2,"zip 3":"V6P","zip 6":"V6P1Y6","id":"a63dvq51quih","province":"British Columbia"},"type":"Feature","geometry":{"type":"Point","coordinates":[-123.1176,49.2254]}},{"properties":{"city":"Richmond","zip 1":"V","fips region code":2,"zip 3":"V6Y","zip 6":"V6Y4K9","id":"a63dvq1xbimm","province":"British Columbia"},"type":"Feature","geometry":{"type":"Point","coordinates":[-123.1469,49.1483]}},{"properties":{"city":"North Vancouver","zip 1":"V","fips region code":2,"zip 3":"V7J","zip 6":"V7J1R1","id":"a63dvpw9df7l","province":"British Columbia"},"type":"Feature","geometry":{"type":"Point","coordinates":[-123.0309,49.3016]}},{"properties":{"city":"Vancouver","zip 1":"V","fips region code":2,"zip 3":"V7S","zip 6":"V7S2S5","id":"a63dvqaz9fjy","province":"British Columbia"},"type":"Feature","geometry":{"type":"Point","coordinates":[-123.1186,49.3585]}},{"properties":{"city":"Ganges","zip 1":"V","fips region code":2,"zip 3":"V8K","zip 6":"V8K1X2","id":"a63dvpw2dly7","province":"British Columbia"},"type":"Feature","geometry":{"type":"Point","coordinates":[-123.5657,48.9145]}},{"properties":{"city":"Victoria","zip 1":"V","fips region code":2,"zip 3":"V8R","zip 6":"V8R5B7","id":"a63dvpwd4gqc","province":"British Columbia"},"type":"Feature","geometry":{"type":"Point","coordinates":[-123.3444,48.4266]}},{"properties":{"city":"Victoria","zip 1":"V","fips region code":2,"zip 3":"V8Y","zip 6":"V8Y2J4","id":"a63dvq3vapeo","province":"British Columbia"},"type":"Feature","geometry":{"type":"Point","coordinates":[-123.3804,48.501]}},{"properties":{"city":"Victoria","zip 1":"V","fips region code":2,"zip 3":"V9C","zip 6":"V9C2P7","id":"a63dvpwhr5g2","province":"British Columbia"},"type":"Feature","geometry":{"type":"Point","coordinates":[-123.458,48.4544]}},{"properties":{"city":"Courtenay","zip 1":"V","fips region code":2,"zip 3":"V9N","zip 6":"V9N9M9","id":"a63dvq4gbhlm","province":"British Columbia"},"type":"Feature","geometry":{"type":"Point","coordinates":[-125.0191,49.686]}},{"properties":{"city":"Campbell River","zip 1":"V","fips region code":2,"zip 3":"V9W","zip 6":"V9W3C7","id":"a63dvpw71535","province":"British Columbia"},"type":"Feature","geometry":{"type":"Point","coordinates":[-125.2343,50.0059]}}],"is_temporal":false,"author":{"url":"","metadata":"","contact_name":"","contact_address":"","source":"","contact_phone":""},"source":"","pagination":{"sort":null,"start":0,"total":177,"limit":1000000},"state":"complete","tags":"canada,test,zip3","published":"2014-08-13T07:45:33-04:00","id":197590}