{"type":"FeatureCollection","data_type":"Dataset","url_type":null,"permissions":[{"permissions":{"download":true,"view":true},"group_id":"everyone"}],"classification":null,"title":"O is For Outlaw, International Reviews, Book-Crossing Dataset","count":80,"stream_id":19832,"contributor":{"url":"http://geocommons.com/users/2943","name":"Margot"},"data_attributes":null,"calculation_params":null,"icon_link":null,"link":"http://geocommons.com/overlays/19832.json","extent":[-156.467,19.7192,2.17005,48.7523],"geometry_types":["point"],"unique_name":null,"name":"O is For Outlaw, International Reviews, Book-Crossing Dataset","feature_count":80,"description":"\t\nCollected by Cai-Nicolas Ziegler in a 4-week crawl (August / September 2004) from the Book-Crossing community with kind permission from Ron Hornbaker, CTO of Humankind Systems. Contains 278,858 users (anonymized but with demographic information) providing 1,149,780 ratings (explicit / implicit) about 271,379 books.\n\n[ ! ] Freely available for research use when acknowledged with the following reference (further details on the dataset are given in this publication):\nImproving Recommendation Lists Through Topic Diversification,\nCai-Nicolas Ziegler, Sean M. McNee, Joseph A. Konstan, Georg Lausen; Proceedings of the 14th International World Wide Web Conference (WWW '05), May 10-14, 2005, Chiba, Japan. To appear.\n\nContains the book rating information. Ratings (`Book-Rating`) are either explicit, expressed on a scale from 1-10 (higher values denoting higher appreciation), or implicit, expressed by 0.\n","next_feature":null,"is_raster":false,"short_classification":"Y","stats":{"isbn":{"max":805059555.0,"mean":595876791.3,"variance":3.11122034960972e+16,"stdev":176386517.330824,"min":449003787.0,"median":449003787.0},"latitude":{"max":48.75235,"mean":37.80778955,"variance":38.2593337268372,"stdev":6.1854129794895,"min":19.719235,"median":38.440645},"book-rating":{"max":10.0,"mean":7.375,"variance":2.94620253164557,"stdev":1.71645056195789,"min":3.0,"median":8.0},"user-id":{"max":278535.0,"mean":140630.4625,"variance":5272062050.04921,"stdev":72608.9667331054,"min":3373.0,"median":144018.0},"longitude":{"max":2.17005,"mean":-98.24841345,"variance":502.78235464529,"stdev":22.4228088036555,"min":-156.467144,"median":-95.369784}},"features":[{"properties":{"city":"Plainfield","isbn":449003787.0,"latitude":41.60843,"book-rating":8.0,"title":"\\O\\\" Is for Outlaw\"","user-id":100846.0,"longitude":-88.212674,"id":"a6a53xagt96b","state":"Illinois"},"type":"Feature","geometry":{"type":"Point","coordinates":[-88.212674,41.60843]}},{"properties":{"city":"Youngstown","isbn":449003787.0,"latitude":41.0981,"book-rating":9.0,"title":"\\O\\\" Is for Outlaw\"","user-id":104636.0,"longitude":-80.650789,"id":"a6a53xafjlwz","state":"Ohio"},"type":"Feature","geometry":{"type":"Point","coordinates":[-80.650789,41.0981]}},{"properties":{"city":"Kahului","isbn":805059555.0,"latitude":20.890755,"book-rating":9.0,"title":"\\O\\\" Is for Outlaw\"","user-id":105115.0,"longitude":-156.467144,"id":"a6a53x93786z","state":"Hawaii"},"type":"Feature","geometry":{"type":"Point","coordinates":[-156.467144,20.890755]}},{"properties":{"city":"Irving","isbn":805059555.0,"latitude":32.813516,"book-rating":8.0,"title":"\\O\\\" Is for Outlaw\"","user-id":110834.0,"longitude":-96.955506,"id":"a6a53wzgs56d","state":"Texas"},"type":"Feature","geometry":{"type":"Point","coordinates":[-96.955506,32.813516]}},{"properties":{"city":"Sabine Pass","isbn":805059555.0,"latitude":29.73391,"book-rating":10.0,"title":"\\O\\\" Is for Outlaw\"","user-id":111847.0,"longitude":-93.894188,"id":"a6a53x5wduv2","state":"Texas"},"type":"Feature","geometry":{"type":"Point","coordinates":[-93.894188,29.73391]}},{"properties":{"city":"St Louis","isbn":805059555.0,"latitude":38.62774,"book-rating":9.0,"title":"\\O\\\" Is for Outlaw\"","user-id":117132.0,"longitude":-90.199514,"id":"a6a53x51fh1q","state":"Missouri"},"type":"Feature","geometry":{"type":"Point","coordinates":[-90.199514,38.62774]}},{"properties":{"city":"Oakland","isbn":449003787.0,"latitude":37.805065,"book-rating":8.0,"title":"\\O\\\" Is for Outlaw\"","user-id":120840.0,"longitude":-122.273024,"id":"a6a53xdj4dqh","state":"California"},"type":"Feature","geometry":{"type":"Point","coordinates":[-122.273024,37.805065]}},{"properties":{"city":"Canon City","isbn":805059555.0,"latitude":38.440645,"book-rating":8.0,"title":"\\O\\\" Is for Outlaw\"","user-id":124474.0,"longitude":-105.238144,"id":"a6a53x3nxk6m","state":"Colorado"},"type":"Feature","geometry":{"type":"Point","coordinates":[-105.238144,38.440645]}},{"properties":{"city":"Ramah","isbn":449003787.0,"latitude":35.1327,"book-rating":10.0,"title":"\\O\\\" Is for Outlaw\"","user-id":124487.0,"longitude":-108.49293,"id":"a6a53x48x0ni","state":"New Mexico"},"type":"Feature","geometry":{"type":"Point","coordinates":[-108.49293,35.1327]}},{"properties":{"city":"Bellingham","isbn":449003787.0,"latitude":48.75235,"book-rating":9.0,"title":"\\O\\\" Is for Outlaw\"","user-id":128835.0,"longitude":-122.471219,"id":"a6a53wzpi2d8","state":"Washington"},"type":"Feature","geometry":{"type":"Point","coordinates":[-122.471219,48.75235]}},{"properties":{"city":"Seneca Falls","isbn":805059555.0,"latitude":42.91054,"book-rating":9.0,"title":"\\O\\\" Is for Outlaw\"","user-id":129284.0,"longitude":-76.808839,"id":"a6a53x3ycocd","state":"New York"},"type":"Feature","geometry":{"type":"Point","coordinates":[-76.808839,42.91054]}},{"properties":{"city":"Glendale","isbn":449003787.0,"latitude":34.14633,"book-rating":8.0,"title":"\\O\\\" Is for Outlaw\"","user-id":137019.0,"longitude":-118.248364,"id":"a6a53x6430si","state":"California"},"type":"Feature","geometry":{"type":"Point","coordinates":[-118.248364,34.14633]}},{"properties":{"city":"Kalamazoo","isbn":805059555.0,"latitude":42.292435,"book-rating":8.0,"title":"\\O\\\" Is for Outlaw\"","user-id":137968.0,"longitude":-85.601114,"id":"a6a53wzua2tl","state":"Michigan"},"type":"Feature","geometry":{"type":"Point","coordinates":[-85.601114,42.292435]}},{"properties":{"city":"Monett","isbn":449003787.0,"latitude":36.92048,"book-rating":9.0,"title":"\\O\\\" Is for Outlaw\"","user-id":139913.0,"longitude":-93.927604,"id":"a6a53xcihn4c","state":"Missouri"},"type":"Feature","geometry":{"type":"Point","coordinates":[-93.927604,36.92048]}},{"properties":{"city":"Not Stated","isbn":449003787.0,"latitude":40.994709,"book-rating":8.0,"title":"\\O\\\" Is for Outlaw\"","user-id":143491.0,"longitude":-77.604538,"id":"a6a53xbo5ywv","state":"Pennsylvania"},"type":"Feature","geometry":{"type":"Point","coordinates":[-77.604538,40.994709]}},{"properties":{"city":"San Antonio","isbn":449003787.0,"latitude":29.42449,"book-rating":10.0,"title":"\\O\\\" Is for Outlaw\"","user-id":143837.0,"longitude":-98.494624,"id":"a6a53x21qjh7","state":"Texas"},"type":"Feature","geometry":{"type":"Point","coordinates":[-98.494624,29.42449]}},{"properties":{"city":"Winter Garden","isbn":449003787.0,"latitude":28.565336,"book-rating":6.0,"title":"\\O\\\" Is for Outlaw\"","user-id":144018.0,"longitude":-81.588404,"id":"a6a53x70w2jo","state":"Florida"},"type":"Feature","geometry":{"type":"Point","coordinates":[-81.588404,28.565336]}},{"properties":{"city":"Virginia Beach","isbn":805059555.0,"latitude":36.75502,"book-rating":7.0,"title":"\\O\\\" Is for Outlaw\"","user-id":145449.0,"longitude":-76.059204,"id":"a6a53x333841","state":"Virginia"},"type":"Feature","geometry":{"type":"Point","coordinates":[-76.059204,36.75502]}},{"properties":{"city":"Cary","isbn":805059555.0,"latitude":35.78933,"book-rating":9.0,"title":"\\O\\\" Is for Outlaw\"","user-id":146113.0,"longitude":-78.781169,"id":"a6a53x02cxdl","state":"North Carolina"},"type":"Feature","geometry":{"type":"Point","coordinates":[-78.781169,35.78933]}},{"properties":{"city":"Pottstown","isbn":449003787.0,"latitude":40.246452,"book-rating":9.0,"title":"\\O\\\" Is for Outlaw\"","user-id":151101.0,"longitude":-75.648054,"id":"a6a53x1qpge8","state":"Pennsylvania"},"type":"Feature","geometry":{"type":"Point","coordinates":[-75.648054,40.246452]}},{"properties":{"city":"Chicago","isbn":805059555.0,"latitude":41.88415,"book-rating":7.0,"title":"\\O\\\" Is for Outlaw\"","user-id":156269.0,"longitude":-87.632409,"id":"a6a53xatvimo","state":"Illinois"},"type":"Feature","geometry":{"type":"Point","coordinates":[-87.632409,41.88415]}},{"properties":{"city":"Cleveland","isbn":805059555.0,"latitude":41.504365,"book-rating":6.0,"title":"\\O\\\" Is for Outlaw\"","user-id":158295.0,"longitude":-81.690459,"id":"a6a53x0lf8wm","state":"Ohio"},"type":"Feature","geometry":{"type":"Point","coordinates":[-81.690459,41.504365]}},{"properties":{"city":"Danville","isbn":449003787.0,"latitude":36.585983,"book-rating":10.0,"title":"\\O\\\" Is for Outlaw\"","user-id":162052.0,"longitude":-79.417209,"id":"a6a53x4eudcp","state":"Virginia"},"type":"Feature","geometry":{"type":"Point","coordinates":[-79.417209,36.585983]}},{"properties":{"city":"Escondido","isbn":449003787.0,"latitude":33.12316,"book-rating":5.0,"title":"\\O\\\" Is for Outlaw\"","user-id":165914.0,"longitude":-117.082169,"id":"a6a53wzfqw0z","state":"California"},"type":"Feature","geometry":{"type":"Point","coordinates":[-117.082169,33.12316]}},{"properties":{"city":"Ridgway","isbn":805059555.0,"latitude":38.151435,"book-rating":9.0,"title":"\\O\\\" Is for Outlaw\"","user-id":168805.0,"longitude":-107.758209,"id":"a6a53x24t1pe","state":"Colorado"},"type":"Feature","geometry":{"type":"Point","coordinates":[-107.758209,38.151435]}},{"properties":{"city":"Lansing","isbn":449003787.0,"latitude":42.73194,"book-rating":10.0,"title":"\\O\\\" Is for Outlaw\"","user-id":170762.0,"longitude":-84.552249,"id":"a6a53x6c4qev","state":"Michigan"},"type":"Feature","geometry":{"type":"Point","coordinates":[-84.552249,42.73194]}},{"properties":{"city":"Visalia","isbn":449003787.0,"latitude":36.33377,"book-rating":6.0,"title":"\\O\\\" Is for Outlaw\"","user-id":174793.0,"longitude":-119.292914,"id":"a6a53x1pgjjy","state":"California"},"type":"Feature","geometry":{"type":"Point","coordinates":[-119.292914,36.33377]}},{"properties":{"city":"College Station","isbn":805059555.0,"latitude":30.620545,"book-rating":8.0,"title":"\\O\\\" Is for Outlaw\"","user-id":174830.0,"longitude":-96.325904,"id":"a6a53wyqid4n","state":"Texas"},"type":"Feature","geometry":{"type":"Point","coordinates":[-96.325904,30.620545]}},{"properties":{"city":"Barcelona","isbn":449003787.0,"latitude":41.385719,"book-rating":5.0,"title":"\\O\\\" Is for Outlaw\"","user-id":187801.0,"longitude":2.17005,"id":"a6a53xav5eg9","state":"Catalunya"},"type":"Feature","geometry":{"type":"Point","coordinates":[2.17005,41.385719]}},{"properties":{"city":"Oshkosh","isbn":805059555.0,"latitude":44.02491,"book-rating":7.0,"title":"\\O\\\" Is for Outlaw\"","user-id":188667.0,"longitude":-88.544434,"id":"a6a53x2liwah","state":"Wisconsin"},"type":"Feature","geometry":{"type":"Point","coordinates":[-88.544434,44.02491]}},{"properties":{"city":"Colorado Springs","isbn":449003787.0,"latitude":38.83345,"book-rating":8.0,"title":"\\O\\\" Is for Outlaw\"","user-id":189516.0,"longitude":-104.821814,"id":"a6a53x0v7e4l","state":"Colorado"},"type":"Feature","geometry":{"type":"Point","coordinates":[-104.821814,38.83345]}},{"properties":{"city":"Mifflinville","isbn":449003787.0,"latitude":41.032621,"book-rating":5.0,"title":"\\O\\\" Is for Outlaw\"","user-id":204748.0,"longitude":-76.306332,"id":"a6a53x0lohh9","state":"Pennsylvania"},"type":"Feature","geometry":{"type":"Point","coordinates":[-76.306332,41.032621]}},{"properties":{"city":"Campbell","isbn":449003787.0,"latitude":37.28848,"book-rating":6.0,"title":"\\O\\\" Is for Outlaw\"","user-id":204936.0,"longitude":-121.944864,"id":"a6a53x6ubo6f","state":"California"},"type":"Feature","geometry":{"type":"Point","coordinates":[-121.944864,37.28848]}},{"properties":{"city":"Columbia","isbn":449003787.0,"latitude":39.209161,"book-rating":5.0,"title":"\\O\\\" Is for Outlaw\"","user-id":206423.0,"longitude":-76.867313,"id":"a6a53x1wcabz","state":"Maryland"},"type":"Feature","geometry":{"type":"Point","coordinates":[-76.867313,39.209161]}},{"properties":{"city":"Pomfret Center","isbn":449003787.0,"latitude":41.897779,"book-rating":10.0,"title":"\\O\\\" Is for Outlaw\"","user-id":206563.0,"longitude":-71.959162,"id":"a6a53x655za1","state":"Connecticut"},"type":"Feature","geometry":{"type":"Point","coordinates":[-71.959162,41.897779]}},{"properties":{"city":"Huntsville","isbn":449003787.0,"latitude":34.729135,"book-rating":7.0,"title":"\\O\\\" Is for Outlaw\"","user-id":207494.0,"longitude":-86.584979,"id":"a6a53x0s98hf","state":"Alabama"},"type":"Feature","geometry":{"type":"Point","coordinates":[-86.584979,34.729135]}},{"properties":{"city":"Cloquet","isbn":449003787.0,"latitude":46.71431,"book-rating":9.0,"title":"\\O\\\" Is for Outlaw\"","user-id":20768.0,"longitude":-92.481039,"id":"a6a53x7w6ll1","state":"Minnesota"},"type":"Feature","geometry":{"type":"Point","coordinates":[-92.481039,46.71431]}},{"properties":{"city":"Houston","isbn":449003787.0,"latitude":29.76045,"book-rating":6.0,"title":"\\O\\\" Is for Outlaw\"","user-id":207835.0,"longitude":-95.369784,"id":"a6a53xe4wbmh","state":"Texas"},"type":"Feature","geometry":{"type":"Point","coordinates":[-95.369784,29.76045]}},{"properties":{"city":"San Jose","isbn":805059555.0,"latitude":37.338475,"book-rating":5.0,"title":"\\O\\\" Is for Outlaw\"","user-id":208683.0,"longitude":-121.885794,"id":"a6a53xbqldb6","state":"California"},"type":"Feature","geometry":{"type":"Point","coordinates":[-121.885794,37.338475]}},{"properties":{"city":"Columbus","isbn":449003787.0,"latitude":32.462925,"book-rating":5.0,"title":"\\O\\\" Is for Outlaw\"","user-id":208877.0,"longitude":-84.987629,"id":"a6a53xcz8gry","state":"Georgia"},"type":"Feature","geometry":{"type":"Point","coordinates":[-84.987629,32.462925]}},{"properties":{"city":"Dundalk","isbn":805059555.0,"latitude":39.26931,"book-rating":4.0,"title":"\\O\\\" Is for Outlaw\"","user-id":209050.0,"longitude":-76.503519,"id":"a6a53xa090zw","state":"Maryland"},"type":"Feature","geometry":{"type":"Point","coordinates":[-76.503519,39.26931]}},{"properties":{"city":"Tucson","isbn":805059555.0,"latitude":32.221553,"book-rating":5.0,"title":"\\O\\\" Is for Outlaw\"","user-id":210500.0,"longitude":-110.969754,"id":"a6a53xcclwq9","state":"Arizona"},"type":"Feature","geometry":{"type":"Point","coordinates":[-110.969754,32.221553]}},{"properties":{"city":"Melbourne","isbn":805059555.0,"latitude":28.07939,"book-rating":8.0,"title":"\\O\\\" Is for Outlaw\"","user-id":212607.0,"longitude":-80.606884,"id":"a6a53x83jgz2","state":"Florida"},"type":"Feature","geometry":{"type":"Point","coordinates":[-80.606884,28.07939]}},{"properties":{"city":"Pensacola","isbn":449003787.0,"latitude":30.420845,"book-rating":8.0,"title":"\\O\\\" Is for Outlaw\"","user-id":217152.0,"longitude":-87.217239,"id":"a6a53x1k35yy","state":"Florida"},"type":"Feature","geometry":{"type":"Point","coordinates":[-87.217239,30.420845]}},{"properties":{"city":"Olympia","isbn":449003787.0,"latitude":47.039225,"book-rating":5.0,"title":"\\O\\\" Is for Outlaw\"","user-id":221181.0,"longitude":-122.891429,"id":"a6a53x5lglzm","state":"Washington"},"type":"Feature","geometry":{"type":"Point","coordinates":[-122.891429,47.039225]}},{"properties":{"city":"Los Angeles","isbn":449003787.0,"latitude":34.05349,"book-rating":3.0,"title":"\\O\\\" Is for Outlaw\"","user-id":225378.0,"longitude":-118.245319,"id":"a6a53xbqhbhr","state":"California"},"type":"Feature","geometry":{"type":"Point","coordinates":[-118.245319,34.05349]}},{"properties":{"city":"Goodyear","isbn":449003787.0,"latitude":33.436305,"book-rating":8.0,"title":"\\O\\\" Is for Outlaw\"","user-id":225449.0,"longitude":-112.358299,"id":"a6a53x0f82qf","state":"Arizona"},"type":"Feature","geometry":{"type":"Point","coordinates":[-112.358299,33.436305]}},{"properties":{"city":"Los Angeles","isbn":449003787.0,"latitude":34.05349,"book-rating":7.0,"title":"\\O\\\" Is for Outlaw\"","user-id":225471.0,"longitude":-118.245319,"id":"a6a53x4zigow","state":"California"},"type":"Feature","geometry":{"type":"Point","coordinates":[-118.245319,34.05349]}},{"properties":{"city":"Asheville","isbn":805059555.0,"latitude":35.59846,"book-rating":9.0,"title":"\\O\\\" Is for Outlaw\"","user-id":226828.0,"longitude":-82.553144,"id":"a6a53x74v4py","state":"North Carolina"},"type":"Feature","geometry":{"type":"Point","coordinates":[-82.553144,35.59846]}},{"properties":{"city":"Dumont","isbn":449003787.0,"latitude":40.937971,"book-rating":8.0,"title":"\\O\\\" Is for Outlaw\"","user-id":228681.0,"longitude":-73.994418,"id":"a6a53x7agc1x","state":"New Jersey"},"type":"Feature","geometry":{"type":"Point","coordinates":[-73.994418,40.937971]}},{"properties":{"city":"Orlando","isbn":805059555.0,"latitude":28.538235,"book-rating":10.0,"title":"\\O\\\" Is for Outlaw\"","user-id":236283.0,"longitude":-81.377389,"id":"a6a53x23izf1","state":"Florida"},"type":"Feature","geometry":{"type":"Point","coordinates":[-81.377389,28.538235]}},{"properties":{"city":"Palmetto","isbn":805059555.0,"latitude":27.515765,"book-rating":8.0,"title":"\\O\\\" Is for Outlaw\"","user-id":240677.0,"longitude":-82.572959,"id":"a6a53x9fskbv","state":"Florida"},"type":"Feature","geometry":{"type":"Point","coordinates":[-82.572959,27.515765]}},{"properties":{"city":"Eugene","isbn":805059555.0,"latitude":44.04992,"book-rating":5.0,"title":"\\O\\\" Is for Outlaw\"","user-id":241042.0,"longitude":-123.088544,"id":"a6a53xaspk1m","state":"Oregon"},"type":"Feature","geometry":{"type":"Point","coordinates":[-123.088544,44.04992]}},{"properties":{"city":"Halifax","isbn":805059555.0,"latitude":40.467775,"book-rating":5.0,"title":"\\O\\\" Is for Outlaw\"","user-id":241441.0,"longitude":-76.930914,"id":"a6a53x5xjju7","state":"Pennsylvania"},"type":"Feature","geometry":{"type":"Point","coordinates":[-76.930914,40.467775]}},{"properties":{"city":"Canton","isbn":449003787.0,"latitude":42.298855,"book-rating":6.0,"title":"\\O\\\" Is for Outlaw\"","user-id":242790.0,"longitude":-83.48676,"id":"a6a53xc13f07","state":"Michigan"},"type":"Feature","geometry":{"type":"Point","coordinates":[-83.48676,42.298855]}},{"properties":{"city":"Denver","isbn":449003787.0,"latitude":39.74001,"book-rating":7.0,"title":"\\O\\\" Is for Outlaw\"","user-id":24525.0,"longitude":-104.992259,"id":"a6a53xdvc8j3","state":"Colorado"},"type":"Feature","geometry":{"type":"Point","coordinates":[-104.992259,39.74001]}},{"properties":{"city":"San Francisco","isbn":449003787.0,"latitude":37.7796,"book-rating":10.0,"title":"\\O\\\" Is for Outlaw\"","user-id":246439.0,"longitude":-122.420139,"id":"a6a53xcmsnjj","state":"California"},"type":"Feature","geometry":{"type":"Point","coordinates":[-122.420139,37.7796]}},{"properties":{"city":"Hilo","isbn":805059555.0,"latitude":19.719235,"book-rating":8.0,"title":"\\O\\\" Is for Outlaw\"","user-id":26376.0,"longitude":-155.081864,"id":"a6a53xb51mw3","state":"Hawaii"},"type":"Feature","geometry":{"type":"Point","coordinates":[-155.081864,19.719235]}},{"properties":{"city":"East Moline","isbn":449003787.0,"latitude":41.515266,"book-rating":6.0,"title":"\\O\\\" Is for Outlaw\"","user-id":27192.0,"longitude":-90.439873,"id":"a6a53xejq7b2","state":"Illinois"},"type":"Feature","geometry":{"type":"Point","coordinates":[-90.439873,41.515266]}},{"properties":{"city":"Oshkosh","isbn":449003787.0,"latitude":44.02491,"book-rating":9.0,"title":"\\O\\\" Is for Outlaw\"","user-id":278535.0,"longitude":-88.544434,"id":"a6a53x0qxvwh","state":"Wisconsin"},"type":"Feature","geometry":{"type":"Point","coordinates":[-88.544434,44.02491]}},{"properties":{"city":"Corvallis","isbn":805059555.0,"latitude":44.56504,"book-rating":10.0,"title":"\\O\\\" Is for Outlaw\"","user-id":30735.0,"longitude":-123.263534,"id":"a6a53x8yds71","state":"Oregon"},"type":"Feature","geometry":{"type":"Point","coordinates":[-123.263534,44.56504]}},{"properties":{"city":"Portland","isbn":805059555.0,"latitude":45.511795,"book-rating":7.0,"title":"\\O\\\" Is for Outlaw\"","user-id":31393.0,"longitude":-122.675629,"id":"a6a53x78rkwk","state":"Oregon"},"type":"Feature","geometry":{"type":"Point","coordinates":[-122.675629,45.511795]}},{"properties":{"city":"Thief River Falls","isbn":449003787.0,"latitude":48.11913,"book-rating":8.0,"title":"\\O\\\" Is for Outlaw\"","user-id":31528.0,"longitude":-96.180774,"id":"a6a53wzhvuk9","state":"Minnesota"},"type":"Feature","geometry":{"type":"Point","coordinates":[-96.180774,48.11913]}},{"properties":{"city":"Elk Grove","isbn":449003787.0,"latitude":38.40901,"book-rating":7.0,"title":"\\O\\\" Is for Outlaw\"","user-id":3373.0,"longitude":-121.365619,"id":"a6a53wzwyox3","state":"California"},"type":"Feature","geometry":{"type":"Point","coordinates":[-121.365619,38.40901]}},{"properties":{"city":"West Linn","isbn":805059555.0,"latitude":45.365991,"book-rating":6.0,"title":"\\O\\\" Is for Outlaw\"","user-id":34588.0,"longitude":-122.647893,"id":"a6a53x4n2383","state":"Oregon"},"type":"Feature","geometry":{"type":"Point","coordinates":[-122.647893,45.365991]}},{"properties":{"city":"San Marcos","isbn":805059555.0,"latitude":33.140862,"book-rating":5.0,"title":"\\O\\\" Is for Outlaw\"","user-id":36606.0,"longitude":-117.158827,"id":"a6a53x75g1gd","state":"California"},"type":"Feature","geometry":{"type":"Point","coordinates":[-117.158827,33.140862]}},{"properties":{"city":"Chandler","isbn":449003787.0,"latitude":33.30288,"book-rating":5.0,"title":"\\O\\\" Is for Outlaw\"","user-id":38273.0,"longitude":-111.840839,"id":"a6a53x6p1u6l","state":"Arizona"},"type":"Feature","geometry":{"type":"Point","coordinates":[-111.840839,33.30288]}},{"properties":{"city":"Greeley","isbn":805059555.0,"latitude":40.42328,"book-rating":7.0,"title":"\\O\\\" Is for Outlaw\"","user-id":45073.0,"longitude":-104.694464,"id":"a6a53x5w6004","state":"Colorado"},"type":"Feature","geometry":{"type":"Point","coordinates":[-104.694464,40.42328]}},{"properties":{"city":"Tucson","isbn":449003787.0,"latitude":32.221553,"book-rating":6.0,"title":"\\O\\\" Is for Outlaw\"","user-id":45675.0,"longitude":-110.969754,"id":"a6a53x9tyaol","state":"Arizona"},"type":"Feature","geometry":{"type":"Point","coordinates":[-110.969754,32.221553]}},{"properties":{"city":"Bellevue","isbn":449003787.0,"latitude":47.61002,"book-rating":6.0,"title":"\\O\\\" Is for Outlaw\"","user-id":52917.0,"longitude":-122.187549,"id":"a6a53x85kgb2","state":"Washington"},"type":"Feature","geometry":{"type":"Point","coordinates":[-122.187549,47.61002]}},{"properties":{"city":"Seattle","isbn":449003787.0,"latitude":47.60356,"book-rating":7.0,"title":"\\O\\\" Is for Outlaw\"","user-id":55075.0,"longitude":-122.329439,"id":"a6a53wzzocvz","state":"Washington"},"type":"Feature","geometry":{"type":"Point","coordinates":[-122.329439,47.60356]}},{"properties":{"city":"Lake Park","isbn":449003787.0,"latitude":30.682925,"book-rating":5.0,"title":"\\O\\\" Is for Outlaw\"","user-id":58224.0,"longitude":-83.180044,"id":"a6a53xay7qfy","state":"Georgia"},"type":"Feature","geometry":{"type":"Point","coordinates":[-83.180044,30.682925]}},{"properties":{"city":"Sunnyvale","isbn":449003787.0,"latitude":37.371612,"book-rating":8.0,"title":"\\O\\\" Is for Outlaw\"","user-id":7346.0,"longitude":-122.038258,"id":"a6a53xe1kx42","state":"California"},"type":"Feature","geometry":{"type":"Point","coordinates":[-122.038258,37.371612]}},{"properties":{"city":"Gig Harbor","isbn":449003787.0,"latitude":47.328,"book-rating":8.0,"title":"\\O\\\" Is for Outlaw\"","user-id":77480.0,"longitude":-122.580369,"id":"a6a53xahkatu","state":"Washington"},"type":"Feature","geometry":{"type":"Point","coordinates":[-122.580369,47.328]}},{"properties":{"city":"Abilene","isbn":449003787.0,"latitude":32.449175,"book-rating":7.0,"title":"\\O\\\" Is for Outlaw\"","user-id":84024.0,"longitude":-99.741424,"id":"a6a53x8f1ilg","state":"Texas"},"type":"Feature","geometry":{"type":"Point","coordinates":[-99.741424,32.449175]}},{"properties":{"city":"Southfield","isbn":805059555.0,"latitude":42.481755,"book-rating":7.0,"title":"\\O\\\" Is for Outlaw\"","user-id":90616.0,"longitude":-83.240929,"id":"a6a53x2e396f","state":"Michigan"},"type":"Feature","geometry":{"type":"Point","coordinates":[-83.240929,42.481755]}},{"properties":{"city":"Blanco","isbn":805059555.0,"latitude":30.09838,"book-rating":7.0,"title":"\\O\\\" Is for Outlaw\"","user-id":91058.0,"longitude":-98.421969,"id":"a6a53x7xghdl","state":"Texas"},"type":"Feature","geometry":{"type":"Point","coordinates":[-98.421969,30.09838]}},{"properties":{"city":"Newark","isbn":805059555.0,"latitude":39.678015,"book-rating":10.0,"title":"\\O\\\" Is for Outlaw\"","user-id":91341.0,"longitude":-75.761814,"id":"a6a53xdq8gd9","state":"Delaware"},"type":"Feature","geometry":{"type":"Point","coordinates":[-75.761814,39.678015]}},{"properties":{"city":"Rochester","isbn":805059555.0,"latitude":43.1555,"book-rating":8.0,"title":"\\O\\\" Is for Outlaw\"","user-id":97341.0,"longitude":-77.616033,"id":"a6a53x2yvk8j","state":"New York"},"type":"Feature","geometry":{"type":"Point","coordinates":[-77.616033,43.1555]}},{"properties":{"city":"Billings","isbn":449003787.0,"latitude":45.783975,"book-rating":7.0,"title":"\\O\\\" Is for Outlaw\"","user-id":98904.0,"longitude":-108.505794,"id":"a6a53x7knejp","state":"Montana"},"type":"Feature","geometry":{"type":"Point","coordinates":[-108.505794,45.783975]}}],"is_temporal":false,"author":{"url":"http://www.informatik.uni-freiburg.de/~cziegler/BX/","metadata":"http://www.informatik.uni-freiburg.de/~cziegler/BX/","contact_name":"","contact_address":"","source":"Institut für Informatik, Universität Freiburg","contact_phone":""},"source":"http://www.informatik.uni-freiburg.de/~cziegler/BX/","pagination":{"sort":null,"start":0,"total":80,"limit":1000000},"state":"complete","tags":"bookcrossing,books,global,reviews","published":"2005-01-01T17:00:00Z","id":19832}