{"type":"FeatureCollection","data_type":"Dataset","url_type":null,"permissions":[{"permissions":{"download":true,"view":true},"group_id":"everyone"}],"classification":null,"title":"A Child Called It, International Reviews, Book-Crossing Dataset","count":122,"stream_id":19843,"contributor":{"url":"http://geocommons.com/users/2943","name":"Margot"},"data_attributes":null,"calculation_params":null,"icon_link":null,"link":"http://geocommons.com/overlays/19843.json","extent":[-123.616,-37.487,151.207,57.479],"geometry_types":["point"],"unique_name":null,"name":"A Child Called It, International Reviews, Book-Crossing Dataset","feature_count":122,"description":"Collected by Cai-Nicolas Ziegler in a 4-week crawl (August / September 2004) from the Book-Crossing community with kind permission from Ron Hornbaker, CTO of Humankind Systems. Contains 278,858 users (anonymized but with demographic information) providing 1,149,780 ratings (explicit / implicit) about 271,379 books.\n\n[ ! ] Freely available for research use when acknowledged with the following reference (further details on the dataset are given in this publication):\nImproving Recommendation Lists Through Topic Diversification,\nCai-Nicolas Ziegler, Sean M. McNee, Joseph A. Konstan, Georg Lausen; Proceedings of the 14th International World Wide Web Conference (WWW '05), May 10-14, 2005, Chiba, Japan. To appear.\n\nContains the book rating information. Ratings (`Book-Rating`) are either explicit, expressed on a scale from 1-10 (higher values denoting higher appreciation), or implicit, expressed by 0.","next_feature":null,"is_raster":false,"short_classification":"Y","stats":{"isbn":{"max":1558743669.0,"mean":1556182383.80328,"variance":396863894276596.0,"stdev":19921443.0771618,"min":1402505272.0,"median":1558743669.0},"latitude":{"max":57.479016,"mean":36.2417192868852,"variance":236.18613543577,"stdev":15.3683484940891,"min":-37.487,"median":39.543743},"book-rating":{"max":10.0,"mean":7.88524590163934,"variance":4.03630944316488,"stdev":2.00905685413949,"min":1.0,"median":8.0},"user-id":{"max":249894.0,"mean":119459.163934426,"variance":4814491358.65059,"stdev":69386.5358599966,"min":503.0,"median":118434.0},"longitude":{"max":151.206955,"mean":-79.3140325737705,"variance":3435.92580862814,"stdev":58.6167707113599,"min":-123.616194,"median":-86.637621}},"features":[{"properties":{"city":"Bellingham","isbn":1558743669.0,"latitude":48.75235,"book-rating":8.0,"title":"A Child Called \\It\\\": One Child's Courage to Survive\"","user-id":100786.0,"longitude":-122.471219,"id":"a69cakhta2zq","state":"Washington"},"type":"Feature","geometry":{"type":"Point","coordinates":[-122.471219,48.75235]}},{"properties":{"city":"Huntsville","isbn":1558743669.0,"latitude":34.729135,"book-rating":10.0,"title":"A Child Called \\It\\\": One Child's Courage to Survive\"","user-id":10085.0,"longitude":-86.584979,"id":"a69cakh8zmqw","state":null},"type":"Feature","geometry":{"type":"Point","coordinates":[-86.584979,34.729135]}},{"properties":{"city":"Pacifica","isbn":1558743669.0,"latitude":37.635265,"book-rating":9.0,"title":"A Child Called \\It\\\": One Child's Courage to Survive\"","user-id":103828.0,"longitude":-122.491114,"id":"a69caktfah82","state":"California"},"type":"Feature","geometry":{"type":"Point","coordinates":[-122.491114,37.635265]}},{"properties":{"city":"Brainerd","isbn":1558743669.0,"latitude":46.353165,"book-rating":8.0,"title":"A Child Called \\It\\\": One Child's Courage to Survive\"","user-id":104429.0,"longitude":-94.200689,"id":"a69cakqjxpu3","state":"Minnesota"},"type":"Feature","geometry":{"type":"Point","coordinates":[-94.200689,46.353165]}},{"properties":{"city":"Youngstown","isbn":1558743669.0,"latitude":41.0981,"book-rating":9.0,"title":"A Child Called \\It\\\": One Child's Courage to Survive\"","user-id":104636.0,"longitude":-80.650789,"id":"a69cakne8tvg","state":"Ohio"},"type":"Feature","geometry":{"type":"Point","coordinates":[-80.650789,41.0981]}},{"properties":{"city":"Montreal","isbn":1558743669.0,"latitude":45.512288,"book-rating":6.0,"title":"A Child Called \\It\\\": One Child's Courage to Survive\"","user-id":105374.0,"longitude":-73.554392,"id":"a69cakeg3ffk","state":"Quebec"},"type":"Feature","geometry":{"type":"Point","coordinates":[-73.554392,45.512288]}},{"properties":{"city":"Chunchula","isbn":1402505272.0,"latitude":30.922046,"book-rating":10.0,"title":"A Child Called \\It\\\": One Child's Courage to Survive\"","user-id":107453.0,"longitude":-88.199505,"id":"a69caknyu079","state":"Alabama"},"type":"Feature","geometry":{"type":"Point","coordinates":[-88.199505,30.922046]}},{"properties":{"city":"Charlottetown","isbn":1558743669.0,"latitude":46.23659,"book-rating":10.0,"title":"A Child Called \\It\\\": One Child's Courage to Survive\"","user-id":108763.0,"longitude":-63.128169,"id":"a69cakhig145","state":"Prince Edward Island"},"type":"Feature","geometry":{"type":"Point","coordinates":[-63.128169,46.23659]}},{"properties":{"city":"Carmel","isbn":1558743669.0,"latitude":39.97839,"book-rating":8.0,"title":"A Child Called \\It\\\": One Child's Courage to Survive\"","user-id":109159.0,"longitude":-86.126419,"id":"a69cakjwhnmt","state":"Indiana"},"type":"Feature","geometry":{"type":"Point","coordinates":[-86.126419,39.97839]}},{"properties":{"city":"Dublin","isbn":1558743669.0,"latitude":40.104895,"book-rating":6.0,"title":"A Child Called \\It\\\": One Child's Courage to Survive\"","user-id":113657.0,"longitude":-83.133119,"id":"a69cakn4fz1t","state":"Ohio"},"type":"Feature","geometry":{"type":"Point","coordinates":[-83.133119,40.104895]}},{"properties":{"city":"Bellingham","isbn":1558743669.0,"latitude":48.75235,"book-rating":1.0,"title":"A Child Called \\It\\\": One Child's Courage to Survive\"","user-id":114304.0,"longitude":-122.471219,"id":"a69cakgamdmq","state":"Washington"},"type":"Feature","geometry":{"type":"Point","coordinates":[-122.471219,48.75235]}},{"properties":{"city":"Antelope","isbn":1558743669.0,"latitude":38.711999,"book-rating":7.0,"title":"A Child Called \\It\\\": One Child's Courage to Survive\"","user-id":114544.0,"longitude":-121.364354,"id":"a69caktxrcca","state":"California"},"type":"Feature","geometry":{"type":"Point","coordinates":[-121.364354,38.711999]}},{"properties":{"city":"Richmond","isbn":1558743669.0,"latitude":37.93781,"book-rating":6.0,"title":"A Child Called \\It\\\": One Child's Courage to Survive\"","user-id":11529.0,"longitude":-122.342709,"id":"a69cakizz72p","state":"California"},"type":"Feature","geometry":{"type":"Point","coordinates":[-122.342709,37.93781]}},{"properties":{"city":"Dekalb","isbn":1402505272.0,"latitude":41.929305,"book-rating":1.0,"title":"A Child Called \\It\\\": One Child's Courage to Survive\"","user-id":115490.0,"longitude":-88.749304,"id":"a69cakkljbz5","state":"Illinois"},"type":"Feature","geometry":{"type":"Point","coordinates":[-88.749304,41.929305]}},{"properties":{"city":"Darwin","isbn":1558743669.0,"latitude":-12.4675,"book-rating":6.0,"title":"A Child Called \\It\\\": One Child's Courage to Survive\"","user-id":118434.0,"longitude":130.843155,"id":"a69cakmwn33z","state":"Northern Territory"},"type":"Feature","geometry":{"type":"Point","coordinates":[130.843155,-12.4675]}},{"properties":{"city":"New Market","isbn":1558743669.0,"latitude":36.103677,"book-rating":7.0,"title":"A Child Called \\It\\\": One Child's Courage to Survive\"","user-id":127367.0,"longitude":-83.553286,"id":"a69cakemul4i","state":"Tennessee"},"type":"Feature","geometry":{"type":"Point","coordinates":[-83.553286,36.103677]}},{"properties":{"city":"Catlettsburg","isbn":1558743669.0,"latitude":38.416735,"book-rating":10.0,"title":"A Child Called \\It\\\": One Child's Courage to Survive\"","user-id":128195.0,"longitude":-82.599841,"id":"a69cakpt1pi3","state":"Kentucky"},"type":"Feature","geometry":{"type":"Point","coordinates":[-82.599841,38.416735]}},{"properties":{"city":"St. Charles","isbn":1558743669.0,"latitude":38.782435,"book-rating":6.0,"title":"A Child Called \\It\\\": One Child's Courage to Survive\"","user-id":130166.0,"longitude":-90.482079,"id":"a69cakp0ufer","state":"Missouri"},"type":"Feature","geometry":{"type":"Point","coordinates":[-90.482079,38.782435]}},{"properties":{"city":"Edmonton","isbn":1558743669.0,"latitude":53.54622,"book-rating":8.0,"title":"A Child Called \\It\\\": One Child's Courage to Survive\"","user-id":132038.0,"longitude":-113.490374,"id":"a69cakkw89hg","state":"Alberta"},"type":"Feature","geometry":{"type":"Point","coordinates":[-113.490374,53.54622]}},{"properties":{"city":"Sidney","isbn":1558743669.0,"latitude":48.650215,"book-rating":8.0,"title":"A Child Called \\It\\\": One Child's Courage to Survive\"","user-id":132782.0,"longitude":-123.398424,"id":"a69cakseexyu","state":"British Columbia"},"type":"Feature","geometry":{"type":"Point","coordinates":[-123.398424,48.650215]}},{"properties":{"city":"Groton","isbn":1558743669.0,"latitude":41.354845,"book-rating":8.0,"title":"A Child Called \\It\\\": One Child's Courage to Survive\"","user-id":135265.0,"longitude":-72.070744,"id":"a69cakgd8ldc","state":"Connecticut"},"type":"Feature","geometry":{"type":"Point","coordinates":[-72.070744,41.354845]}},{"properties":{"city":"Fairfax","isbn":1558743669.0,"latitude":38.841574,"book-rating":10.0,"title":"A Child Called \\It\\\": One Child's Courage to Survive\"","user-id":139706.0,"longitude":-77.308132,"id":"a69caklbg3q7","state":"Virginia"},"type":"Feature","geometry":{"type":"Point","coordinates":[-77.308132,38.841574]}},{"properties":{"city":"Dove Canyon","isbn":1558743669.0,"latitude":33.642194,"book-rating":10.0,"title":"A Child Called \\It\\\": One Child's Courage to Survive\"","user-id":141493.0,"longitude":-117.575959,"id":"a69cakgkngcb","state":"California"},"type":"Feature","geometry":{"type":"Point","coordinates":[-117.575959,33.642194]}},{"properties":{"city":"Weaverville","isbn":1558743669.0,"latitude":40.727765,"book-rating":10.0,"title":"A Child Called \\It\\\": One Child's Courage to Survive\"","user-id":143163.0,"longitude":-122.936699,"id":"a69cakgadirt","state":"California"},"type":"Feature","geometry":{"type":"Point","coordinates":[-122.936699,40.727765]}},{"properties":{"city":"Oxford","isbn":1558743669.0,"latitude":39.510493,"book-rating":5.0,"title":"A Child Called \\It\\\": One Child's Courage to Survive\"","user-id":144061.0,"longitude":-84.742749,"id":"a69cakmg3w5f","state":"Ohio"},"type":"Feature","geometry":{"type":"Point","coordinates":[-84.742749,39.510493]}},{"properties":{"city":"Highlands Ranch","isbn":1558743669.0,"latitude":39.543743,"book-rating":9.0,"title":"A Child Called \\It\\\": One Child's Courage to Survive\"","user-id":144134.0,"longitude":-104.946339,"id":"a69cakl0crrx","state":"Colorado"},"type":"Feature","geometry":{"type":"Point","coordinates":[-104.946339,39.543743]}},{"properties":{"city":"Selma","isbn":1558743669.0,"latitude":42.27881,"book-rating":8.0,"title":"A Child Called \\It\\\": One Child's Courage to Survive\"","user-id":144582.0,"longitude":-123.616194,"id":"a69cakh6uki8","state":"Oregon"},"type":"Feature","geometry":{"type":"Point","coordinates":[-123.616194,42.27881]}},{"properties":{"city":"Elverson","isbn":1558743669.0,"latitude":40.156185,"book-rating":9.0,"title":"A Child Called \\It\\\": One Child's Courage to Survive\"","user-id":144830.0,"longitude":-75.832972,"id":"a69cakfzz0ve","state":"Pennsylvania"},"type":"Feature","geometry":{"type":"Point","coordinates":[-75.832972,40.156185]}},{"properties":{"city":"Winnemucca","isbn":1558743669.0,"latitude":40.973176,"book-rating":10.0,"title":"A Child Called \\It\\\": One Child's Courage to Survive\"","user-id":145369.0,"longitude":-117.73531,"id":"a69caklkrms3","state":"Nevada"},"type":"Feature","geometry":{"type":"Point","coordinates":[-117.73531,40.973176]}},{"properties":{"city":"Greencastle","isbn":1558743669.0,"latitude":39.790425,"book-rating":8.0,"title":"A Child Called \\It\\\": One Child's Courage to Survive\"","user-id":150979.0,"longitude":-77.728354,"id":"a69cakjuicdf","state":"Pennsylvania"},"type":"Feature","geometry":{"type":"Point","coordinates":[-77.728354,39.790425]}},{"properties":{"city":"Yankton","isbn":1558743669.0,"latitude":42.87179,"book-rating":10.0,"title":"A Child Called \\It\\\": One Child's Courage to Survive\"","user-id":152036.0,"longitude":-97.397054,"id":"a69caksxrlme","state":"South Dakota"},"type":"Feature","geometry":{"type":"Point","coordinates":[-97.397054,42.87179]}},{"properties":{"city":"Aguadilla","isbn":1558743669.0,"latitude":18.442115,"book-rating":8.0,"title":"A Child Called \\It\\\": One Child's Courage to Survive\"","user-id":152640.0,"longitude":-67.156919,"id":"a69cakg6ot2b","state":"Puerto Rico"},"type":"Feature","geometry":{"type":"Point","coordinates":[-67.156919,18.442115]}},{"properties":{"city":"Maryland Heights","isbn":1558743669.0,"latitude":38.716635,"book-rating":9.0,"title":"A Child Called \\It\\\": One Child's Courage to Survive\"","user-id":154992.0,"longitude":-90.436829,"id":"a69cakgiuafu","state":"Missouri"},"type":"Feature","geometry":{"type":"Point","coordinates":[-90.436829,38.716635]}},{"properties":{"city":"Paoli","isbn":1558743669.0,"latitude":40.040668,"book-rating":9.0,"title":"A Child Called \\It\\\": One Child's Courage to Survive\"","user-id":161853.0,"longitude":-75.479582,"id":"a69cakrrcjna","state":"Pennsylvania"},"type":"Feature","geometry":{"type":"Point","coordinates":[-75.479582,40.040668]}},{"properties":{"city":"Gisborne","isbn":1558743669.0,"latitude":-37.487,"book-rating":10.0,"title":"A Child Called \\It\\\": One Child's Courage to Survive\"","user-id":161936.0,"longitude":144.591354,"id":"a69cakkimjjh","state":"Victoria"},"type":"Feature","geometry":{"type":"Point","coordinates":[144.591354,-37.487]}},{"properties":{"city":"Tulsa","isbn":1558743669.0,"latitude":36.149745,"book-rating":10.0,"title":"A Child Called \\It\\\": One Child's Courage to Survive\"","user-id":163307.0,"longitude":-95.993334,"id":"a69cakjna8ed","state":"Oklahoma"},"type":"Feature","geometry":{"type":"Point","coordinates":[-95.993334,36.149745]}},{"properties":{"city":"Roanoke","isbn":1558743669.0,"latitude":37.271525,"book-rating":10.0,"title":"A Child Called \\It\\\": One Child's Courage to Survive\"","user-id":163676.0,"longitude":-79.940534,"id":"a69cake7h932","state":"Virginia"},"type":"Feature","geometry":{"type":"Point","coordinates":[-79.940534,37.271525]}},{"properties":{"city":"Studio City","isbn":1558743669.0,"latitude":34.150979,"book-rating":8.0,"title":"A Child Called \\It\\\": One Child's Courage to Survive\"","user-id":164728.0,"longitude":-118.406323,"id":"a69cakosc5cc","state":"California"},"type":"Feature","geometry":{"type":"Point","coordinates":[-118.406323,34.150979]}},{"properties":{"city":"Carlinville","isbn":1558743669.0,"latitude":39.279855,"book-rating":10.0,"title":"A Child Called \\It\\\": One Child's Courage to Survive\"","user-id":164824.0,"longitude":-89.881954,"id":"a69cakhhgsf3","state":"Illinois"},"type":"Feature","geometry":{"type":"Point","coordinates":[-89.881954,39.279855]}},{"properties":{"city":"Hoffman Estates","isbn":1558743669.0,"latitude":42.06281,"book-rating":9.0,"title":"A Child Called \\It\\\": One Child's Courage to Survive\"","user-id":165769.0,"longitude":-88.123742,"id":"a69cakm5d21k","state":"Illinois"},"type":"Feature","geometry":{"type":"Point","coordinates":[-88.123742,42.06281]}},{"properties":{"city":"Denver","isbn":1558743669.0,"latitude":39.74001,"book-rating":7.0,"title":"A Child Called \\It\\\": One Child's Courage to Survive\"","user-id":167192.0,"longitude":-104.992259,"id":"a69cakhpixqy","state":"Colorado"},"type":"Feature","geometry":{"type":"Point","coordinates":[-104.992259,39.74001]}},{"properties":{"city":"Barneveld","isbn":1558743669.0,"latitude":43.273973,"book-rating":9.0,"title":"A Child Called \\It\\\": One Child's Courage to Survive\"","user-id":167389.0,"longitude":-75.190671,"id":"a69cakeut7wr","state":"New York"},"type":"Feature","geometry":{"type":"Point","coordinates":[-75.190671,43.273973]}},{"properties":{"city":"Mechanicsville","isbn":1558743669.0,"latitude":38.445607,"book-rating":10.0,"title":"A Child Called \\It\\\": One Child's Courage to Survive\"","user-id":16795.0,"longitude":-76.743683,"id":"a69cakg6zf8g","state":"Maryland"},"type":"Feature","geometry":{"type":"Point","coordinates":[-76.743683,38.445607]}},{"properties":{"city":"Lancaster","isbn":1558743669.0,"latitude":40.038045,"book-rating":8.0,"title":"A Child Called \\It\\\": One Child's Courage to Survive\"","user-id":168500.0,"longitude":-76.301269,"id":"a69cakt3fki6","state":"Pennsylvania"},"type":"Feature","geometry":{"type":"Point","coordinates":[-76.301269,40.038045]}},{"properties":{"city":"Berkeley","isbn":1558743669.0,"latitude":37.869885,"book-rating":8.0,"title":"A Child Called \\It\\\": One Child's Courage to Survive\"","user-id":171445.0,"longitude":-122.270539,"id":"a69cakf0j6lx","state":"California"},"type":"Feature","geometry":{"type":"Point","coordinates":[-122.270539,37.869885]}},{"properties":{"city":"Chicago","isbn":1558743669.0,"latitude":41.88415,"book-rating":7.0,"title":"A Child Called \\It\\\": One Child's Courage to Survive\"","user-id":173415.0,"longitude":-87.632409,"id":"a69cakrgwhmm","state":"Illinois"},"type":"Feature","geometry":{"type":"Point","coordinates":[-87.632409,41.88415]}},{"properties":{"city":"Splendora","isbn":1558743669.0,"latitude":30.23291,"book-rating":10.0,"title":"A Child Called \\It\\\": One Child's Courage to Survive\"","user-id":176624.0,"longitude":-95.162844,"id":"a69caktx59vw","state":"Texas"},"type":"Feature","geometry":{"type":"Point","coordinates":[-95.162844,30.23291]}},{"properties":{"city":"Surrey","isbn":1558743669.0,"latitude":51.271721,"book-rating":8.0,"title":"A Child Called \\It\\\": One Child's Courage to Survive\"","user-id":176887.0,"longitude":-0.39535,"id":"a69cakp20qsb","state":"England"},"type":"Feature","geometry":{"type":"Point","coordinates":[-0.39535,51.271721]}},{"properties":{"city":"Petersburg","isbn":1558743669.0,"latitude":35.320737,"book-rating":8.0,"title":"A Child Called \\It\\\": One Child's Courage to Survive\"","user-id":177239.0,"longitude":-86.637621,"id":"a69cakevrflb","state":"Tennessee"},"type":"Feature","geometry":{"type":"Point","coordinates":[-86.637621,35.320737]}},{"properties":{"city":"Modesto","isbn":1558743669.0,"latitude":37.6383,"book-rating":8.0,"title":"A Child Called \\It\\\": One Child's Courage to Survive\"","user-id":178969.0,"longitude":-120.999589,"id":"a69cakjvtu4q","state":"California"},"type":"Feature","geometry":{"type":"Point","coordinates":[-120.999589,37.6383]}},{"properties":{"city":"Manchester","isbn":1558743669.0,"latitude":41.77536,"book-rating":10.0,"title":"A Child Called \\It\\\": One Child's Courage to Survive\"","user-id":183061.0,"longitude":-72.522674,"id":"a69cako6q0fg","state":"Connecticut"},"type":"Feature","geometry":{"type":"Point","coordinates":[-72.522674,41.77536]}},{"properties":{"city":"Miami","isbn":1558743669.0,"latitude":25.728985,"book-rating":5.0,"title":"A Child Called \\It\\\": One Child's Courage to Survive\"","user-id":186714.0,"longitude":-80.237419,"id":"a69cakprdgdz","state":"Florida"},"type":"Feature","geometry":{"type":"Point","coordinates":[-80.237419,25.728985]}},{"properties":{"city":"West Bloomfield","isbn":1558743669.0,"latitude":42.558654,"book-rating":8.0,"title":"A Child Called \\It\\\": One Child's Courage to Survive\"","user-id":187835.0,"longitude":-83.372715,"id":"a69cakl9runb","state":"Michigan"},"type":"Feature","geometry":{"type":"Point","coordinates":[-83.372715,42.558654]}},{"properties":{"city":"Schertz","isbn":1558743669.0,"latitude":29.567967,"book-rating":9.0,"title":"A Child Called \\It\\\": One Child's Courage to Survive\"","user-id":190459.0,"longitude":-98.272104,"id":"a69cako19hwi","state":"Texas"},"type":"Feature","geometry":{"type":"Point","coordinates":[-98.272104,29.567967]}},{"properties":{"city":"Philadelphia","isbn":1558743669.0,"latitude":39.95227,"book-rating":9.0,"title":"A Child Called \\It\\\": One Child's Courage to Survive\"","user-id":190885.0,"longitude":-75.162369,"id":"a69cakhl95rj","state":"Pennsylvania"},"type":"Feature","geometry":{"type":"Point","coordinates":[-75.162369,39.95227]}},{"properties":{"city":"Waterford","isbn":1558743669.0,"latitude":42.790355,"book-rating":7.0,"title":"A Child Called \\It\\\": One Child's Courage to Survive\"","user-id":193676.0,"longitude":-73.678859,"id":"a69cakg3tq83","state":"New York"},"type":"Feature","geometry":{"type":"Point","coordinates":[-73.678859,42.790355]}},{"properties":{"city":"Bedford","isbn":1558743669.0,"latitude":42.491891,"book-rating":10.0,"title":"A Child Called \\It\\\": One Child's Courage to Survive\"","user-id":194411.0,"longitude":-71.281471,"id":"a69caki55bib","state":"Massachusetts"},"type":"Feature","geometry":{"type":"Point","coordinates":[-71.281471,42.491891]}},{"properties":{"city":"Toronto","isbn":1558743669.0,"latitude":43.648565,"book-rating":4.0,"title":"A Child Called \\It\\\": One Child's Courage to Survive\"","user-id":194600.0,"longitude":-79.385329,"id":"a69cakjfuuf3","state":"Ontario"},"type":"Feature","geometry":{"type":"Point","coordinates":[-79.385329,43.648565]}},{"properties":{"city":"Calgary","isbn":1558743669.0,"latitude":51.04522,"book-rating":10.0,"title":"A Child Called \\It\\\": One Child's Courage to Survive\"","user-id":196187.0,"longitude":-114.063014,"id":"a69caknohylz","state":"Alberta"},"type":"Feature","geometry":{"type":"Point","coordinates":[-114.063014,51.04522]}},{"properties":{"city":"New Britain","isbn":1558743669.0,"latitude":41.66772,"book-rating":7.0,"title":"A Child Called \\It\\\": One Child's Courage to Survive\"","user-id":206074.0,"longitude":-72.782294,"id":"a69cakqtujl5","state":"Connecticut"},"type":"Feature","geometry":{"type":"Point","coordinates":[-72.782294,41.66772]}},{"properties":{"city":"Mississauga","isbn":1558743669.0,"latitude":43.588285,"book-rating":10.0,"title":"A Child Called \\It\\\": One Child's Courage to Survive\"","user-id":207721.0,"longitude":-79.643724,"id":"a69cakhhgcnr","state":"Ontario"},"type":"Feature","geometry":{"type":"Point","coordinates":[-79.643724,43.588285]}},{"properties":{"city":"Simi Valley","isbn":1558743669.0,"latitude":34.28946,"book-rating":8.0,"title":"A Child Called \\It\\\": One Child's Courage to Survive\"","user-id":208671.0,"longitude":-118.717659,"id":"a69cakrskhyh","state":"California"},"type":"Feature","geometry":{"type":"Point","coordinates":[-118.717659,34.28946]}},{"properties":{"city":"Mountain View","isbn":1558743669.0,"latitude":37.389475,"book-rating":8.0,"title":"A Child Called \\It\\\": One Child's Courage to Survive\"","user-id":209373.0,"longitude":-122.081694,"id":"a69cakdxm3b5","state":"California"},"type":"Feature","geometry":{"type":"Point","coordinates":[-122.081694,37.389475]}},{"properties":{"city":"Las Vegas","isbn":1558743669.0,"latitude":36.171915,"book-rating":8.0,"title":"A Child Called \\It\\\": One Child's Courage to Survive\"","user-id":218320.0,"longitude":-115.139974,"id":"a69caksjdy58","state":"Nevada"},"type":"Feature","geometry":{"type":"Point","coordinates":[-115.139974,36.171915]}},{"properties":{"city":"Shelton","isbn":1558743669.0,"latitude":47.212485,"book-rating":8.0,"title":"A Child Called \\It\\\": One Child's Courage to Survive\"","user-id":218781.0,"longitude":-123.105654,"id":"a69cakhg4ypq","state":"Washington"},"type":"Feature","geometry":{"type":"Point","coordinates":[-123.105654,47.212485]}},{"properties":{"city":"Columbus","isbn":1558743669.0,"latitude":39.96196,"book-rating":9.0,"title":"A Child Called \\It\\\": One Child's Courage to Survive\"","user-id":221867.0,"longitude":-83.002984,"id":"a69cakjyfzkc","state":"Ohio"},"type":"Feature","geometry":{"type":"Point","coordinates":[-83.002984,39.96196]}},{"properties":{"city":"Chula Vista","isbn":1558743669.0,"latitude":32.640565,"book-rating":10.0,"title":"A Child Called \\It\\\": One Child's Courage to Survive\"","user-id":222138.0,"longitude":-117.084154,"id":"a69cakdw7xsr","state":"California"},"type":"Feature","geometry":{"type":"Point","coordinates":[-117.084154,32.640565]}},{"properties":{"city":"Bowling Green","isbn":1558743669.0,"latitude":41.37546,"book-rating":8.0,"title":"A Child Called \\It\\\": One Child's Courage to Survive\"","user-id":222590.0,"longitude":-83.650419,"id":"a69cakjzq9r1","state":"Ohio"},"type":"Feature","geometry":{"type":"Point","coordinates":[-83.650419,41.37546]}},{"properties":{"city":"Sherman Oaks","isbn":1558743669.0,"latitude":34.151045,"book-rating":3.0,"title":"A Child Called \\It\\\": One Child's Courage to Survive\"","user-id":223087.0,"longitude":-118.444259,"id":"a69cako9h2k2","state":"California"},"type":"Feature","geometry":{"type":"Point","coordinates":[-118.444259,34.151045]}},{"properties":{"city":"Berkeley","isbn":1558743669.0,"latitude":37.869885,"book-rating":5.0,"title":"A Child Called \\It\\\": One Child's Courage to Survive\"","user-id":230030.0,"longitude":-122.270539,"id":"a69caksfojcj","state":"California"},"type":"Feature","geometry":{"type":"Point","coordinates":[-122.270539,37.869885]}},{"properties":{"city":"Mackay","isbn":1558743669.0,"latitude":-21.142309,"book-rating":7.0,"title":"A Child Called \\It\\\": One Child's Courage to Survive\"","user-id":233711.0,"longitude":149.178711,"id":"a69cakn4laiu","state":"Queensland"},"type":"Feature","geometry":{"type":"Point","coordinates":[149.178711,-21.142309]}},{"properties":{"city":"Rochester","isbn":1558743669.0,"latitude":43.1555,"book-rating":10.0,"title":"A Child Called \\It\\\": One Child's Courage to Survive\"","user-id":234399.0,"longitude":-77.616033,"id":"a69cakf3ioeh","state":"New York"},"type":"Feature","geometry":{"type":"Point","coordinates":[-77.616033,43.1555]}},{"properties":{"city":"Tulsa","isbn":1558743669.0,"latitude":36.149745,"book-rating":8.0,"title":"A Child Called \\It\\\": One Child's Courage to Survive\"","user-id":23872.0,"longitude":-95.993334,"id":"a69cakpunols","state":"Oklahoma"},"type":"Feature","geometry":{"type":"Point","coordinates":[-95.993334,36.149745]}},{"properties":{"city":"Inverness","isbn":1558743669.0,"latitude":57.479016,"book-rating":5.0,"title":"A Child Called \\It\\\": One Child's Courage to Survive\"","user-id":244277.0,"longitude":-4.235612,"id":"a69cakkcbopt","state":"Scotland"},"type":"Feature","geometry":{"type":"Point","coordinates":[-4.235612,57.479016]}},{"properties":{"city":"Del Mar","isbn":1558743669.0,"latitude":32.954892,"book-rating":6.0,"title":"A Child Called \\It\\\": One Child's Courage to Survive\"","user-id":246956.0,"longitude":-117.263482,"id":"a69caktspu97","state":"California"},"type":"Feature","geometry":{"type":"Point","coordinates":[-117.263482,32.954892]}},{"properties":{"city":"San Diego","isbn":1558743669.0,"latitude":32.715685,"book-rating":9.0,"title":"A Child Called \\It\\\": One Child's Courage to Survive\"","user-id":248397.0,"longitude":-117.161724,"id":"a69caktggr11","state":"California"},"type":"Feature","geometry":{"type":"Point","coordinates":[-117.161724,32.715685]}},{"properties":{"city":"Duncansville","isbn":1558743669.0,"latitude":40.423355,"book-rating":5.0,"title":"A Child Called \\It\\\": One Child's Courage to Survive\"","user-id":249894.0,"longitude":-78.433624,"id":"a69cakp40jze","state":"Pennsylvania"},"type":"Feature","geometry":{"type":"Point","coordinates":[-78.433624,40.423355]}},{"properties":{"city":"Pensacola","isbn":1558743669.0,"latitude":37.674105,"book-rating":10.0,"title":"A Child Called \\It\\\": One Child's Courage to Survive\"","user-id":2565.0,"longitude":13.237895,"id":"a69cakgi7xoe","state":"Friuli Venezia Giulia"},"type":"Feature","geometry":{"type":"Point","coordinates":[13.237895,37.674105]}},{"properties":{"city":"Ashland","isbn":1558743669.0,"latitude":38.480685,"book-rating":6.0,"title":"A Child Called \\It\\\": One Child's Courage to Survive\"","user-id":26049.0,"longitude":-82.643574,"id":"a69cakgxijbc","state":"Kentucky"},"type":"Feature","geometry":{"type":"Point","coordinates":[-82.643574,38.480685]}},{"properties":{"city":"St. Albans","isbn":1558743669.0,"latitude":38.388136,"book-rating":10.0,"title":"A Child Called \\It\\\": One Child's Courage to Survive\"","user-id":26421.0,"longitude":-81.823308,"id":"a69caknsgscj","state":"West Virginia"},"type":"Feature","geometry":{"type":"Point","coordinates":[-81.823308,38.388136]}},{"properties":{"city":"Rawlins","isbn":1558743669.0,"latitude":41.789575,"book-rating":5.0,"title":"A Child Called \\It\\\": One Child's Courage to Survive\"","user-id":26538.0,"longitude":-107.238189,"id":"a69cakip6ypp","state":"Wyoming"},"type":"Feature","geometry":{"type":"Point","coordinates":[-107.238189,41.789575]}},{"properties":{"city":"Grand Rapids","isbn":1558743669.0,"latitude":42.96641,"book-rating":9.0,"title":"A Child Called \\It\\\": One Child's Courage to Survive\"","user-id":28177.0,"longitude":-85.671179,"id":"a69cakiu4dag","state":"Michigan"},"type":"Feature","geometry":{"type":"Point","coordinates":[-85.671179,42.96641]}},{"properties":{"city":"Sydney","isbn":1558743669.0,"latitude":-33.869629,"book-rating":8.0,"title":"A Child Called \\It\\\": One Child's Courage to Survive\"","user-id":30711.0,"longitude":151.206955,"id":"a69cakg5nrv6","state":"New South Wales"},"type":"Feature","geometry":{"type":"Point","coordinates":[151.206955,-33.869629]}},{"properties":{"city":"Sammamish","isbn":1558743669.0,"latitude":47.613435,"book-rating":4.0,"title":"A Child Called \\It\\\": One Child's Courage to Survive\"","user-id":31429.0,"longitude":-122.035494,"id":"a69caku1wg39","state":"Washington"},"type":"Feature","geometry":{"type":"Point","coordinates":[-122.035494,47.613435]}},{"properties":{"city":"Chula Vista","isbn":1558743669.0,"latitude":32.640565,"book-rating":8.0,"title":"A Child Called \\It\\\": One Child's Courage to Survive\"","user-id":31556.0,"longitude":-117.084154,"id":"a69cakk0g1t5","state":"California"},"type":"Feature","geometry":{"type":"Point","coordinates":[-117.084154,32.640565]}},{"properties":{"city":"Alpharetta","isbn":1558743669.0,"latitude":34.07537,"book-rating":9.0,"title":"A Child Called \\It\\\": One Child's Courage to Survive\"","user-id":32991.0,"longitude":-84.294554,"id":"a69cakh3zjcy","state":"Georgia"},"type":"Feature","geometry":{"type":"Point","coordinates":[-84.294554,34.07537]}},{"properties":{"city":"Austin","isbn":1558743669.0,"latitude":30.267605,"book-rating":9.0,"title":"A Child Called \\It\\\": One Child's Courage to Survive\"","user-id":35143.0,"longitude":-97.742984,"id":"a69cakgpd59y","state":"Texas"},"type":"Feature","geometry":{"type":"Point","coordinates":[-97.742984,30.267605]}},{"properties":{"city":"Kuala Lumpur","isbn":1558743669.0,"latitude":3.15257,"book-rating":8.0,"title":"A Child Called \\It\\\": One Child's Courage to Survive\"","user-id":37538.0,"longitude":101.7173,"id":"a69cakld3c4h","state":"N/A"},"type":"Feature","geometry":{"type":"Point","coordinates":[101.7173,3.15257]}},{"properties":{"city":"Salt Lake City","isbn":1558743669.0,"latitude":40.759505,"book-rating":9.0,"title":"A Child Called \\It\\\": One Child's Courage to Survive\"","user-id":40367.0,"longitude":-111.888229,"id":"a69cakj62kkx","state":"Utah"},"type":"Feature","geometry":{"type":"Point","coordinates":[-111.888229,40.759505]}},{"properties":{"city":"Nazareth","isbn":1558743669.0,"latitude":40.73878,"book-rating":8.0,"title":"A Child Called \\It\\\": One Child's Courage to Survive\"","user-id":42939.0,"longitude":-75.309529,"id":"a69cakeu0m70","state":"Pennsylvania"},"type":"Feature","geometry":{"type":"Point","coordinates":[-75.309529,40.73878]}},{"properties":{"city":"Calgary","isbn":1558743669.0,"latitude":51.04522,"book-rating":5.0,"title":"A Child Called \\It\\\": One Child's Courage to Survive\"","user-id":43426.0,"longitude":-114.063014,"id":"a69cakllx24w","state":"Alberta"},"type":"Feature","geometry":{"type":"Point","coordinates":[-114.063014,51.04522]}},{"properties":{"city":"San Antonio","isbn":1558743669.0,"latitude":29.42449,"book-rating":5.0,"title":"A Child Called \\It\\\": One Child's Courage to Survive\"","user-id":46398.0,"longitude":-98.494624,"id":"a69cakllvfqj","state":"Texas"},"type":"Feature","geometry":{"type":"Point","coordinates":[-98.494624,29.42449]}},{"properties":{"city":"Rochester","isbn":1558743669.0,"latitude":43.1555,"book-rating":8.0,"title":"A Child Called \\It\\\": One Child's Courage to Survive\"","user-id":4795.0,"longitude":-77.616033,"id":"a69cakiyijq5","state":"New York"},"type":"Feature","geometry":{"type":"Point","coordinates":[-77.616033,43.1555]}},{"properties":{"city":"El Centro","isbn":1558743669.0,"latitude":32.795805,"book-rating":10.0,"title":"A Child Called \\It\\\": One Child's Courage to Survive\"","user-id":503.0,"longitude":-115.569969,"id":"a69cakeva68e","state":"California"},"type":"Feature","geometry":{"type":"Point","coordinates":[-115.569969,32.795805]}},{"properties":{"city":"Sydney","isbn":1558743669.0,"latitude":-33.869629,"book-rating":7.0,"title":"A Child Called \\It\\\": One Child's Courage to Survive\"","user-id":50376.0,"longitude":151.206955,"id":"a69cakl85nuq","state":"New South Wales"},"type":"Feature","geometry":{"type":"Point","coordinates":[151.206955,-33.869629]}},{"properties":{"city":"Toronto","isbn":1558743669.0,"latitude":43.648565,"book-rating":10.0,"title":"A Child Called \\It\\\": One Child's Courage to Survive\"","user-id":50547.0,"longitude":-79.385329,"id":"a69cakrdo36j","state":"Ontario"},"type":"Feature","geometry":{"type":"Point","coordinates":[-79.385329,43.648565]}},{"properties":{"city":"Brooklyn","isbn":1558743669.0,"latitude":40.692455,"book-rating":2.0,"title":"A Child Called \\It\\\": One Child's Courage to Survive\"","user-id":51742.0,"longitude":-73.990364,"id":"a69cakrp4g6h","state":"New York"},"type":"Feature","geometry":{"type":"Point","coordinates":[-73.990364,40.692455]}},{"properties":{"city":"Brodbecks","isbn":1558743669.0,"latitude":39.769421,"book-rating":10.0,"title":"A Child Called \\It\\\": One Child's Courage to Survive\"","user-id":52631.0,"longitude":-76.826538,"id":"a69cakf316xj","state":"Pennsylvania"},"type":"Feature","geometry":{"type":"Point","coordinates":[-76.826538,39.769421]}},{"properties":{"city":"Grand Prairie","isbn":1558743669.0,"latitude":32.7477,"book-rating":7.0,"title":"A Child Called \\It\\\": One Child's Courage to Survive\"","user-id":54132.0,"longitude":-97.007199,"id":"a69caklj5oc4","state":"Texas"},"type":"Feature","geometry":{"type":"Point","coordinates":[-97.007199,32.7477]}},{"properties":{"city":"Chatham","isbn":1558743669.0,"latitude":42.404442,"book-rating":7.0,"title":"A Child Called \\It\\\": One Child's Courage to Survive\"","user-id":55493.0,"longitude":-82.189583,"id":"a69cakhxqtz7","state":"Ontario"},"type":"Feature","geometry":{"type":"Point","coordinates":[-82.189583,42.404442]}},{"properties":{"city":"Columbia","isbn":1558743669.0,"latitude":38.952174,"book-rating":6.0,"title":"A Child Called \\It\\\": One Child's Courage to Survive\"","user-id":60941.0,"longitude":-92.334157,"id":"a69cakm39uaa","state":"Missouri"},"type":"Feature","geometry":{"type":"Point","coordinates":[-92.334157,38.952174]}},{"properties":{"city":"Elk Mound","isbn":1558743669.0,"latitude":44.872835,"book-rating":5.0,"title":"A Child Called \\It\\\": One Child's Courage to Survive\"","user-id":61025.0,"longitude":-91.691264,"id":"a69cakme7smx","state":"Wisconsin"},"type":"Feature","geometry":{"type":"Point","coordinates":[-91.691264,44.872835]}},{"properties":{"city":"Bronx","isbn":1558743669.0,"latitude":40.825745,"book-rating":7.0,"title":"A Child Called \\It\\\": One Child's Courage to Survive\"","user-id":6153.0,"longitude":-73.923249,"id":"a69cakfja43x","state":"New York"},"type":"Feature","geometry":{"type":"Point","coordinates":[-73.923249,40.825745]}},{"properties":{"city":"Los Angeles","isbn":1558743669.0,"latitude":34.05349,"book-rating":7.0,"title":"A Child Called \\It\\\": One Child's Courage to Survive\"","user-id":65350.0,"longitude":-118.245319,"id":"a69cakg207x4","state":"California"},"type":"Feature","geometry":{"type":"Point","coordinates":[-118.245319,34.05349]}},{"properties":{"city":"Fort Myers","isbn":1558743669.0,"latitude":26.640845,"book-rating":7.0,"title":"A Child Called \\It\\\": One Child's Courage to Survive\"","user-id":66878.0,"longitude":-81.868194,"id":"a69cakhvfgso","state":"Florida"},"type":"Feature","geometry":{"type":"Point","coordinates":[-81.868194,26.640845]}},{"properties":{"city":"Kuching","isbn":1558743669.0,"latitude":1.520195,"book-rating":8.0,"title":"A Child Called \\It\\\": One Child's Courage to Survive\"","user-id":66942.0,"longitude":110.35366,"id":"a69cakkpa43l","state":"Sarawak"},"type":"Feature","geometry":{"type":"Point","coordinates":[110.35366,1.520195]}},{"properties":{"city":"Bremerton","isbn":1558743669.0,"latitude":47.56501,"book-rating":10.0,"title":"A Child Called \\It\\\": One Child's Courage to Survive\"","user-id":70379.0,"longitude":-122.627489,"id":"a69cakk8bwpo","state":"Washington"},"type":"Feature","geometry":{"type":"Point","coordinates":[-122.627489,47.56501]}},{"properties":{"city":"Alexandria","isbn":1558743669.0,"latitude":38.804565,"book-rating":10.0,"title":"A Child Called \\It\\\": One Child's Courage to Survive\"","user-id":72028.0,"longitude":-77.043079,"id":"a69cakl5gj6p","state":"Virginia"},"type":"Feature","geometry":{"type":"Point","coordinates":[-77.043079,38.804565]}},{"properties":{"city":"Ridgecrest","isbn":1558743669.0,"latitude":35.622485,"book-rating":9.0,"title":"A Child Called \\It\\\": One Child's Courage to Survive\"","user-id":74911.0,"longitude":-117.668864,"id":"a69caklj4pa3","state":"California"},"type":"Feature","geometry":{"type":"Point","coordinates":[-117.668864,35.622485]}},{"properties":{"city":"Zanesville","isbn":1558743669.0,"latitude":39.940549,"book-rating":5.0,"title":"A Child Called \\It\\\": One Child's Courage to Survive\"","user-id":76482.0,"longitude":-82.001389,"id":"a69cakt2e4yo","state":"Ohio"},"type":"Feature","geometry":{"type":"Point","coordinates":[-82.001389,39.940549]}},{"properties":{"city":"Dudley","isbn":1558743669.0,"latitude":42.043785,"book-rating":7.0,"title":"A Child Called \\It\\\": One Child's Courage to Survive\"","user-id":76760.0,"longitude":-71.890894,"id":"a69cakrke206","state":"Massachusetts"},"type":"Feature","geometry":{"type":"Point","coordinates":[-71.890894,42.043785]}},{"properties":{"city":"Santa Rosa","isbn":1558743669.0,"latitude":38.437731,"book-rating":9.0,"title":"A Child Called \\It\\\": One Child's Courage to Survive\"","user-id":77702.0,"longitude":-122.712427,"id":"a69cakt9ljag","state":"California"},"type":"Feature","geometry":{"type":"Point","coordinates":[-122.712427,38.437731]}},{"properties":{"city":"Chantilly","isbn":1558743669.0,"latitude":38.883607,"book-rating":10.0,"title":"A Child Called \\It\\\": One Child's Courage to Survive\"","user-id":78783.0,"longitude":-77.439755,"id":"a69caksy5jkr","state":"Virginia"},"type":"Feature","geometry":{"type":"Point","coordinates":[-77.439755,38.883607]}},{"properties":{"city":"Altoona","isbn":1558743669.0,"latitude":40.50719,"book-rating":10.0,"title":"A Child Called \\It\\\": One Child's Courage to Survive\"","user-id":7887.0,"longitude":-78.398904,"id":"a69cakmd11b2","state":"Pennsylvania"},"type":"Feature","geometry":{"type":"Point","coordinates":[-78.398904,40.50719]}},{"properties":{"city":"Orange","isbn":1558743669.0,"latitude":33.787865,"book-rating":10.0,"title":"A Child Called \\It\\\": One Child's Courage to Survive\"","user-id":79842.0,"longitude":-117.850399,"id":"a69cakq3kwzg","state":"California"},"type":"Feature","geometry":{"type":"Point","coordinates":[-117.850399,33.787865]}},{"properties":{"city":"Warrensburg","isbn":1558743669.0,"latitude":38.771224,"book-rating":9.0,"title":"A Child Called \\It\\\": One Child's Courage to Survive\"","user-id":80810.0,"longitude":-93.741149,"id":"a69cakhkcosl","state":"Missouri"},"type":"Feature","geometry":{"type":"Point","coordinates":[-93.741149,38.771224]}},{"properties":{"city":"Santa Rosa","isbn":1558743669.0,"latitude":38.437731,"book-rating":10.0,"title":"A Child Called \\It\\\": One Child's Courage to Survive\"","user-id":81661.0,"longitude":-122.712427,"id":"a69cakjgabzl","state":null},"type":"Feature","geometry":{"type":"Point","coordinates":[-122.712427,38.437731]}},{"properties":{"city":"Ponoka","isbn":1558743669.0,"latitude":52.67608,"book-rating":7.0,"title":"A Child Called \\It\\\": One Child's Courage to Survive\"","user-id":86001.0,"longitude":-113.580249,"id":"a69cakpzklbc","state":"Alberta"},"type":"Feature","geometry":{"type":"Point","coordinates":[-113.580249,52.67608]}},{"properties":{"city":"Houston","isbn":1558743669.0,"latitude":29.76045,"book-rating":7.0,"title":"A Child Called \\It\\\": One Child's Courage to Survive\"","user-id":87095.0,"longitude":-95.369784,"id":"a69cakmsy81w","state":"Texas"},"type":"Feature","geometry":{"type":"Point","coordinates":[-95.369784,29.76045]}},{"properties":{"city":"Santa Cruz","isbn":1558743669.0,"latitude":36.974025,"book-rating":5.0,"title":"A Child Called \\It\\\": One Child's Courage to Survive\"","user-id":8780.0,"longitude":-122.030954,"id":"a69caknqe6hl","state":"California"},"type":"Feature","geometry":{"type":"Point","coordinates":[-122.030954,36.974025]}},{"properties":{"city":"Cheyenne","isbn":1558743669.0,"latitude":41.134815,"book-rating":10.0,"title":"A Child Called \\It\\\": One Child's Courage to Survive\"","user-id":91388.0,"longitude":-104.821544,"id":"a69cakimp3gt","state":"Wyoming"},"type":"Feature","geometry":{"type":"Point","coordinates":[-104.821544,41.134815]}},{"properties":{"city":"Bristol","isbn":1558743669.0,"latitude":51.45373,"book-rating":7.0,"title":"A Child Called \\It\\\": One Child's Courage to Survive\"","user-id":98950.0,"longitude":-2.591564,"id":"a69cakhu8sur","state":"England"},"type":"Feature","geometry":{"type":"Point","coordinates":[-2.591564,51.45373]}}],"is_temporal":false,"author":{"url":"http://www.informatik.uni-freiburg.de/~cziegler/BX/","metadata":"http://www.informatik.uni-freiburg.de/~cziegler/BX/","contact_name":"","contact_address":"","source":"Institut für Informatik, Universität Freiburg","contact_phone":""},"source":"http://www.informatik.uni-freiburg.de/~cziegler/BX/","pagination":{"sort":null,"start":0,"total":122,"limit":1000000},"state":"complete","tags":"bookcrossing,books,global,reviews","published":"2005-01-01T17:00:00Z","id":19843}