{"type":"FeatureCollection","data_type":"Dataset","url_type":null,"permissions":[{"permissions":{"download":true,"view":true},"group_id":"everyone"}],"classification":null,"title":"Angels and Demons, International Reviews, Book-Crossing Dataset","count":287,"stream_id":19887,"contributor":{"url":"http://geocommons.com/users/2943","name":"Margot"},"data_attributes":null,"calculation_params":null,"icon_link":null,"link":"http://geocommons.com/overlays/19887.json","extent":[-158.009,-38.145,151.207,59.9138],"geometry_types":["point"],"unique_name":null,"name":"Angels and Demons, International Reviews, Book-Crossing Dataset","feature_count":287,"description":"Collected by Cai-Nicolas Ziegler in a 4-week crawl (August / September 2004) from the Book-Crossing community with kind permission from Ron Hornbaker, CTO of Humankind Systems. Contains 278,858 users (anonymized but with demographic information) providing 1,149,780 ratings (explicit / implicit) about 271,379 books.\n\n[ ! ] Freely available for research use when acknowledged with the following reference (further details on the dataset are given in this publication):\nImproving Recommendation Lists Through Topic Diversification,\nCai-Nicolas Ziegler, Sean M. McNee, Joseph A. Konstan, Georg Lausen; Proceedings of the 14th International World Wide Web Conference (WWW '05), May 10-14, 2005, Chiba, Japan. To appear.\n\nContains the book rating information. Ratings (`Book-Rating`) are either explicit, expressed on a scale from 1-10 (higher values denoting higher appreciation), or implicit, expressed by 0.","next_feature":null,"is_raster":false,"short_classification":"Y","stats":{"isbn":{"max":743535774.0,"mean":679107087.749129,"variance":522034924600357.0,"stdev":22848083.6089235,"min":671027352.0,"median":671027360.0},"latitude":{"max":59.9138204,"mean":37.8714911839721,"variance":97.6117343842487,"stdev":9.87986509949649,"min":-38.145001,"median":38.9012225},"book-rating":{"max":10.0,"mean":7.99651567944251,"variance":2.7097780268512,"stdev":1.64614034239223,"min":2.0,"median":8.0},"user-id":{"max":278422.0,"mean":129124.386759582,"variance":5934687620.22402,"stdev":77036.9237458507,"min":114.0,"median":128085.0},"longitude":{"max":151.207114,"mean":-82.2436282205574,"variance":1850.85410204011,"stdev":43.0215539240519,"min":-158.0091667,"median":-84.2640904}},"features":[{"properties":{"city":"Plainfield","isbn":671027360.0,"latitude":41.6269745,"book-rating":8.0,"title":"Angels &amp; Demons","user-id":100846.0,"longitude":-88.2039539,"id":"a651ghbbp76i","state":"Illinois"},"type":"Feature","geometry":{"type":"Point","coordinates":[-88.2039539,41.6269745]}},{"properties":{"city":"Minneapolis","isbn":671027360.0,"latitude":44.9799654,"book-rating":10.0,"title":"Angels &amp; Demons","user-id":10118.0,"longitude":-93.2638361,"id":"a651ghd6p57g","state":"Minnesota"},"type":"Feature","geometry":{"type":"Point","coordinates":[-93.2638361,44.9799654]}},{"properties":{"city":"Oklahoma City","isbn":671027360.0,"latitude":35.4675602,"book-rating":8.0,"title":"Angels &amp; Demons","user-id":102549.0,"longitude":-97.5164276,"id":"a651gh9di81p","state":"Oklahoma"},"type":"Feature","geometry":{"type":"Point","coordinates":[-97.5164276,35.4675602]}},{"properties":{"city":"Seattle","isbn":671027360.0,"latitude":47.6062095,"book-rating":8.0,"title":"Angels &amp; Demons","user-id":102733.0,"longitude":-122.3320708,"id":"a651ghe8bs2d","state":"Washington"},"type":"Feature","geometry":{"type":"Point","coordinates":[-122.3320708,47.6062095]}},{"properties":{"city":"Sparks","isbn":671027360.0,"latitude":39.5309389,"book-rating":7.0,"title":"Angels &amp; Demons","user-id":1031.0,"longitude":-76.6458043,"id":"a651gh7axp13","state":"Maryland"},"type":"Feature","geometry":{"type":"Point","coordinates":[-76.6458043,39.5309389]}},{"properties":{"city":"San Jose","isbn":671027360.0,"latitude":37.3393857,"book-rating":7.0,"title":"Angels &amp; Demons","user-id":103537.0,"longitude":-121.8949555,"id":"a651ghi7t2hl","state":"California"},"type":"Feature","geometry":{"type":"Point","coordinates":[-121.8949555,37.3393857]}},{"properties":{"city":"Vacaville","isbn":671027360.0,"latitude":38.3565773,"book-rating":9.0,"title":"Angels &amp; Demons","user-id":104051.0,"longitude":-121.9877444,"id":"a651ghd7u171","state":"California"},"type":"Feature","geometry":{"type":"Point","coordinates":[-121.9877444,38.3565773]}},{"properties":{"city":"Chicago","isbn":671027360.0,"latitude":41.850033,"book-rating":8.0,"title":"Angels &amp; Demons","user-id":10560.0,"longitude":-87.6500523,"id":"a651gh6d6ooe","state":"Illinois"},"type":"Feature","geometry":{"type":"Point","coordinates":[-87.6500523,41.850033]}},{"properties":{"city":"Tampa","isbn":743486226.0,"latitude":27.9475216,"book-rating":8.0,"title":"Angels &amp; Demons","user-id":105937.0,"longitude":-82.4584279,"id":"a651ghgkkedn","state":"Florida"},"type":"Feature","geometry":{"type":"Point","coordinates":[-82.4584279,27.9475216]}},{"properties":{"city":"Watertown","isbn":671027360.0,"latitude":43.9747838,"book-rating":10.0,"title":"Angels &amp; Demons","user-id":107073.0,"longitude":-75.9107565,"id":"a651gh8ogxyk","state":"New York"},"type":"Feature","geometry":{"type":"Point","coordinates":[-75.9107565,43.9747838]}},{"properties":{"city":"Rochester","isbn":671027360.0,"latitude":42.680588,"book-rating":8.0,"title":"Angels &amp; Demons","user-id":108352.0,"longitude":-83.1338214,"id":"a651ghat920a","state":"Michigan"},"type":"Feature","geometry":{"type":"Point","coordinates":[-83.1338214,42.680588]}},{"properties":{"city":"Hope","isbn":671027360.0,"latitude":33.6670615,"book-rating":8.0,"title":"Angels &amp; Demons","user-id":109700.0,"longitude":-93.5915665,"id":"a651gh9bnkgg","state":"Arkansas"},"type":"Feature","geometry":{"type":"Point","coordinates":[-93.5915665,33.6670615]}},{"properties":{"city":"Berlin","isbn":671027360.0,"latitude":52.5234051,"book-rating":8.0,"title":"Angels &amp; Demons","user-id":109702.0,"longitude":13.4113999,"id":"a651gh3p6clf","state":"Berlin"},"type":"Feature","geometry":{"type":"Point","coordinates":[13.4113999,52.5234051]}},{"properties":{"city":"Milpitas","isbn":671027360.0,"latitude":37.4282724,"book-rating":9.0,"title":"Angels &amp; Demons","user-id":110912.0,"longitude":-121.9066238,"id":"a651ghen8x5d","state":"California"},"type":"Feature","geometry":{"type":"Point","coordinates":[-121.9066238,37.4282724]}},{"properties":{"city":"Wiley Ford","isbn":671027360.0,"latitude":39.6145328,"book-rating":7.0,"title":"Angels &amp; Demons","user-id":110973.0,"longitude":-78.7750188,"id":"a651gh8ra0qc","state":"West Virginia"},"type":"Feature","geometry":{"type":"Point","coordinates":[-78.7750188,39.6145328]}},{"properties":{"city":"Leslie","isbn":671027360.0,"latitude":42.4514252,"book-rating":8.0,"title":"Angels &amp; Demons","user-id":111089.0,"longitude":-84.4324695,"id":"a651ghjadp7s","state":"Michigan"},"type":"Feature","geometry":{"type":"Point","coordinates":[-84.4324695,42.4514252]}},{"properties":{"city":"Suffolk","isbn":743486226.0,"latitude":36.7282054,"book-rating":8.0,"title":"Angels &amp; Demons","user-id":111468.0,"longitude":-76.5835621,"id":"a651ghhst1ps","state":"Virginia"},"type":"Feature","geometry":{"type":"Point","coordinates":[-76.5835621,36.7282054]}},{"properties":{"city":"Tumwater","isbn":743486226.0,"latitude":47.0073187,"book-rating":7.0,"title":"Angels &amp; Demons","user-id":11224.0,"longitude":-122.9093063,"id":"a651ghdokc82","state":"Washington"},"type":"Feature","geometry":{"type":"Point","coordinates":[-122.9093063,47.0073187]}},{"properties":{"city":"London","isbn":671027360.0,"latitude":51.5001524,"book-rating":9.0,"title":"Angels &amp; Demons","user-id":113106.0,"longitude":-0.1262362,"id":"a651gh3z0a8k","state":"N/A"},"type":"Feature","geometry":{"type":"Point","coordinates":[-0.1262362,51.5001524]}},{"properties":{"city":"Salt Lake City","isbn":671027360.0,"latitude":40.7607793,"book-rating":10.0,"title":"Angels &amp; Demons","user-id":113121.0,"longitude":-111.8910474,"id":"a651ghjj1v17","state":"Utah"},"type":"Feature","geometry":{"type":"Point","coordinates":[-111.8910474,40.7607793]}},{"properties":{"city":"Ligonier","isbn":671027360.0,"latitude":40.2431278,"book-rating":10.0,"title":"Angels &amp; Demons","user-id":114.0,"longitude":-79.2375325,"id":"a651ghdf7sh9","state":"Pennsylvania"},"type":"Feature","geometry":{"type":"Point","coordinates":[-79.2375325,40.2431278]}},{"properties":{"city":"Hazel Park","isbn":671027360.0,"latitude":42.4625362,"book-rating":10.0,"title":"Angels &amp; Demons","user-id":114073.0,"longitude":-83.1040912,"id":"a651ghf4qsv1","state":"Michigan"},"type":"Feature","geometry":{"type":"Point","coordinates":[-83.1040912,42.4625362]}},{"properties":{"city":"Blacksburg","isbn":671027360.0,"latitude":37.2295733,"book-rating":10.0,"title":"Angels &amp; Demons","user-id":115692.0,"longitude":-80.4139393,"id":"a651ghgihmiw","state":"Virginia"},"type":"Feature","geometry":{"type":"Point","coordinates":[-80.4139393,37.2295733]}},{"properties":{"city":"Alhambra","isbn":671027360.0,"latitude":34.095287,"book-rating":6.0,"title":"Angels &amp; Demons","user-id":115917.0,"longitude":-118.1270146,"id":"a651ghflzo1z","state":"California"},"type":"Feature","geometry":{"type":"Point","coordinates":[-118.1270146,34.095287]}},{"properties":{"city":"Redmond","isbn":671027360.0,"latitude":47.6739881,"book-rating":8.0,"title":"Angels &amp; Demons","user-id":116313.0,"longitude":-122.121512,"id":"a651gh8ewnxo","state":"Washington"},"type":"Feature","geometry":{"type":"Point","coordinates":[-122.121512,47.6739881]}},{"properties":{"city":"Bellport","isbn":671027360.0,"latitude":40.7570429,"book-rating":9.0,"title":"Angels &amp; Demons","user-id":117668.0,"longitude":-72.9392727,"id":"a651ghk08m0o","state":"New York"},"type":"Feature","geometry":{"type":"Point","coordinates":[-72.9392727,40.7570429]}},{"properties":{"city":"Portland","isbn":671027360.0,"latitude":45.5234515,"book-rating":7.0,"title":"Angels &amp; Demons","user-id":118800.0,"longitude":-122.6762071,"id":"a651ghecdehp","state":"Oregon"},"type":"Feature","geometry":{"type":"Point","coordinates":[-122.6762071,45.5234515]}},{"properties":{"city":"Grosse Pointe Farms","isbn":671027360.0,"latitude":42.4092038,"book-rating":10.0,"title":"Angels &amp; Demons","user-id":119579.0,"longitude":-82.8918587,"id":"a651ghefaml3","state":"Michigan"},"type":"Feature","geometry":{"type":"Point","coordinates":[-82.8918587,42.4092038]}},{"properties":{"city":"Omaha","isbn":671027360.0,"latitude":41.254006,"book-rating":10.0,"title":"Angels &amp; Demons","user-id":122349.0,"longitude":-95.999258,"id":"a651ghjo5zt0","state":"Nebraska"},"type":"Feature","geometry":{"type":"Point","coordinates":[-95.999258,41.254006]}},{"properties":{"city":"Ploiesti","isbn":671027360.0,"latitude":44.936321,"book-rating":10.0,"title":"Angels &amp; Demons","user-id":12272.0,"longitude":26.036631,"id":"a651gh5suqih","state":"Prahova"},"type":"Feature","geometry":{"type":"Point","coordinates":[26.036631,44.936321]}},{"properties":{"city":"Vancouver","isbn":671027360.0,"latitude":49.263588,"book-rating":9.0,"title":"Angels &amp; Demons","user-id":122859.0,"longitude":-123.138565,"id":"a651gh6v0vdy","state":"British Columbia"},"type":"Feature","geometry":{"type":"Point","coordinates":[-123.138565,49.263588]}},{"properties":{"city":"Westminster","isbn":671027360.0,"latitude":39.8366528,"book-rating":9.0,"title":"Angels &amp; Demons","user-id":123510.0,"longitude":-105.0372046,"id":"a651gh7cl377","state":"Colorado"},"type":"Feature","geometry":{"type":"Point","coordinates":[-105.0372046,39.8366528]}},{"properties":{"city":"Durham","isbn":671027360.0,"latitude":35.9940329,"book-rating":9.0,"title":"Angels &amp; Demons","user-id":128085.0,"longitude":-78.898619,"id":"a651ghdvv3d3","state":"North Carolina"},"type":"Feature","geometry":{"type":"Point","coordinates":[-78.898619,35.9940329]}},{"properties":{"city":"Alvin","isbn":671027360.0,"latitude":29.4238472,"book-rating":10.0,"title":"Angels &amp; Demons","user-id":128332.0,"longitude":-95.2441009,"id":"a651gh6izki8","state":"Texas"},"type":"Feature","geometry":{"type":"Point","coordinates":[-95.2441009,29.4238472]}},{"properties":{"city":"Okemos","isbn":671027360.0,"latitude":42.722257,"book-rating":8.0,"title":"Angels &amp; Demons","user-id":129226.0,"longitude":-84.4274744,"id":"a651gh8681s8","state":"Michigan"},"type":"Feature","geometry":{"type":"Point","coordinates":[-84.4274744,42.722257]}},{"properties":{"city":"Earth","isbn":671027352.0,"latitude":34.2331373,"book-rating":7.0,"title":"Angels &amp; Demons","user-id":130482.0,"longitude":-102.4107493,"id":"a651gh7gvrp3","state":null},"type":"Feature","geometry":{"type":"Point","coordinates":[-102.4107493,34.2331373]}},{"properties":{"city":"Jersey City","isbn":671027360.0,"latitude":40.7281575,"book-rating":9.0,"title":"Angels &amp; Demons","user-id":130950.0,"longitude":-74.0776417,"id":"a651ghck3sx4","state":"New Jersey"},"type":"Feature","geometry":{"type":"Point","coordinates":[-74.0776417,40.7281575]}},{"properties":{"city":"Luxembourg","isbn":671027360.0,"latitude":49.6100036,"book-rating":5.0,"title":"Angels &amp; Demons","user-id":131510.0,"longitude":6.129596,"id":"a651ghhs8mlq","state":"_"},"type":"Feature","geometry":{"type":"Point","coordinates":[6.129596,49.6100036]}},{"properties":{"city":"Norfolk","isbn":671027360.0,"latitude":36.8468146,"book-rating":9.0,"title":"Angels &amp; Demons","user-id":13173.0,"longitude":-76.2852183,"id":"a651ghiqjmjg","state":"Virginia"},"type":"Feature","geometry":{"type":"Point","coordinates":[-76.2852183,36.8468146]}},{"properties":{"city":"Harrisburg","isbn":671027360.0,"latitude":40.2737002,"book-rating":8.0,"title":"Angels &amp; Demons","user-id":13273.0,"longitude":-76.8844179,"id":"a651ghbgi1qb","state":"Pennsylvania"},"type":"Feature","geometry":{"type":"Point","coordinates":[-76.8844179,40.2737002]}},{"properties":{"city":"Ottawa","isbn":671027360.0,"latitude":45.423494,"book-rating":9.0,"title":"Angels &amp; Demons","user-id":134508.0,"longitude":-75.697933,"id":"a651ghh0c2mm","state":"Ontario"},"type":"Feature","geometry":{"type":"Point","coordinates":[-75.697933,45.423494]}},{"properties":{"city":"Alexandria","isbn":671027360.0,"latitude":38.8048355,"book-rating":10.0,"title":"Angels &amp; Demons","user-id":135466.0,"longitude":-77.0469214,"id":"a651gh964lzj","state":"Virginia"},"type":"Feature","geometry":{"type":"Point","coordinates":[-77.0469214,38.8048355]}},{"properties":{"city":"Des Moines","isbn":671027360.0,"latitude":41.6005448,"book-rating":8.0,"title":"Angels &amp; Demons","user-id":136762.0,"longitude":-93.6091064,"id":"a651ghb4pb0n","state":"Iowa"},"type":"Feature","geometry":{"type":"Point","coordinates":[-93.6091064,41.6005448]}},{"properties":{"city":"Winter Park","isbn":743535766.0,"latitude":28.5999998,"book-rating":7.0,"title":"Angels &amp; Demons","user-id":138097.0,"longitude":-81.3392352,"id":"a651ghgfwc5b","state":"Florida"},"type":"Feature","geometry":{"type":"Point","coordinates":[-81.3392352,28.5999998]}},{"properties":{"city":"Keyser","isbn":671027360.0,"latitude":39.4409277,"book-rating":8.0,"title":"Angels &amp; Demons","user-id":138995.0,"longitude":-78.9739156,"id":"a651gh5rrhl4","state":"West Virginia"},"type":"Feature","geometry":{"type":"Point","coordinates":[-78.9739156,39.4409277]}},{"properties":{"city":"London","isbn":671027360.0,"latitude":51.5001524,"book-rating":6.0,"title":"Angels &amp; Demons","user-id":140000.0,"longitude":-0.1262362,"id":"a651gh9l7qwu","state":"England"},"type":"Feature","geometry":{"type":"Point","coordinates":[-0.1262362,51.5001524]}},{"properties":{"city":"Hamtramck","isbn":671027360.0,"latitude":42.3928151,"book-rating":7.0,"title":"Angels &amp; Demons","user-id":141128.0,"longitude":-83.0496438,"id":"a651gh9htrss","state":"Michigan"},"type":"Feature","geometry":{"type":"Point","coordinates":[-83.0496438,42.3928151]}},{"properties":{"city":"Waipahu","isbn":671027360.0,"latitude":21.3866667,"book-rating":7.0,"title":"Angels &amp; Demons","user-id":142121.0,"longitude":-158.0091667,"id":"a651ghc55uvo","state":"Hawaii"},"type":"Feature","geometry":{"type":"Point","coordinates":[-158.0091667,21.3866667]}},{"properties":{"city":"Elk Grove","isbn":743486226.0,"latitude":38.4087993,"book-rating":9.0,"title":"Angels &amp; Demons","user-id":142387.0,"longitude":-121.3716178,"id":"a651ghd8wko1","state":"California"},"type":"Feature","geometry":{"type":"Point","coordinates":[-121.3716178,38.4087993]}},{"properties":{"city":"Portland","isbn":671027360.0,"latitude":45.5234515,"book-rating":6.0,"title":"Angels &amp; Demons","user-id":143429.0,"longitude":-122.6762071,"id":"a651gh8q72mz","state":"Oregon"},"type":"Feature","geometry":{"type":"Point","coordinates":[-122.6762071,45.5234515]}},{"properties":{"city":"San Rafael","isbn":671027360.0,"latitude":37.9735346,"book-rating":8.0,"title":"Angels &amp; Demons","user-id":144742.0,"longitude":-122.5310874,"id":"a651gh79ovrw","state":"California"},"type":"Feature","geometry":{"type":"Point","coordinates":[-122.5310874,37.9735346]}},{"properties":{"city":"Arlington","isbn":671027360.0,"latitude":38.8903896,"book-rating":7.0,"title":"Angels &amp; Demons","user-id":145724.0,"longitude":-77.0841446,"id":"a651ghaw79vt","state":"Virginia"},"type":"Feature","geometry":{"type":"Point","coordinates":[-77.0841446,38.8903896]}},{"properties":{"city":"Redhill","isbn":671027360.0,"latitude":51.2407965,"book-rating":9.0,"title":"Angels &amp; Demons","user-id":147156.0,"longitude":-0.1700869,"id":"a651gh4tq4j5","state":"Surrey"},"type":"Feature","geometry":{"type":"Point","coordinates":[-0.1700869,51.2407965]}},{"properties":{"city":"Herne Bay","isbn":671027360.0,"latitude":51.3712867,"book-rating":9.0,"title":"Angels &amp; Demons","user-id":147451.0,"longitude":1.1263365,"id":"a651gh7z9sdq","state":"England"},"type":"Feature","geometry":{"type":"Point","coordinates":[1.1263365,51.3712867]}},{"properties":{"city":"Los Angeles","isbn":671027360.0,"latitude":34.0522342,"book-rating":10.0,"title":"Angels &amp; Demons","user-id":148030.0,"longitude":-118.2436849,"id":"a651ghjtra6j","state":"California"},"type":"Feature","geometry":{"type":"Point","coordinates":[-118.2436849,34.0522342]}},{"properties":{"city":"Greenwood","isbn":671027360.0,"latitude":34.1954001,"book-rating":8.0,"title":"Angels &amp; Demons","user-id":150814.0,"longitude":-82.1617883,"id":"a651gh99n71f","state":"South Carolina"},"type":"Feature","geometry":{"type":"Point","coordinates":[-82.1617883,34.1954001]}},{"properties":{"city":"Greencastle","isbn":743535774.0,"latitude":39.790371,"book-rating":8.0,"title":"Angels &amp; Demons","user-id":150979.0,"longitude":-77.7277714,"id":"a651gh6y7elm","state":"Pennsylvania"},"type":"Feature","geometry":{"type":"Point","coordinates":[-77.7277714,39.790371]}},{"properties":{"city":"Lowell","isbn":743486226.0,"latitude":42.6334247,"book-rating":8.0,"title":"Angels &amp; Demons","user-id":151303.0,"longitude":-71.3161718,"id":"a651gh9qhd4a","state":"Massachusetts"},"type":"Feature","geometry":{"type":"Point","coordinates":[-71.3161718,42.6334247]}},{"properties":{"city":"Omaha","isbn":671027360.0,"latitude":41.254006,"book-rating":9.0,"title":"Angels &amp; Demons","user-id":151653.0,"longitude":-95.999258,"id":"a651gh6nuyux","state":"Nebraska"},"type":"Feature","geometry":{"type":"Point","coordinates":[-95.999258,41.254006]}},{"properties":{"city":"Boston","isbn":671027360.0,"latitude":42.3584308,"book-rating":7.0,"title":"Angels &amp; Demons","user-id":152376.0,"longitude":-71.0597732,"id":"a651ghbt69iv","state":"Massachusetts"},"type":"Feature","geometry":{"type":"Point","coordinates":[-71.0597732,42.3584308]}},{"properties":{"city":"Fishers","isbn":671027360.0,"latitude":39.9555928,"book-rating":8.0,"title":"Angels &amp; Demons","user-id":154529.0,"longitude":-86.0138729,"id":"a651ghhkdxve","state":"Indiana"},"type":"Feature","geometry":{"type":"Point","coordinates":[-86.0138729,39.9555928]}},{"properties":{"city":"Stamford","isbn":671027360.0,"latitude":41.0534302,"book-rating":10.0,"title":"Angels &amp; Demons","user-id":155219.0,"longitude":-73.5387341,"id":"a651gh7dzbj6","state":"Connecticut"},"type":"Feature","geometry":{"type":"Point","coordinates":[-73.5387341,41.0534302]}},{"properties":{"city":"Pasadena","isbn":671027360.0,"latitude":34.1477849,"book-rating":8.0,"title":"Angels &amp; Demons","user-id":155291.0,"longitude":-118.1445155,"id":"a651ghic3lid","state":"California"},"type":"Feature","geometry":{"type":"Point","coordinates":[-118.1445155,34.1477849]}},{"properties":{"city":"Fairport","isbn":743486226.0,"latitude":43.0986742,"book-rating":9.0,"title":"Angels &amp; Demons","user-id":155580.0,"longitude":-77.4419378,"id":"a651ghfp30ic","state":"New York"},"type":"Feature","geometry":{"type":"Point","coordinates":[-77.4419378,43.0986742]}},{"properties":{"city":"Orlando","isbn":671027360.0,"latitude":28.5383355,"book-rating":10.0,"title":"Angels &amp; Demons","user-id":155778.0,"longitude":-81.3792365,"id":"a651ghj661vt","state":null},"type":"Feature","geometry":{"type":"Point","coordinates":[-81.3792365,28.5383355]}},{"properties":{"city":"Regensburg","isbn":671027360.0,"latitude":49.016491,"book-rating":6.0,"title":"Angels &amp; Demons","user-id":155913.0,"longitude":12.100904,"id":"a651ghf5tmqu","state":"Bayern"},"type":"Feature","geometry":{"type":"Point","coordinates":[12.100904,49.016491]}},{"properties":{"city":"Howell","isbn":671027360.0,"latitude":40.1690369,"book-rating":6.0,"title":"Angels &amp; Demons","user-id":156150.0,"longitude":-74.1944529,"id":"a651ghfxh3li","state":"New Jersey"},"type":"Feature","geometry":{"type":"Point","coordinates":[-74.1944529,40.1690369]}},{"properties":{"city":"Deventer","isbn":671027360.0,"latitude":52.25446,"book-rating":7.0,"title":"Angels &amp; Demons","user-id":157247.0,"longitude":6.160247,"id":"a651ghgt1ifh","state":"Overijssel"},"type":"Feature","geometry":{"type":"Point","coordinates":[6.160247,52.25446]}},{"properties":{"city":"Grapevine","isbn":671027360.0,"latitude":32.9342919,"book-rating":10.0,"title":"Angels &amp; Demons","user-id":15819.0,"longitude":-97.0780654,"id":"a651ghhxs6q1","state":"Texas"},"type":"Feature","geometry":{"type":"Point","coordinates":[-97.0780654,32.9342919]}},{"properties":{"city":"Oslo","isbn":671027360.0,"latitude":59.9138204,"book-rating":4.0,"title":"Angels &amp; Demons","user-id":158226.0,"longitude":10.7387413,"id":"a651ghar0onp","state":"Oslo"},"type":"Feature","geometry":{"type":"Point","coordinates":[10.7387413,59.9138204]}},{"properties":{"city":"Taneytown","isbn":671027360.0,"latitude":39.6578773,"book-rating":9.0,"title":"Angels &amp; Demons","user-id":159033.0,"longitude":-77.1744279,"id":"a651ghc1akn1","state":"Maryland"},"type":"Feature","geometry":{"type":"Point","coordinates":[-77.1744279,39.6578773]}},{"properties":{"city":"Stamford","isbn":671027360.0,"latitude":41.0534302,"book-rating":9.0,"title":"Angels &amp; Demons","user-id":160841.0,"longitude":-73.5387341,"id":"a651ghgs4l92","state":"Connecticut"},"type":"Feature","geometry":{"type":"Point","coordinates":[-73.5387341,41.0534302]}},{"properties":{"city":"Albany","isbn":671027360.0,"latitude":37.88687,"book-rating":10.0,"title":"Angels &amp; Demons","user-id":16106.0,"longitude":-122.2977475,"id":"a651ghdekisv","state":"California"},"type":"Feature","geometry":{"type":"Point","coordinates":[-122.2977475,37.88687]}},{"properties":{"city":"Lisboa","isbn":671027360.0,"latitude":38.7071631,"book-rating":6.0,"title":"Angels &amp; Demons","user-id":164096.0,"longitude":-9.135517,"id":"a651ghbzcjp7","state":"Lisboa"},"type":"Feature","geometry":{"type":"Point","coordinates":[-9.135517,38.7071631]}},{"properties":{"city":"Delta","isbn":671027360.0,"latitude":49.156022,"book-rating":9.0,"title":"Angels &amp; Demons","user-id":164323.0,"longitude":-122.91242,"id":"a651ghjjp8kr","state":"British Columbia"},"type":"Feature","geometry":{"type":"Point","coordinates":[-122.91242,49.156022]}},{"properties":{"city":"Woods Hole","isbn":671027360.0,"latitude":41.5264977,"book-rating":10.0,"title":"Angels &amp; Demons","user-id":165838.0,"longitude":-70.6730857,"id":"a651ghas7f0b","state":"Massachusetts"},"type":"Feature","geometry":{"type":"Point","coordinates":[-70.6730857,41.5264977]}},{"properties":{"city":"Frankston","isbn":671027360.0,"latitude":-38.145001,"book-rating":8.0,"title":"Angels &amp; Demons","user-id":168387.0,"longitude":145.122477,"id":"a651ghaon6di","state":"Victoria"},"type":"Feature","geometry":{"type":"Point","coordinates":[145.122477,-38.145001]}},{"properties":{"city":"Oxford","isbn":671027360.0,"latitude":51.7522764,"book-rating":3.0,"title":"Angels &amp; Demons","user-id":169234.0,"longitude":-1.2558243,"id":"a651gh7bey2o","state":"England"},"type":"Feature","geometry":{"type":"Point","coordinates":[-1.2558243,51.7522764]}},{"properties":{"city":"Vista","isbn":671027360.0,"latitude":33.2000368,"book-rating":6.0,"title":"Angels &amp; Demons","user-id":169348.0,"longitude":-117.2425355,"id":"a651gh980yhl","state":"California"},"type":"Feature","geometry":{"type":"Point","coordinates":[-117.2425355,33.2000368]}},{"properties":{"city":"Vancouver","isbn":671027360.0,"latitude":49.263588,"book-rating":6.0,"title":"Angels &amp; Demons","user-id":170256.0,"longitude":-123.138565,"id":"a651ghbyg18x","state":"British Columbia"},"type":"Feature","geometry":{"type":"Point","coordinates":[-123.138565,49.263588]}},{"properties":{"city":"Greenville","isbn":671027360.0,"latitude":34.8526176,"book-rating":3.0,"title":"Angels &amp; Demons","user-id":171096.0,"longitude":-82.3940104,"id":"a651ghevem8w","state":"South Carolina"},"type":"Feature","geometry":{"type":"Point","coordinates":[-82.3940104,34.8526176]}},{"properties":{"city":"Bentonville","isbn":671027360.0,"latitude":36.3728538,"book-rating":2.0,"title":"Angels &amp; Demons","user-id":174987.0,"longitude":-94.2088172,"id":"a651gh3pd5tq","state":"Arkansas"},"type":"Feature","geometry":{"type":"Point","coordinates":[-94.2088172,36.3728538]}},{"properties":{"city":"Davis","isbn":671027360.0,"latitude":38.5449065,"book-rating":8.0,"title":"Angels &amp; Demons","user-id":175254.0,"longitude":-121.7405167,"id":"a651ghcgh66j","state":"California"},"type":"Feature","geometry":{"type":"Point","coordinates":[-121.7405167,38.5449065]}},{"properties":{"city":"Los Angeles","isbn":671027360.0,"latitude":34.0522342,"book-rating":6.0,"title":"Angels &amp; Demons","user-id":177098.0,"longitude":-118.2436849,"id":"a651ghaczcmy","state":"California"},"type":"Feature","geometry":{"type":"Point","coordinates":[-118.2436849,34.0522342]}},{"properties":{"city":"Raleigh","isbn":671027360.0,"latitude":35.772096,"book-rating":7.0,"title":"Angels &amp; Demons","user-id":179433.0,"longitude":-78.6386145,"id":"a651gharbszz","state":"North Carolina"},"type":"Feature","geometry":{"type":"Point","coordinates":[-78.6386145,35.772096]}},{"properties":{"city":"Canterbury","isbn":671027360.0,"latitude":43.3370233,"book-rating":9.0,"title":"Angels &amp; Demons","user-id":181513.0,"longitude":-71.5653515,"id":"a651gh5r2qb9","state":"New Hampshire"},"type":"Feature","geometry":{"type":"Point","coordinates":[-71.5653515,43.3370233]}},{"properties":{"city":"Lansing","isbn":671027360.0,"latitude":42.732535,"book-rating":8.0,"title":"Angels &amp; Demons","user-id":18167.0,"longitude":-84.5555347,"id":"a651gh9xmld6","state":"Michigan"},"type":"Feature","geometry":{"type":"Point","coordinates":[-84.5555347,42.732535]}},{"properties":{"city":"Washington","isbn":671027360.0,"latitude":38.8951118,"book-rating":6.0,"title":"Angels &amp; Demons","user-id":183883.0,"longitude":-77.0363658,"id":"a651gh7hsz7g","state":"Dc"},"type":"Feature","geometry":{"type":"Point","coordinates":[-77.0363658,38.8951118]}},{"properties":{"city":"Garland","isbn":671027360.0,"latitude":32.912624,"book-rating":5.0,"title":"Angels &amp; Demons","user-id":185497.0,"longitude":-96.6388833,"id":"a651ghg1q0sd","state":"Texas"},"type":"Feature","geometry":{"type":"Point","coordinates":[-96.6388833,32.912624]}},{"properties":{"city":"East Greenwich","isbn":671027360.0,"latitude":41.6603787,"book-rating":9.0,"title":"Angels &amp; Demons","user-id":187463.0,"longitude":-71.4558911,"id":"a651ghdjg221","state":"Rhode Island"},"type":"Feature","geometry":{"type":"Point","coordinates":[-71.4558911,41.6603787]}},{"properties":{"city":"Harlowton","isbn":671027360.0,"latitude":46.435512,"book-rating":9.0,"title":"Angels &amp; Demons","user-id":188022.0,"longitude":-109.8343499,"id":"a651gh7czxsm","state":"Montana"},"type":"Feature","geometry":{"type":"Point","coordinates":[-109.8343499,46.435512]}},{"properties":{"city":"Port Washington","isbn":671027360.0,"latitude":43.3872247,"book-rating":8.0,"title":"Angels &amp; Demons","user-id":188350.0,"longitude":-87.875644,"id":"a651ghjafn5j","state":"Wisconsin"},"type":"Feature","geometry":{"type":"Point","coordinates":[-87.875644,43.3872247]}},{"properties":{"city":"Ramona","isbn":671027360.0,"latitude":33.0417111,"book-rating":9.0,"title":"Angels &amp; Demons","user-id":190708.0,"longitude":-116.868082,"id":"a651ghj08nv6","state":"California"},"type":"Feature","geometry":{"type":"Point","coordinates":[-116.868082,33.0417111]}},{"properties":{"city":"Occoquan","isbn":671027360.0,"latitude":38.6837271,"book-rating":9.0,"title":"Angels &amp; Demons","user-id":192119.0,"longitude":-77.260261,"id":"a651gh6twy0e","state":"Virginia"},"type":"Feature","geometry":{"type":"Point","coordinates":[-77.260261,38.6837271]}},{"properties":{"city":"Deland","isbn":671027360.0,"latitude":29.028318,"book-rating":10.0,"title":"Angels &amp; Demons","user-id":193499.0,"longitude":-81.3031179,"id":"a651gh57y8sq","state":"Florida"},"type":"Feature","geometry":{"type":"Point","coordinates":[-81.3031179,29.028318]}},{"properties":{"city":"Griffin","isbn":671027360.0,"latitude":33.2467807,"book-rating":10.0,"title":"Angels &amp; Demons","user-id":193540.0,"longitude":-84.2640904,"id":"a651gh8shum5","state":"Georgia"},"type":"Feature","geometry":{"type":"Point","coordinates":[-84.2640904,33.2467807]}},{"properties":{"city":"Pasadena","isbn":671027360.0,"latitude":39.1073317,"book-rating":8.0,"title":"Angels &amp; Demons","user-id":193750.0,"longitude":-76.5710753,"id":"a651ghindaox","state":"Maryland"},"type":"Feature","geometry":{"type":"Point","coordinates":[-76.5710753,39.1073317]}},{"properties":{"city":"Marietta","isbn":671027360.0,"latitude":33.952602,"book-rating":7.0,"title":"Angels &amp; Demons","user-id":193940.0,"longitude":-84.5499327,"id":"a651gh40egts","state":"Georgia"},"type":"Feature","geometry":{"type":"Point","coordinates":[-84.5499327,33.952602]}},{"properties":{"city":"Clarksville","isbn":671027360.0,"latitude":39.2064954,"book-rating":9.0,"title":"Angels &amp; Demons","user-id":194243.0,"longitude":-76.9430315,"id":"a651gh8eueac","state":"Maryland"},"type":"Feature","geometry":{"type":"Point","coordinates":[-76.9430315,39.2064954]}},{"properties":{"city":"Snellville","isbn":671027360.0,"latitude":33.857328,"book-rating":10.0,"title":"Angels &amp; Demons","user-id":196738.0,"longitude":-84.0199108,"id":"a651gh6fsto8","state":"Georgia"},"type":"Feature","geometry":{"type":"Point","coordinates":[-84.0199108,33.857328]}},{"properties":{"city":"Milwaukee","isbn":671027360.0,"latitude":43.0389025,"book-rating":8.0,"title":"Angels &amp; Demons","user-id":198046.0,"longitude":-87.9064736,"id":"a651ghjdzdi0","state":"Wisconsin"},"type":"Feature","geometry":{"type":"Point","coordinates":[-87.9064736,43.0389025]}},{"properties":{"city":"Waretown","isbn":671027360.0,"latitude":39.7915084,"book-rating":10.0,"title":"Angels &amp; Demons","user-id":198412.0,"longitude":-74.1951395,"id":"a651ghedsycu","state":"New Jersey"},"type":"Feature","geometry":{"type":"Point","coordinates":[-74.1951395,39.7915084]}},{"properties":{"city":"Brooklyn Park","isbn":671027360.0,"latitude":45.0941315,"book-rating":10.0,"title":"Angels &amp; Demons","user-id":198726.0,"longitude":-93.3563405,"id":"a651ghecb6rg","state":"Minnesota"},"type":"Feature","geometry":{"type":"Point","coordinates":[-93.3563405,45.0941315]}},{"properties":{"city":"Methuen","isbn":743486226.0,"latitude":42.7262016,"book-rating":7.0,"title":"Angels &amp; Demons","user-id":198781.0,"longitude":-71.1908924,"id":"a651gh6w1orf","state":"Massachusetts"},"type":"Feature","geometry":{"type":"Point","coordinates":[-71.1908924,42.7262016]}},{"properties":{"city":"Napa","isbn":671027360.0,"latitude":38.305031,"book-rating":8.0,"title":"Angels &amp; Demons","user-id":199209.0,"longitude":-122.289803,"id":"a651gh8w1849","state":"California"},"type":"Feature","geometry":{"type":"Point","coordinates":[-122.289803,38.305031]}},{"properties":{"city":"Millbrae","isbn":671027360.0,"latitude":37.5985468,"book-rating":7.0,"title":"Angels &amp; Demons","user-id":200130.0,"longitude":-122.3871942,"id":"a651gh9rcpd2","state":"California"},"type":"Feature","geometry":{"type":"Point","coordinates":[-122.3871942,37.5985468]}},{"properties":{"city":"Anaheim","isbn":671027360.0,"latitude":33.8352932,"book-rating":8.0,"title":"Angels &amp; Demons","user-id":200493.0,"longitude":-117.9145036,"id":"a651ghfigtdz","state":"California"},"type":"Feature","geometry":{"type":"Point","coordinates":[-117.9145036,33.8352932]}},{"properties":{"city":"Halifax","isbn":671027352.0,"latitude":44.646244,"book-rating":8.0,"title":"Angels &amp; Demons","user-id":200556.0,"longitude":-63.573566,"id":"a651ghgeh3os","state":"Nova Scotia"},"type":"Feature","geometry":{"type":"Point","coordinates":[-63.573566,44.646244]}},{"properties":{"city":"Philadelphia","isbn":671027360.0,"latitude":39.952335,"book-rating":9.0,"title":"Angels &amp; Demons","user-id":201346.0,"longitude":-75.163789,"id":"a651ghficnjs","state":"Pennsylvania"},"type":"Feature","geometry":{"type":"Point","coordinates":[-75.163789,39.952335]}},{"properties":{"city":"Hawthorne","isbn":743486226.0,"latitude":40.9492649,"book-rating":8.0,"title":"Angels &amp; Demons","user-id":201677.0,"longitude":-74.1537549,"id":"a651gh74czcv","state":"New Jersey"},"type":"Feature","geometry":{"type":"Point","coordinates":[-74.1537549,40.9492649]}},{"properties":{"city":"Irvine","isbn":671027360.0,"latitude":33.6694649,"book-rating":9.0,"title":"Angels &amp; Demons","user-id":202058.0,"longitude":-117.8231107,"id":"a651ghg8nhw5","state":"California"},"type":"Feature","geometry":{"type":"Point","coordinates":[-117.8231107,33.6694649]}},{"properties":{"city":"Debary","isbn":671027360.0,"latitude":28.8830452,"book-rating":8.0,"title":"Angels &amp; Demons","user-id":202379.0,"longitude":-81.3086755,"id":"a651gh601r8m","state":"Florida"},"type":"Feature","geometry":{"type":"Point","coordinates":[-81.3086755,28.8830452]}},{"properties":{"city":"Arlington","isbn":671027360.0,"latitude":32.735687,"book-rating":8.0,"title":"Angels &amp; Demons","user-id":202462.0,"longitude":-97.1080656,"id":"a651gh86brpc","state":"Texas"},"type":"Feature","geometry":{"type":"Point","coordinates":[-97.1080656,32.735687]}},{"properties":{"city":"Surprise","isbn":671027360.0,"latitude":33.6305938,"book-rating":7.0,"title":"Angels &amp; Demons","user-id":202942.0,"longitude":-112.333216,"id":"a651ghbaczml","state":"Arizona"},"type":"Feature","geometry":{"type":"Point","coordinates":[-112.333216,33.6305938]}},{"properties":{"city":"Conshohocken","isbn":671027360.0,"latitude":40.0792766,"book-rating":10.0,"title":"Angels &amp; Demons","user-id":204622.0,"longitude":-75.3015714,"id":"a651gh908rz7","state":"Pennsylvania"},"type":"Feature","geometry":{"type":"Point","coordinates":[-75.3015714,40.0792766]}},{"properties":{"city":"Sunnyvale","isbn":671027360.0,"latitude":37.36883,"book-rating":9.0,"title":"Angels &amp; Demons","user-id":204777.0,"longitude":-122.0363496,"id":"a651ghij0jn7","state":"California"},"type":"Feature","geometry":{"type":"Point","coordinates":[-122.0363496,37.36883]}},{"properties":{"city":"Stilwell","isbn":671027360.0,"latitude":38.7691755,"book-rating":8.0,"title":"Angels &amp; Demons","user-id":204783.0,"longitude":-94.6563454,"id":"a651ghftiqze","state":"Kansas"},"type":"Feature","geometry":{"type":"Point","coordinates":[-94.6563454,38.7691755]}},{"properties":{"city":"Jersey City","isbn":671027360.0,"latitude":40.7281575,"book-rating":9.0,"title":"Angels &amp; Demons","user-id":204813.0,"longitude":-74.0776417,"id":"a651gh8nnxuh","state":"New Jersey"},"type":"Feature","geometry":{"type":"Point","coordinates":[-74.0776417,40.7281575]}},{"properties":{"city":"Lancaster","isbn":671027360.0,"latitude":39.7136754,"book-rating":10.0,"title":"Angels &amp; Demons","user-id":206305.0,"longitude":-82.5993294,"id":"a651ghcal6dl","state":"Ohio"},"type":"Feature","geometry":{"type":"Point","coordinates":[-82.5993294,39.7136754]}},{"properties":{"city":"Tegucigalpa","isbn":671027360.0,"latitude":14.0828897,"book-rating":6.0,"title":"Angels &amp; Demons","user-id":206709.0,"longitude":-87.2091674,"id":"a651gh65nmmd","state":"Central America"},"type":"Feature","geometry":{"type":"Point","coordinates":[-87.2091674,14.0828897]}},{"properties":{"city":"Owensboro","isbn":671027360.0,"latitude":37.7742152,"book-rating":9.0,"title":"Angels &amp; Demons","user-id":207246.0,"longitude":-87.1133304,"id":"a651gh3nt5gv","state":"Kentucky"},"type":"Feature","geometry":{"type":"Point","coordinates":[-87.1133304,37.7742152]}},{"properties":{"city":"Las Cruces","isbn":671027352.0,"latitude":32.3123157,"book-rating":8.0,"title":"Angels &amp; Demons","user-id":207499.0,"longitude":-106.7783374,"id":"a651gh7xsgse","state":"New Mexico"},"type":"Feature","geometry":{"type":"Point","coordinates":[-106.7783374,32.3123157]}},{"properties":{"city":"Midland","isbn":671027360.0,"latitude":31.9973456,"book-rating":8.0,"title":"Angels &amp; Demons","user-id":207782.0,"longitude":-102.0779146,"id":"a651ghcjqin8","state":"Texas"},"type":"Feature","geometry":{"type":"Point","coordinates":[-102.0779146,31.9973456]}},{"properties":{"city":"Mountain View","isbn":671027360.0,"latitude":37.3860517,"book-rating":9.0,"title":"Angels &amp; Demons","user-id":209373.0,"longitude":-122.0838511,"id":"a651gh7ius8d","state":"California"},"type":"Feature","geometry":{"type":"Point","coordinates":[-122.0838511,37.3860517]}},{"properties":{"city":"Crescent City","isbn":671027360.0,"latitude":41.7559481,"book-rating":9.0,"title":"Angels &amp; Demons","user-id":209875.0,"longitude":-124.2017474,"id":"a651ghia15rk","state":"California"},"type":"Feature","geometry":{"type":"Point","coordinates":[-124.2017474,41.7559481]}},{"properties":{"city":"Alexandria","isbn":743486226.0,"latitude":38.8048355,"book-rating":8.0,"title":"Angels &amp; Demons","user-id":21031.0,"longitude":-77.0469214,"id":"a651ghelnqx2","state":"Virginia"},"type":"Feature","geometry":{"type":"Point","coordinates":[-77.0469214,38.8048355]}},{"properties":{"city":"Adelaide","isbn":671027360.0,"latitude":-34.92577,"book-rating":4.0,"title":"Angels &amp; Demons","user-id":210695.0,"longitude":138.599732,"id":"a651ghb4g9fy","state":"South Australia"},"type":"Feature","geometry":{"type":"Point","coordinates":[138.599732,-34.92577]}},{"properties":{"city":"Vienna","isbn":671027360.0,"latitude":38.9012225,"book-rating":8.0,"title":"Angels &amp; Demons","user-id":211344.0,"longitude":-77.2652604,"id":"a651ghcecszi","state":"Virginia"},"type":"Feature","geometry":{"type":"Point","coordinates":[-77.2652604,38.9012225]}},{"properties":{"city":"Cape Coral","isbn":671027360.0,"latitude":26.5628537,"book-rating":6.0,"title":"Angels &amp; Demons","user-id":212853.0,"longitude":-81.9495331,"id":"a651gheoa4zb","state":"Florida"},"type":"Feature","geometry":{"type":"Point","coordinates":[-81.9495331,26.5628537]}},{"properties":{"city":"Minneapolis","isbn":671027360.0,"latitude":44.9799654,"book-rating":10.0,"title":"Angels &amp; Demons","user-id":212923.0,"longitude":-93.2638361,"id":"a651gh7iap6i","state":"Minnesota"},"type":"Feature","geometry":{"type":"Point","coordinates":[-93.2638361,44.9799654]}},{"properties":{"city":"Greenwood","isbn":743486226.0,"latitude":35.4078639,"book-rating":7.0,"title":"Angels &amp; Demons","user-id":21395.0,"longitude":-93.7713066,"id":"a651gh6nolr5","state":"Arkansas"},"type":"Feature","geometry":{"type":"Point","coordinates":[-93.7713066,35.4078639]}},{"properties":{"city":"Avondale","isbn":671027360.0,"latitude":33.4355977,"book-rating":8.0,"title":"Angels &amp; Demons","user-id":214641.0,"longitude":-112.3496021,"id":"a651gh6g0c4h","state":"Arizona"},"type":"Feature","geometry":{"type":"Point","coordinates":[-112.3496021,33.4355977]}},{"properties":{"city":"Memphis","isbn":743535774.0,"latitude":35.1495343,"book-rating":8.0,"title":"Angels &amp; Demons","user-id":21576.0,"longitude":-90.0489801,"id":"a651gh51e0qa","state":"Tennessee"},"type":"Feature","geometry":{"type":"Point","coordinates":[-90.0489801,35.1495343]}},{"properties":{"city":"Cincinnati","isbn":671027360.0,"latitude":39.14801,"book-rating":9.0,"title":"Angels &amp; Demons","user-id":215794.0,"longitude":-84.47702,"id":"a651ghjjkyds","state":"Ohio"},"type":"Feature","geometry":{"type":"Point","coordinates":[-84.47702,39.14801]}},{"properties":{"city":"Philadelphia","isbn":671027360.0,"latitude":39.952335,"book-rating":8.0,"title":"Angels &amp; Demons","user-id":216010.0,"longitude":-75.163789,"id":"a651ghgqb0d8","state":"Pennsylvania"},"type":"Feature","geometry":{"type":"Point","coordinates":[-75.163789,39.952335]}},{"properties":{"city":"Atlanta","isbn":671027360.0,"latitude":33.7489954,"book-rating":8.0,"title":"Angels &amp; Demons","user-id":21618.0,"longitude":-84.3879824,"id":"a651gh4c4x2d","state":"Georgia"},"type":"Feature","geometry":{"type":"Point","coordinates":[-84.3879824,33.7489954]}},{"properties":{"city":"Fariport","isbn":671027360.0,"latitude":43.0986742,"book-rating":7.0,"title":"Angels &amp; Demons","user-id":216563.0,"longitude":-77.4419378,"id":"a651gheg2bl6","state":"New York"},"type":"Feature","geometry":{"type":"Point","coordinates":[-77.4419378,43.0986742]}},{"properties":{"city":"Pittsburgh","isbn":671027360.0,"latitude":40.4406248,"book-rating":9.0,"title":"Angels &amp; Demons","user-id":217107.0,"longitude":-79.9958864,"id":"a651gh40wero","state":"Pennsylvania"},"type":"Feature","geometry":{"type":"Point","coordinates":[-79.9958864,40.4406248]}},{"properties":{"city":"Seattle","isbn":671027360.0,"latitude":47.6062095,"book-rating":9.0,"title":"Angels &amp; Demons","user-id":218322.0,"longitude":-122.3320708,"id":"a651ghiagckm","state":"Washington"},"type":"Feature","geometry":{"type":"Point","coordinates":[-122.3320708,47.6062095]}},{"properties":{"city":"San Antonio","isbn":671027360.0,"latitude":29.4241219,"book-rating":8.0,"title":"Angels &amp; Demons","user-id":218552.0,"longitude":-98.4936282,"id":"a651ghh7mnr0","state":"Texas"},"type":"Feature","geometry":{"type":"Point","coordinates":[-98.4936282,29.4241219]}},{"properties":{"city":"San Leandro","isbn":671027360.0,"latitude":37.7249296,"book-rating":8.0,"title":"Angels &amp; Demons","user-id":219149.0,"longitude":-122.1560768,"id":"a651gh9ibb81","state":"California"},"type":"Feature","geometry":{"type":"Point","coordinates":[-122.1560768,37.7249296]}},{"properties":{"city":"Charlotte","isbn":671027360.0,"latitude":35.2270869,"book-rating":8.0,"title":"Angels &amp; Demons","user-id":220339.0,"longitude":-80.8431267,"id":"a651ghghxrhp","state":"North Carolina"},"type":"Feature","geometry":{"type":"Point","coordinates":[-80.8431267,35.2270869]}},{"properties":{"city":"Alta Loma","isbn":671027360.0,"latitude":34.1222317,"book-rating":5.0,"title":"Angels &amp; Demons","user-id":221543.0,"longitude":-117.5981086,"id":"a651gh6wp1h8","state":"California"},"type":"Feature","geometry":{"type":"Point","coordinates":[-117.5981086,34.1222317]}},{"properties":{"city":"Hagerstown","isbn":671027352.0,"latitude":39.6417629,"book-rating":5.0,"title":"Angels &amp; Demons","user-id":221753.0,"longitude":-77.7199932,"id":"a651gh72qx17","state":"Maryland"},"type":"Feature","geometry":{"type":"Point","coordinates":[-77.7199932,39.6417629]}},{"properties":{"city":"Wilmington","isbn":671027360.0,"latitude":34.2257255,"book-rating":7.0,"title":"Angels &amp; Demons","user-id":223154.0,"longitude":-77.9447102,"id":"a651gh48rq99","state":"North Carolina"},"type":"Feature","geometry":{"type":"Point","coordinates":[-77.9447102,34.2257255]}},{"properties":{"city":"Los Angeles","isbn":671027360.0,"latitude":34.0522342,"book-rating":7.0,"title":"Angels &amp; Demons","user-id":223431.0,"longitude":-118.2436849,"id":"a651gh47wv9g","state":"California"},"type":"Feature","geometry":{"type":"Point","coordinates":[-118.2436849,34.0522342]}},{"properties":{"city":"St Paul","isbn":671027360.0,"latitude":44.9444101,"book-rating":10.0,"title":"Angels &amp; Demons","user-id":223849.0,"longitude":-93.0932742,"id":"a651gh73trnq","state":"Minnesota"},"type":"Feature","geometry":{"type":"Point","coordinates":[-93.0932742,44.9444101]}},{"properties":{"city":"Chester","isbn":671027360.0,"latitude":37.3568157,"book-rating":10.0,"title":"Angels &amp; Demons","user-id":224342.0,"longitude":-77.4416505,"id":"a651ghhvir3q","state":"Virginia"},"type":"Feature","geometry":{"type":"Point","coordinates":[-77.4416505,37.3568157]}},{"properties":{"city":"Rockaway","isbn":743486226.0,"latitude":40.9012101,"book-rating":8.0,"title":"Angels &amp; Demons","user-id":224764.0,"longitude":-74.5143232,"id":"a651ghh9bsqx","state":"New Jersey"},"type":"Feature","geometry":{"type":"Point","coordinates":[-74.5143232,40.9012101]}},{"properties":{"city":"San Francisco","isbn":671027360.0,"latitude":37.7749295,"book-rating":5.0,"title":"Angels &amp; Demons","user-id":225763.0,"longitude":-122.4194155,"id":"a651ghcy2hiy","state":"California"},"type":"Feature","geometry":{"type":"Point","coordinates":[-122.4194155,37.7749295]}},{"properties":{"city":"Romeoville","isbn":671027360.0,"latitude":41.6475306,"book-rating":9.0,"title":"Angels &amp; Demons","user-id":226205.0,"longitude":-88.0895061,"id":"a651ghf4euty","state":"Illinois"},"type":"Feature","geometry":{"type":"Point","coordinates":[-88.0895061,41.6475306]}},{"properties":{"city":"Tucson","isbn":671027360.0,"latitude":32.2217429,"book-rating":8.0,"title":"Angels &amp; Demons","user-id":226616.0,"longitude":-110.926479,"id":"a651gh8do844","state":"Arizona"},"type":"Feature","geometry":{"type":"Point","coordinates":[-110.926479,32.2217429]}},{"properties":{"city":"Cairo","isbn":671027360.0,"latitude":30.064742,"book-rating":10.0,"title":"Angels &amp; Demons","user-id":227641.0,"longitude":31.249509,"id":"a651ghd0oamc","state":"Cairo Governate"},"type":"Feature","geometry":{"type":"Point","coordinates":[31.249509,30.064742]}},{"properties":{"city":"Albuquerque","isbn":671027360.0,"latitude":35.0844909,"book-rating":10.0,"title":"Angels &amp; Demons","user-id":227774.0,"longitude":-106.6511367,"id":"a651ghcno6yf","state":"New Mexico"},"type":"Feature","geometry":{"type":"Point","coordinates":[-106.6511367,35.0844909]}},{"properties":{"city":"Myrtle Beach","isbn":671027360.0,"latitude":33.6890603,"book-rating":6.0,"title":"Angels &amp; Demons","user-id":228868.0,"longitude":-78.8866943,"id":"a651gh8x706f","state":"South Carolina"},"type":"Feature","geometry":{"type":"Point","coordinates":[-78.8866943,33.6890603]}},{"properties":{"city":"Leipzig","isbn":671027360.0,"latitude":51.3396802,"book-rating":7.0,"title":"Angels &amp; Demons","user-id":229409.0,"longitude":12.3713006,"id":"a651ghhtspy9","state":"Sachsen"},"type":"Feature","geometry":{"type":"Point","coordinates":[12.3713006,51.3396802]}},{"properties":{"city":"Orlando","isbn":671027360.0,"latitude":28.5383355,"book-rating":8.0,"title":"Angels &amp; Demons","user-id":230459.0,"longitude":-81.3792365,"id":"a651ghedujz5","state":"Florida"},"type":"Feature","geometry":{"type":"Point","coordinates":[-81.3792365,28.5383355]}},{"properties":{"city":"Lundy","isbn":671027360.0,"latitude":51.1781187,"book-rating":8.0,"title":"Angels &amp; Demons","user-id":230742.0,"longitude":-4.6673073,"id":"a651gha29dni","state":"England"},"type":"Feature","geometry":{"type":"Point","coordinates":[-4.6673073,51.1781187]}},{"properties":{"city":"Oakland","isbn":671027360.0,"latitude":37.8043722,"book-rating":7.0,"title":"Angels &amp; Demons","user-id":232131.0,"longitude":-122.2708026,"id":"a651ghbfjegd","state":"California"},"type":"Feature","geometry":{"type":"Point","coordinates":[-122.2708026,37.8043722]}},{"properties":{"city":"Kissimmee","isbn":671027360.0,"latitude":28.2919557,"book-rating":7.0,"title":"Angels &amp; Demons","user-id":233526.0,"longitude":-81.407571,"id":"a651ghezr6cj","state":"Florida"},"type":"Feature","geometry":{"type":"Point","coordinates":[-81.407571,28.2919557]}},{"properties":{"city":"Encino","isbn":671027360.0,"latitude":34.1591724,"book-rating":6.0,"title":"Angels &amp; Demons","user-id":235282.0,"longitude":-118.5011946,"id":"a651ghhfg2wy","state":"California"},"type":"Feature","geometry":{"type":"Point","coordinates":[-118.5011946,34.1591724]}},{"properties":{"city":"Chesapeake","isbn":671027360.0,"latitude":36.8190369,"book-rating":10.0,"title":"Angels &amp; Demons","user-id":236172.0,"longitude":-76.2749399,"id":"a651ghhmf365","state":"Virginia"},"type":"Feature","geometry":{"type":"Point","coordinates":[-76.2749399,36.8190369]}},{"properties":{"city":"Burlington","isbn":743486226.0,"latitude":44.4758825,"book-rating":5.0,"title":"Angels &amp; Demons","user-id":23619.0,"longitude":-73.212072,"id":"a651ghc87mrw","state":"Vermont"},"type":"Feature","geometry":{"type":"Point","coordinates":[-73.212072,44.4758825]}},{"properties":{"city":"Bethel","isbn":743486226.0,"latitude":41.547043,"book-rating":9.0,"title":"Angels &amp; Demons","user-id":23637.0,"longitude":-71.9078508,"id":"a651gh8aia2a","state":"Connecticut"},"type":"Feature","geometry":{"type":"Point","coordinates":[-71.9078508,41.547043]}},{"properties":{"city":"Los Angeles","isbn":671027360.0,"latitude":34.0522342,"book-rating":5.0,"title":"Angels &amp; Demons","user-id":236618.0,"longitude":-118.2436849,"id":"a651gh90w6fx","state":"California"},"type":"Feature","geometry":{"type":"Point","coordinates":[-118.2436849,34.0522342]}},{"properties":{"city":"Cairo","isbn":671027360.0,"latitude":30.064742,"book-rating":10.0,"title":"Angels &amp; Demons","user-id":237264.0,"longitude":31.249509,"id":"a651ghb8f79x","state":"N/A"},"type":"Feature","geometry":{"type":"Point","coordinates":[31.249509,30.064742]}},{"properties":{"city":"Rexdale","isbn":671027360.0,"latitude":43.739692,"book-rating":6.0,"title":"Angels &amp; Demons","user-id":237534.0,"longitude":-79.580322,"id":"a651gh55uvln","state":"Ontario"},"type":"Feature","geometry":{"type":"Point","coordinates":[-79.580322,43.739692]}},{"properties":{"city":"Plantation","isbn":671027360.0,"latitude":26.1275862,"book-rating":9.0,"title":"Angels &amp; Demons","user-id":239070.0,"longitude":-80.2331036,"id":"a651ghhp3h0f","state":"Florida"},"type":"Feature","geometry":{"type":"Point","coordinates":[-80.2331036,26.1275862]}},{"properties":{"city":"Atlanta","isbn":671027360.0,"latitude":33.7489954,"book-rating":8.0,"title":"Angels &amp; Demons","user-id":239569.0,"longitude":-84.3879824,"id":"a651ghamsnlq","state":"Georgia"},"type":"Feature","geometry":{"type":"Point","coordinates":[-84.3879824,33.7489954]}},{"properties":{"city":"Muskego","isbn":671027360.0,"latitude":42.905848,"book-rating":8.0,"title":"Angels &amp; Demons","user-id":240144.0,"longitude":-88.1389779,"id":"a651ghcyawnc","state":"Wisconsin"},"type":"Feature","geometry":{"type":"Point","coordinates":[-88.1389779,42.905848]}},{"properties":{"city":"Hawthorne","isbn":671027360.0,"latitude":40.9492649,"book-rating":7.0,"title":"Angels &amp; Demons","user-id":240567.0,"longitude":-74.1537549,"id":"a651ghfrlt3j","state":"New Jersey"},"type":"Feature","geometry":{"type":"Point","coordinates":[-74.1537549,40.9492649]}},{"properties":{"city":"Lindstrom","isbn":671027360.0,"latitude":45.3894083,"book-rating":9.0,"title":"Angels &amp; Demons","user-id":242528.0,"longitude":-92.8479921,"id":"a651ghd0o9er","state":"Minnesota"},"type":"Feature","geometry":{"type":"Point","coordinates":[-92.8479921,45.3894083]}},{"properties":{"city":"Marblehead","isbn":671027360.0,"latitude":42.500096,"book-rating":6.0,"title":"Angels &amp; Demons","user-id":243332.0,"longitude":-70.8578253,"id":"a651gh3s1b58","state":"Massachusetts"},"type":"Feature","geometry":{"type":"Point","coordinates":[-70.8578253,42.500096]}},{"properties":{"city":"Moline","isbn":671027360.0,"latitude":41.5067003,"book-rating":9.0,"title":"Angels &amp; Demons","user-id":244171.0,"longitude":-90.5151342,"id":"a651gh8iq9ug","state":"Illinois"},"type":"Feature","geometry":{"type":"Point","coordinates":[-90.5151342,41.5067003]}},{"properties":{"city":"Chicago","isbn":671027360.0,"latitude":41.850033,"book-rating":7.0,"title":"Angels &amp; Demons","user-id":244657.0,"longitude":-87.6500523,"id":"a651gh9j8ooi","state":"Illinois"},"type":"Feature","geometry":{"type":"Point","coordinates":[-87.6500523,41.850033]}},{"properties":{"city":"Birmingham","isbn":671027360.0,"latitude":33.5206608,"book-rating":10.0,"title":"Angels &amp; Demons","user-id":245102.0,"longitude":-86.80249,"id":"a651ghg2m2iz","state":"Alabama"},"type":"Feature","geometry":{"type":"Point","coordinates":[-86.80249,33.5206608]}},{"properties":{"city":"San Antonio","isbn":671027360.0,"latitude":29.4241219,"book-rating":7.0,"title":"Angels &amp; Demons","user-id":245410.0,"longitude":-98.4936282,"id":"a651gha21hqp","state":"Texas"},"type":"Feature","geometry":{"type":"Point","coordinates":[-98.4936282,29.4241219]}},{"properties":{"city":"Manchester","isbn":671027360.0,"latitude":42.9956397,"book-rating":9.0,"title":"Angels &amp; Demons","user-id":247010.0,"longitude":-71.4547891,"id":"a651ghi2n14z","state":"New Hampshire"},"type":"Feature","geometry":{"type":"Point","coordinates":[-71.4547891,42.9956397]}},{"properties":{"city":"Hewitt","isbn":671027360.0,"latitude":41.1417622,"book-rating":9.0,"title":"Angels &amp; Demons","user-id":248468.0,"longitude":-74.310706,"id":"a651ghh3damh","state":"New Jersey"},"type":"Feature","geometry":{"type":"Point","coordinates":[-74.310706,41.1417622]}},{"properties":{"city":"Long Beach","isbn":671027360.0,"latitude":33.7669623,"book-rating":8.0,"title":"Angels &amp; Demons","user-id":249048.0,"longitude":-118.1892348,"id":"a651ghb2d407","state":"California"},"type":"Feature","geometry":{"type":"Point","coordinates":[-118.1892348,33.7669623]}},{"properties":{"city":"Baltimore","isbn":671027360.0,"latitude":39.2903848,"book-rating":7.0,"title":"Angels &amp; Demons","user-id":249721.0,"longitude":-76.6121893,"id":"a651ghaxkib9","state":"Maryland"},"type":"Feature","geometry":{"type":"Point","coordinates":[-76.6121893,39.2903848]}},{"properties":{"city":"Ballwin","isbn":671027360.0,"latitude":38.5950532,"book-rating":9.0,"title":"Angels &amp; Demons","user-id":24995.0,"longitude":-90.5462339,"id":"a651ghgzf7zd","state":"Missouri"},"type":"Feature","geometry":{"type":"Point","coordinates":[-90.5462339,38.5950532]}},{"properties":{"city":"Lansing","isbn":671027360.0,"latitude":42.732535,"book-rating":10.0,"title":"Angels &amp; Demons","user-id":249989.0,"longitude":-84.5555347,"id":"a651gh5n0f3k","state":"Michigan"},"type":"Feature","geometry":{"type":"Point","coordinates":[-84.5555347,42.732535]}},{"properties":{"city":"Gilbert","isbn":671027360.0,"latitude":33.3528264,"book-rating":8.0,"title":"Angels &amp; Demons","user-id":25601.0,"longitude":-111.789027,"id":"a651ghfabo8b","state":"Arizona"},"type":"Feature","geometry":{"type":"Point","coordinates":[-111.789027,33.3528264]}},{"properties":{"city":"Atlanta","isbn":671027360.0,"latitude":33.7489954,"book-rating":10.0,"title":"Angels &amp; Demons","user-id":26910.0,"longitude":-84.3879824,"id":"a651ghj4lfs9","state":"Georgia"},"type":"Feature","geometry":{"type":"Point","coordinates":[-84.3879824,33.7489954]}},{"properties":{"city":"Garden Grove","isbn":743486226.0,"latitude":33.7739053,"book-rating":7.0,"title":"Angels &amp; Demons","user-id":277157.0,"longitude":-117.9414477,"id":"a651ghauiaax","state":"California"},"type":"Feature","geometry":{"type":"Point","coordinates":[-117.9414477,33.7739053]}},{"properties":{"city":"Turner","isbn":671027360.0,"latitude":44.8431766,"book-rating":7.0,"title":"Angels &amp; Demons","user-id":277439.0,"longitude":-122.9528708,"id":"a651gh6geya1","state":"Oregon"},"type":"Feature","geometry":{"type":"Point","coordinates":[-122.9528708,44.8431766]}},{"properties":{"city":"Brisol","isbn":671027360.0,"latitude":40.1006661,"book-rating":8.0,"title":"Angels &amp; Demons","user-id":278254.0,"longitude":-74.8518311,"id":"a651gh57e9wu","state":"Pennsylvania"},"type":"Feature","geometry":{"type":"Point","coordinates":[-74.8518311,40.1006661]}},{"properties":{"city":"Elburn","isbn":671027360.0,"latitude":41.8922499,"book-rating":7.0,"title":"Angels &amp; Demons","user-id":278390.0,"longitude":-88.4723014,"id":"a651gh54hxlk","state":"Illinois"},"type":"Feature","geometry":{"type":"Point","coordinates":[-88.4723014,41.8922499]}},{"properties":{"city":"New York","isbn":671027360.0,"latitude":40.7142691,"book-rating":6.0,"title":"Angels &amp; Demons","user-id":278422.0,"longitude":-74.0059729,"id":"a651gh7euv4f","state":"New York"},"type":"Feature","geometry":{"type":"Point","coordinates":[-74.0059729,40.7142691]}},{"properties":{"city":"South Ohio","isbn":671027360.0,"latitude":43.912498,"book-rating":10.0,"title":"Angels &amp; Demons","user-id":28204.0,"longitude":-66.06936,"id":"a651gheyek41","state":"Nova Scotia"},"type":"Feature","geometry":{"type":"Point","coordinates":[-66.06936,43.912498]}},{"properties":{"city":"Paoli","isbn":671027360.0,"latitude":40.04235,"book-rating":9.0,"title":"Angels &amp; Demons","user-id":28865.0,"longitude":-75.492751,"id":"a651gh7bffuj","state":"Pennsylvania"},"type":"Feature","geometry":{"type":"Point","coordinates":[-75.492751,40.04235]}},{"properties":{"city":"Toronto","isbn":671027360.0,"latitude":43.670233,"book-rating":9.0,"title":"Angels &amp; Demons","user-id":29189.0,"longitude":-79.386755,"id":"a651gh77c4p5","state":"Ontario"},"type":"Feature","geometry":{"type":"Point","coordinates":[-79.386755,43.670233]}},{"properties":{"city":"Boca Raton","isbn":671027360.0,"latitude":26.3586885,"book-rating":7.0,"title":"Angels &amp; Demons","user-id":29209.0,"longitude":-80.0830984,"id":"a651ghafn7br","state":"Florida"},"type":"Feature","geometry":{"type":"Point","coordinates":[-80.0830984,26.3586885]}},{"properties":{"city":"East Granby","isbn":743486226.0,"latitude":41.9412081,"book-rating":7.0,"title":"Angels &amp; Demons","user-id":31252.0,"longitude":-72.7273158,"id":"a651ghi9p0ri","state":"Connecticut"},"type":"Feature","geometry":{"type":"Point","coordinates":[-72.7273158,41.9412081]}},{"properties":{"city":"Pottstown","isbn":671027360.0,"latitude":40.2453741,"book-rating":9.0,"title":"Angels &amp; Demons","user-id":31412.0,"longitude":-75.6496302,"id":"a651ghjz3mxz","state":"Pennsylvania"},"type":"Feature","geometry":{"type":"Point","coordinates":[-75.6496302,40.2453741]}},{"properties":{"city":"Annandale","isbn":671027360.0,"latitude":38.8303905,"book-rating":9.0,"title":"Angels &amp; Demons","user-id":31652.0,"longitude":-77.1963703,"id":"a651gh6d0x7s","state":"Virginia"},"type":"Feature","geometry":{"type":"Point","coordinates":[-77.1963703,38.8303905]}},{"properties":{"city":"St. Louis","isbn":671027360.0,"latitude":38.646991,"book-rating":10.0,"title":"Angels &amp; Demons","user-id":32188.0,"longitude":-90.224967,"id":"a651gh9hg84n","state":"Missouri"},"type":"Feature","geometry":{"type":"Point","coordinates":[-90.224967,38.646991]}},{"properties":{"city":"St. Rose","isbn":671027360.0,"latitude":29.9468716,"book-rating":9.0,"title":"Angels &amp; Demons","user-id":32516.0,"longitude":-90.3231349,"id":"a651ghbu7f0f","state":"Louisiana"},"type":"Feature","geometry":{"type":"Point","coordinates":[-90.3231349,29.9468716]}},{"properties":{"city":"Tucson","isbn":671027360.0,"latitude":32.2217429,"book-rating":8.0,"title":"Angels &amp; Demons","user-id":3344.0,"longitude":-110.926479,"id":"a651ghcymuau","state":"Arizona"},"type":"Feature","geometry":{"type":"Point","coordinates":[-110.926479,32.2217429]}},{"properties":{"city":"Rockwell","isbn":671027360.0,"latitude":35.5512508,"book-rating":10.0,"title":"Angels &amp; Demons","user-id":33580.0,"longitude":-80.4064485,"id":"a651ghfysha0","state":"North Carolina"},"type":"Feature","geometry":{"type":"Point","coordinates":[-80.4064485,35.5512508]}},{"properties":{"city":"Elk Grove","isbn":671027360.0,"latitude":38.4087993,"book-rating":5.0,"title":"Angels &amp; Demons","user-id":3373.0,"longitude":-121.3716178,"id":"a651gh6qva72","state":"California"},"type":"Feature","geometry":{"type":"Point","coordinates":[-121.3716178,38.4087993]}},{"properties":{"city":"Toronto","isbn":671027360.0,"latitude":43.670233,"book-rating":7.0,"title":"Angels &amp; Demons","user-id":34216.0,"longitude":-79.386755,"id":"a651gh8zu34e","state":"Ontario"},"type":"Feature","geometry":{"type":"Point","coordinates":[-79.386755,43.670233]}},{"properties":{"city":"San Diego","isbn":743486226.0,"latitude":32.7153292,"book-rating":8.0,"title":"Angels &amp; Demons","user-id":3509.0,"longitude":-117.1572551,"id":"a651ghc542fz","state":"California"},"type":"Feature","geometry":{"type":"Point","coordinates":[-117.1572551,32.7153292]}},{"properties":{"city":"Orlando","isbn":743486226.0,"latitude":28.5383355,"book-rating":6.0,"title":"Angels &amp; Demons","user-id":35148.0,"longitude":-81.3792365,"id":"a651gh9197t5","state":"Florida"},"type":"Feature","geometry":{"type":"Point","coordinates":[-81.3792365,28.5383355]}},{"properties":{"city":"Bismarck","isbn":671027360.0,"latitude":46.8083268,"book-rating":10.0,"title":"Angels &amp; Demons","user-id":3556.0,"longitude":-100.7837392,"id":"a651ghede7r0","state":"North Dakota"},"type":"Feature","geometry":{"type":"Point","coordinates":[-100.7837392,46.8083268]}},{"properties":{"city":"San Francisco","isbn":671027360.0,"latitude":37.7749295,"book-rating":8.0,"title":"Angels &amp; Demons","user-id":35998.0,"longitude":-122.4194155,"id":"a651ghjczzyd","state":"California"},"type":"Feature","geometry":{"type":"Point","coordinates":[-122.4194155,37.7749295]}},{"properties":{"city":"Calgary","isbn":671027360.0,"latitude":51.055149,"book-rating":6.0,"title":"Angels &amp; Demons","user-id":36326.0,"longitude":-114.062438,"id":"a651ghbinify","state":"Alberta"},"type":"Feature","geometry":{"type":"Point","coordinates":[-114.062438,51.055149]}},{"properties":{"city":"Sacramento","isbn":671027360.0,"latitude":38.5815719,"book-rating":8.0,"title":"Angels &amp; Demons","user-id":3640.0,"longitude":-121.4943996,"id":"a651gh6c0wja","state":"California"},"type":"Feature","geometry":{"type":"Point","coordinates":[-121.4943996,38.5815719]}},{"properties":{"city":"Hudson","isbn":671027360.0,"latitude":42.7648108,"book-rating":9.0,"title":"Angels &amp; Demons","user-id":36673.0,"longitude":-71.4397876,"id":"a651ghb1ymeo","state":"New Hampshire"},"type":"Feature","geometry":{"type":"Point","coordinates":[-71.4397876,42.7648108]}},{"properties":{"city":"Maadi","isbn":671027360.0,"latitude":29.9696,"book-rating":7.0,"title":"Angels &amp; Demons","user-id":37688.0,"longitude":31.2605,"id":"a651ghedyvr4","state":"Cairo"},"type":"Feature","geometry":{"type":"Point","coordinates":[31.2605,29.9696]}},{"properties":{"city":"Stratford","isbn":671027360.0,"latitude":43.371538,"book-rating":9.0,"title":"Angels &amp; Demons","user-id":37693.0,"longitude":-80.983094,"id":"a651gh534czl","state":"Ontario"},"type":"Feature","geometry":{"type":"Point","coordinates":[-80.983094,43.371538]}},{"properties":{"city":"Cincinnati","isbn":671027360.0,"latitude":39.14801,"book-rating":7.0,"title":"Angels &amp; Demons","user-id":37712.0,"longitude":-84.47702,"id":"a651ghiellg0","state":"Ohio"},"type":"Feature","geometry":{"type":"Point","coordinates":[-84.47702,39.14801]}},{"properties":{"city":"Drexel Hill","isbn":671027360.0,"latitude":39.9470567,"book-rating":8.0,"title":"Angels &amp; Demons","user-id":38301.0,"longitude":-75.2921301,"id":"a651ghewrdmw","state":"Pennsylvania"},"type":"Feature","geometry":{"type":"Point","coordinates":[-75.2921301,39.9470567]}},{"properties":{"city":"Redmond","isbn":671027360.0,"latitude":47.6739881,"book-rating":8.0,"title":"Angels &amp; Demons","user-id":39284.0,"longitude":-122.121512,"id":"a651ghdyopdd","state":"Washington"},"type":"Feature","geometry":{"type":"Point","coordinates":[-122.121512,47.6739881]}},{"properties":{"city":"Miami","isbn":671027360.0,"latitude":25.7742657,"book-rating":10.0,"title":"Angels &amp; Demons","user-id":39773.0,"longitude":-80.1936589,"id":"a651gh531giy","state":"Florida"},"type":"Feature","geometry":{"type":"Point","coordinates":[-80.1936589,25.7742657]}},{"properties":{"city":"Miami","isbn":743486226.0,"latitude":25.7742657,"book-rating":10.0,"title":"Angels &amp; Demons","user-id":39773.0,"longitude":-80.1936589,"id":"a651ghj40681","state":"Florida"},"type":"Feature","geometry":{"type":"Point","coordinates":[-80.1936589,25.7742657]}},{"properties":{"city":"Hixson","isbn":671027360.0,"latitude":35.1406267,"book-rating":7.0,"title":"Angels &amp; Demons","user-id":4092.0,"longitude":-85.2327349,"id":"a651gher6xzd","state":"Tennessee"},"type":"Feature","geometry":{"type":"Point","coordinates":[-85.2327349,35.1406267]}},{"properties":{"city":"Mei Foo","isbn":671027360.0,"latitude":22.3382,"book-rating":7.0,"title":"Angels &amp; Demons","user-id":4098.0,"longitude":114.138,"id":"a651ghf5e9xy","state":"Kowloon"},"type":"Feature","geometry":{"type":"Point","coordinates":[114.138,22.3382]}},{"properties":{"city":"Danville","isbn":671027360.0,"latitude":37.8215929,"book-rating":2.0,"title":"Angels &amp; Demons","user-id":41449.0,"longitude":-121.9999606,"id":"a651gh5a0tf6","state":"California"},"type":"Feature","geometry":{"type":"Point","coordinates":[-121.9999606,37.8215929]}},{"properties":{"city":"Tigard","isbn":743486226.0,"latitude":45.4312294,"book-rating":4.0,"title":"Angels &amp; Demons","user-id":42309.0,"longitude":-122.7714861,"id":"a651ghap8ljr","state":"Oregon"},"type":"Feature","geometry":{"type":"Point","coordinates":[-122.7714861,45.4312294]}},{"properties":{"city":"Sacramento","isbn":671027360.0,"latitude":38.5815719,"book-rating":7.0,"title":"Angels &amp; Demons","user-id":43687.0,"longitude":-121.4943996,"id":"a651ghieq4ao","state":"California"},"type":"Feature","geometry":{"type":"Point","coordinates":[-121.4943996,38.5815719]}},{"properties":{"city":"Florence","isbn":671027360.0,"latitude":34.79981,"book-rating":9.0,"title":"Angels &amp; Demons","user-id":44728.0,"longitude":-87.677251,"id":"a651ghdw4vs1","state":"Alabama"},"type":"Feature","geometry":{"type":"Point","coordinates":[-87.677251,34.79981]}},{"properties":{"city":"New York","isbn":671027360.0,"latitude":40.7142691,"book-rating":10.0,"title":"Angels &amp; Demons","user-id":44920.0,"longitude":-74.0059729,"id":"a651gh4m0n2p","state":"New York"},"type":"Feature","geometry":{"type":"Point","coordinates":[-74.0059729,40.7142691]}},{"properties":{"city":"San Diego","isbn":743486226.0,"latitude":32.7153292,"book-rating":8.0,"title":"Angels &amp; Demons","user-id":46159.0,"longitude":-117.1572551,"id":"a651ghat4j15","state":"California"},"type":"Feature","geometry":{"type":"Point","coordinates":[-117.1572551,32.7153292]}},{"properties":{"city":"San Antonio","isbn":743535774.0,"latitude":29.4241219,"book-rating":4.0,"title":"Angels &amp; Demons","user-id":46398.0,"longitude":-98.4936282,"id":"a651gh6sakdj","state":"Texas"},"type":"Feature","geometry":{"type":"Point","coordinates":[-98.4936282,29.4241219]}},{"properties":{"city":"Royal Oak","isbn":671027360.0,"latitude":42.4894801,"book-rating":5.0,"title":"Angels &amp; Demons","user-id":46595.0,"longitude":-83.1446485,"id":"a651ghfoiscd","state":"Michigan"},"type":"Feature","geometry":{"type":"Point","coordinates":[-83.1446485,42.4894801]}},{"properties":{"city":"Plymouth","isbn":743486226.0,"latitude":45.0105194,"book-rating":6.0,"title":"Angels &amp; Demons","user-id":48928.0,"longitude":-93.4555093,"id":"a651ghbnm83g","state":"Minnesota"},"type":"Feature","geometry":{"type":"Point","coordinates":[-93.4555093,45.0105194]}},{"properties":{"city":"Fallston","isbn":671027360.0,"latitude":39.5145515,"book-rating":7.0,"title":"Angels &amp; Demons","user-id":49315.0,"longitude":-76.4110732,"id":"a651ghd8oqi2","state":"Maryland"},"type":"Feature","geometry":{"type":"Point","coordinates":[-76.4110732,39.5145515]}},{"properties":{"city":"Regensburg","isbn":671027360.0,"latitude":49.016491,"book-rating":5.0,"title":"Angels &amp; Demons","user-id":49422.0,"longitude":12.100904,"id":"a651ghg164d2","state":"Bayern"},"type":"Feature","geometry":{"type":"Point","coordinates":[12.100904,49.016491]}},{"properties":{"city":"Fresno","isbn":671027360.0,"latitude":36.7477272,"book-rating":7.0,"title":"Angels &amp; Demons","user-id":50225.0,"longitude":-119.7723661,"id":"a651ghchixnr","state":"California"},"type":"Feature","geometry":{"type":"Point","coordinates":[-119.7723661,36.7477272]}},{"properties":{"city":"Shelbyville","isbn":743486226.0,"latitude":38.2120144,"book-rating":10.0,"title":"Angels &amp; Demons","user-id":51365.0,"longitude":-85.2235666,"id":"a651gh6v00se","state":"Kentucky"},"type":"Feature","geometry":{"type":"Point","coordinates":[-85.2235666,38.2120144]}},{"properties":{"city":"Ne Portland","isbn":671027360.0,"latitude":45.5234515,"book-rating":10.0,"title":"Angels &amp; Demons","user-id":53456.0,"longitude":-122.6762071,"id":"a651ghassmp4","state":"Oregon"},"type":"Feature","geometry":{"type":"Point","coordinates":[-122.6762071,45.5234515]}},{"properties":{"city":"North Haven","isbn":671027360.0,"latitude":41.3909305,"book-rating":8.0,"title":"Angels &amp; Demons","user-id":54335.0,"longitude":-72.859545,"id":"a651ghjvdcwq","state":"Connecticut"},"type":"Feature","geometry":{"type":"Point","coordinates":[-72.859545,41.3909305]}},{"properties":{"city":"Canyon Country","isbn":671027360.0,"latitude":34.4233293,"book-rating":9.0,"title":"Angels &amp; Demons","user-id":54528.0,"longitude":-118.4720281,"id":"a651ghfivkhd","state":"California"},"type":"Feature","geometry":{"type":"Point","coordinates":[-118.4720281,34.4233293]}},{"properties":{"city":"Roscoe","isbn":671027360.0,"latitude":44.2252419,"book-rating":10.0,"title":"Angels &amp; Demons","user-id":55927.0,"longitude":-92.7715835,"id":"a651gheku0ze","state":"Minnesota"},"type":"Feature","geometry":{"type":"Point","coordinates":[-92.7715835,44.2252419]}},{"properties":{"city":"Fort Lauderdale","isbn":671027360.0,"latitude":26.1223084,"book-rating":8.0,"title":"Angels &amp; Demons","user-id":56395.0,"longitude":-80.1433786,"id":"a651gh71f1r3","state":"Florida"},"type":"Feature","geometry":{"type":"Point","coordinates":[-80.1433786,26.1223084]}},{"properties":{"city":"Wagener","isbn":671027360.0,"latitude":33.6523712,"book-rating":7.0,"title":"Angels &amp; Demons","user-id":58515.0,"longitude":-81.3612142,"id":"a651ghdhyoly","state":"South Carolina"},"type":"Feature","geometry":{"type":"Point","coordinates":[-81.3612142,33.6523712]}},{"properties":{"city":"San Antonio","isbn":743486226.0,"latitude":29.4241219,"book-rating":10.0,"title":"Angels &amp; Demons","user-id":59038.0,"longitude":-98.4936282,"id":"a651gh55ttqt","state":"Texas"},"type":"Feature","geometry":{"type":"Point","coordinates":[-98.4936282,29.4241219]}},{"properties":{"city":"Tucson","isbn":743486226.0,"latitude":32.2217429,"book-rating":9.0,"title":"Angels &amp; Demons","user-id":61901.0,"longitude":-110.926479,"id":"a651ghghzmo5","state":"Arizona"},"type":"Feature","geometry":{"type":"Point","coordinates":[-110.926479,32.2217429]}},{"properties":{"city":"Las Cruces","isbn":671027360.0,"latitude":32.3123157,"book-rating":8.0,"title":"Angels &amp; Demons","user-id":61910.0,"longitude":-106.7783374,"id":"a651gh7c98co","state":"New Mexico"},"type":"Feature","geometry":{"type":"Point","coordinates":[-106.7783374,32.3123157]}},{"properties":{"city":"Shingletown","isbn":671027360.0,"latitude":40.4923784,"book-rating":8.0,"title":"Angels &amp; Demons","user-id":62193.0,"longitude":-121.8891586,"id":"a651ghezz4cf","state":"California"},"type":"Feature","geometry":{"type":"Point","coordinates":[-121.8891586,40.4923784]}},{"properties":{"city":"New Milford","isbn":671027360.0,"latitude":41.5770391,"book-rating":8.0,"title":"Angels &amp; Demons","user-id":62862.0,"longitude":-73.4084542,"id":"a651gh9mgl0u","state":"Connecticut"},"type":"Feature","geometry":{"type":"Point","coordinates":[-73.4084542,41.5770391]}},{"properties":{"city":"Fairfax","isbn":671027360.0,"latitude":38.8462236,"book-rating":10.0,"title":"Angels &amp; Demons","user-id":62966.0,"longitude":-77.3063733,"id":"a651gh847riw","state":"Virginia"},"type":"Feature","geometry":{"type":"Point","coordinates":[-77.3063733,38.8462236]}},{"properties":{"city":"Sydney","isbn":671027360.0,"latitude":-33.867139,"book-rating":8.0,"title":"Angels &amp; Demons","user-id":63953.0,"longitude":151.207114,"id":"a651gh81wb08","state":"New South Wales"},"type":"Feature","geometry":{"type":"Point","coordinates":[151.207114,-33.867139]}},{"properties":{"city":"Bonita Springs","isbn":671027360.0,"latitude":26.339806,"book-rating":5.0,"title":"Angels &amp; Demons","user-id":65088.0,"longitude":-81.7786972,"id":"a651ghhba76v","state":"Florida"},"type":"Feature","geometry":{"type":"Point","coordinates":[-81.7786972,26.339806]}},{"properties":{"city":"San Diego","isbn":671027360.0,"latitude":32.7153292,"book-rating":8.0,"title":"Angels &amp; Demons","user-id":65208.0,"longitude":-117.1572551,"id":"a651ghhxgwez","state":"California"},"type":"Feature","geometry":{"type":"Point","coordinates":[-117.1572551,32.7153292]}},{"properties":{"city":"Saginaw","isbn":671027360.0,"latitude":43.4194699,"book-rating":6.0,"title":"Angels &amp; Demons","user-id":65258.0,"longitude":-83.9508068,"id":"a651gh6m2rwc","state":"Michigan"},"type":"Feature","geometry":{"type":"Point","coordinates":[-83.9508068,43.4194699]}},{"properties":{"city":"Midland Park","isbn":671027360.0,"latitude":40.9892643,"book-rating":8.0,"title":"Angels &amp; Demons","user-id":67272.0,"longitude":-74.1406988,"id":"a651gh9f3oai","state":"New Jersey"},"type":"Feature","geometry":{"type":"Point","coordinates":[-74.1406988,40.9892643]}},{"properties":{"city":"Northridge","isbn":671027360.0,"latitude":34.22833,"book-rating":9.0,"title":"Angels &amp; Demons","user-id":67542.0,"longitude":-118.53583,"id":"a651ghgp39ji","state":"California"},"type":"Feature","geometry":{"type":"Point","coordinates":[-118.53583,34.22833]}},{"properties":{"city":"Aurora","isbn":671027360.0,"latitude":41.7605849,"book-rating":8.0,"title":"Angels &amp; Demons","user-id":68984.0,"longitude":-88.3200715,"id":"a651ghihk8ka","state":"Illinois"},"type":"Feature","geometry":{"type":"Point","coordinates":[-88.3200715,41.7605849]}},{"properties":{"city":"Cambridge","isbn":671027360.0,"latitude":42.3750969,"book-rating":5.0,"title":"Angels &amp; Demons","user-id":69823.0,"longitude":-71.1056079,"id":"a651ghhis5mu","state":"Massachusetts"},"type":"Feature","geometry":{"type":"Point","coordinates":[-71.1056079,42.3750969]}},{"properties":{"city":"Prince George","isbn":671027360.0,"latitude":53.917113,"book-rating":8.0,"title":"Angels &amp; Demons","user-id":70594.0,"longitude":-122.74972,"id":"a651ghdgmbe3","state":"British Columbia"},"type":"Feature","geometry":{"type":"Point","coordinates":[-122.74972,53.917113]}},{"properties":{"city":"Paris","isbn":671027360.0,"latitude":39.611146,"book-rating":10.0,"title":"Angels &amp; Demons","user-id":72575.0,"longitude":-87.6961374,"id":"a651gh8igcdy","state":"Illinois"},"type":"Feature","geometry":{"type":"Point","coordinates":[-87.6961374,39.611146]}},{"properties":{"city":"Goleta","isbn":743486226.0,"latitude":34.4358294,"book-rating":9.0,"title":"Angels &amp; Demons","user-id":74511.0,"longitude":-119.8276389,"id":"a651gh7j6og7","state":"California"},"type":"Feature","geometry":{"type":"Point","coordinates":[-119.8276389,34.4358294]}},{"properties":{"city":"West Falls","isbn":743486226.0,"latitude":42.7014489,"book-rating":10.0,"title":"Angels &amp; Demons","user-id":75819.0,"longitude":-78.6822497,"id":"a651ghg9qvsn","state":"New York"},"type":"Feature","geometry":{"type":"Point","coordinates":[-78.6822497,42.7014489]}},{"properties":{"city":"Palm Springs","isbn":671027360.0,"latitude":33.8302961,"book-rating":7.0,"title":"Angels &amp; Demons","user-id":77516.0,"longitude":-116.5452921,"id":"a651gh6qgot7","state":"California"},"type":"Feature","geometry":{"type":"Point","coordinates":[-116.5452921,33.8302961]}},{"properties":{"city":"Azusa","isbn":671027360.0,"latitude":34.1336186,"book-rating":8.0,"title":"Angels &amp; Demons","user-id":77517.0,"longitude":-117.9075627,"id":"a651gh64rnaj","state":"California"},"type":"Feature","geometry":{"type":"Point","coordinates":[-117.9075627,34.1336186]}},{"properties":{"city":"Louisville","isbn":671027360.0,"latitude":38.2542376,"book-rating":10.0,"title":"Angels &amp; Demons","user-id":78007.0,"longitude":-85.759407,"id":"a651gh8l35zs","state":"Kentucky"},"type":"Feature","geometry":{"type":"Point","coordinates":[-85.759407,38.2542376]}},{"properties":{"city":"New York","isbn":671027360.0,"latitude":40.7142691,"book-rating":5.0,"title":"Angels &amp; Demons","user-id":78260.0,"longitude":-74.0059729,"id":"a651gh4ep7z7","state":"New York"},"type":"Feature","geometry":{"type":"Point","coordinates":[-74.0059729,40.7142691]}},{"properties":{"city":"Redmond","isbn":743486226.0,"latitude":47.6739881,"book-rating":2.0,"title":"Angels &amp; Demons","user-id":79269.0,"longitude":-122.121512,"id":"a651gh7hgyly","state":"Washington"},"type":"Feature","geometry":{"type":"Point","coordinates":[-122.121512,47.6739881]}},{"properties":{"city":"Gainesville","isbn":671027360.0,"latitude":29.6516344,"book-rating":9.0,"title":"Angels &amp; Demons","user-id":80036.0,"longitude":-82.3248262,"id":"a651gh60xg3y","state":"Florida"},"type":"Feature","geometry":{"type":"Point","coordinates":[-82.3248262,29.6516344]}},{"properties":{"city":"Columbus","isbn":671027360.0,"latitude":39.9611755,"book-rating":10.0,"title":"Angels &amp; Demons","user-id":80516.0,"longitude":-82.9987942,"id":"a651ghivm39a","state":"Ohio"},"type":"Feature","geometry":{"type":"Point","coordinates":[-82.9987942,39.9611755]}},{"properties":{"city":"Cambridge","isbn":671027360.0,"latitude":42.3750969,"book-rating":8.0,"title":"Angels &amp; Demons","user-id":81318.0,"longitude":-71.1056079,"id":"a651ghad218z","state":"Massachusetts"},"type":"Feature","geometry":{"type":"Point","coordinates":[-71.1056079,42.3750969]}},{"properties":{"city":"Tempe","isbn":671027360.0,"latitude":33.414768,"book-rating":10.0,"title":"Angels &amp; Demons","user-id":81484.0,"longitude":-111.9093095,"id":"a651ghduspcs","state":"Arizona"},"type":"Feature","geometry":{"type":"Point","coordinates":[-111.9093095,33.414768]}},{"properties":{"city":"Fairlawn","isbn":671027360.0,"latitude":41.127833,"book-rating":8.0,"title":"Angels &amp; Demons","user-id":81735.0,"longitude":-81.609844,"id":"a651ghath1ki","state":"Ohio"},"type":"Feature","geometry":{"type":"Point","coordinates":[-81.609844,41.127833]}},{"properties":{"city":"Horsham","isbn":671027360.0,"latitude":51.063751,"book-rating":8.0,"title":"Angels &amp; Demons","user-id":81855.0,"longitude":-0.327003,"id":"a651gh7yddww","state":"West Sussex"},"type":"Feature","geometry":{"type":"Point","coordinates":[-0.327003,51.063751]}},{"properties":{"city":"San Antonio","isbn":671027360.0,"latitude":29.4241219,"book-rating":10.0,"title":"Angels &amp; Demons","user-id":82893.0,"longitude":-98.4936282,"id":"a651gh7fnkej","state":"Texas"},"type":"Feature","geometry":{"type":"Point","coordinates":[-98.4936282,29.4241219]}},{"properties":{"city":"Baton Rouge","isbn":671027360.0,"latitude":30.4507462,"book-rating":9.0,"title":"Angels &amp; Demons","user-id":82899.0,"longitude":-91.154551,"id":"a651ghc4d5zh","state":"Louisiana"},"type":"Feature","geometry":{"type":"Point","coordinates":[-91.154551,30.4507462]}},{"properties":{"city":"Austin","isbn":671027360.0,"latitude":30.267153,"book-rating":7.0,"title":"Angels &amp; Demons","user-id":83042.0,"longitude":-97.7430608,"id":"a651ghfdvci9","state":"Texas"},"type":"Feature","geometry":{"type":"Point","coordinates":[-97.7430608,30.267153]}},{"properties":{"city":"Trenton","isbn":671027360.0,"latitude":44.099833,"book-rating":10.0,"title":"Angels &amp; Demons","user-id":83431.0,"longitude":-77.578007,"id":"a651gh642xcp","state":"Ontario"},"type":"Feature","geometry":{"type":"Point","coordinates":[-77.578007,44.099833]}},{"properties":{"city":"Cantley","isbn":671027360.0,"latitude":45.566321,"book-rating":10.0,"title":"Angels &amp; Demons","user-id":84667.0,"longitude":-75.782269,"id":"a651ghjxidtd","state":"Quebec"},"type":"Feature","geometry":{"type":"Point","coordinates":[-75.782269,45.566321]}},{"properties":{"city":"Pawtucket","isbn":671027360.0,"latitude":41.878711,"book-rating":5.0,"title":"Angels &amp; Demons","user-id":85757.0,"longitude":-71.3825558,"id":"a651gh5e41lf","state":"Rhode Island"},"type":"Feature","geometry":{"type":"Point","coordinates":[-71.3825558,41.878711]}},{"properties":{"city":"Forest Grove","isbn":671027360.0,"latitude":45.5198364,"book-rating":10.0,"title":"Angels &amp; Demons","user-id":86969.0,"longitude":-123.1106631,"id":"a651gh96lukl","state":"Oregon"},"type":"Feature","geometry":{"type":"Point","coordinates":[-123.1106631,45.5198364]}},{"properties":{"city":"San Francisco","isbn":671027360.0,"latitude":37.7749295,"book-rating":10.0,"title":"Angels &amp; Demons","user-id":8801.0,"longitude":-122.4194155,"id":"a651gh7ilihp","state":"California"},"type":"Feature","geometry":{"type":"Point","coordinates":[-122.4194155,37.7749295]}},{"properties":{"city":"Shanghai","isbn":671027360.0,"latitude":31.230708,"book-rating":7.0,"title":"Angels &amp; Demons","user-id":88693.0,"longitude":121.472916,"id":"a651ghferil9","state":"Shanghai"},"type":"Feature","geometry":{"type":"Point","coordinates":[121.472916,31.230708]}},{"properties":{"city":"Honolulu","isbn":671027360.0,"latitude":21.3069444,"book-rating":7.0,"title":"Angels &amp; Demons","user-id":89602.0,"longitude":-157.8583333,"id":"a651gh9r9gbf","state":"Hawaii"},"type":"Feature","geometry":{"type":"Point","coordinates":[-157.8583333,21.3069444]}},{"properties":{"city":"Virginia Beach","isbn":671027360.0,"latitude":36.8529263,"book-rating":8.0,"title":"Angels &amp; Demons","user-id":89651.0,"longitude":-75.977985,"id":"a651gh53e4rf","state":"Virginia"},"type":"Feature","geometry":{"type":"Point","coordinates":[-75.977985,36.8529263]}},{"properties":{"city":"Virginia Beach","isbn":671027360.0,"latitude":36.8529263,"book-rating":10.0,"title":"Angels &amp; Demons","user-id":89874.0,"longitude":-75.977985,"id":"a651ghdn8l4e","state":"Virginia"},"type":"Feature","geometry":{"type":"Point","coordinates":[-75.977985,36.8529263]}},{"properties":{"city":"Blanco","isbn":671027360.0,"latitude":30.0979862,"book-rating":7.0,"title":"Angels &amp; Demons","user-id":91058.0,"longitude":-98.4214095,"id":"a651gh3ns338","state":"Texas"},"type":"Feature","geometry":{"type":"Point","coordinates":[-98.4214095,30.0979862]}},{"properties":{"city":"Carmel","isbn":671027360.0,"latitude":41.4300937,"book-rating":9.0,"title":"Angels &amp; Demons","user-id":91604.0,"longitude":-73.6801297,"id":"a651gh78v32l","state":"New York"},"type":"Feature","geometry":{"type":"Point","coordinates":[-73.6801297,41.4300937]}},{"properties":{"city":"Manistee","isbn":671027360.0,"latitude":44.2444473,"book-rating":6.0,"title":"Angels &amp; Demons","user-id":92810.0,"longitude":-86.324253,"id":"a651ghcbeywc","state":"Michigan"},"type":"Feature","geometry":{"type":"Point","coordinates":[-86.324253,44.2444473]}},{"properties":{"city":"Tustin","isbn":671027360.0,"latitude":33.7458511,"book-rating":9.0,"title":"Angels &amp; Demons","user-id":93565.0,"longitude":-117.826166,"id":"a651gh8xvini","state":null},"type":"Feature","geometry":{"type":"Point","coordinates":[-117.826166,33.7458511]}},{"properties":{"city":"Racine","isbn":743486226.0,"latitude":42.7261309,"book-rating":9.0,"title":"Angels &amp; Demons","user-id":95011.0,"longitude":-87.7828523,"id":"a651ghdm4nx3","state":"Wisconsin"},"type":"Feature","geometry":{"type":"Point","coordinates":[-87.7828523,42.7261309]}},{"properties":{"city":"Charleston","isbn":671027360.0,"latitude":38.3498195,"book-rating":9.0,"title":"Angels &amp; Demons","user-id":95359.0,"longitude":-81.6326234,"id":"a651ghcjsjcb","state":"West Virginia"},"type":"Feature","geometry":{"type":"Point","coordinates":[-81.6326234,38.3498195]}},{"properties":{"city":"Jerez De La Frontera","isbn":671027360.0,"latitude":36.6865618,"book-rating":10.0,"title":"Angels &amp; Demons","user-id":96744.0,"longitude":-6.1371725,"id":"a651ghb4vpcz","state":"Cadiz"},"type":"Feature","geometry":{"type":"Point","coordinates":[-6.1371725,36.6865618]}},{"properties":{"city":"Dahlonega","isbn":671027360.0,"latitude":34.5325938,"book-rating":8.0,"title":"Angels &amp; Demons","user-id":99482.0,"longitude":-83.98491,"id":"a651ghg88nkl","state":"Georgia"},"type":"Feature","geometry":{"type":"Point","coordinates":[-83.98491,34.5325938]}}],"is_temporal":false,"author":{"url":"http://www.informatik.uni-freiburg.de/~cziegler/BX/","metadata":"http://www.informatik.uni-freiburg.de/~cziegler/BX/","contact_name":"","contact_address":"","source":"Institut für Informatik, Universität Freiburg","contact_phone":""},"source":"http://www.informatik.uni-freiburg.de/~cziegler/BX/","pagination":{"sort":null,"start":0,"total":287,"limit":1000000},"state":"complete","tags":"bookcrossing,books,global,reviews","published":"2005-01-01T17:00:00Z","id":19887}