{"type":"FeatureCollection","data_type":"Dataset","url_type":null,"permissions":[{"permissions":{"download":true,"view":true},"group_id":"everyone"}],"classification":null,"title":"stroke_data","count":126,"stream_id":199536,"contributor":{"url":"http://geocommons.com/users/39016","name":"stefanom"},"data_attributes":null,"calculation_params":null,"icon_link":null,"link":"http://geocommons.com/overlays/199536.json","extent":[0.0,0.0,0.0,0.0],"geometry_types":[],"unique_name":null,"name":"stroke_data","feature_count":126,"description":"","next_feature":null,"is_raster":false,"short_classification":"Y","stats":{"month":{"max":12,"variance":11.004,"mean":5.5,"stdev":3.31722775823428,"min":1,"median":5},"year":{"max":2009,"variance":0.224,"mean":2008.33333333333,"stdev":0.47328638264797,"min":2008,"median":2008},"count":{"max":2488,"variance":180342.989714286,"mean":915.380952380952,"stdev":424.668093591084,"min":298,"median":874}},"features":[{"properties":{"month":1,"postcode":"NG7 2RD","geo_score":0.0,"year":2008,"count":577,"id":"a6esqnc6tytg","geo_precision":"unmatched"},"type":"Feature","geometry":null},{"properties":{"month":2,"postcode":"NG7 2RD","geo_score":0.0,"year":2008,"count":484,"id":"a6esqmz1o5x6","geo_precision":"unmatched"},"type":"Feature","geometry":null},{"properties":{"month":3,"postcode":"NG7 2RD","geo_score":0.0,"year":2008,"count":646,"id":"a6esqn90i19t","geo_precision":"unmatched"},"type":"Feature","geometry":null},{"properties":{"month":4,"postcode":"NG7 2RD","geo_score":0.0,"year":2008,"count":473,"id":"a6esqncy9ym4","geo_precision":"unmatched"},"type":"Feature","geometry":null},{"properties":{"month":5,"postcode":"NG7 2RD","geo_score":0.0,"year":2008,"count":450,"id":"a6esqn8ixr6l","geo_precision":"unmatched"},"type":"Feature","geometry":null},{"properties":{"month":6,"postcode":"NG7 2RD","geo_score":0.0,"year":2008,"count":573,"id":"a6esqn0ywqpc","geo_precision":"unmatched"},"type":"Feature","geometry":null},{"properties":{"month":7,"postcode":"NG7 2RD","geo_score":0.0,"year":2008,"count":466,"id":"a6esqn5ics9v","geo_precision":"unmatched"},"type":"Feature","geometry":null},{"properties":{"month":8,"postcode":"NG7 2RD","geo_score":0.0,"year":2008,"count":414,"id":"a6esqnd8oiv3","geo_precision":"unmatched"},"type":"Feature","geometry":null},{"properties":{"month":9,"postcode":"NG7 2RD","geo_score":0.0,"year":2008,"count":567,"id":"a6esqn045luy","geo_precision":"unmatched"},"type":"Feature","geometry":null},{"properties":{"month":10,"postcode":"NG7 2RD","geo_score":0.0,"year":2008,"count":465,"id":"a6esqmzb0gh6","geo_precision":"unmatched"},"type":"Feature","geometry":null},{"properties":{"month":11,"postcode":"NG7 2RD","geo_score":0.0,"year":2008,"count":498,"id":"a6esqn8mms6r","geo_precision":"unmatched"},"type":"Feature","geometry":null},{"properties":{"month":12,"postcode":"NG7 2RD","geo_score":0.0,"year":2008,"count":623,"id":"a6esqmzprooo","geo_precision":"unmatched"},"type":"Feature","geometry":null},{"properties":{"month":1,"postcode":"NG7 2RD","geo_score":0.0,"year":2009,"count":522,"id":"a6esqn7hw7eq","geo_precision":"unmatched"},"type":"Feature","geometry":null},{"properties":{"month":2,"postcode":"NG7 2RD","geo_score":0.0,"year":2009,"count":603,"id":"a6esqnbdx74w","geo_precision":"unmatched"},"type":"Feature","geometry":null},{"properties":{"month":3,"postcode":"NG7 2RD","geo_score":0.0,"year":2009,"count":992,"id":"a6esqn93hb5n","geo_precision":"unmatched"},"type":"Feature","geometry":null},{"properties":{"month":4,"postcode":"NG7 2RD","geo_score":0.0,"year":2009,"count":735,"id":"a6esqn93o09r","geo_precision":"unmatched"},"type":"Feature","geometry":null},{"properties":{"month":5,"postcode":"NG7 2RD","geo_score":0.0,"year":2009,"count":817,"id":"a6esqnepz8ex","geo_precision":"unmatched"},"type":"Feature","geometry":null},{"properties":{"month":6,"postcode":"NG7 2RD","geo_score":0.0,"year":2009,"count":671,"id":"a6esqn2wt5vg","geo_precision":"unmatched"},"type":"Feature","geometry":null},{"properties":{"month":1,"postcode":"m13 9pl","geo_score":0.0,"year":2008,"count":1580,"id":"a6esqnbehxny","geo_precision":"unmatched"},"type":"Feature","geometry":null},{"properties":{"month":2,"postcode":"m13 9pl","geo_score":0.0,"year":2008,"count":1202,"id":"a6esqn1dojq2","geo_precision":"unmatched"},"type":"Feature","geometry":null},{"properties":{"month":3,"postcode":"m13 9pl","geo_score":0.0,"year":2008,"count":1572,"id":"a6esqn6y8z79","geo_precision":"unmatched"},"type":"Feature","geometry":null},{"properties":{"month":4,"postcode":"m13 9pl","geo_score":0.0,"year":2008,"count":1293,"id":"a6esqnewx0ml","geo_precision":"unmatched"},"type":"Feature","geometry":null},{"properties":{"month":5,"postcode":"m13 9pl","geo_score":0.0,"year":2008,"count":1249,"id":"a6esqndr0y0l","geo_precision":"unmatched"},"type":"Feature","geometry":null},{"properties":{"month":6,"postcode":"m13 9pl","geo_score":0.0,"year":2008,"count":1585,"id":"a6esqn7brqp8","geo_precision":"unmatched"},"type":"Feature","geometry":null},{"properties":{"month":7,"postcode":"m13 9pl","geo_score":0.0,"year":2008,"count":1247,"id":"a6esqn1l7tda","geo_precision":"unmatched"},"type":"Feature","geometry":null},{"properties":{"month":8,"postcode":"m13 9pl","geo_score":0.0,"year":2008,"count":1243,"id":"a6esqn4wpvhc","geo_precision":"unmatched"},"type":"Feature","geometry":null},{"properties":{"month":9,"postcode":"m13 9pl","geo_score":0.0,"year":2008,"count":1527,"id":"a6esqndu01co","geo_precision":"unmatched"},"type":"Feature","geometry":null},{"properties":{"month":10,"postcode":"m13 9pl","geo_score":0.0,"year":2008,"count":1292,"id":"a6esqnap0yoo","geo_precision":"unmatched"},"type":"Feature","geometry":null},{"properties":{"month":11,"postcode":"m13 9pl","geo_score":0.0,"year":2008,"count":1457,"id":"a6esqn6rpy4l","geo_precision":"unmatched"},"type":"Feature","geometry":null},{"properties":{"month":12,"postcode":"m13 9pl","geo_score":0.0,"year":2008,"count":1654,"id":"a6esqn7cgtr0","geo_precision":"unmatched"},"type":"Feature","geometry":null},{"properties":{"month":1,"postcode":"m13 9pl","geo_score":0.0,"year":2009,"count":1468,"id":"a6esqn3ve6go","geo_precision":"unmatched"},"type":"Feature","geometry":null},{"properties":{"month":2,"postcode":"m13 9pl","geo_score":0.0,"year":2009,"count":1710,"id":"a6esqnamqo3u","geo_precision":"unmatched"},"type":"Feature","geometry":null},{"properties":{"month":3,"postcode":"m13 9pl","geo_score":0.0,"year":2009,"count":2488,"id":"a6esqn3i0d0y","geo_precision":"unmatched"},"type":"Feature","geometry":null},{"properties":{"month":4,"postcode":"m13 9pl","geo_score":0.0,"year":2009,"count":1841,"id":"a6esqmzpcfzi","geo_precision":"unmatched"},"type":"Feature","geometry":null},{"properties":{"month":5,"postcode":"m13 9pl","geo_score":0.0,"year":2009,"count":2214,"id":"a6esqn33vkhd","geo_precision":"unmatched"},"type":"Feature","geometry":null},{"properties":{"month":6,"postcode":"m13 9pl","geo_score":0.0,"year":2009,"count":1717,"id":"a6esqnenm6dw","geo_precision":"unmatched"},"type":"Feature","geometry":null},{"properties":{"month":1,"postcode":"bn1 1ee","geo_score":0.0,"year":2008,"count":860,"id":"a6esqnb86up3","geo_precision":"unmatched"},"type":"Feature","geometry":null},{"properties":{"month":2,"postcode":"bn1 1ee","geo_score":0.0,"year":2008,"count":702,"id":"a6esqn7gkj9x","geo_precision":"unmatched"},"type":"Feature","geometry":null},{"properties":{"month":3,"postcode":"bn1 1ee","geo_score":0.0,"year":2008,"count":852,"id":"a6esqn2w75ak","geo_precision":"unmatched"},"type":"Feature","geometry":null},{"properties":{"month":4,"postcode":"bn1 1ee","geo_score":0.0,"year":2008,"count":657,"id":"a6esqn43sx8s","geo_precision":"unmatched"},"type":"Feature","geometry":null},{"properties":{"month":5,"postcode":"bn1 1ee","geo_score":0.0,"year":2008,"count":661,"id":"a6esqnekneoy","geo_precision":"unmatched"},"type":"Feature","geometry":null},{"properties":{"month":6,"postcode":"bn1 1ee","geo_score":0.0,"year":2008,"count":881,"id":"a6esqmzz73pg","geo_precision":"unmatched"},"type":"Feature","geometry":null},{"properties":{"month":7,"postcode":"bn1 1ee","geo_score":0.0,"year":2008,"count":633,"id":"a6esqn70v0oj","geo_precision":"unmatched"},"type":"Feature","geometry":null},{"properties":{"month":8,"postcode":"bn1 1ee","geo_score":0.0,"year":2008,"count":699,"id":"a6esqn45nssp","geo_precision":"unmatched"},"type":"Feature","geometry":null},{"properties":{"month":9,"postcode":"bn1 1ee","geo_score":0.0,"year":2008,"count":874,"id":"a6esqn53uxto","geo_precision":"unmatched"},"type":"Feature","geometry":null},{"properties":{"month":10,"postcode":"bn1 1ee","geo_score":0.0,"year":2008,"count":731,"id":"a6esqmz92avt","geo_precision":"unmatched"},"type":"Feature","geometry":null},{"properties":{"month":11,"postcode":"bn1 1ee","geo_score":0.0,"year":2008,"count":807,"id":"a6esqndfumua","geo_precision":"unmatched"},"type":"Feature","geometry":null},{"properties":{"month":12,"postcode":"bn1 1ee","geo_score":0.0,"year":2008,"count":991,"id":"a6esqn76gcwt","geo_precision":"unmatched"},"type":"Feature","geometry":null},{"properties":{"month":1,"postcode":"bn1 1ee","geo_score":0.0,"year":2009,"count":787,"id":"a6esqnebdj9s","geo_precision":"unmatched"},"type":"Feature","geometry":null},{"properties":{"month":2,"postcode":"bn1 1ee","geo_score":0.0,"year":2009,"count":952,"id":"a6esqn20sr18","geo_precision":"unmatched"},"type":"Feature","geometry":null},{"properties":{"month":3,"postcode":"bn1 1ee","geo_score":0.0,"year":2009,"count":1373,"id":"a6esqn2g6ybg","geo_precision":"unmatched"},"type":"Feature","geometry":null},{"properties":{"month":4,"postcode":"bn1 1ee","geo_score":0.0,"year":2009,"count":1078,"id":"a6esqmz3in32","geo_precision":"unmatched"},"type":"Feature","geometry":null},{"properties":{"month":5,"postcode":"bn1 1ee","geo_score":0.0,"year":2009,"count":1226,"id":"a6esqn9lkpur","geo_precision":"unmatched"},"type":"Feature","geometry":null},{"properties":{"month":6,"postcode":"bn1 1ee","geo_score":0.0,"year":2009,"count":997,"id":"a6esqn8iqfks","geo_precision":"unmatched"},"type":"Feature","geometry":null},{"properties":{"month":1,"postcode":"bs27 3qf","geo_score":0.0,"year":2008,"count":640,"id":"a6esqmz4par4","geo_precision":"unmatched"},"type":"Feature","geometry":null},{"properties":{"month":2,"postcode":"bs27 3qf","geo_score":0.0,"year":2008,"count":529,"id":"a6esqnbn2qt0","geo_precision":"unmatched"},"type":"Feature","geometry":null},{"properties":{"month":3,"postcode":"bs27 3qf","geo_score":0.0,"year":2008,"count":730,"id":"a6esqnbd4rif","geo_precision":"unmatched"},"type":"Feature","geometry":null},{"properties":{"month":4,"postcode":"bs27 3qf","geo_score":0.0,"year":2008,"count":601,"id":"a6esqn3lazem","geo_precision":"unmatched"},"type":"Feature","geometry":null},{"properties":{"month":5,"postcode":"bs27 3qf","geo_score":0.0,"year":2008,"count":641,"id":"a6esqn1l8k5h","geo_precision":"unmatched"},"type":"Feature","geometry":null},{"properties":{"month":6,"postcode":"bs27 3qf","geo_score":0.0,"year":2008,"count":739,"id":"a6esqnfc9nnh","geo_precision":"unmatched"},"type":"Feature","geometry":null},{"properties":{"month":7,"postcode":"bs27 3qf","geo_score":0.0,"year":2008,"count":581,"id":"a6esqn5dq3tl","geo_precision":"unmatched"},"type":"Feature","geometry":null},{"properties":{"month":8,"postcode":"bs27 3qf","geo_score":0.0,"year":2008,"count":656,"id":"a6esqmzcx4z5","geo_precision":"unmatched"},"type":"Feature","geometry":null},{"properties":{"month":9,"postcode":"bs27 3qf","geo_score":0.0,"year":2008,"count":739,"id":"a6esqncabz39","geo_precision":"unmatched"},"type":"Feature","geometry":null},{"properties":{"month":10,"postcode":"bs27 3qf","geo_score":0.0,"year":2008,"count":610,"id":"a6esqn45m5ml","geo_precision":"unmatched"},"type":"Feature","geometry":null},{"properties":{"month":11,"postcode":"bs27 3qf","geo_score":0.0,"year":2008,"count":651,"id":"a6esqn1h4ox8","geo_precision":"unmatched"},"type":"Feature","geometry":null},{"properties":{"month":12,"postcode":"bs27 3qf","geo_score":0.0,"year":2008,"count":752,"id":"a6esqn3cplpd","geo_precision":"unmatched"},"type":"Feature","geometry":null},{"properties":{"month":1,"postcode":"bs27 3qf","geo_score":0.0,"year":2009,"count":680,"id":"a6esqn460sgb","geo_precision":"unmatched"},"type":"Feature","geometry":null},{"properties":{"month":2,"postcode":"bs27 3qf","geo_score":0.0,"year":2009,"count":767,"id":"a6esqnc78gt4","geo_precision":"unmatched"},"type":"Feature","geometry":null},{"properties":{"month":3,"postcode":"bs27 3qf","geo_score":0.0,"year":2009,"count":1167,"id":"a6esqn2ekgva","geo_precision":"unmatched"},"type":"Feature","geometry":null},{"properties":{"month":4,"postcode":"bs27 3qf","geo_score":0.0,"year":2009,"count":875,"id":"a6esqnfb2kkw","geo_precision":"unmatched"},"type":"Feature","geometry":null},{"properties":{"month":5,"postcode":"bs27 3qf","geo_score":0.0,"year":2009,"count":1134,"id":"a6esqn8g84g2","geo_precision":"unmatched"},"type":"Feature","geometry":null},{"properties":{"month":6,"postcode":"bs27 3qf","geo_score":0.0,"year":2009,"count":888,"id":"a6esqn385xqe","geo_precision":"unmatched"},"type":"Feature","geometry":null},{"properties":{"month":1,"postcode":"w1w 7rt","geo_score":0.0,"year":2008,"count":1110,"id":"a6esqncvffot","geo_precision":"unmatched"},"type":"Feature","geometry":null},{"properties":{"month":2,"postcode":"w1w 7rt","geo_score":0.0,"year":2008,"count":920,"id":"a6esqnbrnebq","geo_precision":"unmatched"},"type":"Feature","geometry":null},{"properties":{"month":3,"postcode":"w1w 7rt","geo_score":0.0,"year":2008,"count":1241,"id":"a6esqncyk03k","geo_precision":"unmatched"},"type":"Feature","geometry":null},{"properties":{"month":4,"postcode":"w1w 7rt","geo_score":0.0,"year":2008,"count":962,"id":"a6esqn6s3mgx","geo_precision":"unmatched"},"type":"Feature","geometry":null},{"properties":{"month":5,"postcode":"w1w 7rt","geo_score":0.0,"year":2008,"count":946,"id":"a6esqnf6umb9","geo_precision":"unmatched"},"type":"Feature","geometry":null},{"properties":{"month":6,"postcode":"w1w 7rt","geo_score":0.0,"year":2008,"count":1127,"id":"a6esqn1r6swq","geo_precision":"unmatched"},"type":"Feature","geometry":null},{"properties":{"month":7,"postcode":"w1w 7rt","geo_score":0.0,"year":2008,"count":927,"id":"a6esqnde8l4m","geo_precision":"unmatched"},"type":"Feature","geometry":null},{"properties":{"month":8,"postcode":"w1w 7rt","geo_score":0.0,"year":2008,"count":904,"id":"a6esqn8gtq37","geo_precision":"unmatched"},"type":"Feature","geometry":null},{"properties":{"month":9,"postcode":"w1w 7rt","geo_score":0.0,"year":2008,"count":1188,"id":"a6esqn6zw7t4","geo_precision":"unmatched"},"type":"Feature","geometry":null},{"properties":{"month":10,"postcode":"w1w 7rt","geo_score":0.0,"year":2008,"count":981,"id":"a6esqn7vhffp","geo_precision":"unmatched"},"type":"Feature","geometry":null},{"properties":{"month":11,"postcode":"w1w 7rt","geo_score":0.0,"year":2008,"count":1100,"id":"a6esqn13npze","geo_precision":"unmatched"},"type":"Feature","geometry":null},{"properties":{"month":12,"postcode":"w1w 7rt","geo_score":0.0,"year":2008,"count":1193,"id":"a6esqn344uq9","geo_precision":"unmatched"},"type":"Feature","geometry":null},{"properties":{"month":1,"postcode":"w1w 7rt","geo_score":0.0,"year":2009,"count":1157,"id":"a6esqn1lccb1","geo_precision":"unmatched"},"type":"Feature","geometry":null},{"properties":{"month":2,"postcode":"w1w 7rt","geo_score":0.0,"year":2009,"count":1354,"id":"a6esqnfcufko","geo_precision":"unmatched"},"type":"Feature","geometry":null},{"properties":{"month":3,"postcode":"w1w 7rt","geo_score":0.0,"year":2009,"count":1827,"id":"a6esqn8p2ru2","geo_precision":"unmatched"},"type":"Feature","geometry":null},{"properties":{"month":4,"postcode":"w1w 7rt","geo_score":0.0,"year":2009,"count":1278,"id":"a6esqmzvga0a","geo_precision":"unmatched"},"type":"Feature","geometry":null},{"properties":{"month":5,"postcode":"w1w 7rt","geo_score":0.0,"year":2009,"count":1562,"id":"a6esqn7i8szl","geo_precision":"unmatched"},"type":"Feature","geometry":null},{"properties":{"month":6,"postcode":"w1w 7rt","geo_score":0.0,"year":2009,"count":1215,"id":"a6esqn2s075a","geo_precision":"unmatched"},"type":"Feature","geometry":null},{"properties":{"month":1,"postcode":"b6 6he","geo_score":0.0,"year":2008,"count":307,"id":"a6esqn5ihuyn","geo_precision":"unmatched"},"type":"Feature","geometry":null},{"properties":{"month":2,"postcode":"b6 6he","geo_score":0.0,"year":2008,"count":299,"id":"a6esqn3jaef8","geo_precision":"unmatched"},"type":"Feature","geometry":null},{"properties":{"month":3,"postcode":"b6 6he","geo_score":0.0,"year":2008,"count":319,"id":"a6esqnf1xabq","geo_precision":"unmatched"},"type":"Feature","geometry":null},{"properties":{"month":4,"postcode":"b6 6he","geo_score":0.0,"year":2008,"count":299,"id":"a6esqnajzu6c","geo_precision":"unmatched"},"type":"Feature","geometry":null},{"properties":{"month":5,"postcode":"b6 6he","geo_score":0.0,"year":2008,"count":298,"id":"a6esqnadq0be","geo_precision":"unmatched"},"type":"Feature","geometry":null},{"properties":{"month":6,"postcode":"b6 6he","geo_score":0.0,"year":2008,"count":334,"id":"a6esqn1n3mkw","geo_precision":"unmatched"},"type":"Feature","geometry":null},{"properties":{"month":7,"postcode":"b6 6he","geo_score":0.0,"year":2008,"count":344,"id":"a6esqn0zlwvu","geo_precision":"unmatched"},"type":"Feature","geometry":null},{"properties":{"month":8,"postcode":"b6 6he","geo_score":0.0,"year":2008,"count":319,"id":"a6esqnem5mz1","geo_precision":"unmatched"},"type":"Feature","geometry":null},{"properties":{"month":9,"postcode":"b6 6he","geo_score":0.0,"year":2008,"count":312,"id":"a6esqn1gz9e2","geo_precision":"unmatched"},"type":"Feature","geometry":null},{"properties":{"month":10,"postcode":"b6 6he","geo_score":0.0,"year":2008,"count":376,"id":"a6esqn3w45za","geo_precision":"unmatched"},"type":"Feature","geometry":null},{"properties":{"month":11,"postcode":"b6 6he","geo_score":0.0,"year":2008,"count":384,"id":"a6esqn1kgjv2","geo_precision":"unmatched"},"type":"Feature","geometry":null},{"properties":{"month":12,"postcode":"b6 6he","geo_score":0.0,"year":2008,"count":440,"id":"a6esqn6amy97","geo_precision":"unmatched"},"type":"Feature","geometry":null},{"properties":{"month":1,"postcode":"b6 6he","geo_score":0.0,"year":2009,"count":405,"id":"a6esqn1p9wdl","geo_precision":"unmatched"},"type":"Feature","geometry":null},{"properties":{"month":2,"postcode":"b6 6he","geo_score":0.0,"year":2009,"count":496,"id":"a6esqn7nueai","geo_precision":"unmatched"},"type":"Feature","geometry":null},{"properties":{"month":3,"postcode":"b6 6he","geo_score":0.0,"year":2009,"count":619,"id":"a6esqmyzkc6u","geo_precision":"unmatched"},"type":"Feature","geometry":null},{"properties":{"month":4,"postcode":"b6 6he","geo_score":0.0,"year":2009,"count":556,"id":"a6esqnekljph","geo_precision":"unmatched"},"type":"Feature","geometry":null},{"properties":{"month":5,"postcode":"b6 6he","geo_score":0.0,"year":2009,"count":524,"id":"a6esqnbvf5w3","geo_precision":"unmatched"},"type":"Feature","geometry":null},{"properties":{"month":6,"postcode":"b6 6he","geo_score":0.0,"year":2009,"count":487,"id":"a6esqn1mynml","geo_precision":"unmatched"},"type":"Feature","geometry":null},{"properties":{"month":1,"postcode":"ip33 1ls","geo_score":0.0,"year":2008,"count":904,"id":"a6esqn5m4nbv","geo_precision":"unmatched"},"type":"Feature","geometry":null},{"properties":{"month":2,"postcode":"ip33 1ls","geo_score":0.0,"year":2008,"count":766,"id":"a6esqmzn8ljm","geo_precision":"unmatched"},"type":"Feature","geometry":null},{"properties":{"month":3,"postcode":"ip33 1ls","geo_score":0.0,"year":2008,"count":915,"id":"a6esqn1yaxfq","geo_precision":"unmatched"},"type":"Feature","geometry":null},{"properties":{"month":4,"postcode":"ip33 1ls","geo_score":0.0,"year":2008,"count":815,"id":"a6esqn4nhuz3","geo_precision":"unmatched"},"type":"Feature","geometry":null},{"properties":{"month":5,"postcode":"ip33 1ls","geo_score":0.0,"year":2008,"count":820,"id":"a6esqncv3rxs","geo_precision":"unmatched"},"type":"Feature","geometry":null},{"properties":{"month":6,"postcode":"ip33 1ls","geo_score":0.0,"year":2008,"count":837,"id":"a6esqn96udru","geo_precision":"unmatched"},"type":"Feature","geometry":null},{"properties":{"month":7,"postcode":"ip33 1ls","geo_score":0.0,"year":2008,"count":908,"id":"a6esqn9rrifo","geo_precision":"unmatched"},"type":"Feature","geometry":null},{"properties":{"month":8,"postcode":"ip33 1ls","geo_score":0.0,"year":2008,"count":923,"id":"a6esqn280uom","geo_precision":"unmatched"},"type":"Feature","geometry":null},{"properties":{"month":9,"postcode":"ip33 1ls","geo_score":0.0,"year":2008,"count":912,"id":"a6esqn5otzqd","geo_precision":"unmatched"},"type":"Feature","geometry":null},{"properties":{"month":10,"postcode":"ip33 1ls","geo_score":0.0,"year":2008,"count":948,"id":"a6esqn6wzqib","geo_precision":"unmatched"},"type":"Feature","geometry":null},{"properties":{"month":11,"postcode":"ip33 1ls","geo_score":0.0,"year":2008,"count":1065,"id":"a6esqnf63q4q","geo_precision":"unmatched"},"type":"Feature","geometry":null},{"properties":{"month":12,"postcode":"ip33 1ls","geo_score":0.0,"year":2008,"count":1183,"id":"a6esqnbsms91","geo_precision":"unmatched"},"type":"Feature","geometry":null},{"properties":{"month":1,"postcode":"ip33 1ls","geo_score":0.0,"year":2009,"count":1087,"id":"a6esqn7jenuz","geo_precision":"unmatched"},"type":"Feature","geometry":null},{"properties":{"month":2,"postcode":"ip33 1ls","geo_score":0.0,"year":2009,"count":1323,"id":"a6esqna0u4hw","geo_precision":"unmatched"},"type":"Feature","geometry":null},{"properties":{"month":3,"postcode":"ip33 1ls","geo_score":0.0,"year":2009,"count":1633,"id":"a6esqn6ogfg2","geo_precision":"unmatched"},"type":"Feature","geometry":null},{"properties":{"month":4,"postcode":"ip33 1ls","geo_score":0.0,"year":2009,"count":1405,"id":"a6esqncjjdl0","geo_precision":"unmatched"},"type":"Feature","geometry":null},{"properties":{"month":5,"postcode":"ip33 1ls","geo_score":0.0,"year":2009,"count":1386,"id":"a6esqneisfef","geo_precision":"unmatched"},"type":"Feature","geometry":null},{"properties":{"month":6,"postcode":"ip33 1ls","geo_score":0.0,"year":2009,"count":1342,"id":"a6esqnerj4i9","geo_precision":"unmatched"},"type":"Feature","geometry":null}],"is_temporal":false,"author":{"url":"","metadata":"","contact_name":"","contact_address":"","source":"","contact_phone":""},"source":"","pagination":{"sort":null,"start":0,"total":126,"limit":1000000},"state":"complete","tags":"","published":"2014-08-13T10:42:57-04:00","id":199536}