{"type":"FeatureCollection","data_type":"Dataset","url_type":null,"permissions":[{"permissions":{"download":true,"view":true},"group_id":"everyone"}],"classification":null,"title":"stroke data","count":126,"stream_id":199552,"contributor":{"url":"http://geocommons.com/users/39016","name":"stefanom"},"data_attributes":null,"calculation_params":null,"icon_link":null,"link":"http://geocommons.com/overlays/199552.json","extent":[-86.5806,32.1746,-86.5806,32.1746],"geometry_types":["point"],"unique_name":null,"name":"stroke data","feature_count":126,"description":"","next_feature":null,"is_raster":false,"short_classification":"Y","stats":{"month":{"max":12,"mean":5.5,"variance":11.004,"stdev":3.31722775823428,"min":1,"median":5},"year":{"max":2009,"mean":2008.33333333333,"variance":0.224,"stdev":0.47328638264797,"min":2008,"median":2008},"count":{"max":2488,"mean":915.380952380952,"variance":180342.989714286,"stdev":424.668093591084,"min":298,"median":874}},"features":[{"properties":{"month":1,"city":null,"postcode":"NG7 2RD","country":null,"geo_score":0.0,"year":2008,"count":577,"id":"a69hs1sacmnl","address":null,"geo_precision":""},"type":"Feature","geometry":null},{"properties":{"month":2,"city":null,"postcode":"NG7 2RD","country":null,"geo_score":0.0,"year":2008,"count":484,"id":"a69hs1ycb687","address":null,"geo_precision":""},"type":"Feature","geometry":null},{"properties":{"month":3,"city":null,"postcode":"NG7 2RD","country":null,"geo_score":0.0,"year":2008,"count":646,"id":"a69hs1usk9fm","address":null,"geo_precision":""},"type":"Feature","geometry":null},{"properties":{"month":4,"city":null,"postcode":"NG7 2RD","country":null,"geo_score":0.0,"year":2008,"count":473,"id":"a69hs1s1urrh","address":null,"geo_precision":""},"type":"Feature","geometry":null},{"properties":{"month":5,"city":null,"postcode":"NG7 2RD","country":null,"geo_score":0.0,"year":2008,"count":450,"id":"a69hs1jv9t76","address":null,"geo_precision":""},"type":"Feature","geometry":null},{"properties":{"month":6,"city":null,"postcode":"NG7 2RD","country":null,"geo_score":0.0,"year":2008,"count":573,"id":"a69hs1rxq8xt","address":null,"geo_precision":""},"type":"Feature","geometry":null},{"properties":{"month":7,"city":null,"postcode":"NG7 2RD","country":null,"geo_score":0.0,"year":2008,"count":466,"id":"a69hs1rhitqq","address":null,"geo_precision":""},"type":"Feature","geometry":null},{"properties":{"month":8,"city":null,"postcode":"NG7 2RD","country":null,"geo_score":0.0,"year":2008,"count":414,"id":"a69hs1m8ii8a","address":null,"geo_precision":""},"type":"Feature","geometry":null},{"properties":{"month":9,"city":null,"postcode":"NG7 2RD","country":null,"geo_score":0.0,"year":2008,"count":567,"id":"a69hs1px9gul","address":null,"geo_precision":""},"type":"Feature","geometry":null},{"properties":{"month":10,"city":null,"postcode":"NG7 2RD","country":null,"geo_score":0.0,"year":2008,"count":465,"id":"a69hs1p1zlp0","address":null,"geo_precision":""},"type":"Feature","geometry":null},{"properties":{"month":11,"city":null,"postcode":"NG7 2RD","country":null,"geo_score":0.0,"year":2008,"count":498,"id":"a69hs1q1e92n","address":null,"geo_precision":""},"type":"Feature","geometry":null},{"properties":{"month":12,"city":null,"postcode":"NG7 2RD","country":null,"geo_score":0.0,"year":2008,"count":623,"id":"a69hs1wzh75z","address":null,"geo_precision":""},"type":"Feature","geometry":null},{"properties":{"month":1,"city":null,"postcode":"NG7 2RD","country":null,"geo_score":0.0,"year":2009,"count":522,"id":"a69hs1regqw2","address":null,"geo_precision":""},"type":"Feature","geometry":null},{"properties":{"month":2,"city":null,"postcode":"NG7 2RD","country":null,"geo_score":0.0,"year":2009,"count":603,"id":"a69hs1lpnssg","address":null,"geo_precision":""},"type":"Feature","geometry":null},{"properties":{"month":3,"city":null,"postcode":"NG7 2RD","country":null,"geo_score":0.0,"year":2009,"count":992,"id":"a69hs1uha4q2","address":null,"geo_precision":""},"type":"Feature","geometry":null},{"properties":{"month":4,"city":null,"postcode":"NG7 2RD","country":null,"geo_score":0.0,"year":2009,"count":735,"id":"a69hs1mh7np2","address":null,"geo_precision":""},"type":"Feature","geometry":null},{"properties":{"month":5,"city":null,"postcode":"NG7 2RD","country":null,"geo_score":0.0,"year":2009,"count":817,"id":"a69hs1uv6bvk","address":null,"geo_precision":""},"type":"Feature","geometry":null},{"properties":{"month":6,"city":null,"postcode":"NG7 2RD","country":null,"geo_score":0.0,"year":2009,"count":671,"id":"a69hs1y7lgtb","address":null,"geo_precision":""},"type":"Feature","geometry":null},{"properties":{"month":1,"city":null,"postcode":"m13 9pl","country":null,"geo_score":0.0,"year":2008,"count":1580,"id":"a69hs1jw5nu7","address":null,"geo_precision":""},"type":"Feature","geometry":null},{"properties":{"month":2,"city":null,"postcode":"m13 9pl","country":null,"geo_score":0.0,"year":2008,"count":1202,"id":"a69hs1kyy27u","address":null,"geo_precision":""},"type":"Feature","geometry":null},{"properties":{"month":3,"city":null,"postcode":"m13 9pl","country":null,"geo_score":0.0,"year":2008,"count":1572,"id":"a69hs1rx026v","address":null,"geo_precision":""},"type":"Feature","geometry":null},{"properties":{"month":4,"city":null,"postcode":"m13 9pl","country":null,"geo_score":0.0,"year":2008,"count":1293,"id":"a69hs1nqvpei","address":null,"geo_precision":""},"type":"Feature","geometry":null},{"properties":{"month":5,"city":null,"postcode":"m13 9pl","country":null,"geo_score":0.0,"year":2008,"count":1249,"id":"a69hs1l3876g","address":null,"geo_precision":""},"type":"Feature","geometry":null},{"properties":{"month":6,"city":null,"postcode":"m13 9pl","country":null,"geo_score":0.0,"year":2008,"count":1585,"id":"a69hs1xcrmbd","address":null,"geo_precision":""},"type":"Feature","geometry":null},{"properties":{"month":7,"city":null,"postcode":"m13 9pl","country":null,"geo_score":0.0,"year":2008,"count":1247,"id":"a69hs1t05l0a","address":null,"geo_precision":""},"type":"Feature","geometry":null},{"properties":{"month":8,"city":null,"postcode":"m13 9pl","country":null,"geo_score":0.0,"year":2008,"count":1243,"id":"a69hs1jaq1x7","address":null,"geo_precision":""},"type":"Feature","geometry":null},{"properties":{"month":9,"city":null,"postcode":"m13 9pl","country":null,"geo_score":0.0,"year":2008,"count":1527,"id":"a69hs1iykk90","address":null,"geo_precision":""},"type":"Feature","geometry":null},{"properties":{"month":10,"city":null,"postcode":"m13 9pl","country":null,"geo_score":0.0,"year":2008,"count":1292,"id":"a69hs1w63ukp","address":null,"geo_precision":""},"type":"Feature","geometry":null},{"properties":{"month":11,"city":null,"postcode":"m13 9pl","country":null,"geo_score":0.0,"year":2008,"count":1457,"id":"a69hs1qxekp4","address":null,"geo_precision":""},"type":"Feature","geometry":null},{"properties":{"month":12,"city":null,"postcode":"m13 9pl","country":null,"geo_score":0.0,"year":2008,"count":1654,"id":"a69hs1r29gzb","address":null,"geo_precision":""},"type":"Feature","geometry":null},{"properties":{"month":1,"city":null,"postcode":"m13 9pl","country":null,"geo_score":0.0,"year":2009,"count":1468,"id":"a69hs1lqwweb","address":null,"geo_precision":""},"type":"Feature","geometry":null},{"properties":{"month":2,"city":null,"postcode":"m13 9pl","country":null,"geo_score":0.0,"year":2009,"count":1710,"id":"a69hs1qfj5xk","address":null,"geo_precision":""},"type":"Feature","geometry":null},{"properties":{"month":3,"city":null,"postcode":"m13 9pl","country":null,"geo_score":0.0,"year":2009,"count":2488,"id":"a69hs1unbjml","address":null,"geo_precision":""},"type":"Feature","geometry":null},{"properties":{"month":4,"city":null,"postcode":"m13 9pl","country":null,"geo_score":0.0,"year":2009,"count":1841,"id":"a69hs1u0s1yx","address":null,"geo_precision":""},"type":"Feature","geometry":null},{"properties":{"month":5,"city":null,"postcode":"m13 9pl","country":null,"geo_score":0.0,"year":2009,"count":2214,"id":"a69hs1te6c2u","address":null,"geo_precision":""},"type":"Feature","geometry":null},{"properties":{"month":6,"city":null,"postcode":"m13 9pl","country":null,"geo_score":0.0,"year":2009,"count":1717,"id":"a69hs1wcwj55","address":null,"geo_precision":""},"type":"Feature","geometry":null},{"properties":{"month":1,"city":null,"postcode":"bn1 1ee","country":null,"geo_score":0.0,"year":2008,"count":860,"id":"a69hs1kz2sru","address":null,"geo_precision":""},"type":"Feature","geometry":null},{"properties":{"month":2,"city":null,"postcode":"bn1 1ee","country":null,"geo_score":0.0,"year":2008,"count":702,"id":"a69hs1v5l79e","address":null,"geo_precision":""},"type":"Feature","geometry":null},{"properties":{"month":3,"city":null,"postcode":"bn1 1ee","country":null,"geo_score":0.0,"year":2008,"count":852,"id":"a69hs1w7sofz","address":null,"geo_precision":""},"type":"Feature","geometry":null},{"properties":{"month":4,"city":null,"postcode":"bn1 1ee","country":null,"geo_score":0.0,"year":2008,"count":657,"id":"a69hs1j1q3wq","address":null,"geo_precision":""},"type":"Feature","geometry":null},{"properties":{"month":5,"city":null,"postcode":"bn1 1ee","country":null,"geo_score":0.0,"year":2008,"count":661,"id":"a69hs1pkhu34","address":null,"geo_precision":""},"type":"Feature","geometry":null},{"properties":{"month":6,"city":null,"postcode":"bn1 1ee","country":null,"geo_score":0.0,"year":2008,"count":881,"id":"a69hs1xbxhjv","address":null,"geo_precision":""},"type":"Feature","geometry":null},{"properties":{"month":7,"city":null,"postcode":"bn1 1ee","country":null,"geo_score":0.0,"year":2008,"count":633,"id":"a69hs1tmmhoo","address":null,"geo_precision":""},"type":"Feature","geometry":null},{"properties":{"month":8,"city":null,"postcode":"bn1 1ee","country":null,"geo_score":0.0,"year":2008,"count":699,"id":"a69hs1n9hd85","address":null,"geo_precision":""},"type":"Feature","geometry":null},{"properties":{"month":9,"city":null,"postcode":"bn1 1ee","country":null,"geo_score":0.0,"year":2008,"count":874,"id":"a69hs1vht0tw","address":null,"geo_precision":""},"type":"Feature","geometry":null},{"properties":{"month":10,"city":null,"postcode":"bn1 1ee","country":null,"geo_score":0.0,"year":2008,"count":731,"id":"a69hs1i4aetq","address":null,"geo_precision":""},"type":"Feature","geometry":null},{"properties":{"month":11,"city":null,"postcode":"bn1 1ee","country":null,"geo_score":0.0,"year":2008,"count":807,"id":"a69hs1mk82bm","address":null,"geo_precision":""},"type":"Feature","geometry":null},{"properties":{"month":12,"city":null,"postcode":"bn1 1ee","country":null,"geo_score":0.0,"year":2008,"count":991,"id":"a69hs1vn7wg8","address":null,"geo_precision":""},"type":"Feature","geometry":null},{"properties":{"month":1,"city":null,"postcode":"bn1 1ee","country":null,"geo_score":0.0,"year":2009,"count":787,"id":"a69hs1iqw5cd","address":null,"geo_precision":""},"type":"Feature","geometry":null},{"properties":{"month":2,"city":null,"postcode":"bn1 1ee","country":null,"geo_score":0.0,"year":2009,"count":952,"id":"a69hs1o6163b","address":null,"geo_precision":""},"type":"Feature","geometry":null},{"properties":{"month":3,"city":null,"postcode":"bn1 1ee","country":null,"geo_score":0.0,"year":2009,"count":1373,"id":"a69hs1xyqo3l","address":null,"geo_precision":""},"type":"Feature","geometry":null},{"properties":{"month":4,"city":null,"postcode":"bn1 1ee","country":null,"geo_score":0.0,"year":2009,"count":1078,"id":"a69hs1i4v5ku","address":null,"geo_precision":""},"type":"Feature","geometry":null},{"properties":{"month":5,"city":null,"postcode":"bn1 1ee","country":null,"geo_score":0.0,"year":2009,"count":1226,"id":"a69hs1qnlp6h","address":null,"geo_precision":""},"type":"Feature","geometry":null},{"properties":{"month":6,"city":null,"postcode":"bn1 1ee","country":null,"geo_score":0.0,"year":2009,"count":997,"id":"a69hs1mz0s8w","address":null,"geo_precision":""},"type":"Feature","geometry":null},{"properties":{"month":1,"city":null,"postcode":"bs27 3qf","country":null,"geo_score":0.0,"year":2008,"count":640,"id":"a69hs1vkosht","address":null,"geo_precision":""},"type":"Feature","geometry":null},{"properties":{"month":2,"city":null,"postcode":"bs27 3qf","country":null,"geo_score":0.0,"year":2008,"count":529,"id":"a69hs1jywruh","address":null,"geo_precision":""},"type":"Feature","geometry":null},{"properties":{"month":3,"city":null,"postcode":"bs27 3qf","country":null,"geo_score":0.0,"year":2008,"count":730,"id":"a69hs1p1bpat","address":null,"geo_precision":""},"type":"Feature","geometry":null},{"properties":{"month":4,"city":null,"postcode":"bs27 3qf","country":null,"geo_score":0.0,"year":2008,"count":601,"id":"a69hs1sgw4ci","address":null,"geo_precision":""},"type":"Feature","geometry":null},{"properties":{"month":5,"city":null,"postcode":"bs27 3qf","country":null,"geo_score":0.0,"year":2008,"count":641,"id":"a69hs1k7qqz0","address":null,"geo_precision":""},"type":"Feature","geometry":null},{"properties":{"month":6,"city":null,"postcode":"bs27 3qf","country":null,"geo_score":0.0,"year":2008,"count":739,"id":"a69hs1kdkt3z","address":null,"geo_precision":""},"type":"Feature","geometry":null},{"properties":{"month":7,"city":null,"postcode":"bs27 3qf","country":null,"geo_score":0.0,"year":2008,"count":581,"id":"a69hs1uwoqnx","address":null,"geo_precision":""},"type":"Feature","geometry":null},{"properties":{"month":8,"city":null,"postcode":"bs27 3qf","country":null,"geo_score":0.0,"year":2008,"count":656,"id":"a69hs1p6uxxp","address":null,"geo_precision":""},"type":"Feature","geometry":null},{"properties":{"month":9,"city":null,"postcode":"bs27 3qf","country":null,"geo_score":0.0,"year":2008,"count":739,"id":"a69hs1rmve69","address":null,"geo_precision":""},"type":"Feature","geometry":null},{"properties":{"month":10,"city":null,"postcode":"bs27 3qf","country":null,"geo_score":0.0,"year":2008,"count":610,"id":"a69hs1r3m40l","address":null,"geo_precision":""},"type":"Feature","geometry":null},{"properties":{"month":11,"city":null,"postcode":"bs27 3qf","country":null,"geo_score":0.0,"year":2008,"count":651,"id":"a69hs1iz6qzi","address":null,"geo_precision":""},"type":"Feature","geometry":null},{"properties":{"month":12,"city":null,"postcode":"bs27 3qf","country":null,"geo_score":0.0,"year":2008,"count":752,"id":"a69hs1m4v4k9","address":null,"geo_precision":""},"type":"Feature","geometry":null},{"properties":{"month":1,"city":null,"postcode":"bs27 3qf","country":null,"geo_score":0.0,"year":2009,"count":680,"id":"a69hs1wnt05b","address":null,"geo_precision":""},"type":"Feature","geometry":null},{"properties":{"month":2,"city":null,"postcode":"bs27 3qf","country":null,"geo_score":0.0,"year":2009,"count":767,"id":"a69hs1n4dxkn","address":null,"geo_precision":""},"type":"Feature","geometry":null},{"properties":{"month":3,"city":null,"postcode":"bs27 3qf","country":null,"geo_score":0.0,"year":2009,"count":1167,"id":"a69hs1ilpq3u","address":null,"geo_precision":""},"type":"Feature","geometry":null},{"properties":{"month":4,"city":null,"postcode":"bs27 3qf","country":null,"geo_score":0.0,"year":2009,"count":875,"id":"a69hs1xi3var","address":null,"geo_precision":""},"type":"Feature","geometry":null},{"properties":{"month":5,"city":null,"postcode":"bs27 3qf","country":null,"geo_score":0.0,"year":2009,"count":1134,"id":"a69hs1l9nh4e","address":null,"geo_precision":""},"type":"Feature","geometry":null},{"properties":{"month":6,"city":null,"postcode":"bs27 3qf","country":null,"geo_score":0.0,"year":2009,"count":888,"id":"a69hs1syfi6h","address":null,"geo_precision":""},"type":"Feature","geometry":null},{"properties":{"month":1,"city":"London","postcode":"w1w 7rt","country":"England","geo_score":0.513,"year":2008,"count":1110,"id":"a69hs1ohvneh","address":"60 great portland street","geo_precision":"street"},"type":"Feature","geometry":{"type":"Point","coordinates":[-86.580565,32.174633]}},{"properties":{"month":2,"city":"London","postcode":"w1w 7rt","country":"England","geo_score":0.391,"year":2008,"count":920,"id":"a69hs1kqpwig","address":"61 great portland street","geo_precision":"street"},"type":"Feature","geometry":{"type":"Point","coordinates":[-86.580565,32.174633]}},{"properties":{"month":3,"city":"London","postcode":"w1w 7rt","country":"England","geo_score":0.513,"year":2008,"count":1241,"id":"a69hs1sbd6d1","address":"62 great portland street","geo_precision":"street"},"type":"Feature","geometry":{"type":"Point","coordinates":[-86.580565,32.174633]}},{"properties":{"month":4,"city":"London","postcode":"w1w 7rt","country":"England","geo_score":0.391,"year":2008,"count":962,"id":"a69hs1mzlogv","address":"63 great portland street","geo_precision":"street"},"type":"Feature","geometry":{"type":"Point","coordinates":[-86.580565,32.174633]}},{"properties":{"month":5,"city":"London","postcode":"w1w 7rt","country":"England","geo_score":0.513,"year":2008,"count":946,"id":"a69hs1j8itfx","address":"64 great portland street","geo_precision":"street"},"type":"Feature","geometry":{"type":"Point","coordinates":[-86.580565,32.174633]}},{"properties":{"month":6,"city":"London","postcode":"w1w 7rt","country":"England","geo_score":0.391,"year":2008,"count":1127,"id":"a69hs1ocfo91","address":"65 great portland street","geo_precision":"street"},"type":"Feature","geometry":{"type":"Point","coordinates":[-86.580565,32.174633]}},{"properties":{"month":7,"city":"London","postcode":"w1w 7rt","country":"England","geo_score":0.513,"year":2008,"count":927,"id":"a69hs1pmactj","address":"66 great portland street","geo_precision":"street"},"type":"Feature","geometry":{"type":"Point","coordinates":[-86.580565,32.174633]}},{"properties":{"month":8,"city":"London","postcode":"w1w 7rt","country":"England","geo_score":0.391,"year":2008,"count":904,"id":"a69hs1skx9z0","address":"67 great portland street","geo_precision":"street"},"type":"Feature","geometry":{"type":"Point","coordinates":[-86.580565,32.174633]}},{"properties":{"month":9,"city":"London","postcode":"w1w 7rt","country":"England","geo_score":0.513,"year":2008,"count":1188,"id":"a69hs1x1j3gk","address":"68 great portland street","geo_precision":"street"},"type":"Feature","geometry":{"type":"Point","coordinates":[-86.580565,32.174633]}},{"properties":{"month":10,"city":"London","postcode":"w1w 7rt","country":"England","geo_score":0.391,"year":2008,"count":981,"id":"a69hs1nzqi03","address":"69 great portland street","geo_precision":"street"},"type":"Feature","geometry":{"type":"Point","coordinates":[-86.580565,32.174633]}},{"properties":{"month":11,"city":"London","postcode":"w1w 7rt","country":"England","geo_score":0.513,"year":2008,"count":1100,"id":"a69hs1rhramt","address":"70 great portland street","geo_precision":"street"},"type":"Feature","geometry":{"type":"Point","coordinates":[-86.580565,32.174633]}},{"properties":{"month":12,"city":"London","postcode":"w1w 7rt","country":"England","geo_score":0.391,"year":2008,"count":1193,"id":"a69hs1ncy1gq","address":"71 great portland street","geo_precision":"street"},"type":"Feature","geometry":{"type":"Point","coordinates":[-86.580565,32.174633]}},{"properties":{"month":1,"city":"London","postcode":"w1w 7rt","country":"England","geo_score":0.513,"year":2009,"count":1157,"id":"a69hs1s8anm2","address":"72 great portland street","geo_precision":"street"},"type":"Feature","geometry":{"type":"Point","coordinates":[-86.580565,32.174633]}},{"properties":{"month":2,"city":"London","postcode":"w1w 7rt","country":"England","geo_score":0.391,"year":2009,"count":1354,"id":"a69hs1wvbkug","address":"73 great portland street","geo_precision":"street"},"type":"Feature","geometry":{"type":"Point","coordinates":[-86.580565,32.174633]}},{"properties":{"month":3,"city":"London","postcode":"w1w 7rt","country":"England","geo_score":0.513,"year":2009,"count":1827,"id":"a69hs1xubtiq","address":"74 great portland street","geo_precision":"street"},"type":"Feature","geometry":{"type":"Point","coordinates":[-86.580565,32.174633]}},{"properties":{"month":4,"city":"London","postcode":"w1w 7rt","country":"England","geo_score":0.391,"year":2009,"count":1278,"id":"a69hs1o9b6t8","address":"75 great portland street","geo_precision":"street"},"type":"Feature","geometry":{"type":"Point","coordinates":[-86.580565,32.174633]}},{"properties":{"month":5,"city":"London","postcode":"w1w 7rt","country":"England","geo_score":0.513,"year":2009,"count":1562,"id":"a69hs1oufzjn","address":"76 great portland street","geo_precision":"street"},"type":"Feature","geometry":{"type":"Point","coordinates":[-86.580565,32.174633]}},{"properties":{"month":6,"city":"London","postcode":"w1w 7rt","country":"England","geo_score":0.391,"year":2009,"count":1215,"id":"a69hs1okegmu","address":"77 great portland street","geo_precision":"street"},"type":"Feature","geometry":{"type":"Point","coordinates":[-86.580565,32.174633]}},{"properties":{"month":1,"city":null,"postcode":"b6 6he","country":null,"geo_score":0.0,"year":2008,"count":307,"id":"a69hs1sdmu3g","address":null,"geo_precision":""},"type":"Feature","geometry":null},{"properties":{"month":2,"city":null,"postcode":"b6 6he","country":null,"geo_score":0.0,"year":2008,"count":299,"id":"a69hs1j632px","address":null,"geo_precision":""},"type":"Feature","geometry":null},{"properties":{"month":3,"city":null,"postcode":"b6 6he","country":null,"geo_score":0.0,"year":2008,"count":319,"id":"a69hs1r4vw1t","address":null,"geo_precision":""},"type":"Feature","geometry":null},{"properties":{"month":4,"city":null,"postcode":"b6 6he","country":null,"geo_score":0.0,"year":2008,"count":299,"id":"a69hs1iwc1lh","address":null,"geo_precision":""},"type":"Feature","geometry":null},{"properties":{"month":5,"city":null,"postcode":"b6 6he","country":null,"geo_score":0.0,"year":2008,"count":298,"id":"a69hs1k1wfab","address":null,"geo_precision":""},"type":"Feature","geometry":null},{"properties":{"month":6,"city":null,"postcode":"b6 6he","country":null,"geo_score":0.0,"year":2008,"count":334,"id":"a69hs1xzt6vy","address":null,"geo_precision":""},"type":"Feature","geometry":null},{"properties":{"month":7,"city":null,"postcode":"b6 6he","country":null,"geo_score":0.0,"year":2008,"count":344,"id":"a69hs1uby4a5","address":null,"geo_precision":""},"type":"Feature","geometry":null},{"properties":{"month":8,"city":null,"postcode":"b6 6he","country":null,"geo_score":0.0,"year":2008,"count":319,"id":"a69hs1v553m2","address":null,"geo_precision":""},"type":"Feature","geometry":null},{"properties":{"month":9,"city":null,"postcode":"b6 6he","country":null,"geo_score":0.0,"year":2008,"count":312,"id":"a69hs1o50urs","address":null,"geo_precision":""},"type":"Feature","geometry":null},{"properties":{"month":10,"city":null,"postcode":"b6 6he","country":null,"geo_score":0.0,"year":2008,"count":376,"id":"a69hs1piy70l","address":null,"geo_precision":""},"type":"Feature","geometry":null},{"properties":{"month":11,"city":null,"postcode":"b6 6he","country":null,"geo_score":0.0,"year":2008,"count":384,"id":"a69hs1i5mqls","address":null,"geo_precision":""},"type":"Feature","geometry":null},{"properties":{"month":12,"city":null,"postcode":"b6 6he","country":null,"geo_score":0.0,"year":2008,"count":440,"id":"a69hs1qv5gbg","address":null,"geo_precision":""},"type":"Feature","geometry":null},{"properties":{"month":1,"city":null,"postcode":"b6 6he","country":null,"geo_score":0.0,"year":2009,"count":405,"id":"a69hs1tikhz4","address":null,"geo_precision":""},"type":"Feature","geometry":null},{"properties":{"month":2,"city":null,"postcode":"b6 6he","country":null,"geo_score":0.0,"year":2009,"count":496,"id":"a69hs1w4e40m","address":null,"geo_precision":""},"type":"Feature","geometry":null},{"properties":{"month":3,"city":null,"postcode":"b6 6he","country":null,"geo_score":0.0,"year":2009,"count":619,"id":"a69hs1sqfhiy","address":null,"geo_precision":""},"type":"Feature","geometry":null},{"properties":{"month":4,"city":null,"postcode":"b6 6he","country":null,"geo_score":0.0,"year":2009,"count":556,"id":"a69hs1os262e","address":null,"geo_precision":""},"type":"Feature","geometry":null},{"properties":{"month":5,"city":null,"postcode":"b6 6he","country":null,"geo_score":0.0,"year":2009,"count":524,"id":"a69hs1mfhofa","address":null,"geo_precision":""},"type":"Feature","geometry":null},{"properties":{"month":6,"city":null,"postcode":"b6 6he","country":null,"geo_score":0.0,"year":2009,"count":487,"id":"a69hs1ygfyak","address":null,"geo_precision":""},"type":"Feature","geometry":null},{"properties":{"month":1,"city":null,"postcode":"ip33 1ls","country":null,"geo_score":0.0,"year":2008,"count":904,"id":"a69hs1m1mvrp","address":null,"geo_precision":""},"type":"Feature","geometry":null},{"properties":{"month":2,"city":null,"postcode":"ip33 1ls","country":null,"geo_score":0.0,"year":2008,"count":766,"id":"a69hs1vym5hg","address":null,"geo_precision":""},"type":"Feature","geometry":null},{"properties":{"month":3,"city":null,"postcode":"ip33 1ls","country":null,"geo_score":0.0,"year":2008,"count":915,"id":"a69hs1r4evf0","address":null,"geo_precision":""},"type":"Feature","geometry":null},{"properties":{"month":4,"city":null,"postcode":"ip33 1ls","country":null,"geo_score":0.0,"year":2008,"count":815,"id":"a69hs1p4ojo8","address":null,"geo_precision":""},"type":"Feature","geometry":null},{"properties":{"month":5,"city":null,"postcode":"ip33 1ls","country":null,"geo_score":0.0,"year":2008,"count":820,"id":"a69hs1mukndp","address":null,"geo_precision":""},"type":"Feature","geometry":null},{"properties":{"month":6,"city":null,"postcode":"ip33 1ls","country":null,"geo_score":0.0,"year":2008,"count":837,"id":"a69hs1lq38fc","address":null,"geo_precision":""},"type":"Feature","geometry":null},{"properties":{"month":7,"city":null,"postcode":"ip33 1ls","country":null,"geo_score":0.0,"year":2008,"count":908,"id":"a69hs1ty4ij2","address":null,"geo_precision":""},"type":"Feature","geometry":null},{"properties":{"month":8,"city":null,"postcode":"ip33 1ls","country":null,"geo_score":0.0,"year":2008,"count":923,"id":"a69hs1w8h1mp","address":null,"geo_precision":""},"type":"Feature","geometry":null},{"properties":{"month":9,"city":null,"postcode":"ip33 1ls","country":null,"geo_score":0.0,"year":2008,"count":912,"id":"a69hs1tasdiq","address":null,"geo_precision":""},"type":"Feature","geometry":null},{"properties":{"month":10,"city":null,"postcode":"ip33 1ls","country":null,"geo_score":0.0,"year":2008,"count":948,"id":"a69hs1whr40q","address":null,"geo_precision":""},"type":"Feature","geometry":null},{"properties":{"month":11,"city":null,"postcode":"ip33 1ls","country":null,"geo_score":0.0,"year":2008,"count":1065,"id":"a69hs1nk8pwr","address":null,"geo_precision":""},"type":"Feature","geometry":null},{"properties":{"month":12,"city":null,"postcode":"ip33 1ls","country":null,"geo_score":0.0,"year":2008,"count":1183,"id":"a69hs1l3fb8q","address":null,"geo_precision":""},"type":"Feature","geometry":null},{"properties":{"month":1,"city":null,"postcode":"ip33 1ls","country":null,"geo_score":0.0,"year":2009,"count":1087,"id":"a69hs1u02amp","address":null,"geo_precision":""},"type":"Feature","geometry":null},{"properties":{"month":2,"city":null,"postcode":"ip33 1ls","country":null,"geo_score":0.0,"year":2009,"count":1323,"id":"a69hs1tx0c1e","address":null,"geo_precision":""},"type":"Feature","geometry":null},{"properties":{"month":3,"city":null,"postcode":"ip33 1ls","country":null,"geo_score":0.0,"year":2009,"count":1633,"id":"a69hs1lccoml","address":null,"geo_precision":""},"type":"Feature","geometry":null},{"properties":{"month":4,"city":null,"postcode":"ip33 1ls","country":null,"geo_score":0.0,"year":2009,"count":1405,"id":"a69hs1wb6y6y","address":null,"geo_precision":""},"type":"Feature","geometry":null},{"properties":{"month":5,"city":null,"postcode":"ip33 1ls","country":null,"geo_score":0.0,"year":2009,"count":1386,"id":"a69hs1pkxsri","address":null,"geo_precision":""},"type":"Feature","geometry":null},{"properties":{"month":6,"city":null,"postcode":"ip33 1ls","country":null,"geo_score":0.0,"year":2009,"count":1342,"id":"a69hs1w8ytmz","address":null,"geo_precision":""},"type":"Feature","geometry":null}],"is_temporal":false,"author":{"url":"","metadata":"","contact_name":"","contact_address":"","source":"","contact_phone":""},"source":"","pagination":{"sort":null,"start":0,"total":126,"limit":1000000},"state":"complete","tags":"","published":"2014-08-13T10:44:00-04:00","id":199552}