{"type":"FeatureCollection","data_type":"Dataset","url_type":null,"permissions":[{"permissions":{"download":true,"view":true},"group_id":"everyone"}],"classification":null,"title":"stroke data","count":126,"stream_id":199564,"contributor":{"url":"http://geocommons.com/users/39016","name":"stefanom"},"data_attributes":null,"calculation_params":null,"icon_link":null,"link":"http://geocommons.com/overlays/199564.json","extent":[-86.2228,33.3623,-86.2228,33.3623],"geometry_types":["point"],"unique_name":null,"name":"stroke data","feature_count":126,"description":"","next_feature":null,"is_raster":false,"short_classification":"Y","stats":{"month":{"max":12,"mean":5.5,"variance":11.004,"stdev":3.31722775823428,"min":1,"median":5},"year":{"max":2009,"mean":2008.33333333333,"variance":0.224,"stdev":0.47328638264797,"min":2008,"median":2008},"count":{"max":2488,"mean":915.380952380952,"variance":180342.989714286,"stdev":424.668093591084,"min":298,"median":874}},"features":[{"properties":{"city":"Nottingham","month":1,"postcode":"NG7 2RD","geo_score":0.714,"country":"united kingdom","year":2008,"count":577,"id":"a6m1jocwy00x","geo_precision":"city","sector":"NG7"},"type":"Feature","geometry":{"type":"Point","coordinates":[-86.222752,33.362333]}},{"properties":{"city":"Nottingham","month":2,"postcode":"NG7 2RD","geo_score":0.714,"country":"united kingdom","year":2008,"count":484,"id":"a6m1jold58kq","geo_precision":"city","sector":"NG7"},"type":"Feature","geometry":{"type":"Point","coordinates":[-86.222752,33.362333]}},{"properties":{"city":"Nottingham","month":3,"postcode":"NG7 2RD","geo_score":0.714,"country":"united kingdom","year":2008,"count":646,"id":"a6m1jojyusvy","geo_precision":"city","sector":"NG7"},"type":"Feature","geometry":{"type":"Point","coordinates":[-86.222752,33.362333]}},{"properties":{"city":"Nottingham","month":4,"postcode":"NG7 2RD","geo_score":0.714,"country":"united kingdom","year":2008,"count":473,"id":"a6m1joh7drs0","geo_precision":"city","sector":"NG7"},"type":"Feature","geometry":{"type":"Point","coordinates":[-86.222752,33.362333]}},{"properties":{"city":"Nottingham","month":5,"postcode":"NG7 2RD","geo_score":0.714,"country":"united kingdom","year":2008,"count":450,"id":"a6m1joi8r2yz","geo_precision":"city","sector":"NG7"},"type":"Feature","geometry":{"type":"Point","coordinates":[-86.222752,33.362333]}},{"properties":{"city":"Nottingham","month":6,"postcode":"NG7 2RD","geo_score":0.714,"country":"united kingdom","year":2008,"count":573,"id":"a6m1jodj9744","geo_precision":"city","sector":"NG7"},"type":"Feature","geometry":{"type":"Point","coordinates":[-86.222752,33.362333]}},{"properties":{"city":"Nottingham","month":7,"postcode":"NG7 2RD","geo_score":0.714,"country":"united kingdom","year":2008,"count":466,"id":"a6m1jolf9ren","geo_precision":"city","sector":"NG7"},"type":"Feature","geometry":{"type":"Point","coordinates":[-86.222752,33.362333]}},{"properties":{"city":"Nottingham","month":8,"postcode":"NG7 2RD","geo_score":0.714,"country":"united kingdom","year":2008,"count":414,"id":"a6m1jolxjgum","geo_precision":"city","sector":"NG7"},"type":"Feature","geometry":{"type":"Point","coordinates":[-86.222752,33.362333]}},{"properties":{"city":"Nottingham","month":9,"postcode":"NG7 2RD","geo_score":0.714,"country":"united kingdom","year":2008,"count":567,"id":"a6m1jof6c0cz","geo_precision":"city","sector":"NG7"},"type":"Feature","geometry":{"type":"Point","coordinates":[-86.222752,33.362333]}},{"properties":{"city":"Nottingham","month":10,"postcode":"NG7 2RD","geo_score":0.714,"country":"united kingdom","year":2008,"count":465,"id":"a6m1joighwks","geo_precision":"city","sector":"NG7"},"type":"Feature","geometry":{"type":"Point","coordinates":[-86.222752,33.362333]}},{"properties":{"city":"Nottingham","month":11,"postcode":"NG7 2RD","geo_score":0.714,"country":"united kingdom","year":2008,"count":498,"id":"a6m1johynd1o","geo_precision":"city","sector":"NG7"},"type":"Feature","geometry":{"type":"Point","coordinates":[-86.222752,33.362333]}},{"properties":{"city":"Nottingham","month":12,"postcode":"NG7 2RD","geo_score":0.714,"country":"united kingdom","year":2008,"count":623,"id":"a6m1johbd4ey","geo_precision":"city","sector":"NG7"},"type":"Feature","geometry":{"type":"Point","coordinates":[-86.222752,33.362333]}},{"properties":{"city":"Nottingham","month":1,"postcode":"NG7 2RD","geo_score":0.714,"country":"united kingdom","year":2009,"count":522,"id":"a6m1joavw19f","geo_precision":"city","sector":"NG7"},"type":"Feature","geometry":{"type":"Point","coordinates":[-86.222752,33.362333]}},{"properties":{"city":"Nottingham","month":2,"postcode":"NG7 2RD","geo_score":0.714,"country":"united kingdom","year":2009,"count":603,"id":"a6m1jocud5a3","geo_precision":"city","sector":"NG7"},"type":"Feature","geometry":{"type":"Point","coordinates":[-86.222752,33.362333]}},{"properties":{"city":"Nottingham","month":3,"postcode":"NG7 2RD","geo_score":0.714,"country":"united kingdom","year":2009,"count":992,"id":"a6m1jofeq8eo","geo_precision":"city","sector":"NG7"},"type":"Feature","geometry":{"type":"Point","coordinates":[-86.222752,33.362333]}},{"properties":{"city":"Nottingham","month":4,"postcode":"NG7 2RD","geo_score":0.714,"country":"united kingdom","year":2009,"count":735,"id":"a6m1jod7i0ai","geo_precision":"city","sector":"NG7"},"type":"Feature","geometry":{"type":"Point","coordinates":[-86.222752,33.362333]}},{"properties":{"city":"Nottingham","month":5,"postcode":"NG7 2RD","geo_score":0.714,"country":"united kingdom","year":2009,"count":817,"id":"a6m1jogbnyb5","geo_precision":"city","sector":"NG7"},"type":"Feature","geometry":{"type":"Point","coordinates":[-86.222752,33.362333]}},{"properties":{"city":"Nottingham","month":6,"postcode":"NG7 2RD","geo_score":0.714,"country":"united kingdom","year":2009,"count":671,"id":"a6m1jokjaxon","geo_precision":"city","sector":"NG7"},"type":"Feature","geometry":{"type":"Point","coordinates":[-86.222752,33.362333]}},{"properties":{"city":null,"month":1,"postcode":"m13 9pl","geo_score":0.0,"country":null,"year":2008,"count":1580,"id":"a6m1joebb6sy","geo_precision":"unmatched","sector":"m13"},"type":"Feature","geometry":null},{"properties":{"city":null,"month":2,"postcode":"m13 9pl","geo_score":0.0,"country":null,"year":2008,"count":1202,"id":"a6m1jobctm4o","geo_precision":"unmatched","sector":"m13"},"type":"Feature","geometry":null},{"properties":{"city":null,"month":3,"postcode":"m13 9pl","geo_score":0.0,"country":null,"year":2008,"count":1572,"id":"a6m1joc0i140","geo_precision":"unmatched","sector":"m13"},"type":"Feature","geometry":null},{"properties":{"city":null,"month":4,"postcode":"m13 9pl","geo_score":0.0,"country":null,"year":2008,"count":1293,"id":"a6m1jomeuxx7","geo_precision":"unmatched","sector":"m13"},"type":"Feature","geometry":null},{"properties":{"city":null,"month":5,"postcode":"m13 9pl","geo_score":0.0,"country":null,"year":2008,"count":1249,"id":"a6m1jog8gbkp","geo_precision":"unmatched","sector":"m13"},"type":"Feature","geometry":null},{"properties":{"city":null,"month":6,"postcode":"m13 9pl","geo_score":0.0,"country":null,"year":2008,"count":1585,"id":"a6m1jopeydpv","geo_precision":"unmatched","sector":"m13"},"type":"Feature","geometry":null},{"properties":{"city":null,"month":7,"postcode":"m13 9pl","geo_score":0.0,"country":null,"year":2008,"count":1247,"id":"a6m1joajoftn","geo_precision":"unmatched","sector":"m13"},"type":"Feature","geometry":null},{"properties":{"city":null,"month":8,"postcode":"m13 9pl","geo_score":0.0,"country":null,"year":2008,"count":1243,"id":"a6m1jog4vuzu","geo_precision":"unmatched","sector":"m13"},"type":"Feature","geometry":null},{"properties":{"city":null,"month":9,"postcode":"m13 9pl","geo_score":0.0,"country":null,"year":2008,"count":1527,"id":"a6m1joqkse41","geo_precision":"unmatched","sector":"m13"},"type":"Feature","geometry":null},{"properties":{"city":null,"month":10,"postcode":"m13 9pl","geo_score":0.0,"country":null,"year":2008,"count":1292,"id":"a6m1jop7u8by","geo_precision":"unmatched","sector":"m13"},"type":"Feature","geometry":null},{"properties":{"city":null,"month":11,"postcode":"m13 9pl","geo_score":0.0,"country":null,"year":2008,"count":1457,"id":"a6m1joanvgmx","geo_precision":"unmatched","sector":"m13"},"type":"Feature","geometry":null},{"properties":{"city":null,"month":12,"postcode":"m13 9pl","geo_score":0.0,"country":null,"year":2008,"count":1654,"id":"a6m1jonpmj9y","geo_precision":"unmatched","sector":"m13"},"type":"Feature","geometry":null},{"properties":{"city":null,"month":1,"postcode":"m13 9pl","geo_score":0.0,"country":null,"year":2009,"count":1468,"id":"a6m1jod4ve5m","geo_precision":"unmatched","sector":"m13"},"type":"Feature","geometry":null},{"properties":{"city":null,"month":2,"postcode":"m13 9pl","geo_score":0.0,"country":null,"year":2009,"count":1710,"id":"a6m1jobh738r","geo_precision":"unmatched","sector":"m13"},"type":"Feature","geometry":null},{"properties":{"city":null,"month":3,"postcode":"m13 9pl","geo_score":0.0,"country":null,"year":2009,"count":2488,"id":"a6m1johm8g37","geo_precision":"unmatched","sector":"m13"},"type":"Feature","geometry":null},{"properties":{"city":null,"month":4,"postcode":"m13 9pl","geo_score":0.0,"country":null,"year":2009,"count":1841,"id":"a6m1jokdff08","geo_precision":"unmatched","sector":"m13"},"type":"Feature","geometry":null},{"properties":{"city":null,"month":5,"postcode":"m13 9pl","geo_score":0.0,"country":null,"year":2009,"count":2214,"id":"a6m1jople7et","geo_precision":"unmatched","sector":"m13"},"type":"Feature","geometry":null},{"properties":{"city":null,"month":6,"postcode":"m13 9pl","geo_score":0.0,"country":null,"year":2009,"count":1717,"id":"a6m1jonr0fbt","geo_precision":"unmatched","sector":"m13"},"type":"Feature","geometry":null},{"properties":{"city":null,"month":1,"postcode":"bn1 1ee","geo_score":0.0,"country":null,"year":2008,"count":860,"id":"a6m1joayhlok","geo_precision":"unmatched","sector":"bn1"},"type":"Feature","geometry":null},{"properties":{"city":null,"month":2,"postcode":"bn1 1ee","geo_score":0.0,"country":null,"year":2008,"count":702,"id":"a6m1jofe7d96","geo_precision":"unmatched","sector":"bn1"},"type":"Feature","geometry":null},{"properties":{"city":null,"month":3,"postcode":"bn1 1ee","geo_score":0.0,"country":null,"year":2008,"count":852,"id":"a6m1joegx4rm","geo_precision":"unmatched","sector":"bn1"},"type":"Feature","geometry":null},{"properties":{"city":null,"month":4,"postcode":"bn1 1ee","geo_score":0.0,"country":null,"year":2008,"count":657,"id":"a6m1joce97hp","geo_precision":"unmatched","sector":"bn1"},"type":"Feature","geometry":null},{"properties":{"city":null,"month":5,"postcode":"bn1 1ee","geo_score":0.0,"country":null,"year":2008,"count":661,"id":"a6m1johs4nik","geo_precision":"unmatched","sector":"bn1"},"type":"Feature","geometry":null},{"properties":{"city":null,"month":6,"postcode":"bn1 1ee","geo_score":0.0,"country":null,"year":2008,"count":881,"id":"a6m1joabn1cp","geo_precision":"unmatched","sector":"bn1"},"type":"Feature","geometry":null},{"properties":{"city":null,"month":7,"postcode":"bn1 1ee","geo_score":0.0,"country":null,"year":2008,"count":633,"id":"a6m1jolx0156","geo_precision":"unmatched","sector":"bn1"},"type":"Feature","geometry":null},{"properties":{"city":null,"month":8,"postcode":"bn1 1ee","geo_score":0.0,"country":null,"year":2008,"count":699,"id":"a6m1joj9mlpz","geo_precision":"unmatched","sector":"bn1"},"type":"Feature","geometry":null},{"properties":{"city":null,"month":9,"postcode":"bn1 1ee","geo_score":0.0,"country":null,"year":2008,"count":874,"id":"a6m1joplcty9","geo_precision":"unmatched","sector":"bn1"},"type":"Feature","geometry":null},{"properties":{"city":null,"month":10,"postcode":"bn1 1ee","geo_score":0.0,"country":null,"year":2008,"count":731,"id":"a6m1jobshsps","geo_precision":"unmatched","sector":"bn1"},"type":"Feature","geometry":null},{"properties":{"city":null,"month":11,"postcode":"bn1 1ee","geo_score":0.0,"country":null,"year":2008,"count":807,"id":"a6m1jolbucmg","geo_precision":"unmatched","sector":"bn1"},"type":"Feature","geometry":null},{"properties":{"city":null,"month":12,"postcode":"bn1 1ee","geo_score":0.0,"country":null,"year":2008,"count":991,"id":"a6m1jokjiib0","geo_precision":"unmatched","sector":"bn1"},"type":"Feature","geometry":null},{"properties":{"city":null,"month":1,"postcode":"bn1 1ee","geo_score":0.0,"country":null,"year":2009,"count":787,"id":"a6m1jogclitj","geo_precision":"unmatched","sector":"bn1"},"type":"Feature","geometry":null},{"properties":{"city":null,"month":2,"postcode":"bn1 1ee","geo_score":0.0,"country":null,"year":2009,"count":952,"id":"a6m1jokaraq8","geo_precision":"unmatched","sector":"bn1"},"type":"Feature","geometry":null},{"properties":{"city":null,"month":3,"postcode":"bn1 1ee","geo_score":0.0,"country":null,"year":2009,"count":1373,"id":"a6m1jofuj989","geo_precision":"unmatched","sector":"bn1"},"type":"Feature","geometry":null},{"properties":{"city":null,"month":4,"postcode":"bn1 1ee","geo_score":0.0,"country":null,"year":2009,"count":1078,"id":"a6m1joit1tfy","geo_precision":"unmatched","sector":"bn1"},"type":"Feature","geometry":null},{"properties":{"city":null,"month":5,"postcode":"bn1 1ee","geo_score":0.0,"country":null,"year":2009,"count":1226,"id":"a6m1joavewcn","geo_precision":"unmatched","sector":"bn1"},"type":"Feature","geometry":null},{"properties":{"city":null,"month":6,"postcode":"bn1 1ee","geo_score":0.0,"country":null,"year":2009,"count":997,"id":"a6m1joff16iw","geo_precision":"unmatched","sector":"bn1"},"type":"Feature","geometry":null},{"properties":{"city":null,"month":1,"postcode":"bs27 3qf","geo_score":0.0,"country":null,"year":2008,"count":640,"id":"a6m1jolbvkqf","geo_precision":"unmatched","sector":"bs27"},"type":"Feature","geometry":null},{"properties":{"city":null,"month":2,"postcode":"bs27 3qf","geo_score":0.0,"country":null,"year":2008,"count":529,"id":"a6m1joi45pb2","geo_precision":"unmatched","sector":"bs27"},"type":"Feature","geometry":null},{"properties":{"city":null,"month":3,"postcode":"bs27 3qf","geo_score":0.0,"country":null,"year":2008,"count":730,"id":"a6m1jof05i3l","geo_precision":"unmatched","sector":"bs27"},"type":"Feature","geometry":null},{"properties":{"city":null,"month":4,"postcode":"bs27 3qf","geo_score":0.0,"country":null,"year":2008,"count":601,"id":"a6m1jokmw4ds","geo_precision":"unmatched","sector":"bs27"},"type":"Feature","geometry":null},{"properties":{"city":null,"month":5,"postcode":"bs27 3qf","geo_score":0.0,"country":null,"year":2008,"count":641,"id":"a6m1joaaa8uh","geo_precision":"unmatched","sector":"bs27"},"type":"Feature","geometry":null},{"properties":{"city":null,"month":6,"postcode":"bs27 3qf","geo_score":0.0,"country":null,"year":2008,"count":739,"id":"a6m1joe73b5y","geo_precision":"unmatched","sector":"bs27"},"type":"Feature","geometry":null},{"properties":{"city":null,"month":7,"postcode":"bs27 3qf","geo_score":0.0,"country":null,"year":2008,"count":581,"id":"a6m1joftrb0l","geo_precision":"unmatched","sector":"bs27"},"type":"Feature","geometry":null},{"properties":{"city":null,"month":8,"postcode":"bs27 3qf","geo_score":0.0,"country":null,"year":2008,"count":656,"id":"a6m1jokcnlk8","geo_precision":"unmatched","sector":"bs27"},"type":"Feature","geometry":null},{"properties":{"city":null,"month":9,"postcode":"bs27 3qf","geo_score":0.0,"country":null,"year":2008,"count":739,"id":"a6m1jon2ur40","geo_precision":"unmatched","sector":"bs27"},"type":"Feature","geometry":null},{"properties":{"city":null,"month":10,"postcode":"bs27 3qf","geo_score":0.0,"country":null,"year":2008,"count":610,"id":"a6m1jopbt55z","geo_precision":"unmatched","sector":"bs27"},"type":"Feature","geometry":null},{"properties":{"city":null,"month":11,"postcode":"bs27 3qf","geo_score":0.0,"country":null,"year":2008,"count":651,"id":"a6m1jogk0dnx","geo_precision":"unmatched","sector":"bs27"},"type":"Feature","geometry":null},{"properties":{"city":null,"month":12,"postcode":"bs27 3qf","geo_score":0.0,"country":null,"year":2008,"count":752,"id":"a6m1jofq5kei","geo_precision":"unmatched","sector":"bs27"},"type":"Feature","geometry":null},{"properties":{"city":null,"month":1,"postcode":"bs27 3qf","geo_score":0.0,"country":null,"year":2009,"count":680,"id":"a6m1joeu0i3s","geo_precision":"unmatched","sector":"bs27"},"type":"Feature","geometry":null},{"properties":{"city":null,"month":2,"postcode":"bs27 3qf","geo_score":0.0,"country":null,"year":2009,"count":767,"id":"a6m1joi6drfs","geo_precision":"unmatched","sector":"bs27"},"type":"Feature","geometry":null},{"properties":{"city":null,"month":3,"postcode":"bs27 3qf","geo_score":0.0,"country":null,"year":2009,"count":1167,"id":"a6m1jooy647w","geo_precision":"unmatched","sector":"bs27"},"type":"Feature","geometry":null},{"properties":{"city":null,"month":4,"postcode":"bs27 3qf","geo_score":0.0,"country":null,"year":2009,"count":875,"id":"a6m1jogoa2nf","geo_precision":"unmatched","sector":"bs27"},"type":"Feature","geometry":null},{"properties":{"city":null,"month":5,"postcode":"bs27 3qf","geo_score":0.0,"country":null,"year":2009,"count":1134,"id":"a6m1joasuhpk","geo_precision":"unmatched","sector":"bs27"},"type":"Feature","geometry":null},{"properties":{"city":null,"month":6,"postcode":"bs27 3qf","geo_score":0.0,"country":null,"year":2009,"count":888,"id":"a6m1jof8qahl","geo_precision":"unmatched","sector":"bs27"},"type":"Feature","geometry":null},{"properties":{"city":null,"month":1,"postcode":"w1w 7rt","geo_score":0.0,"country":null,"year":2008,"count":1110,"id":"a6m1jogj0y7m","geo_precision":"unmatched","sector":"w1w"},"type":"Feature","geometry":null},{"properties":{"city":null,"month":2,"postcode":"w1w 7rt","geo_score":0.0,"country":null,"year":2008,"count":920,"id":"a6m1jojq9s83","geo_precision":"unmatched","sector":"w1w"},"type":"Feature","geometry":null},{"properties":{"city":null,"month":3,"postcode":"w1w 7rt","geo_score":0.0,"country":null,"year":2008,"count":1241,"id":"a6m1joc1jcmd","geo_precision":"unmatched","sector":"w1w"},"type":"Feature","geometry":null},{"properties":{"city":null,"month":4,"postcode":"w1w 7rt","geo_score":0.0,"country":null,"year":2008,"count":962,"id":"a6m1jofcqm2n","geo_precision":"unmatched","sector":"w1w"},"type":"Feature","geometry":null},{"properties":{"city":null,"month":5,"postcode":"w1w 7rt","geo_score":0.0,"country":null,"year":2008,"count":946,"id":"a6m1jogi0h6u","geo_precision":"unmatched","sector":"w1w"},"type":"Feature","geometry":null},{"properties":{"city":null,"month":6,"postcode":"w1w 7rt","geo_score":0.0,"country":null,"year":2008,"count":1127,"id":"a6m1joc9nktj","geo_precision":"unmatched","sector":"w1w"},"type":"Feature","geometry":null},{"properties":{"city":null,"month":7,"postcode":"w1w 7rt","geo_score":0.0,"country":null,"year":2008,"count":927,"id":"a6m1jokr2ewx","geo_precision":"unmatched","sector":"w1w"},"type":"Feature","geometry":null},{"properties":{"city":null,"month":8,"postcode":"w1w 7rt","geo_score":0.0,"country":null,"year":2008,"count":904,"id":"a6m1jooy6jaa","geo_precision":"unmatched","sector":"w1w"},"type":"Feature","geometry":null},{"properties":{"city":null,"month":9,"postcode":"w1w 7rt","geo_score":0.0,"country":null,"year":2008,"count":1188,"id":"a6m1joawe1sy","geo_precision":"unmatched","sector":"w1w"},"type":"Feature","geometry":null},{"properties":{"city":null,"month":10,"postcode":"w1w 7rt","geo_score":0.0,"country":null,"year":2008,"count":981,"id":"a6m1job8ygs9","geo_precision":"unmatched","sector":"w1w"},"type":"Feature","geometry":null},{"properties":{"city":null,"month":11,"postcode":"w1w 7rt","geo_score":0.0,"country":null,"year":2008,"count":1100,"id":"a6m1joamwfx8","geo_precision":"unmatched","sector":"w1w"},"type":"Feature","geometry":null},{"properties":{"city":null,"month":12,"postcode":"w1w 7rt","geo_score":0.0,"country":null,"year":2008,"count":1193,"id":"a6m1jokfl4t1","geo_precision":"unmatched","sector":"w1w"},"type":"Feature","geometry":null},{"properties":{"city":null,"month":1,"postcode":"w1w 7rt","geo_score":0.0,"country":null,"year":2009,"count":1157,"id":"a6m1jol359ma","geo_precision":"unmatched","sector":"w1w"},"type":"Feature","geometry":null},{"properties":{"city":null,"month":2,"postcode":"w1w 7rt","geo_score":0.0,"country":null,"year":2009,"count":1354,"id":"a6m1jokywu4e","geo_precision":"unmatched","sector":"w1w"},"type":"Feature","geometry":null},{"properties":{"city":null,"month":3,"postcode":"w1w 7rt","geo_score":0.0,"country":null,"year":2009,"count":1827,"id":"a6m1joafxtxo","geo_precision":"unmatched","sector":"w1w"},"type":"Feature","geometry":null},{"properties":{"city":null,"month":4,"postcode":"w1w 7rt","geo_score":0.0,"country":null,"year":2009,"count":1278,"id":"a6m1jop0tvel","geo_precision":"unmatched","sector":"w1w"},"type":"Feature","geometry":null},{"properties":{"city":null,"month":5,"postcode":"w1w 7rt","geo_score":0.0,"country":null,"year":2009,"count":1562,"id":"a6m1jon46hay","geo_precision":"unmatched","sector":"w1w"},"type":"Feature","geometry":null},{"properties":{"city":null,"month":6,"postcode":"w1w 7rt","geo_score":0.0,"country":null,"year":2009,"count":1215,"id":"a6m1joeq78at","geo_precision":"unmatched","sector":"w1w"},"type":"Feature","geometry":null},{"properties":{"city":null,"month":1,"postcode":"b6 6he","geo_score":0.0,"country":null,"year":2008,"count":307,"id":"a6m1jonhazl5","geo_precision":"unmatched","sector":"b6"},"type":"Feature","geometry":null},{"properties":{"city":null,"month":2,"postcode":"b6 6he","geo_score":0.0,"country":null,"year":2008,"count":299,"id":"a6m1jok6vbxy","geo_precision":"unmatched","sector":"b6"},"type":"Feature","geometry":null},{"properties":{"city":null,"month":3,"postcode":"b6 6he","geo_score":0.0,"country":null,"year":2008,"count":319,"id":"a6m1jochksaa","geo_precision":"unmatched","sector":"b6"},"type":"Feature","geometry":null},{"properties":{"city":null,"month":4,"postcode":"b6 6he","geo_score":0.0,"country":null,"year":2008,"count":299,"id":"a6m1joc0012h","geo_precision":"unmatched","sector":"b6"},"type":"Feature","geometry":null},{"properties":{"city":null,"month":5,"postcode":"b6 6he","geo_score":0.0,"country":null,"year":2008,"count":298,"id":"a6m1joq6s68a","geo_precision":"unmatched","sector":"b6"},"type":"Feature","geometry":null},{"properties":{"city":null,"month":6,"postcode":"b6 6he","geo_score":0.0,"country":null,"year":2008,"count":334,"id":"a6m1jofij128","geo_precision":"unmatched","sector":"b6"},"type":"Feature","geometry":null},{"properties":{"city":null,"month":7,"postcode":"b6 6he","geo_score":0.0,"country":null,"year":2008,"count":344,"id":"a6m1jod609cz","geo_precision":"unmatched","sector":"b6"},"type":"Feature","geometry":null},{"properties":{"city":null,"month":8,"postcode":"b6 6he","geo_score":0.0,"country":null,"year":2008,"count":319,"id":"a6m1jokamnx3","geo_precision":"unmatched","sector":"b6"},"type":"Feature","geometry":null},{"properties":{"city":null,"month":9,"postcode":"b6 6he","geo_score":0.0,"country":null,"year":2008,"count":312,"id":"a6m1jokwflu5","geo_precision":"unmatched","sector":"b6"},"type":"Feature","geometry":null},{"properties":{"city":null,"month":10,"postcode":"b6 6he","geo_score":0.0,"country":null,"year":2008,"count":376,"id":"a6m1jonptfia","geo_precision":"unmatched","sector":"b6"},"type":"Feature","geometry":null},{"properties":{"city":null,"month":11,"postcode":"b6 6he","geo_score":0.0,"country":null,"year":2008,"count":384,"id":"a6m1jopnf9lt","geo_precision":"unmatched","sector":"b6"},"type":"Feature","geometry":null},{"properties":{"city":null,"month":12,"postcode":"b6 6he","geo_score":0.0,"country":null,"year":2008,"count":440,"id":"a6m1joq4k9rl","geo_precision":"unmatched","sector":"b6"},"type":"Feature","geometry":null},{"properties":{"city":null,"month":1,"postcode":"b6 6he","geo_score":0.0,"country":null,"year":2009,"count":405,"id":"a6m1joddk8vp","geo_precision":"unmatched","sector":"b6"},"type":"Feature","geometry":null},{"properties":{"city":null,"month":2,"postcode":"b6 6he","geo_score":0.0,"country":null,"year":2009,"count":496,"id":"a6m1joqmort8","geo_precision":"unmatched","sector":"b6"},"type":"Feature","geometry":null},{"properties":{"city":null,"month":3,"postcode":"b6 6he","geo_score":0.0,"country":null,"year":2009,"count":619,"id":"a6m1jobut9ia","geo_precision":"unmatched","sector":"b6"},"type":"Feature","geometry":null},{"properties":{"city":null,"month":4,"postcode":"b6 6he","geo_score":0.0,"country":null,"year":2009,"count":556,"id":"a6m1jomz9anb","geo_precision":"unmatched","sector":"b6"},"type":"Feature","geometry":null},{"properties":{"city":null,"month":5,"postcode":"b6 6he","geo_score":0.0,"country":null,"year":2009,"count":524,"id":"a6m1jom0w9j5","geo_precision":"unmatched","sector":"b6"},"type":"Feature","geometry":null},{"properties":{"city":null,"month":6,"postcode":"b6 6he","geo_score":0.0,"country":null,"year":2009,"count":487,"id":"a6m1joparngz","geo_precision":"unmatched","sector":"b6"},"type":"Feature","geometry":null},{"properties":{"city":null,"month":1,"postcode":"ip33 1ls","geo_score":0.0,"country":null,"year":2008,"count":904,"id":"a6m1joc5d1xw","geo_precision":"unmatched","sector":"ip33"},"type":"Feature","geometry":null},{"properties":{"city":null,"month":2,"postcode":"ip33 1ls","geo_score":0.0,"country":null,"year":2008,"count":766,"id":"a6m1joieepl4","geo_precision":"unmatched","sector":"ip33"},"type":"Feature","geometry":null},{"properties":{"city":null,"month":3,"postcode":"ip33 1ls","geo_score":0.0,"country":null,"year":2008,"count":915,"id":"a6m1jom6budf","geo_precision":"unmatched","sector":"ip33"},"type":"Feature","geometry":null},{"properties":{"city":null,"month":4,"postcode":"ip33 1ls","geo_score":0.0,"country":null,"year":2008,"count":815,"id":"a6m1jobbrqi3","geo_precision":"unmatched","sector":"ip33"},"type":"Feature","geometry":null},{"properties":{"city":null,"month":5,"postcode":"ip33 1ls","geo_score":0.0,"country":null,"year":2008,"count":820,"id":"a6m1jod0rhoy","geo_precision":"unmatched","sector":"ip33"},"type":"Feature","geometry":null},{"properties":{"city":null,"month":6,"postcode":"ip33 1ls","geo_score":0.0,"country":null,"year":2008,"count":837,"id":"a6m1jofe89hd","geo_precision":"unmatched","sector":"ip33"},"type":"Feature","geometry":null},{"properties":{"city":null,"month":7,"postcode":"ip33 1ls","geo_score":0.0,"country":null,"year":2008,"count":908,"id":"a6m1jodl7lgi","geo_precision":"unmatched","sector":"ip33"},"type":"Feature","geometry":null},{"properties":{"city":null,"month":8,"postcode":"ip33 1ls","geo_score":0.0,"country":null,"year":2008,"count":923,"id":"a6m1jom4ojhc","geo_precision":"unmatched","sector":"ip33"},"type":"Feature","geometry":null},{"properties":{"city":null,"month":9,"postcode":"ip33 1ls","geo_score":0.0,"country":null,"year":2008,"count":912,"id":"a6m1jok08fvv","geo_precision":"unmatched","sector":"ip33"},"type":"Feature","geometry":null},{"properties":{"city":null,"month":10,"postcode":"ip33 1ls","geo_score":0.0,"country":null,"year":2008,"count":948,"id":"a6m1jomi2e9k","geo_precision":"unmatched","sector":"ip33"},"type":"Feature","geometry":null},{"properties":{"city":null,"month":11,"postcode":"ip33 1ls","geo_score":0.0,"country":null,"year":2008,"count":1065,"id":"a6m1joml58ln","geo_precision":"unmatched","sector":"ip33"},"type":"Feature","geometry":null},{"properties":{"city":null,"month":12,"postcode":"ip33 1ls","geo_score":0.0,"country":null,"year":2008,"count":1183,"id":"a6m1joaqp39x","geo_precision":"unmatched","sector":"ip33"},"type":"Feature","geometry":null},{"properties":{"city":null,"month":1,"postcode":"ip33 1ls","geo_score":0.0,"country":null,"year":2009,"count":1087,"id":"a6m1jobz0gav","geo_precision":"unmatched","sector":"ip33"},"type":"Feature","geometry":null},{"properties":{"city":null,"month":2,"postcode":"ip33 1ls","geo_score":0.0,"country":null,"year":2009,"count":1323,"id":"a6m1job3ebas","geo_precision":"unmatched","sector":"ip33"},"type":"Feature","geometry":null},{"properties":{"city":null,"month":3,"postcode":"ip33 1ls","geo_score":0.0,"country":null,"year":2009,"count":1633,"id":"a6m1joofu8sz","geo_precision":"unmatched","sector":"ip33"},"type":"Feature","geometry":null},{"properties":{"city":null,"month":4,"postcode":"ip33 1ls","geo_score":0.0,"country":null,"year":2009,"count":1405,"id":"a6m1joi2vfwu","geo_precision":"unmatched","sector":"ip33"},"type":"Feature","geometry":null},{"properties":{"city":null,"month":5,"postcode":"ip33 1ls","geo_score":0.0,"country":null,"year":2009,"count":1386,"id":"a6m1joimz5jr","geo_precision":"unmatched","sector":"ip33"},"type":"Feature","geometry":null},{"properties":{"city":null,"month":6,"postcode":"ip33 1ls","geo_score":0.0,"country":null,"year":2009,"count":1342,"id":"a6m1joouo4np","geo_precision":"unmatched","sector":"ip33"},"type":"Feature","geometry":null}],"is_temporal":false,"author":{"url":"","metadata":"","contact_name":"","contact_address":"","source":"","contact_phone":""},"source":"","pagination":{"sort":null,"start":0,"total":126,"limit":1000000},"state":"complete","tags":"","published":"2014-08-13T10:45:11-04:00","id":199564}