{"type":"FeatureCollection","data_type":"Dataset","url_type":null,"permissions":[{"permissions":{"download":true,"view":true},"group_id":"everyone"}],"classification":null,"title":"income-by-state","count":57,"stream_id":199617,"contributor":{"url":"http://geocommons.com/users/38964","name":"cromero"},"data_attributes":null,"calculation_params":null,"icon_link":null,"link":"http://geocommons.com/overlays/199617.json","extent":[0.0,0.0,0.0,0.0],"geometry_types":null,"unique_name":null,"name":"income-by-state","feature_count":57,"description":"","next_feature":null,"is_raster":false,"short_classification":"Y","features":[{"properties":{"18152848":"14","1412":"","id":"a8r1jl6j2k51","state":"AA","12116":""},"type":"Feature","geometry":null},{"properties":{"18152848":"45","1412":"","id":"a8r1jkwxtidd","state":"AE","12116":""},"type":"Feature","geometry":null},{"properties":{"18152848":"30529","1412":"3","id":"a8r1jl21tcei","state":"AK","12116":"15"},"type":"Feature","geometry":null},{"properties":{"18152848":"218170","1412":"16","id":"a8r1jktiu58d","state":"AL","12116":"157"},"type":"Feature","geometry":null},{"properties":{"18152848":"24","1412":"","id":"a8r1jku43fw8","state":"AP","12116":""},"type":"Feature","geometry":null},{"properties":{"18152848":"132768","1412":"5","id":"a8r1jl3f95wf","state":"AR","12116":"73"},"type":"Feature","geometry":null},{"properties":{"18152848":"378277","1412":"33","id":"a8r1jkss7zni","state":"AZ","12116":"220"},"type":"Feature","geometry":null},{"properties":{"18152848":"2270472","1412":"125","id":"a8r1jks96laf","state":"CA","12116":"1331"},"type":"Feature","geometry":null},{"properties":{"18152848":"415782","1412":"10","id":"a8r1jl71jg3e","state":"CO","12116":"148"},"type":"Feature","geometry":null},{"properties":{"18152848":"275648","1412":"31","id":"a8r1jkrvvlmv","state":"CT","12116":"207"},"type":"Feature","geometry":null},{"properties":{"18152848":"23536","1412":"4","id":"a8r1jkrl04yi","state":"DC","12116":"48"},"type":"Feature","geometry":null},{"properties":{"18152848":"74277","1412":"5","id":"a8r1jkthllcp","state":"DE","12116":"32"},"type":"Feature","geometry":null},{"properties":{"18152848":"1118771","1412":"107","id":"a8r1jl2rsgp7","state":"FL","12116":"887"},"type":"Feature","geometry":null},{"properties":{"18152848":"566550","1412":"38","id":"a8r1jl0xlqll","state":"GA","12116":"345"},"type":"Feature","geometry":null},{"properties":{"18152848":"27","1412":"0","id":"a8r1jkrjw51e","state":"GU","12116":"0"},"type":"Feature","geometry":null},{"properties":{"18152848":"66216","1412":"4","id":"a8r1jkuynibc","state":"HI","12116":"36"},"type":"Feature","geometry":null},{"properties":{"18152848":"149271","1412":"6","id":"a8r1jkuipsh6","state":"IA","12116":"78"},"type":"Feature","geometry":null},{"properties":{"18152848":"109510","1412":"3","id":"a8r1jl7ul8n9","state":"ID","12116":"36"},"type":"Feature","geometry":null},{"properties":{"18152848":"825758","1412":"55","id":"a8r1jkx97ozl","state":"IL","12116":"486"},"type":"Feature","geometry":null},{"properties":{"18152848":"424273","1412":"29","id":"a8r1jkue79fr","state":"IN","12116":"174"},"type":"Feature","geometry":null},{"properties":{"18152848":"141403","1412":"9","id":"a8r1jkyq0i06","state":"KS","12116":"75"},"type":"Feature","geometry":null},{"properties":{"18152848":"195828","1412":"18","id":"a8r1jkywk61w","state":"KY","12116":"134"},"type":"Feature","geometry":null},{"properties":{"18152848":"190390","1412":"27","id":"a8r1jl5ox67p","state":"LA","12116":"169"},"type":"Feature","geometry":null},{"properties":{"18152848":"499935","1412":"38","id":"a8r1jkt44ao6","state":"MA","12116":"427"},"type":"Feature","geometry":null},{"properties":{"18152848":"438109","1412":"31","id":"a8r1jkuomzac","state":"MD","12116":"345"},"type":"Feature","geometry":null},{"properties":{"18152848":"67791","1412":"3","id":"a8r1jl2hkg36","state":"ME","12116":"36"},"type":"Feature","geometry":null},{"properties":{"18152848":"699903","1412":"59","id":"a8r1jkvoh22z","state":"MI","12116":"299"},"type":"Feature","geometry":null},{"properties":{"18152848":"420294","1412":"40","id":"a8r1jkx229ij","state":"MN","12116":"213"},"type":"Feature","geometry":null},{"properties":{"18152848":"332898","1412":"20","id":"a8r1jl649dct","state":"MO","12116":"253"},"type":"Feature","geometry":null},{"properties":{"18152848":"85191","1412":"2","id":"a8r1jkvalm1g","state":"MS","12116":"94"},"type":"Feature","geometry":null},{"properties":{"18152848":"56857","1412":"0","id":"a8r1jkrmqg9w","state":"MT","12116":"21"},"type":"Feature","geometry":null},{"properties":{"18152848":"595356","1412":"23","id":"a8r1jksdf4pf","state":"NC","12116":"412"},"type":"Feature","geometry":null},{"properties":{"18152848":"21847","1412":"1","id":"a8r1jkvsosfr","state":"ND","12116":"12"},"type":"Feature","geometry":null},{"properties":{"18152848":"106759","1412":"7","id":"a8r1jkswqc7m","state":"NE","12116":"52"},"type":"Feature","geometry":null},{"properties":{"18152848":"76023","1412":"2","id":"a8r1jktw467w","state":"NH","12116":"46"},"type":"Feature","geometry":null},{"properties":{"18152848":"557237","1412":"63","id":"a8r1jl5xdbxv","state":"NJ","12116":"459"},"type":"Feature","geometry":null},{"properties":{"18152848":"94799","1412":"3","id":"a8r1jkv1wht8","state":"NM","12116":"73"},"type":"Feature","geometry":null},{"properties":{"18152848":"184491","1412":"5","id":"a8r1jkrlz3be","state":"NV","12116":"67"},"type":"Feature","geometry":null},{"properties":{"18152848":"818273","1412":"120","id":"a8r1jl35d3u4","state":"NY","12116":"1104"},"type":"Feature","geometry":null},{"properties":{"18152848":"878233","1412":"73","id":"a8r1jkvnxjad","state":"OH","12116":"426"},"type":"Feature","geometry":null},{"properties":{"18152848":"130410","1412":"16","id":"a8r1jkvvx6pu","state":"OK","12116":"101"},"type":"Feature","geometry":null},{"properties":{"18152848":"333202","1412":"17","id":"a8r1jl6nx4kn","state":"OR","12116":"130"},"type":"Feature","geometry":null},{"properties":{"18152848":"708334","1412":"91","id":"a8r1jl2woc51","state":"PA","12116":"650"},"type":"Feature","geometry":null},{"properties":{"18152848":"65","1412":"0","id":"a8r1jkvwc76c","state":"PR","12116":"0"},"type":"Feature","geometry":null},{"properties":{"18152848":"75414","1412":"2","id":"a8r1jkxgpnpl","state":"RI","12116":"66"},"type":"Feature","geometry":null},{"properties":{"18152848":"285719","1412":"16","id":"a8r1jkv2gtlo","state":"SC","12116":"161"},"type":"Feature","geometry":null},{"properties":{"18152848":"35625","1412":"3","id":"a8r1jl5mg6nx","state":"SD","12116":"18"},"type":"Feature","geometry":null},{"properties":{"18152848":"373489","1412":"24","id":"a8r1jl747ni4","state":"TN","12116":"240"},"type":"Feature","geometry":null},{"properties":{"18152848":"923936","1412":"120","id":"a8r1jl3ncac3","state":"TX","12116":"847"},"type":"Feature","geometry":null},{"properties":{"18152848":"188029","1412":"11","id":"a8r1jktsxa7g","state":"UT","12116":"74"},"type":"Feature","geometry":null},{"properties":{"18152848":"502215","1412":"41","id":"a8r1jl416pp7","state":"VA","12116":"322"},"type":"Feature","geometry":null},{"properties":{"18152848":"15","1412":"0","id":"a8r1jkv88wcn","state":"VI","12116":""},"type":"Feature","geometry":null},{"properties":{"18152848":"33570","1412":"3","id":"a8r1jkrhrb3m","state":"VT","12116":"21"},"type":"Feature","geometry":null},{"properties":{"18152848":"527209","1412":"24","id":"a8r1jks7rzb3","state":"WA","12116":"245"},"type":"Feature","geometry":null},{"properties":{"18152848":"424670","1412":"19","id":"a8r1jl4uocu6","state":"WI","12116":"187"},"type":"Feature","geometry":null},{"properties":{"18152848":"44319","1412":"7","id":"a8r1jl2m2nkp","state":"WV","12116":"55"},"type":"Feature","geometry":null},{"properties":{"18152848":"25092","1412":"0","id":"a8r1jkzipmci","state":"WY","12116":"9"},"type":"Feature","geometry":null}],"is_temporal":false,"author":{"url":"","metadata":null,"contact_name":null,"contact_address":null,"source":null,"contact_phone":null},"source":"","pagination":{"sort":null,"start":0,"total":57,"limit":1000000},"state":"parsed","tags":"","published":"2014-08-13T10:49:34-04:00","id":199617}