{"type":"FeatureCollection","data_type":"Dataset","url_type":null,"permissions":[{"permissions":{"download":true,"view":true},"group_id":"everyone"}],"classification":null,"title":"bgw","count":25,"stream_id":199902,"contributor":{"url":"http://geocommons.com/users/34389","name":"irina.kiselev"},"data_attributes":null,"calculation_params":null,"icon_link":null,"link":"http://geocommons.com/overlays/199902.json","extent":[-86.6916,31.8218,-71.2828,42.6149],"geometry_types":["point"],"unique_name":null,"name":"bgw","feature_count":25,"description":"","next_feature":null,"is_raster":false,"short_classification":"Y","stats":{"% var":{"max":6.95,"mean":-10.0196,"variance":101.051062333333,"stdev":10.0524157461445,"min":-33.49,"median":-8.9}},"features":[{"properties":{"city":"Greenville","zip":"36037","geo_score":0.878,"% var":6.95,"id":"a6webfehn0ch","geo_precision":"zip","state":"AL"},"type":"Feature","geometry":{"type":"Point","coordinates":[-86.691642,31.821819]}},{"properties":{"city":"Salisbury","zip":"06068","geo_score":1.0,"% var":-17.24,"id":"a6webf9qh4bj","geo_precision":"zip","state":"CT"},"type":"Feature","geometry":{"type":"Point","coordinates":[-73.399336,42.00579]}},{"properties":{"city":"Hartford","zip":"06057","geo_score":0.857,"% var":-18.92,"id":"a6webff75sdc","geo_precision":"zip","state":"CT"},"type":"Feature","geometry":{"type":"Point","coordinates":[-72.998994,41.853152]}},{"properties":{"city":"Washington","zip":"20001","geo_score":0.893,"% var":1.58,"id":"a6webfasywvl","geo_precision":"zip","state":"DC"},"type":"Feature","geometry":{"type":"Point","coordinates":[-77.011365,38.916778]}},{"properties":{"city":"Atlanta","zip":"30060","geo_score":0.857,"% var":-15.04,"id":"a6webf8v2le7","geo_precision":"zip","state":"GA"},"type":"Feature","geometry":{"type":"Point","coordinates":[-84.531599,33.987879]}},{"properties":{"city":"Boston","zip":"02018","geo_score":0.857,"% var":-8.9,"id":"a6webf5ckze3","geo_precision":"zip","state":"MA"},"type":"Feature","geometry":{"type":"Point","coordinates":[-71.282833,42.133432]}},{"properties":{"city":"Baltimore","zip":"21201","geo_score":1.0,"% var":6.36,"id":"a6webfhmwvyr","geo_precision":"zip","state":"MD"},"type":"Feature","geometry":{"type":"Point","coordinates":[-76.623489,39.296536]}},{"properties":{"city":"Releigh","zip":"27601","geo_score":0.98,"% var":0.59,"id":"a6webfimz4zk","geo_precision":"zip","state":"NC"},"type":"Feature","geometry":{"type":"Point","coordinates":[-78.604175,35.773755]}},{"properties":{"city":"Greensboro","zip":"27401","geo_score":1.0,"% var":-5.07,"id":"a6webfg4f8a5","geo_precision":"zip","state":"NC"},"type":"Feature","geometry":{"type":"Point","coordinates":[-79.831692,36.055285]}},{"properties":{"city":"Charlotte","zip":"28201","geo_score":1.0,"% var":-25.77,"id":"a6webfcb012x","geo_precision":"zip","state":"NC"},"type":"Feature","geometry":{"type":"Point","coordinates":[-80.804151,35.26002]}},{"properties":{"city":"New York","zip":"10001","geo_score":1.0,"% var":-12.55,"id":"a6webf5v2wqz","geo_precision":"zip","state":"NY"},"type":"Feature","geometry":{"type":"Point","coordinates":[-73.996328,40.750422]}},{"properties":{"city":"Albany","zip":"12201","geo_score":1.0,"% var":-22.87,"id":"a6webfe7fa6p","geo_precision":"zip","state":"NY"},"type":"Feature","geometry":{"type":"Point","coordinates":[-73.970812,42.614852]}},{"properties":{"city":"Philadelphia","zip":"17959","geo_score":0.881,"% var":-8.91,"id":"a6webff3ai3k","geo_precision":"zip","state":"PA"},"type":"Feature","geometry":{"type":"Point","coordinates":[-76.133272,40.732867]}},{"properties":{"city":"Pittsburgh","zip":"15201","geo_score":1.0,"% var":-5.05,"id":"a6webf34lxdl","geo_precision":"zip","state":"PA"},"type":"Feature","geometry":{"type":"Point","coordinates":[-80.024817,40.434436]}},{"properties":{"city":"Harrisburg","zip":"17101","geo_score":1.0,"% var":-19.96,"id":"a6webfignwjx","geo_precision":"zip","state":"PA"},"type":"Feature","geometry":{"type":"Point","coordinates":[-76.869644,40.264589]}},{"properties":{"city":"Wilkes Barre","zip":"18701","geo_score":1.0,"% var":-33.49,"id":"a6webf8pwj8n","geo_precision":"zip","state":"PA"},"type":"Feature","geometry":{"type":"Point","coordinates":[-75.88434,41.203631]}},{"properties":{"city":"Johnstown","zip":"15901","geo_score":0.921,"% var":-19.41,"id":"a6webff1pbar","geo_precision":"zip","state":"PA"},"type":"Feature","geometry":{"type":"Point","coordinates":[-77.391089,41.702849]}},{"properties":{"city":"Providence","zip":"02901","geo_score":1.0,"% var":-8.95,"id":"a6webfcrcfc3","geo_precision":"zip","state":"RI"},"type":"Feature","geometry":{"type":"Point","coordinates":[-71.414451,41.82275]}},{"properties":{"city":"Charlottsville","zip":"22901","geo_score":0.724,"% var":-1.52,"id":"a6webf34v8jd","geo_precision":"zip","state":"SC"},"type":"Feature","geometry":{"type":"Point","coordinates":[-78.466122,38.08597]}},{"properties":{"city":"Charleston","zip":"29401","geo_score":1.0,"% var":-15.12,"id":"a6webf9u0zfk","geo_precision":"zip","state":"SC"},"type":"Feature","geometry":{"type":"Point","coordinates":[-79.940844,32.780326]}},{"properties":{"city":"Norfolk","zip":"23324","geo_score":0.857,"% var":-0.07,"id":"a6webf7r6no4","geo_precision":"zip","state":"VA"},"type":"Feature","geometry":{"type":"Point","coordinates":[-76.256328,36.807092]}},{"properties":{"city":"Richmond","zip":"23218","geo_score":1.0,"% var":-3.36,"id":"a6webfi3wzug","geo_precision":"zip","state":"VA"},"type":"Feature","geometry":{"type":"Point","coordinates":[-77.493157,37.524246]}},{"properties":{"city":"Roanoke","zip":"24001","geo_score":1.0,"% var":-8.29,"id":"a6webf7p9iu3","geo_precision":"zip","state":"VA"},"type":"Feature","geometry":{"type":"Point","coordinates":[-79.95786,37.274175]}},{"properties":{"city":"Harrisonburg","zip":"22801","geo_score":0.869,"% var":-7.63,"id":"a6webf8yv82h","geo_precision":"zip","state":"VA"},"type":"Feature","geometry":{"type":"Point","coordinates":[-78.768913,38.505401]}},{"properties":{"city":"Wilmington","zip":"19801","geo_score":0.743,"% var":-7.85,"id":"a6webfdoo0c1","geo_precision":"zip","state":"VA"},"type":"Feature","geometry":{"type":"Point","coordinates":[-75.555479,39.708724]}}],"is_temporal":false,"author":{"url":"","metadata":null,"contact_name":null,"contact_address":null,"source":null,"contact_phone":null},"source":"","pagination":{"sort":null,"start":0,"total":25,"limit":1000000},"state":"complete","tags":"","published":"2014-08-13T11:10:45-04:00","id":199902}