{"type":"FeatureCollection","data_type":"Dataset","url_type":null,"permissions":[{"permissions":{"download":true,"view":true},"group_id":"everyone"}],"classification":null,"title":"Fresno Individuals","count":31,"stream_id":200075,"contributor":{"url":"http://geocommons.com/users/34351","name":"ACTA"},"data_attributes":null,"calculation_params":null,"icon_link":null,"link":"http://geocommons.com/overlays/200075.json","extent":[-119.809,36.7068,-119.66,36.7847],"geometry_types":["point"],"unique_name":null,"name":"Fresno Individuals","feature_count":31,"description":"","next_feature":null,"is_raster":false,"short_classification":"Y","stats":{"number":{"max":37,"variance":117.98064516129,"mean":19.7741935483871,"stdev":10.8618895760034,"min":1,"median":20}},"features":[{"properties":{"city":"Fresno","name":"Bernard Guekguezian","number":1,"column_7":null,"geo_score":0.516,"column_8":null,"zip code":"93702","street address":"430 S. 1st Street","id":"a690crxwmti9","geo_precision":"street","state":"CA"},"type":"Feature","geometry":{"type":"Point","coordinates":[-119.772431,36.742829]}},{"properties":{"city":"Fresno","name":"Bob Trycha","number":2,"column_7":null,"geo_score":0.93,"column_8":null,"zip code":"93721","street address":"1544 Van Ness Avenue","id":"a690crv6qrtc","geo_precision":"range","state":"CA"},"type":"Feature","geometry":{"type":"Point","coordinates":[-119.795007,36.740053]}},{"properties":{"city":"Fresno","name":"Boua Sou Her","number":3,"column_7":null,"geo_score":0.821,"column_8":null,"zip code":"93721","street address":"21 North Park","id":"a690cry8h6b7","geo_precision":"range","state":"CA"},"type":"Feature","geometry":{"type":"Point","coordinates":[-119.796717,36.743738]}},{"properties":{"city":"Fresno","name":"Bounpon Mounvongkham","number":4,"column_7":null,"geo_score":0.468,"column_8":null,"zip code":"93727","street address":"4974 E. Clinton","id":"a690crxs6c3n","geo_precision":"street","state":"CA"},"type":"Feature","geometry":{"type":"Point","coordinates":[-119.731732,36.77224]}},{"properties":{"city":"Fresno","name":"Chris Potzernitz","number":6,"column_7":null,"geo_score":0.51,"column_8":null,"zip code":"93706","street address":"4660 S. Fig Ave","id":"a690cryaa0pp","geo_precision":"street","state":"CA"},"type":"Feature","geometry":{"type":"Point","coordinates":[-119.799834,36.719611]}},{"properties":{"city":"Fresno","name":"Chue Doua Xiong","number":7,"column_7":null,"geo_score":0.833,"column_8":null,"zip code":"93721","street address":"2550 Mariposa Mall","id":"a690crw7j3kt","geo_precision":"range","state":"CA"},"type":"Feature","geometry":{"type":"Point","coordinates":[-119.785548,36.738818]}},{"properties":{"city":"Fresno","name":"Ed Bailey","number":10,"column_7":null,"geo_score":0.485,"column_8":null,"zip code":"93706","street address":"2385 S. Fairview Avenue","id":"a690crystt3u","geo_precision":"street","state":"CA"},"type":"Feature","geometry":{"type":"Point","coordinates":[-119.804382,36.718671]}},{"properties":{"city":"Fresno","name":"Elena Marabellas","number":11,"column_7":null,"geo_score":0.468,"column_8":null,"zip code":"93727","street address":"5005 E. Belmont Avenue","id":"a690crtq0fwg","geo_precision":"street","state":"CA"},"type":"Feature","geometry":{"type":"Point","coordinates":[-119.734103,36.750447]}},{"properties":{"city":"Fresno","name":"Irene Osborne","number":13,"column_7":null,"geo_score":0.619,"column_8":null,"zip code":"93701","street address":"2311 E. Lewis Street","id":"a690crzq4wst","geo_precision":"street","state":"CA"},"type":"Feature","geometry":{"type":"Point","coordinates":[-119.789207,36.754515]}},{"properties":{"city":"Fresno","name":"Jack Xiong","number":14,"column_7":null,"geo_score":0.902,"column_8":null,"zip code":"93725","street address":"2350 South Meridian Avenue","id":"a690crp52xi2","geo_precision":"range","state":"CA"},"type":"Feature","geometry":{"type":"Point","coordinates":[-119.746578,36.715711]}},{"properties":{"city":"Fresno","name":"Jesus Galicia","number":15,"column_7":null,"geo_score":0.329,"column_8":null,"zip code":"93702","street address":"PO Box 15284","id":"a690crtgx3fg","geo_precision":"street","state":"CA"},"type":"Feature","geometry":{"type":"Point","coordinates":[-119.715964,36.742332]}},{"properties":{"city":"Fresno","name":"Kami Thepphavang","number":16,"column_7":null,"geo_score":0.339,"column_8":null,"zip code":"93727","street address":"5068 E. Home Avenue","id":"a690crvtzhuc","geo_precision":"street","state":null},"type":"Feature","geometry":{"type":"Point","coordinates":[-119.733722,36.762572]}},{"properties":{"city":"Fresno","name":"Karana Hattersley-Drayton","number":17,"column_7":null,"geo_score":0.833,"column_8":null,"zip code":"93721","street address":"2600 Fresno Street","id":"a690cro6c7rm","geo_precision":"range","state":"CA"},"type":"Feature","geometry":{"type":"Point","coordinates":[-119.786162,36.740255]}},{"properties":{"city":"Fresno","name":"Khamvong Insixiengmai","number":18,"column_7":null,"geo_score":0.492,"column_8":null,"zip code":"93706","street address":"1066 E. Jensen Avenue","id":"a690crucmgao","geo_precision":"street","state":"CA"},"type":"Feature","geometry":{"type":"Point","coordinates":[-119.808876,36.706849]}},{"properties":{"city":"Fresno","name":"Leanne (Lienkham) Mounvongkham","number":19,"column_7":null,"geo_score":0.482,"column_8":null,"zip code":"93727","street address":"5068 E. Home Avenue","id":"a690cro0gosd","geo_precision":"street","state":"CA"},"type":"Feature","geometry":{"type":"Point","coordinates":[-119.733722,36.762572]}},{"properties":{"city":"Fresno","name":"Lee Jensen","number":20,"column_7":null,"geo_score":0.916,"column_8":null,"zip code":"93706","street address":"1340 Kern Street","id":"a690crwbrp0f","geo_precision":"range","state":"CA"},"type":"Feature","geometry":{"type":"Point","coordinates":[-119.795551,36.7283]}},{"properties":{"city":"Fresno","name":"Luis Jovel","number":21,"column_7":null,"geo_score":0.492,"column_8":null,"zip code":"93702","street address":"3312 E. Balch Avenue","id":"a690croqz102","geo_precision":"street","state":"CA"},"type":"Feature","geometry":{"type":"Point","coordinates":[-119.772492,36.738105]}},{"properties":{"city":"Fresno","name":"Melinda Salcido","number":22,"column_7":null,"geo_score":0.498,"column_8":null,"zip code":"93702","street address":"4066 E. Alta Street","id":"a690crv9yj87","geo_precision":"street","state":"CA"},"type":"Feature","geometry":{"type":"Point","coordinates":[-119.77216,36.732735]}},{"properties":{"city":"Fresno","name":"Monica Joy Henry","number":23,"column_7":null,"geo_score":0.93,"column_8":null,"zip code":"93721","street address":"1245 Van Ness Avenue","id":"a690crnyx1dx","geo_precision":"range","state":"CA"},"type":"Feature","geometry":{"type":"Point","coordinates":[-119.791731,36.737071]}},{"properties":{"city":"Fresno","name":"Olga Hernandez","number":25,"column_7":null,"geo_score":0.476,"column_8":null,"zip code":"93727","street address":"5686 E. Kaviland Avenue","id":"a690cro9qgkc","geo_precision":"street","state":"CA"},"type":"Feature","geometry":{"type":"Point","coordinates":[-119.708589,36.710049]}},{"properties":{"city":"Fresno","name":"Pahn Mounvongkham","number":26,"column_7":null,"geo_score":0.464,"column_8":null,"zip code":"93727","street address":"1515 N. Coventry Avenue","id":"a690crufsxj1","geo_precision":"street","state":"CA"},"type":"Feature","geometry":{"type":"Point","coordinates":[-119.659589,36.753174]}},{"properties":{"city":"Fresno","name":"Patricia Wells","number":27,"column_7":null,"geo_score":0.625,"column_8":null,"zip code":"93701","street address":"414 N. Park Avenue","id":"a690crz6mqln","geo_precision":"street","state":"CA"},"type":"Feature","geometry":{"type":"Point","coordinates":[-119.796712,36.743632]}},{"properties":{"city":"Fresno","name":"Rev. Norimoto","number":28,"column_7":null,"geo_score":0.916,"column_8":null,"zip code":"93706","street address":"1340 Kern street","id":"a690crjlhw63","geo_precision":"range","state":"CA"},"type":"Feature","geometry":{"type":"Point","coordinates":[-119.795551,36.7283]}},{"properties":{"city":"Fresno","name":"Richard Essegian","number":29,"column_7":null,"geo_score":0.476,"column_8":null,"zip code":"93727","street address":"7387 E. Tulare Avenue","id":"a690crontcri","geo_precision":"street","state":"CA"},"type":"Feature","geometry":{"type":"Point","coordinates":[-119.734126,36.755898]}},{"properties":{"city":"Fresno","name":"Rick Guillen","number":30,"column_7":null,"geo_score":0.464,"column_8":null,"zip code":"93727","street address":"5011 E. McKenzie Avenue","id":"a690cry4vn19","geo_precision":"street","state":"CA"},"type":"Feature","geometry":{"type":"Point","coordinates":[-119.734127,36.746767]}},{"properties":{"city":"Fresno","name":"Ruby White-Harderman","number":31,"column_7":null,"geo_score":0.805,"column_8":null,"zip code":"93721","street address":"2440 Tulare Street","id":"a690crxdb7pe","geo_precision":"range","state":"CA"},"type":"Feature","geometry":{"type":"Point","coordinates":[-119.785671,36.737116]}},{"properties":{"city":"Fresno","name":"Tria Lee","number":33,"column_7":null,"geo_score":0.464,"column_8":null,"zip code":"93725","street address":"4885 E. Atchison Avenue","id":"a690crtkpmap","geo_precision":"street","state":"CA"},"type":"Feature","geometry":{"type":"Point","coordinates":[-119.734329,36.720939]}},{"properties":{"city":"Fresno","name":"Vilayphone (Pheng) Thephavong","number":34,"column_7":null,"geo_score":0.482,"column_8":null,"zip code":"93727","street address":"5068 E. Home Avenue","id":"a690crt7v1qd","geo_precision":"street","state":"CA"},"type":"Feature","geometry":{"type":"Point","coordinates":[-119.733722,36.762572]}},{"properties":{"city":"Fresno","name":"Vungping Yang","number":35,"column_7":null,"geo_score":0.459,"column_8":null,"zip code":"93727","street address":"5020 E. Huntington Avenue","id":"a690crqmqma8","geo_precision":"street","state":"CA"},"type":"Feature","geometry":{"type":"Point","coordinates":[-119.73416,36.739533]}},{"properties":{"city":"Fresno","name":"Yer Moua Yang","number":36,"column_7":null,"geo_score":0.468,"column_8":null,"zip code":"93727","street address":"5750 E. Shields Avenue","id":"a690crtjpp6a","geo_precision":"street","state":"CA"},"type":"Feature","geometry":{"type":"Point","coordinates":[-119.717892,36.784652]}},{"properties":{"city":null,"name":null,"number":37,"column_7":null,"geo_score":0.0,"column_8":null,"zip code":null,"street address":null,"id":"a690crx90lc9","geo_precision":"","state":null},"type":"Feature","geometry":null}],"is_temporal":false,"author":{"url":"","metadata":"","contact_name":"","contact_address":"","source":"","contact_phone":""},"source":"","pagination":{"sort":null,"start":0,"total":31,"limit":1000000},"state":"complete","tags":"","published":"2014-08-14T14:53:49-04:00","id":200075}