{"type":"FeatureCollection","data_type":"Dataset","url_type":null,"permissions":[{"permissions":{"download":true,"view":true},"group_id":"everyone"}],"classification":null,"title":"Map_locations","count":32,"stream_id":200714,"contributor":{"url":"http://geocommons.com/users/39095","name":"synergy_maps"},"data_attributes":null,"calculation_params":null,"icon_link":null,"link":"http://geocommons.com/overlays/200714.json","extent":[-93.6199,11.5833,92.6333,49.9499],"geometry_types":["point"],"unique_name":null,"name":"Map_locations","feature_count":32,"description":"","next_feature":null,"is_raster":false,"short_classification":"Y","stats":{},"features":[{"properties":{"city":"Sioux Falls","geo_score":0.871,"id":"a6vdo66fapij","geo_precision":"zip","state":"South Dakota"},"type":"Feature","geometry":{"type":"Point","coordinates":[36.0833333,20.2833333]}},{"properties":{"city":"Madison","geo_score":0.0,"id":"a6vdo6a2vrk1","geo_precision":"unmatched","state":"South Dakota"},"type":"Feature","geometry":null},{"properties":{"city":"Brandon","geo_score":0.0,"id":"a6vdo6hd3cg6","geo_precision":"unmatched","state":"South Dakota"},"type":"Feature","geometry":null},{"properties":{"city":"Rochester","geo_score":0.857,"id":"a6vdo646j540","geo_precision":"zip","state":"Minneapolis"},"type":"Feature","geometry":{"type":"Point","coordinates":[-77.6155568,43.1547845]}},{"properties":{"city":"Alsip","geo_score":0.0,"id":"a6vdo6c34sc2","geo_precision":"unmatched","state":"Illinois"},"type":"Feature","geometry":null},{"properties":{"city":"Springfield","geo_score":0.0,"id":"a6vdo6alw0u4","geo_precision":"unmatched","state":"Montana"},"type":"Feature","geometry":null},{"properties":{"city":"Redlands","geo_score":0.982,"id":"a6vdo6g6urs7","geo_precision":"zip","state":"California"},"type":"Feature","geometry":{"type":"Point","coordinates":[-54.125958822,46.815204135]}},{"properties":{"city":"Dallas","geo_score":0.0,"id":"a6vdo62sgcta","geo_precision":"unmatched","state":"Texas"},"type":"Feature","geometry":null},{"properties":{"city":"Watertown","geo_score":0.0,"id":"a6vdo6cs81y9","geo_precision":"unmatched","state":"South Dakota"},"type":"Feature","geometry":null},{"properties":{"city":"Fostoria","geo_score":0.0,"id":"a6vdo6d08hhj","geo_precision":"unmatched","state":"Ohio"},"type":"Feature","geometry":null},{"properties":{"city":"Marion","geo_score":0.0,"id":"a6vdo61lhyj0","geo_precision":"unmatched","state":"Ohio"},"type":"Feature","geometry":null},{"properties":{"city":"North Manchester","geo_score":0.0,"id":"a6vdo6est6l0","geo_precision":"unmatched","state":"Indiana"},"type":"Feature","geometry":null},{"properties":{"city":"Alexandria","geo_score":0.952,"id":"a6vdo6fedpnw","geo_precision":"zip","state":"Indiana"},"type":"Feature","geometry":{"type":"Point","coordinates":[92.6333333,11.5833333]}},{"properties":{"city":"Emmetsburg","geo_score":0.0,"id":"a6vdo6aa8lub","geo_precision":"unmatched","state":"Iowa"},"type":"Feature","geometry":null},{"properties":{"city":"Littleton","geo_score":0.0,"id":"a6vdo6d23n2q","geo_precision":"unmatched","state":"Colorado"},"type":"Feature","geometry":null},{"properties":{"city":"League City","geo_score":0.0,"id":"a6vdo6gwlouu","geo_precision":"unmatched","state":"Texas"},"type":"Feature","geometry":null},{"properties":{"city":"Louisville","geo_score":0.0,"id":"a6vdo6cr9n5a","geo_precision":"unmatched","state":"Kentucky"},"type":"Feature","geometry":null},{"properties":{"city":"Indianapolis","geo_score":0.0,"id":"a6vdo67m8m4v","geo_precision":"unmatched","state":"Indiana"},"type":"Feature","geometry":null},{"properties":{"city":"Grand Praire","geo_score":0.0,"id":"a6vdo63zlgau","geo_precision":"unmatched","state":"Texas"},"type":"Feature","geometry":null},{"properties":{"city":"Lees Summit","geo_score":0.0,"id":"a6vdo69wb033","geo_precision":"unmatched","state":"Montana"},"type":"Feature","geometry":null},{"properties":{"city":"Kansas City","geo_score":0.0,"id":"a6vdo6ekweoh","geo_precision":"unmatched","state":"Montana"},"type":"Feature","geometry":null},{"properties":{"city":"Houston","geo_score":0.0,"id":"a6vdo63va5la","geo_precision":"unmatched","state":"Texas"},"type":"Feature","geometry":null},{"properties":{"city":"Stuart","geo_score":0.0,"id":"a6vdo66yat2y","geo_precision":"unmatched","state":"Nebraska"},"type":"Feature","geometry":null},{"properties":{"city":"Valentine","geo_score":0.0,"id":"a6vdo6fsfa2p","geo_precision":"unmatched","state":"Nebraska"},"type":"Feature","geometry":null},{"properties":{"city":"Lebanon","geo_score":0.0,"id":"a6vdo6h86rky","geo_precision":"unmatched","state":"New Hampshire"},"type":"Feature","geometry":null},{"properties":{"city":"Rome","geo_score":0.0,"id":"a6vdo665pb73","geo_precision":"unmatched","state":"New York"},"type":"Feature","geometry":null},{"properties":{"city":"Ames","geo_score":0.857,"id":"a6vdo6d4rkrf","geo_precision":"zip","state":"Los Angeles"},"type":"Feature","geometry":{"type":"Point","coordinates":[-93.6199402,42.0347081]}},{"properties":{"city":"Los Altos","geo_score":0.893,"id":"a6vdo6gsucm1","geo_precision":"zip","state":"California"},"type":"Feature","geometry":{"type":"Point","coordinates":[-55.598110211,49.949945903]}},{"properties":{"city":"Hollywood","geo_score":0.0,"id":"a6vdo64uka7y","geo_precision":"unmatched","state":"California"},"type":"Feature","geometry":null},{"properties":{"city":"Caroll","geo_score":0.0,"id":"a6vdo6fzinkx","geo_precision":"unmatched","state":"Iowa"},"type":"Feature","geometry":null},{"properties":{"city":"Lincoln","geo_score":0.891,"id":"a6vdo61td963","geo_precision":"zip","state":"Nebraska"},"type":"Feature","geometry":{"type":"Point","coordinates":[1.2033,13.6944]}},{"properties":{"city":"Denver","geo_score":0.0,"id":"a6vdo67m3tit","geo_precision":"unmatched","state":"Colorado"},"type":"Feature","geometry":null}],"is_temporal":false,"author":{"url":"","metadata":null,"contact_name":null,"contact_address":null,"source":null,"contact_phone":null},"source":"","pagination":{"sort":null,"start":0,"total":32,"limit":1000000},"state":"complete","tags":"","published":"2014-08-14T15:38:56-04:00","id":200714}