{"type":"FeatureCollection","data_type":"Dataset","url_type":null,"permissions":[{"permissions":{"download":true,"view":true},"group_id":"everyone"}],"classification":null,"title":"Airports in Coast, Kenya","count":11,"stream_id":201338,"contributor":{"url":"http://geocommons.com/users/36594","name":"mfain19"},"data_attributes":null,"calculation_params":null,"icon_link":null,"link":"http://geocommons.com/overlays/201338.json","extent":[37.5333,-4.29448,41.2966,0.533173],"geometry_types":["point"],"unique_name":null,"name":"Airports in Coast, Kenya","feature_count":11,"description":"This data provides airports in Coast, Kenya.","next_feature":null,"is_raster":false,"short_classification":"Y","stats":{"lon":{"max":41.296599,"mean":39.5728524545455,"variance":1.28982105978807,"stdev":1.13570289239223,"min":37.533299,"median":39.731283},"lat":{"max":0.533173,"mean":-2.55526027272727,"variance":2.16445071971082,"stdev":1.47120723207535,"min":-4.294476,"median":-2.913468}},"features":[{"properties":{"lon":40.912914,"airport name":"Lamu Airport","city":"Lamu","surface":"Paved","code":"LAU","international":"No","country":"Kenya","id":"a6dw9z3hugww","lat":-2.252078,"state":"Coast"},"type":"Feature","geometry":{"type":"Point","coordinates":[40.912914,-2.252078]}},{"properties":{"lon":40.100505,"airport name":"Malindi Airport","city":"Malindi","surface":"Paved","code":"MYD","international":"No","country":"Kenya","id":"a6dw9yx5dxqo","lat":-3.223033,"state":"Coast"},"type":"Feature","geometry":{"type":"Point","coordinates":[40.100505,-3.223033]}},{"properties":{"lon":39.599662,"airport name":"Moi International Airport","city":"Mombasa","surface":"Paved","code":"MBA","international":"Yes","country":"Kenya","id":"a6dw9z5iv90b","lat":-4.031056,"state":"Coast"},"type":"Feature","geometry":{"type":"Point","coordinates":[39.599662,-4.031056]}},{"properties":{"lon":37.533299,"airport name":"Samburu Airport","city":"Samburu","surface":"Paved","code":"UAS","international":"No","country":"Kenya","id":"a6dw9z4srq87","lat":0.533173,"state":"Coast"},"type":"Feature","geometry":{"type":"Point","coordinates":[37.533299,0.533173]}},{"properties":{"lon":39.571273,"airport name":"Ukunda Airport","city":"Ukunda","surface":"Paved","code":"UKA","international":"No","country":"Kenya","id":"a6dw9z6ytzl3","lat":-4.294476,"state":"Coast"},"type":"Feature","geometry":{"type":"Point","coordinates":[39.571273,-4.294476]}},{"properties":{"lon":39.731283,"airport name":"Bamburi Airport","city":"Mombasa","surface":"Paved","code":"BMQ","international":"No","country":"Kenya","id":"a6dw9ysbd3zx","lat":-3.979095,"state":"Coast"},"type":"Feature","geometry":{"type":"Point","coordinates":[39.731283,-3.979095]}},{"properties":{"lon":39.949272,"airport name":"Bura East","city":"Bura East","surface":"Unpaved","code":"N/A","international":"No","country":"Kenya","id":"a6dw9z15gvep","lat":-1.097729,"state":"Coast"},"type":"Feature","geometry":{"type":"Point","coordinates":[39.949272,-1.097729]}},{"properties":{"lon":40.003667,"airport name":"Hola Airport","city":"Bura","surface":"Unpaved","code":"HOA","international":"No","country":"Kenya","id":"a6dw9yscw0aw","lat":-1.520259,"state":"Coast"},"type":"Feature","geometry":{"type":"Point","coordinates":[40.003667,-1.520259]}},{"properties":{"lon":38.070245,"airport name":"Kilaguni Airport","city":"Kilaguni","surface":"Paved","code":"ILU","international":"No","country":"Kenya","id":"a6dw9yuj5zwn","lat":-2.913468,"state":"Coast"},"type":"Feature","geometry":{"type":"Point","coordinates":[38.070245,-2.913468]}},{"properties":{"lon":41.296599,"airport name":"Kiwayu Airport","city":"Kiwayu","surface":"Unpaved","code":"KWY","international":"No","country":"Kenya","id":"a6dw9yso60aj","lat":-1.96132,"state":"Coast"},"type":"Feature","geometry":{"type":"Point","coordinates":[41.296599,-1.96132]}},{"properties":{"lon":38.532658,"airport name":"Voi Airport","city":"Voi","surface":"Unpaved","code":"N/A","international":"No","country":"Kenya","id":"a6dw9yyuvus3","lat":-3.368522,"state":"Coast"},"type":"Feature","geometry":{"type":"Point","coordinates":[38.532658,-3.368522]}}],"is_temporal":false,"author":{"url":"","metadata":"","contact_name":"","contact_address":"","source":"","contact_phone":""},"source":"","pagination":{"sort":null,"start":0,"total":11,"limit":1000000},"state":"complete","tags":"","published":"2012-02-02T13:58:52Z","id":201338}