{"type":"FeatureCollection","data_type":"Dataset","url_type":null,"permissions":[{"permissions":{"download":true,"view":true},"group_id":"everyone"}],"classification":null,"title":"MercerCAIonly","count":315,"stream_id":201654,"contributor":{"url":"http://geocommons.com/users/12008","name":"pantheon"},"data_attributes":null,"calculation_params":null,"icon_link":null,"link":"http://geocommons.com/overlays/201654.json","extent":[-84.7971,40.352,-84.4712,40.7281],"geometry_types":["point"],"unique_name":null,"name":"MercerCAIonly","feature_count":315,"description":"","next_feature":null,"is_raster":false,"short_classification":"Y","stats":{"latitude":{"max":40.728127,"mean":40.5298821111111,"variance":0.00616450923174237,"stdev":0.078514388692407,"min":40.352037,"median":40.549019},"returned latitude":{"max":40.7281428,"mean":40.5298973453968,"variance":0.00616436750841423,"stdev":0.0785134861562919,"min":40.352118,"median":40.549226},"returned longitude":{"max":-84.4712772,"mean":-84.6044755053968,"variance":0.0056201202693881,"stdev":0.0749674614041859,"min":-84.7970959,"median":-84.5749322},"longitude":{"max":-84.471239,"mean":-84.6044626571429,"variance":0.00562204612687578,"stdev":0.0749803049265324,"min":-84.797096,"median":-84.574947},"infousa_id":{"max":997851738,"mean":563931931.136508,"variance":7.23744487189216e+16,"stdev":269024996.457433,"min":1258144,"median":551615461}},"features":[{"properties":{"city":"Celina","zip":"45822","latitude":40.547989,"ai type w bus size":"Other Health","primary_sic_description":"ABORTION ALTERNATIVES ORGANIZATIONS","returned address":"100-150 E Fayette St","county":"Mercer","country":"USA","returned latitude":40.5479966,"returned longitude":-84.5704248,"longitude":-84.570425,"id":"a6611e8rzmie","infousa_id":946090909,"state":"OH"},"type":"Feature","geometry":{"type":"Point","coordinates":[-84.570425,40.547989]}},{"properties":{"city":"Celina","zip":"45822","latitude":40.484434,"ai type w bus size":"Other Community Support Organization","primary_sic_description":"AIRPORTS","returned address":"6144-6166 State Highway 219","county":"Mercer","country":"USA","returned latitude":40.484434,"returned longitude":-84.567875,"longitude":-84.567875,"id":"a6611egca645","infousa_id":461690133,"state":"OH"},"type":"Feature","geometry":{"type":"Point","coordinates":[-84.567875,40.484434]}},{"properties":{"city":"Celina","zip":"45822","latitude":40.539106,"ai type w bus size":"Other Health","primary_sic_description":"AUDIOLOGISTS","returned address":"958-998 S Main St","county":"Mercer","country":"USA","returned latitude":40.5390997,"returned longitude":-84.5749322,"longitude":-84.574947,"id":"a6611e9ntswc","infousa_id":253175426,"state":"OH"},"type":"Feature","geometry":{"type":"Point","coordinates":[-84.574947,40.539106]}},{"properties":{"city":"Celina","zip":"45822","latitude":40.556727,"ai type w bus size":"Medial and Healthcare Providers","primary_sic_description":"CANCER TREATMENT CENTERS","returned address":"1000-1114 Havemann Rd","county":"Mercer","country":"USA","returned latitude":40.5567348,"returned longitude":-84.551118,"longitude":-84.551118,"id":"a6611eicb5wd","infousa_id":222742728,"state":"OH"},"type":"Feature","geometry":{"type":"Point","coordinates":[-84.551118,40.556727]}},{"properties":{"city":"Celina","zip":"45822","latitude":40.556727,"ai type w bus size":"Medial and Healthcare Providers","primary_sic_description":"CANCER TREATMENT CENTERS","returned address":"1000-1114 Havemann Rd","county":"Mercer","country":"USA","returned latitude":40.5567348,"returned longitude":-84.551118,"longitude":-84.551118,"id":"a6611eein5q5","infousa_id":258010677,"state":"OH"},"type":"Feature","geometry":{"type":"Point","coordinates":[-84.551118,40.556727]}},{"properties":{"city":"Celina","zip":"45822","latitude":40.536527,"ai type w bus size":"Other Community Support Organization","primary_sic_description":"CEMETERIES","returned address":"6449-6451 Karch Rd","county":"Mercer","country":"USA","returned latitude":40.5365268,"returned longitude":-84.657159,"longitude":-84.657155,"id":"a6611eiywkt2","infousa_id":551614670,"state":"OH"},"type":"Feature","geometry":{"type":"Point","coordinates":[-84.657155,40.536527]}},{"properties":{"city":"Rockford","zip":"45882","latitude":40.707153,"ai type w bus size":"Other Community Support Organization","primary_sic_description":"CEMETERIES","returned address":"3180-3548 U.S. 33","county":"Mercer","country":"USA","returned latitude":40.7071597,"returned longitude":-84.681425,"longitude":-84.681429,"id":"a6611ek7v0qo","infousa_id":835283649,"state":"OH"},"type":"Feature","geometry":{"type":"Point","coordinates":[-84.681429,40.707153]}},{"properties":{"city":"Celina","zip":"45822","latitude":40.550263,"ai type w bus size":"Other Community Support Organization","primary_sic_description":"CHAMBERS OF COMMERCE","returned address":"212 N Main St","county":"Mercer","country":"USA","returned latitude":40.550424,"returned longitude":-84.570335,"longitude":-84.570789,"id":"a6611e7e389a","infousa_id":140552886,"state":"OH"},"type":"Feature","geometry":{"type":"Point","coordinates":[-84.570789,40.550263]}},{"properties":{"city":"Chickasaw","zip":"45826","latitude":40.436895,"ai type w bus size":"Other Community Support Organization","primary_sic_description":"CHARITABLE INSTITUTIONS","returned address":"State Highway 274","county":"Mercer","country":"USA","returned latitude":40.4369146,"returned longitude":-84.4954857,"longitude":-84.495172,"id":"a6611ed1z2w2","infousa_id":551615461,"state":"OH"},"type":"Feature","geometry":{"type":"Point","coordinates":[-84.495172,40.436895]}},{"properties":{"city":"Celina","zip":"45822","latitude":40.550264,"ai type w bus size":"Other Community Support Organization","primary_sic_description":"CHILD CARE SERVICE","returned address":"6831 Dibble Rd","county":"Mercer","country":"USA","returned latitude":40.548309,"returned longitude":-84.513102,"longitude":-84.512901,"id":"a6611ec48t1c","infousa_id":643705114,"state":"OH"},"type":"Feature","geometry":{"type":"Point","coordinates":[-84.512901,40.550264]}},{"properties":{"city":"Coldwater","zip":"45828","latitude":40.488711,"ai type w bus size":"Other Community Support Organization","primary_sic_description":"CHILD CARE SERVICE","returned address":"200-276 Hardin St","county":"Mercer","country":"USA","returned latitude":40.4887347,"returned longitude":-84.6264439,"longitude":-84.626443,"id":"a6611e639mfs","infousa_id":231604075,"state":"OH"},"type":"Feature","geometry":{"type":"Point","coordinates":[-84.626443,40.488711]}},{"properties":{"city":"Coldwater","zip":"45828","latitude":40.48593,"ai type w bus size":"Other Community Support Organization","primary_sic_description":"CHILD CARE SERVICE","returned address":"801 N 7th St","county":"Mercer","country":"USA","returned latitude":40.486099,"returned longitude":-84.622099,"longitude":-84.622309,"id":"a6611ejb1ytx","infousa_id":498393685,"state":"OH"},"type":"Feature","geometry":{"type":"Point","coordinates":[-84.622309,40.48593]}},{"properties":{"city":"Celina","zip":"45822","latitude":40.549058,"ai type w bus size":"Other Health","primary_sic_description":"CHIROPRACTORS DC","returned address":"401-409 E Market St","county":"Mercer","country":"USA","returned latitude":40.5491206,"returned longitude":-84.5660768,"longitude":-84.566076,"id":"a6611e86b9kb","infousa_id":835459553,"state":"OH"},"type":"Feature","geometry":{"type":"Point","coordinates":[-84.566076,40.549058]}},{"properties":{"city":"Celina","zip":"45822","latitude":40.559739,"ai type w bus size":"Other Health","primary_sic_description":"CHIROPRACTORS DC","returned address":"120 E Forest St","county":"Mercer","country":"USA","returned latitude":40.5597252,"returned longitude":-84.5694142,"longitude":-84.569434,"id":"a6611ehr0iwx","infousa_id":217932177,"state":"OH"},"type":"Feature","geometry":{"type":"Point","coordinates":[-84.569434,40.559739]}},{"properties":{"city":"Celina","zip":"45822","latitude":40.556555,"ai type w bus size":"Other Health","primary_sic_description":"CHIROPRACTORS DC","returned address":"800 E Wayne St","county":"Mercer","country":"USA","returned latitude":40.556311,"returned longitude":-84.554541,"longitude":-84.554996,"id":"a6611efbj9ja","infousa_id":140552068,"state":"OH"},"type":"Feature","geometry":{"type":"Point","coordinates":[-84.554996,40.556555]}},{"properties":{"city":"Celina","zip":"45822","latitude":40.545565,"ai type w bus size":"Other Health","primary_sic_description":"CHIROPRACTORS DC","returned address":"902-908 W Logan St","county":"Mercer","country":"USA","returned latitude":40.5455658,"returned longitude":-84.583426,"longitude":-84.583426,"id":"a6611ee1mdnb","infousa_id":835461252,"state":"OH"},"type":"Feature","geometry":{"type":"Point","coordinates":[-84.583426,40.545565]}},{"properties":{"city":"Coldwater","zip":"45828","latitude":40.48082,"ai type w bus size":"Other Health","primary_sic_description":"CHIROPRACTORS DC","returned address":"201 N Mill St","county":"Mercer","country":"USA","returned latitude":40.480921,"returned longitude":-84.631705,"longitude":-84.632036,"id":"a6611ekkvzhm","infousa_id":990400764,"state":"OH"},"type":"Feature","geometry":{"type":"Point","coordinates":[-84.632036,40.48082]}},{"properties":{"city":"Fort Recovery","zip":"45846","latitude":40.413049,"ai type w bus size":"Other Health","primary_sic_description":"CHIROPRACTORS DC","returned address":"101-111 W Butler St","county":"Mercer","country":"USA","returned latitude":40.4130552,"returned longitude":-84.7797313,"longitude":-84.779732,"id":"a6611e7b28yg","infousa_id":364767772,"state":"OH"},"type":"Feature","geometry":{"type":"Point","coordinates":[-84.779732,40.413049]}},{"properties":{"city":"Mendon","zip":"45862","latitude":40.672396,"ai type w bus size":"Other Health","primary_sic_description":"CHIROPRACTORS DC","returned address":"Drake St","county":"Mercer","country":"USA","returned latitude":40.6725916,"returned longitude":-84.5204254,"longitude":-84.520683,"id":"a6611ec599ch","infousa_id":214741225,"state":"OH"},"type":"Feature","geometry":{"type":"Point","coordinates":[-84.520683,40.672396]}},{"properties":{"city":"St Henry","zip":"45883","latitude":40.413925,"ai type w bus size":"Other Health","primary_sic_description":"CHIROPRACTORS DC","returned address":"2182-2198 State Highway 118","county":"Mercer","country":"USA","returned latitude":40.4139249,"returned longitude":-84.629021,"longitude":-84.629043,"id":"a6611ean5ei6","infousa_id":697380244,"state":"OH"},"type":"Feature","geometry":{"type":"Point","coordinates":[-84.629043,40.413925]}},{"properties":{"city":"St Henry","zip":"45883","latitude":40.421372,"ai type w bus size":"Other Health","primary_sic_description":"CHIROPRACTORS DC","returned address":"522-528 E Kremer-Hoying Rd","county":"Mercer","country":"USA","returned latitude":40.4213804,"returned longitude":-84.632697,"longitude":-84.632697,"id":"a6611egg10cu","infousa_id":231603937,"state":"OH"},"type":"Feature","geometry":{"type":"Point","coordinates":[-84.632697,40.421372]}},{"properties":{"city":"Celina","zip":"45822","latitude":40.578657,"ai type w bus size":"Other Community Support Organization","primary_sic_description":"CHURCHES","returned address":"7861-7917 U.S. 127","county":"Mercer","country":"USA","returned latitude":40.5786569,"returned longitude":-84.5711021,"longitude":-84.571112,"id":"a6611eb4z48r","infousa_id":140555806,"state":"OH"},"type":"Feature","geometry":{"type":"Point","coordinates":[-84.571112,40.578657]}},{"properties":{"city":"Celina","zip":"45822","latitude":40.536519,"ai type w bus size":"Other Community Support Organization","primary_sic_description":"CHURCHES","returned address":"6449-6451 Karch Rd","county":"Mercer","country":"USA","returned latitude":40.5365212,"returned longitude":-84.6571584,"longitude":-84.657194,"id":"a6611e82k7l7","infousa_id":535601728,"state":"OH"},"type":"Feature","geometry":{"type":"Point","coordinates":[-84.657194,40.536519]}},{"properties":{"city":"Celina","zip":"45822","latitude":40.5529,"ai type w bus size":"Other Community Support Organization","primary_sic_description":"CHURCHES","returned address":"400-446 State Highway 197","county":"Mercer","country":"USA","returned latitude":40.5528811,"returned longitude":-84.5659133,"longitude":-84.565915,"id":"a6611eis6jd1","infousa_id":140552506,"state":"OH"},"type":"Feature","geometry":{"type":"Point","coordinates":[-84.565915,40.5529]}},{"properties":{"city":"Celina","zip":"45822","latitude":40.571104,"ai type w bus size":"Other Community Support Organization","primary_sic_description":"CHURCHES","returned address":"7513-7645 Celina Mendon Road C139","county":"Mercer","country":"USA","returned latitude":40.571104,"returned longitude":-84.541764,"longitude":-84.54178,"id":"a6611e9pei2i","infousa_id":835458415,"state":"OH"},"type":"Feature","geometry":{"type":"Point","coordinates":[-84.54178,40.571104]}},{"properties":{"city":"Celina","zip":"45822","latitude":40.560288,"ai type w bus size":"Other Community Support Organization","primary_sic_description":"CHURCHES","returned address":"4077-4089 Fairground Rd","county":"Mercer","country":"USA","returned latitude":40.5602954,"returned longitude":-84.6446591,"longitude":-84.644659,"id":"a6611ecxww5y","infousa_id":462142324,"state":"OH"},"type":"Feature","geometry":{"type":"Point","coordinates":[-84.644659,40.560288]}},{"properties":{"city":"Celina","zip":"45822","latitude":40.56029,"ai type w bus size":"Other Community Support Organization","primary_sic_description":"CHURCHES","returned address":"4065-4073 Fairground Rd","county":"Mercer","country":"USA","returned latitude":40.5602886,"returned longitude":-84.645214,"longitude":-84.645214,"id":"a6611ec6krhm","infousa_id":140552977,"state":"OH"},"type":"Feature","geometry":{"type":"Point","coordinates":[-84.645214,40.56029]}},{"properties":{"city":"Celina","zip":"45822","latitude":40.548346,"ai type w bus size":"Other Community Support Organization","primary_sic_description":"CHURCHES","returned address":"113 S Vine St","county":"Mercer","country":"USA","returned latitude":40.548369,"returned longitude":-84.560058,"longitude":-84.55973,"id":"a6611eb5rmki","infousa_id":231603978,"state":"OH"},"type":"Feature","geometry":{"type":"Point","coordinates":[-84.55973,40.548346]}},{"properties":{"city":"Celina","zip":"45822","latitude":40.556743,"ai type w bus size":"Other Community Support Organization","primary_sic_description":"CHURCHES","returned address":"701-799 N Main St","county":"Mercer","country":"USA","returned latitude":40.5567374,"returned longitude":-84.5710152,"longitude":-84.570997,"id":"a6611ebpcu7x","infousa_id":140554023,"state":"OH"},"type":"Feature","geometry":{"type":"Point","coordinates":[-84.570997,40.556743]}},{"properties":{"city":"Celina","zip":"45822","latitude":40.557043,"ai type w bus size":"Other Community Support Organization","primary_sic_description":"CHURCHES","returned address":"717 N Sugar St","county":"Mercer","country":"USA","returned latitude":40.5573539,"returned longitude":-84.573846,"longitude":-84.573687,"id":"a6611e70rlxv","infousa_id":609574603,"state":"OH"},"type":"Feature","geometry":{"type":"Point","coordinates":[-84.573687,40.557043]}},{"properties":{"city":"Celina","zip":"45822","latitude":40.544606,"ai type w bus size":"Other Community Support Organization","primary_sic_description":"CHURCHES","returned address":"501 Portland St","county":"Mercer","country":"USA","returned latitude":40.544356,"returned longitude":-84.585747,"longitude":-84.585462,"id":"a6611e5d5joc","infousa_id":140554247,"state":"OH"},"type":"Feature","geometry":{"type":"Point","coordinates":[-84.585462,40.544606]}},{"properties":{"city":"Celina","zip":"45822","latitude":40.55188,"ai type w bus size":"Other Community Support Organization","primary_sic_description":"CHURCHES","returned address":"214 W Anthony St","county":"Mercer","country":"USA","returned latitude":40.55163,"returned longitude":-84.57293,"longitude":-84.572754,"id":"a6611e90y2z0","infousa_id":140554676,"state":"OH"},"type":"Feature","geometry":{"type":"Point","coordinates":[-84.572754,40.55188]}},{"properties":{"city":"Celina","zip":"45822","latitude":40.555398,"ai type w bus size":"Other Community Support Organization","primary_sic_description":"CHURCHES","returned address":"701-751 N Brandon Ave","county":"Mercer","country":"USA","returned latitude":40.555398,"returned longitude":-84.5789454,"longitude":-84.578944,"id":"a6611ebk5s3y","infousa_id":140554767,"state":"OH"},"type":"Feature","geometry":{"type":"Point","coordinates":[-84.578944,40.555398]}},{"properties":{"city":"Celina","zip":"45822","latitude":40.557032,"ai type w bus size":"Other Community Support Organization","primary_sic_description":"CHURCHES","returned address":"717 N Sugar St","county":"Mercer","country":"USA","returned latitude":40.5573539,"returned longitude":-84.573846,"longitude":-84.573687,"id":"a6611e6qv04p","infousa_id":677606584,"state":"OH"},"type":"Feature","geometry":{"type":"Point","coordinates":[-84.573687,40.557032]}},{"properties":{"city":"Celina","zip":"45822","latitude":40.551981,"ai type w bus size":"Other Community Support Organization","primary_sic_description":"CHURCHES","returned address":"400-404 N Main St","county":"Mercer","country":"USA","returned latitude":40.5519809,"returned longitude":-84.5707833,"longitude":-84.570789,"id":"a6611e717z4e","infousa_id":258009984,"state":"OH"},"type":"Feature","geometry":{"type":"Point","coordinates":[-84.570789,40.551981]}},{"properties":{"city":"Celina","zip":"45822","latitude":40.567455,"ai type w bus size":"Other Community Support Organization","primary_sic_description":"CHURCHES","returned address":"2545-2661 Carmel Church Rd","county":"Mercer","country":"USA","returned latitude":40.5674664,"returned longitude":-84.7044629,"longitude":-84.704463,"id":"a6611edgoefu","infousa_id":535601777,"state":"OH"},"type":"Feature","geometry":{"type":"Point","coordinates":[-84.704463,40.567455]}},{"properties":{"city":"Celina","zip":"45822","latitude":40.625692,"ai type w bus size":"Other Community Support Organization","primary_sic_description":"CHURCHES","returned address":"9500-9530 Celina Mendon Rd","county":"Mercer","country":"USA","returned latitude":40.6264351,"returned longitude":-84.5418495,"longitude":-84.579978,"id":"a6611ef1r527","infousa_id":553814534,"state":"OH"},"type":"Feature","geometry":{"type":"Point","coordinates":[-84.579978,40.625692]}},{"properties":{"city":"Celina","zip":"45822","latitude":40.626435,"ai type w bus size":"Other Community Support Organization","primary_sic_description":"CHURCHES","returned address":"7964-7998 U.S. 33","county":"Mercer","country":"USA","returned latitude":40.6050859,"returned longitude":-84.4949651,"longitude":-84.54187,"id":"a6611e4ymc08","infousa_id":990398141,"state":"OH"},"type":"Feature","geometry":{"type":"Point","coordinates":[-84.54187,40.626435]}},{"properties":{"city":"Celina","zip":"45822","latitude":40.605099,"ai type w bus size":"Other Community Support Organization","primary_sic_description":"CHURCHES","returned address":"100-236 Grand Lake Rd","county":"Mercer","country":"USA","returned latitude":40.5503372,"returned longitude":-84.5512638,"longitude":-84.494951,"id":"a6611ecq0wl3","infousa_id":835456500,"state":"OH"},"type":"Feature","geometry":{"type":"Point","coordinates":[-84.494951,40.605099]}},{"properties":{"city":"Celina","zip":"45822","latitude":40.550337,"ai type w bus size":"Other Community Support Organization","primary_sic_description":"CHURCHES","returned address":"7093-7125 Havemann Rd","county":"Mercer","country":"USA","returned latitude":40.5567503,"returned longitude":-84.5271041,"longitude":-84.55126,"id":"a6611ecd5kb4","infousa_id":231603952,"state":"OH"},"type":"Feature","geometry":{"type":"Point","coordinates":[-84.55126,40.550337]}},{"properties":{"city":"Celina","zip":"45822","latitude":40.556745,"ai type w bus size":"Other Community Support Organization","primary_sic_description":"CHURCHES","returned address":"8062-8126 U.S. 127","county":"Mercer","country":"USA","returned latitude":40.5852658,"returned longitude":-84.5710355,"longitude":-84.527104,"id":"a6611ehquklj","infousa_id":140555277,"state":"OH"},"type":"Feature","geometry":{"type":"Point","coordinates":[-84.527104,40.556745]}},{"properties":{"city":"Celina","zip":"45822","latitude":40.585266,"ai type w bus size":"Other Community Support Organization","primary_sic_description":"CHURCHES","returned address":"1100-1140 N Main St","county":"Mercer","country":"USA","returned latitude":40.560447,"returned longitude":-84.5711666,"longitude":-84.571053,"id":"a6611e9hsic2","infousa_id":384933792,"state":"OH"},"type":"Feature","geometry":{"type":"Point","coordinates":[-84.571053,40.585266]}},{"properties":{"city":"Celina","zip":"45822","latitude":40.560447,"ai type w bus size":"Other Community Support Organization","primary_sic_description":"CHURCHES","returned address":"119 E Fulton St","county":"Mercer","country":"USA","returned latitude":40.551218,"returned longitude":-84.570335,"longitude":-84.571165,"id":"a6611e7aaxjd","infousa_id":835457045,"state":"OH"},"type":"Feature","geometry":{"type":"Point","coordinates":[-84.571165,40.560447]}},{"properties":{"city":"Celina","zip":"45822","latitude":40.550964,"ai type w bus size":"Other Community Support Organization","primary_sic_description":"CHURCHES","returned address":"1913 E Livingston St","county":"Mercer","country":"USA","returned latitude":40.5494119,"returned longitude":-84.545798,"longitude":-84.570425,"id":"a6611egj9rcb","infousa_id":140556820,"state":"OH"},"type":"Feature","geometry":{"type":"Point","coordinates":[-84.570425,40.550964]}},{"properties":{"city":"Celina","zip":"45822","latitude":40.549174,"ai type w bus size":"Other Community Support Organization","primary_sic_description":"CHURCHES","returned address":"2-32 Maple St","county":"Mercer","country":"USA","returned latitude":40.436648,"returned longitude":-84.4922459,"longitude":-84.546047,"id":"a6611e9y2u90","infousa_id":535601801,"state":"OH"},"type":"Feature","geometry":{"type":"Point","coordinates":[-84.546047,40.549174]}},{"properties":{"city":"Celina","zip":"45822","latitude":40.48075,"ai type w bus size":"Other Community Support Organization","primary_sic_description":"CHURCHES","returned address":"1538 Oregon Rd","county":"Mercer","country":"USA","returned latitude":40.610885,"returned longitude":-84.745474,"longitude":-84.631116,"id":"a6611e5ryiyx","infousa_id":140558305,"state":"OH"},"type":"Feature","geometry":{"type":"Point","coordinates":[-84.631116,40.48075]}},{"properties":{"city":"Coldwater","zip":"45828","latitude":40.479781,"ai type w bus size":"Other Community Support Organization","primary_sic_description":"CHURCHES","returned address":"300-310 W North St","county":"Mercer","country":"USA","returned latitude":40.480753,"returned longitude":-84.631116,"longitude":-84.628483,"id":"a6611ejbprxa","infousa_id":140558677,"state":"OH"},"type":"Feature","geometry":{"type":"Point","coordinates":[-84.628483,40.479781]}},{"properties":{"city":"Coldwater","zip":"45828","latitude":40.508993,"ai type w bus size":"Other Community Support Organization","primary_sic_description":"CHURCHES","returned address":"101-119 E Main St","county":"Mercer","country":"USA","returned latitude":40.4797684,"returned longitude":-84.6284827,"longitude":-84.74165,"id":"a6611ehou7jf","infousa_id":649245396,"state":"OH"},"type":"Feature","geometry":{"type":"Point","coordinates":[-84.74165,40.508993]}},{"properties":{"city":"Coldwater","zip":"45828","latitude":40.501828,"ai type w bus size":"Other Community Support Organization","primary_sic_description":"CHURCHES","returned address":"1500-1580 St Anthony Rd","county":"Mercer","country":"USA","returned latitude":40.5089904,"returned longitude":-84.74165,"longitude":-84.797096,"id":"a6611e52xnr0","infousa_id":498393081,"state":"OH"},"type":"Feature","geometry":{"type":"Point","coordinates":[-84.797096,40.501828]}},{"properties":{"city":"Fort Recovery","zip":"45846","latitude":40.413425,"ai type w bus size":"Other Community Support Organization","primary_sic_description":"CHURCHES","returned address":"58-128 Elm Rd","county":"Mercer","country":"USA","returned latitude":40.5018483,"returned longitude":-84.7970959,"longitude":-84.774754,"id":"a6611ebiuuc4","infousa_id":835287640,"state":"OH"},"type":"Feature","geometry":{"type":"Point","coordinates":[-84.774754,40.413425]}},{"properties":{"city":"Fort Recovery","zip":"45846","latitude":40.380731,"ai type w bus size":"Other Community Support Organization","primary_sic_description":"CHURCHES","returned address":"401 E Boundary St","county":"Mercer","country":"USA","returned latitude":40.41368,"returned longitude":-84.7746389,"longitude":-84.78179,"id":"a6611e6a45c6","infousa_id":835286881,"state":"OH"},"type":"Feature","geometry":{"type":"Point","coordinates":[-84.78179,40.380731]}},{"properties":{"city":"Fort Recovery","zip":"45846","latitude":40.412978,"ai type w bus size":"Other Community Support Organization","primary_sic_description":"CHURCHES","returned address":"949-999 Union City Rd","county":"Mercer","country":"USA","returned latitude":40.380731,"returned longitude":-84.7817953,"longitude":-84.77957,"id":"a6611e7v2xen","infousa_id":895859866,"state":"OH"},"type":"Feature","geometry":{"type":"Point","coordinates":[-84.77957,40.412978]}},{"properties":{"city":"Fort Recovery","zip":"45846","latitude":40.408223,"ai type w bus size":"Other Community Support Organization","primary_sic_description":"CHURCHES","returned address":"101 S Wayne St","county":"Mercer","country":"USA","returned latitude":40.412906,"returned longitude":-84.779318,"longitude":-84.775898,"id":"a6611ee8nu4b","infousa_id":835287178,"state":"OH"},"type":"Feature","geometry":{"type":"Point","coordinates":[-84.775898,40.408223]}},{"properties":{"city":"Fort Recovery","zip":"45846","latitude":40.428638,"ai type w bus size":"Other Community Support Organization","primary_sic_description":"CHURCHES","returned address":"406 Greenville Rd","county":"Mercer","country":"USA","returned latitude":40.4082005,"returned longitude":-84.7759707,"longitude":-84.737135,"id":"a6611eheezkp","infousa_id":691987333,"state":"OH"},"type":"Feature","geometry":{"type":"Point","coordinates":[-84.737135,40.428638]}},{"properties":{"city":"Fort Recovery","zip":"45846","latitude":40.415246,"ai type w bus size":"Other Community Support Organization","primary_sic_description":"CHURCHES","returned address":"1732-1744 St Joe Rd","county":"Mercer","country":"USA","returned latitude":40.4286524,"returned longitude":-84.7371344,"longitude":-84.779357,"id":"a6611e4dyuo0","infousa_id":461690323,"state":"OH"},"type":"Feature","geometry":{"type":"Point","coordinates":[-84.779357,40.415246]}},{"properties":{"city":"Fort Recovery","zip":"45846","latitude":40.413687,"ai type w bus size":"Other Community Support Organization","primary_sic_description":"CHURCHES","returned address":"301-303 Wayne St","county":"Mercer","country":"USA","returned latitude":40.4152473,"returned longitude":-84.7793695,"longitude":-84.776245,"id":"a6611egs5jsx","infousa_id":140585233,"state":"OH"},"type":"Feature","geometry":{"type":"Point","coordinates":[-84.776245,40.413687]}},{"properties":{"city":"Fort Recovery","zip":"45846","latitude":40.407691,"ai type w bus size":"Other Community Support Organization","primary_sic_description":"CHURCHES","returned address":"303 E Boundary St","county":"Mercer","country":"USA","returned latitude":40.413949,"returned longitude":-84.776258,"longitude":-84.514969,"id":"a6611easna85","infousa_id":835668310,"state":"OH"},"type":"Feature","geometry":{"type":"Point","coordinates":[-84.514969,40.407691]}},{"properties":{"city":"Maria Stein","zip":"45860","latitude":40.407537,"ai type w bus size":"Other Community Support Organization","primary_sic_description":"CHURCHES","returned address":"7445-7455 State Highway 119","county":"Mercer","country":"USA","returned latitude":40.4077083,"returned longitude":-84.5149693,"longitude":-84.540927,"id":"a6611e4hvi2o","infousa_id":638352096,"state":"OH"},"type":"Feature","geometry":{"type":"Point","coordinates":[-84.540927,40.407537]}},{"properties":{"city":"Maria Stein","zip":"45860","latitude":40.436648,"ai type w bus size":"Other Community Support Organization","primary_sic_description":"CHURCHES","returned address":"6726-6754 State Highway 119","county":"Mercer","country":"USA","returned latitude":40.4075275,"returned longitude":-84.5409269,"longitude":-84.492242,"id":"a6611e99dc8d","infousa_id":835668229,"state":"OH"},"type":"Feature","geometry":{"type":"Point","coordinates":[-84.492242,40.436648]}},{"properties":{"city":"Mendon","zip":"45862","latitude":40.673286,"ai type w bus size":"Other Community Support Organization","primary_sic_description":"CHURCHES","returned address":"9401-9495 U.S. 127","county":"Mercer","country":"USA","returned latitude":40.625694,"returned longitude":-84.5799716,"longitude":-84.520079,"id":"a6611e49dt8p","infousa_id":835596503,"state":"OH"},"type":"Feature","geometry":{"type":"Point","coordinates":[-84.520079,40.673286]}},{"properties":{"city":"Mendon","zip":"45862","latitude":40.677144,"ai type w bus size":"Other Community Support Organization","primary_sic_description":"CHURCHES","returned address":"102-104 Wayne St","county":"Mercer","country":"USA","returned latitude":40.6732864,"returned longitude":-84.5201111,"longitude":-84.518682,"id":"a6611eaqbwub","infousa_id":835596438,"state":"OH"},"type":"Feature","geometry":{"type":"Point","coordinates":[-84.518682,40.677144]}},{"properties":{"city":"Mendon","zip":"45862","latitude":40.489129,"ai type w bus size":"Other Community Support Organization","primary_sic_description":"CHURCHES","returned address":"305-311 N Main St","county":"Mercer","country":"USA","returned latitude":40.6771442,"returned longitude":-84.5187172,"longitude":-84.550513,"id":"a6611e5eiynr","infousa_id":440452647,"state":"OH"},"type":"Feature","geometry":{"type":"Point","coordinates":[-84.550513,40.489129]}},{"properties":{"city":"Montezuma","zip":"45866","latitude":40.489129,"ai type w bus size":"Other Community Support Organization","primary_sic_description":"CHURCHES","returned address":"16-34 W Main St","county":"Mercer","country":"USA","returned latitude":40.4891188,"returned longitude":-84.5505108,"longitude":-84.550513,"id":"a6611e9ivmfl","infousa_id":624035408,"state":"OH"},"type":"Feature","geometry":{"type":"Point","coordinates":[-84.550513,40.489129]}},{"properties":{"city":"Montezuma","zip":"45866","latitude":40.489129,"ai type w bus size":"Other Community Support Organization","primary_sic_description":"CHURCHES","returned address":"16-34 W Main St","county":"Mercer","country":"USA","returned latitude":40.4891188,"returned longitude":-84.5505108,"longitude":-84.550513,"id":"a6611ecsmbwh","infousa_id":835222829,"state":"OH"},"type":"Feature","geometry":{"type":"Point","coordinates":[-84.550513,40.489129]}},{"properties":{"city":"Montezuma","zip":"45866","latitude":40.684657,"ai type w bus size":"Other Community Support Organization","primary_sic_description":"CHURCHES","returned address":"16-34 W Main St","county":"Mercer","country":"USA","returned latitude":40.4891188,"returned longitude":-84.5505108,"longitude":-84.646458,"id":"a6611ehjkkn5","infousa_id":835283623,"state":"OH"},"type":"Feature","geometry":{"type":"Point","coordinates":[-84.646458,40.684657]}},{"properties":{"city":"Rockford","zip":"45882","latitude":40.691568,"ai type w bus size":"Other Community Support Organization","primary_sic_description":"CHURCHES","returned address":"609-805 S Main St","county":"Mercer","country":"USA","returned latitude":40.684657,"returned longitude":-84.6464506,"longitude":-84.646947,"id":"a6611e6519zj","infousa_id":835284308,"state":"OH"},"type":"Feature","geometry":{"type":"Point","coordinates":[-84.646947,40.691568]}},{"properties":{"city":"Rockford","zip":"45882","latitude":40.621442,"ai type w bus size":"Other Community Support Organization","primary_sic_description":"CHURCHES","returned address":"107-149 Market St","county":"Mercer","country":"USA","returned latitude":40.6915908,"returned longitude":-84.646947,"longitude":-84.746864,"id":"a6611eei90g3","infousa_id":581016094,"state":"OH"},"type":"Feature","geometry":{"type":"Point","coordinates":[-84.746864,40.621442]}},{"properties":{"city":"Rockford","zip":"45882","latitude":40.611439,"ai type w bus size":"Other Community Support Organization","primary_sic_description":"CHURCHES","returned address":"9272-9294 Wabash Rd","county":"Mercer","country":"USA","returned latitude":40.6214422,"returned longitude":-84.746889,"longitude":-84.745378,"id":"a6611ec9g8cy","infousa_id":496808791,"state":"OH"},"type":"Feature","geometry":{"type":"Point","coordinates":[-84.745378,40.611439]}},{"properties":{"city":"Rockford","zip":"45882","latitude":40.69101,"ai type w bus size":"Other Community Support Organization","primary_sic_description":"CHURCHES","returned address":"109 N Franklin St","county":"Mercer","country":"USA","returned latitude":40.692208,"returned longitude":-84.6482,"longitude":-84.647866,"id":"a6611e7o2dod","infousa_id":835283920,"state":"OH"},"type":"Feature","geometry":{"type":"Point","coordinates":[-84.647866,40.69101]}},{"properties":{"city":"Rockford","zip":"45882","latitude":40.637551,"ai type w bus size":"Other Community Support Organization","primary_sic_description":"CHURCHES","returned address":"9910-9916 State Highway 49","county":"Mercer","country":"USA","returned latitude":40.6375509,"returned longitude":-84.7849488,"longitude":-84.784948,"id":"a6611ehkuvp9","infousa_id":835283607,"state":"OH"},"type":"Feature","geometry":{"type":"Point","coordinates":[-84.784948,40.637551]}},{"properties":{"city":"St Henry","zip":"45883","latitude":40.417717,"ai type w bus size":"Other Community Support Organization","primary_sic_description":"CHURCHES","returned address":"454-472 E Main St","county":"Mercer","country":"USA","returned latitude":40.4177063,"returned longitude":-84.6337111,"longitude":-84.633711,"id":"a6611ebe4foe","infousa_id":835531047,"state":"OH"},"type":"Feature","geometry":{"type":"Point","coordinates":[-84.633711,40.417717]}},{"properties":{"city":"Celina","zip":"45822","latitude":40.550059,"ai type w bus size":"Other Government Facilities","primary_sic_description":"CITY GOVERNMENT-COURTS","returned address":"200-212 N Main St","county":"Mercer","country":"USA","returned latitude":40.5500591,"returned longitude":-84.5707739,"longitude":-84.570789,"id":"a6611ehqyo9h","infousa_id":835460395,"state":"OH"},"type":"Feature","geometry":{"type":"Point","coordinates":[-84.570789,40.550059]}},{"properties":{"city":"Celina","zip":"45822","latitude":40.549019,"ai type w bus size":"Other Government Facilities","primary_sic_description":"CITY GOVERNMENT-EXECUTIVE OFFICES","returned address":"411 W Market St","county":"Mercer","country":"USA","returned latitude":40.549327,"returned longitude":-84.575569,"longitude":-84.57557,"id":"a6611e82z2it","infousa_id":835459835,"state":"OH"},"type":"Feature","geometry":{"type":"Point","coordinates":[-84.57557,40.549019]}},{"properties":{"city":"Fort Recovery","zip":"45846","latitude":40.411348,"ai type w bus size":"Other Government Facilities","primary_sic_description":"CITY GOVERNMENT-EXECUTIVE OFFICES","returned address":"135-199 Main St","county":"Mercer","country":"USA","returned latitude":40.4113483,"returned longitude":-84.778282,"longitude":-84.778277,"id":"a6611ejko9dv","infousa_id":835286626,"state":"OH"},"type":"Feature","geometry":{"type":"Point","coordinates":[-84.778277,40.411348]}},{"properties":{"city":"Rockford","zip":"45882","latitude":40.691515,"ai type w bus size":"Other Government Facilities","primary_sic_description":"CITY GOVERNMENT-EXECUTIVE OFFICES","returned address":"500-506 Market St","county":"Mercer","country":"USA","returned latitude":40.691501,"returned longitude":-84.6517694,"longitude":-84.65177,"id":"a6611e7uzxrr","infousa_id":835284084,"state":"OH"},"type":"Feature","geometry":{"type":"Point","coordinates":[-84.65177,40.691515]}},{"properties":{"city":"Celina","zip":"45822","latitude":40.550059,"ai type w bus size":"Other Government Facilities","primary_sic_description":"CITY GOVERNMENT-FINANCE &amp; TAXATION","returned address":"200-212 N Main St","county":"Mercer","country":"USA","returned latitude":40.5500591,"returned longitude":-84.5707739,"longitude":-84.570789,"id":"a6611ed6thu8","infousa_id":835457524,"state":"OH"},"type":"Feature","geometry":{"type":"Point","coordinates":[-84.570789,40.550059]}},{"properties":{"city":"Coldwater","zip":"45828","latitude":40.476133,"ai type w bus size":"Other Government Facilities","primary_sic_description":"CITY GOVERNMENT-FINANCE &amp; TAXATION","returned address":"702 W Sycamore St","county":"Mercer","country":"USA","returned latitude":40.47637,"returned longitude":-84.63705,"longitude":-84.636897,"id":"a6611ebq56xa","infousa_id":835530130,"state":"OH"},"type":"Feature","geometry":{"type":"Point","coordinates":[-84.636897,40.476133]}},{"properties":{"city":"Fort Recovery","zip":"45846","latitude":40.411348,"ai type w bus size":"Other Government Facilities","primary_sic_description":"CITY GOVERNMENT-FINANCE &amp; TAXATION","returned address":"135-199 Main St","county":"Mercer","country":"USA","returned latitude":40.4113483,"returned longitude":-84.778282,"longitude":-84.778277,"id":"a6611ekezx2b","infousa_id":440451797,"state":"OH"},"type":"Feature","geometry":{"type":"Point","coordinates":[-84.778277,40.411348]}},{"properties":{"city":"Mendon","zip":"45862","latitude":40.67318,"ai type w bus size":"Other Government Facilities","primary_sic_description":"CITY GOVERNMENT-FINANCE &amp; TAXATION","returned address":"100-146 S Main St","county":"Mercer","country":"USA","returned latitude":40.6731799,"returned longitude":-84.5186762,"longitude":-84.518664,"id":"a6611ei8rhlp","infousa_id":479745390,"state":"OH"},"type":"Feature","geometry":{"type":"Point","coordinates":[-84.518664,40.67318]}},{"properties":{"city":"Rockford","zip":"45882","latitude":40.692641,"ai type w bus size":"Other Government Facilities","primary_sic_description":"CITY GOVERNMENT-FINANCE &amp; TAXATION","returned address":"201-205 N Main St","county":"Mercer","country":"USA","returned latitude":40.6926416,"returned longitude":-84.6464075,"longitude":-84.646445,"id":"a6611e9t71h9","infousa_id":562008599,"state":"OH"},"type":"Feature","geometry":{"type":"Point","coordinates":[-84.646445,40.692641]}},{"properties":{"city":"Celina","zip":"45822","latitude":40.549019,"ai type w bus size":"Other Government Facilities","primary_sic_description":"CITY GOVT-REGULATION/ADM-COMMS/UTILITIES","returned address":"411 W Market St","county":"Mercer","country":"USA","returned latitude":40.549327,"returned longitude":-84.575569,"longitude":-84.57557,"id":"a6611e958chq","infousa_id":140553082,"state":"OH"},"type":"Feature","geometry":{"type":"Point","coordinates":[-84.57557,40.549019]}},{"properties":{"city":"Celina","zip":"45822","latitude":40.536444,"ai type w bus size":"Other Government Facilities","primary_sic_description":"CITY GOVT-REGULATION/ADM-COMMS/UTILITIES","returned address":"1026-1160 Elm St","county":"Mercer","country":"USA","returned latitude":40.5364588,"returned longitude":-84.5799885,"longitude":-84.58,"id":"a6611e8u5ipz","infousa_id":551614621,"state":"OH"},"type":"Feature","geometry":{"type":"Point","coordinates":[-84.58,40.536444]}},{"properties":{"city":"Fort Recovery","zip":"45846","latitude":40.408453,"ai type w bus size":"Other Government Facilities","primary_sic_description":"CITY GOVT-REGULATION/ADM-COMMS/UTILITIES","returned address":"2199-2239 Erastus Durbin Rd","county":"Mercer","country":"USA","returned latitude":40.408453,"returned longitude":-84.7078775,"longitude":-84.707864,"id":"a6611eb0bqdk","infousa_id":835286667,"state":"OH"},"type":"Feature","geometry":{"type":"Point","coordinates":[-84.707864,40.408453]}},{"properties":{"city":"Fort Recovery","zip":"45846","latitude":40.408453,"ai type w bus size":"Other Government Facilities","primary_sic_description":"CITY GOVT-REGULATION/ADM-COMMS/UTILITIES","returned address":"2199-2239 Erastus Durbin Rd","county":"Mercer","country":"USA","returned latitude":40.408453,"returned longitude":-84.7078775,"longitude":-84.707864,"id":"a6611eggjpnl","infousa_id":649245156,"state":"OH"},"type":"Feature","geometry":{"type":"Point","coordinates":[-84.707864,40.408453]}},{"properties":{"city":"Mendon","zip":"45862","latitude":40.673446,"ai type w bus size":"Other Government Facilities","primary_sic_description":"CITY GOVT-REGULATION/ADM-COMMS/UTILITIES","returned address":"300-398 E Market St","county":"Mercer","country":"USA","returned latitude":40.673451,"returned longitude":-84.5144991,"longitude":-84.514499,"id":"a6611e7qmcfj","infousa_id":835596768,"state":"OH"},"type":"Feature","geometry":{"type":"Point","coordinates":[-84.514499,40.673446]}},{"properties":{"city":"Celina","zip":"45822","latitude":40.62435,"ai type w bus size":"Other Community Support Organization","primary_sic_description":"CLERGY","returned address":"3400-3498 Shore Dr","county":"Mercer","country":"USA","returned latitude":40.5432397,"returned longitude":-84.5282914,"longitude":-84.57894,"id":"a6611ehasuoe","infousa_id":413396029,"state":"OH"},"type":"Feature","geometry":{"type":"Point","coordinates":[-84.57894,40.62435]}},{"properties":{"city":"Fort Recovery","zip":"45846","latitude":40.543218,"ai type w bus size":"Other Community Support Organization","primary_sic_description":"CLERGY","returned address":"201-247 1st St","county":"Mercer","country":"USA","returned latitude":40.413577,"returned longitude":-84.7748928,"longitude":-84.528299,"id":"a6611ei7e0k8","infousa_id":358102630,"state":"OH"},"type":"Feature","geometry":{"type":"Point","coordinates":[-84.528299,40.543218]}},{"properties":{"city":"Fort Recovery","zip":"45846","latitude":40.413577,"ai type w bus size":"Other Community Support Organization","primary_sic_description":"CLERGY","returned address":"282-456 St Anthony Rd","county":"Mercer","country":"USA","returned latitude":40.5091157,"returned longitude":-84.787054,"longitude":-84.774893,"id":"a6611e5gk5kq","infousa_id":649245008,"state":"OH"},"type":"Feature","geometry":{"type":"Point","coordinates":[-84.774893,40.413577]}},{"properties":{"city":"Mendon","zip":"45862","latitude":40.509108,"ai type w bus size":"Other Community Support Organization","primary_sic_description":"CLERGY","returned address":"9401-9495 U.S. 127","county":"Mercer","country":"USA","returned latitude":40.6243601,"returned longitude":-84.5789214,"longitude":-84.787054,"id":"a6611e9qabfi","infousa_id":551615677,"state":"OH"},"type":"Feature","geometry":{"type":"Point","coordinates":[-84.787054,40.509108]}},{"properties":{"city":"Mendon","zip":"45862","latitude":40.66874,"ai type w bus size":"Other Community Support Organization","primary_sic_description":"CLERGY","returned address":"412 S Wayne St","county":"Mercer","country":"USA","returned latitude":40.668662,"returned longitude":-84.5200799,"longitude":-84.519738,"id":"a6611e5q31kf","infousa_id":649245016,"state":"OH"},"type":"Feature","geometry":{"type":"Point","coordinates":[-84.519738,40.66874]}},{"properties":{"city":"Rockford","zip":"45882","latitude":40.652375,"ai type w bus size":"Other Community Support Organization","primary_sic_description":"CLERGY","returned address":"10101-10439 Main St","county":"Mercer","country":"USA","returned latitude":40.652375,"returned longitude":-84.6474211,"longitude":-84.64741,"id":"a6611ekirrnx","infousa_id":654984210,"state":"OH"},"type":"Feature","geometry":{"type":"Point","coordinates":[-84.64741,40.652375]}},{"properties":{"city":"Rockford","zip":"45882","latitude":40.692351,"ai type w bus size":"Other Community Support Organization","primary_sic_description":"CLERGY","returned address":"111 N Franklin St","county":"Mercer","country":"USA","returned latitude":40.692389,"returned longitude":-84.648203,"longitude":-84.647836,"id":"a6611e4hy2yb","infousa_id":256307653,"state":"OH"},"type":"Feature","geometry":{"type":"Point","coordinates":[-84.647836,40.692351]}},{"properties":{"city":"Rockford","zip":"45882","latitude":40.636642,"ai type w bus size":"Other Community Support Organization","primary_sic_description":"CLERGY","returned address":"9892-9898 State Highway 49","county":"Mercer","country":"USA","returned latitude":40.6366422,"returned longitude":-84.7849705,"longitude":-84.784942,"id":"a6611ejmygy1","infousa_id":679039263,"state":"OH"},"type":"Feature","geometry":{"type":"Point","coordinates":[-84.784942,40.636642]}},{"properties":{"city":"Venedocia","zip":"45894","latitude":40.728127,"ai type w bus size":"Other Community Support Organization","primary_sic_description":"CLERGY","returned address":"7000-7298 Mercer-Van Wert County Line Rd","county":"Mercer","country":"USA","returned latitude":40.7281428,"returned longitude":-84.5288601,"longitude":-84.52886,"id":"a6611eft31t7","infousa_id":233463876,"state":"OH"},"type":"Feature","geometry":{"type":"Point","coordinates":[-84.52886,40.728127]}},{"properties":{"city":"Celina","zip":"45822","latitude":40.555259,"ai type w bus size":"Medial and Healthcare Providers","primary_sic_description":"CLINICS","returned address":"808 Pro Dr","county":"Mercer","country":"USA","returned latitude":40.554775,"returned longitude":-84.555248,"longitude":-84.555174,"id":"a6611ed94oao","infousa_id":946091063,"state":"OH"},"type":"Feature","geometry":{"type":"Point","coordinates":[-84.555174,40.555259]}},{"properties":{"city":"Celina","zip":"45822","latitude":40.539106,"ai type w bus size":"Medial and Healthcare Providers","primary_sic_description":"CLINICS","returned address":"958-998 S Main St","county":"Mercer","country":"USA","returned latitude":40.5390997,"returned longitude":-84.5749322,"longitude":-84.574947,"id":"a6611ec8izkk","infousa_id":581015617,"state":"OH"},"type":"Feature","geometry":{"type":"Point","coordinates":[-84.574947,40.539106]}},{"properties":{"city":"Celina","zip":"45822","latitude":40.556727,"ai type w bus size":"Medial and Healthcare Providers","primary_sic_description":"CLINICS","returned address":"1000-1114 Havemann Rd","county":"Mercer","country":"USA","returned latitude":40.5567348,"returned longitude":-84.551118,"longitude":-84.551118,"id":"a6611eaav72p","infousa_id":372248385,"state":"OH"},"type":"Feature","geometry":{"type":"Point","coordinates":[-84.551118,40.556727]}},{"properties":{"city":"Celina","zip":"45822","latitude":40.549501,"ai type w bus size":"Other Government Facilities","primary_sic_description":"COUNTY GOVERNMENT-COURTS","returned address":"101-199 N Main St","county":"Mercer","country":"USA","returned latitude":40.549501,"returned longitude":-84.5708184,"longitude":-84.570825,"id":"a6611e9t6xya","infousa_id":521874677,"state":"OH"},"type":"Feature","geometry":{"type":"Point","coordinates":[-84.570825,40.549501]}},{"properties":{"city":"Celina","zip":"45822","latitude":40.549501,"ai type w bus size":"Other Government Facilities","primary_sic_description":"COUNTY GOVERNMENT-COURTS","returned address":"101-199 N Main St","county":"Mercer","country":"USA","returned latitude":40.549501,"returned longitude":-84.5708184,"longitude":-84.570825,"id":"a6611e83jjth","infousa_id":835456658,"state":"OH"},"type":"Feature","geometry":{"type":"Point","coordinates":[-84.570825,40.549501]}},{"properties":{"city":"Celina","zip":"45822","latitude":40.549501,"ai type w bus size":"Other Government Facilities","primary_sic_description":"COUNTY GOVERNMENT-COURTS","returned address":"101-199 N Main St","county":"Mercer","country":"USA","returned latitude":40.549501,"returned longitude":-84.5708184,"longitude":-84.570825,"id":"a6611e4w0iyt","infousa_id":835456039,"state":"OH"},"type":"Feature","geometry":{"type":"Point","coordinates":[-84.570825,40.549501]}},{"properties":{"city":"Celina","zip":"45822","latitude":40.549501,"ai type w bus size":"Other Government Facilities","primary_sic_description":"COUNTY GOVERNMENT-COURTS","returned address":"101-199 N Main St","county":"Mercer","country":"USA","returned latitude":40.549501,"returned longitude":-84.5708184,"longitude":-84.570825,"id":"a6611ecugrgb","infousa_id":835457250,"state":"OH"},"type":"Feature","geometry":{"type":"Point","coordinates":[-84.570825,40.549501]}},{"properties":{"city":"Celina","zip":"45822","latitude":40.550012,"ai type w bus size":"Other Government Facilities","primary_sic_description":"COUNTY GOVERNMENT-ENVIRONMENTAL PROGRAMS","returned address":"214 W Livingston St","county":"Mercer","country":"USA","returned latitude":40.5498199,"returned longitude":-84.572922,"longitude":-84.572748,"id":"a6611e9u3thr","infousa_id":231604752,"state":"OH"},"type":"Feature","geometry":{"type":"Point","coordinates":[-84.572748,40.550012]}},{"properties":{"city":"Celina","zip":"45822","latitude":40.551063,"ai type w bus size":"Other Government Facilities","primary_sic_description":"COUNTY GOVERNMENT-ENVIRONMENTAL PROGRAMS","returned address":"322 Riley St","county":"Mercer","country":"USA","returned latitude":40.551713,"returned longitude":-84.5806209,"longitude":-84.580781,"id":"a6611ehyez3e","infousa_id":551613359,"state":"OH"},"type":"Feature","geometry":{"type":"Point","coordinates":[-84.580781,40.551063]}},{"properties":{"city":"Celina","zip":"45822","latitude":40.550012,"ai type w bus size":"Other Government Facilities","primary_sic_description":"COUNTY GOVERNMENT-ENVIRONMENTAL PROGRAMS","returned address":"214 W Livingston St","county":"Mercer","country":"USA","returned latitude":40.5498199,"returned longitude":-84.572922,"longitude":-84.572748,"id":"a6611eif4y76","infousa_id":990398448,"state":"OH"},"type":"Feature","geometry":{"type":"Point","coordinates":[-84.572748,40.550012]}},{"properties":{"city":"Celina","zip":"45822","latitude":40.549501,"ai type w bus size":"Other Government Facilities","primary_sic_description":"COUNTY GOVERNMENT-EXECUTIVE OFFICES","returned address":"101-199 N Main St","county":"Mercer","country":"USA","returned latitude":40.549501,"returned longitude":-84.5708184,"longitude":-84.570825,"id":"a6611egnzeeh","infousa_id":835460304,"state":"OH"},"type":"Feature","geometry":{"type":"Point","coordinates":[-84.570825,40.549501]}},{"properties":{"city":"Celina","zip":"45822","latitude":40.549501,"ai type w bus size":"Other Government Facilities","primary_sic_description":"COUNTY GOVERNMENT-FINANCE &amp; TAXATION","returned address":"101-199 N Main St","county":"Mercer","country":"USA","returned latitude":40.549501,"returned longitude":-84.5708184,"longitude":-84.570825,"id":"a6611ecz6mk5","infousa_id":402207799,"state":"OH"},"type":"Feature","geometry":{"type":"Point","coordinates":[-84.570825,40.549501]}},{"properties":{"city":"Celina","zip":"45822","latitude":40.480137,"ai type w bus size":"Other Government Facilities","primary_sic_description":"COUNTY GOVERNMENT-GENERAL OFFICES","returned address":"4419-4495 Guadalupe Rd","county":"Mercer","country":"USA","returned latitude":40.4801771,"returned longitude":-84.5520693,"longitude":-84.552069,"id":"a6611ebefcuk","infousa_id":367755451,"state":"OH"},"type":"Feature","geometry":{"type":"Point","coordinates":[-84.552069,40.480137]}},{"properties":{"city":"Celina","zip":"45822","latitude":40.549245,"ai type w bus size":"Other Government Facilities","primary_sic_description":"COUNTY GOVERNMENT-LEGAL COUNSEL","returned address":"105 N Walnut St","county":"Mercer","country":"USA","returned latitude":40.54937,"returned longitude":-84.5727749,"longitude":-84.572362,"id":"a6611eis4vku","infousa_id":479744195,"state":"OH"},"type":"Feature","geometry":{"type":"Point","coordinates":[-84.572362,40.549245]}},{"properties":{"city":"Celina","zip":"45822","latitude":40.550012,"ai type w bus size":"Other Government Facilities","primary_sic_description":"COUNTY GOVERNMENT-PUBLIC HEALTH PROGRAMS","returned address":"214 W Livingston St","county":"Mercer","country":"USA","returned latitude":40.5498199,"returned longitude":-84.572922,"longitude":-84.572748,"id":"a6611e6yfw7u","infousa_id":402207815,"state":"OH"},"type":"Feature","geometry":{"type":"Point","coordinates":[-84.572748,40.550012]}},{"properties":{"city":"Celina","zip":"45822","latitude":40.550012,"ai type w bus size":"Public Safety Entities","primary_sic_description":"COUNTY GOVERNMENT-PUBLIC ORDER &amp; SAFETY","returned address":"214 W Livingston St","county":"Mercer","country":"USA","returned latitude":40.5498199,"returned longitude":-84.572922,"longitude":-84.572674,"id":"a6611efew6bj","infousa_id":402207831,"state":"OH"},"type":"Feature","geometry":{"type":"Point","coordinates":[-84.572674,40.550012]}},{"properties":{"city":"Celina","zip":"45822","latitude":40.550012,"ai type w bus size":"Other Government Facilities","primary_sic_description":"COUNTY GOVERNMENT-SOCIAL/HUMAN RESOURCES","returned address":"214 W Livingston St","county":"Mercer","country":"USA","returned latitude":40.5498199,"returned longitude":-84.572922,"longitude":-84.572748,"id":"a6611efabql5","infousa_id":402207856,"state":"OH"},"type":"Feature","geometry":{"type":"Point","coordinates":[-84.572748,40.550012]}},{"properties":{"city":"Celina","zip":"45822","latitude":40.549501,"ai type w bus size":"Other Government Facilities","primary_sic_description":"COUNTY GOVERNMENT-URBAN PLANNING &amp; DEV","returned address":"101-199 N Main St","county":"Mercer","country":"USA","returned latitude":40.549501,"returned longitude":-84.5708184,"longitude":-84.570825,"id":"a6611e45rokh","infousa_id":258010818,"state":"OH"},"type":"Feature","geometry":{"type":"Point","coordinates":[-84.570825,40.549501]}},{"properties":{"city":"Celina","zip":"45822","latitude":40.54998,"ai type w bus size":"Public Safety Entities","primary_sic_description":"COUNTY GOVT-CORRECTIONAL INSTITUTIONS","returned address":"125 W Livingston St","county":"Mercer","country":"USA","returned latitude":40.55027,"returned longitude":-84.571788,"longitude":-84.571198,"id":"a6611ehymfrr","infousa_id":835459801,"state":"OH"},"type":"Feature","geometry":{"type":"Point","coordinates":[-84.571198,40.54998]}},{"properties":{"city":"Celina","zip":"45822","latitude":40.551274,"ai type w bus size":"Other Health","primary_sic_description":"DENTISTS","returned address":"213-217 N Enterprise St","county":"Mercer","country":"USA","returned latitude":40.5512742,"returned longitude":-84.556424,"longitude":-84.556432,"id":"a6611ef8p55m","infousa_id":971605647,"state":"OH"},"type":"Feature","geometry":{"type":"Point","coordinates":[-84.556432,40.551274]}},{"properties":{"city":"Celina","zip":"45822","latitude":40.55652,"ai type w bus size":"Other Health","primary_sic_description":"DENTISTS","returned address":"800 E Wayne St","county":"Mercer","country":"USA","returned latitude":40.556311,"returned longitude":-84.554541,"longitude":-84.55505,"id":"a6611ejv1krb","infousa_id":551614340,"state":"OH"},"type":"Feature","geometry":{"type":"Point","coordinates":[-84.55505,40.55652]}},{"properties":{"city":"Celina","zip":"45822","latitude":40.555259,"ai type w bus size":"Other Health","primary_sic_description":"DENTISTS","returned address":"808 Pro Dr","county":"Mercer","country":"USA","returned latitude":40.554775,"returned longitude":-84.555248,"longitude":-84.555174,"id":"a6611eamv60e","infousa_id":434039921,"state":"OH"},"type":"Feature","geometry":{"type":"Point","coordinates":[-84.555174,40.555259]}},{"properties":{"city":"Celina","zip":"45822","latitude":40.554695,"ai type w bus size":"Other Health","primary_sic_description":"DENTISTS","returned address":"700-702 E Wayne St","county":"Mercer","country":"USA","returned latitude":40.5547006,"returned longitude":-84.5578213,"longitude":-84.557815,"id":"a6611e7l5d4r","infousa_id":140555152,"state":"OH"},"type":"Feature","geometry":{"type":"Point","coordinates":[-84.557815,40.554695]}},{"properties":{"city":"Celina","zip":"45822","latitude":40.560354,"ai type w bus size":"Other Health","primary_sic_description":"DENTISTS","returned address":"Myers Rd","county":"Mercer","country":"USA","returned latitude":40.5603572,"returned longitude":-84.5636418,"longitude":-84.563668,"id":"a6611ei8p6xn","infousa_id":140551904,"state":"OH"},"type":"Feature","geometry":{"type":"Point","coordinates":[-84.563668,40.560354]}},{"properties":{"city":"Coldwater","zip":"45828","latitude":40.479795,"ai type w bus size":"Other Health","primary_sic_description":"DENTISTS","returned address":"800-814 W Main St","county":"Mercer","country":"USA","returned latitude":40.4797985,"returned longitude":-84.6383889,"longitude":-84.638389,"id":"a6611e8mvl2p","infousa_id":835531393,"state":"OH"},"type":"Feature","geometry":{"type":"Point","coordinates":[-84.638389,40.479795]}},{"properties":{"city":"Coldwater","zip":"45828","latitude":40.476134,"ai type w bus size":"Other Health","primary_sic_description":"DENTISTS","returned address":"706 W Sycamore St","county":"Mercer","country":"USA","returned latitude":40.476371,"returned longitude":-84.637589,"longitude":-84.63835,"id":"a6611edhs9kq","infousa_id":208824565,"state":"OH"},"type":"Feature","geometry":{"type":"Point","coordinates":[-84.63835,40.476134]}},{"properties":{"city":"Rockford","zip":"45882","latitude":40.686868,"ai type w bus size":"Other Health","primary_sic_description":"DENTISTS","returned address":"506-516 E Walnut St","county":"Mercer","country":"USA","returned latitude":40.6868671,"returned longitude":-84.645906,"longitude":-84.645906,"id":"a6611egr033o","infousa_id":140601212,"state":"OH"},"type":"Feature","geometry":{"type":"Point","coordinates":[-84.645906,40.686868]}},{"properties":{"city":"St Henry","zip":"45883","latitude":40.421372,"ai type w bus size":"Other Health","primary_sic_description":"DENTISTS","returned address":"522-528 E Kremer-Hoying Rd","county":"Mercer","country":"USA","returned latitude":40.4213804,"returned longitude":-84.632697,"longitude":-84.632697,"id":"a6611e4nhagj","infousa_id":835531658,"state":"OH"},"type":"Feature","geometry":{"type":"Point","coordinates":[-84.632697,40.421372]}},{"properties":{"city":"Celina","zip":"45822","latitude":40.546994,"ai type w bus size":"Other Government Facilities","primary_sic_description":"DEPARTMENT OF MOTOR VEHICLES","returned address":"331-345 Portland St","county":"Mercer","country":"USA","returned latitude":40.546994,"returned longitude":-84.5854472,"longitude":-84.585446,"id":"a6611eao113u","infousa_id":990398455,"state":"OH"},"type":"Feature","geometry":{"type":"Point","coordinates":[-84.585446,40.546994]}},{"properties":{"city":"Celina","zip":"45822","latitude":40.547175,"ai type w bus size":"Other Government Facilities","primary_sic_description":"DEPARTMENT OF MOTOR VEHICLES","returned address":"331-345 Portland St","county":"Mercer","country":"USA","returned latitude":40.547175,"returned longitude":-84.5854491,"longitude":-84.585446,"id":"a6611e9gj7mm","infousa_id":835460775,"state":"OH"},"type":"Feature","geometry":{"type":"Point","coordinates":[-84.585446,40.547175]}},{"properties":{"city":"Celina","zip":"45822","latitude":40.547212,"ai type w bus size":"Other Government Facilities","primary_sic_description":"DEPARTMENT OF MOTOR VEHICLES","returned address":"331-345 Portland St","county":"Mercer","country":"USA","returned latitude":40.547212,"returned longitude":-84.5854494,"longitude":-84.585446,"id":"a6611edvm37x","infousa_id":479744153,"state":"OH"},"type":"Feature","geometry":{"type":"Point","coordinates":[-84.585446,40.547212]}},{"properties":{"city":"Coldwater","zip":"45828","latitude":40.478444,"ai type w bus size":"Other Edu","primary_sic_description":"DRIVING INSTRUCTION","returned address":"200-398 Mill St","county":"Mercer","country":"USA","returned latitude":40.4784439,"returned longitude":-84.6319848,"longitude":-84.63202,"id":"a6611eho4fzs","infousa_id":654756766,"state":"OH"},"type":"Feature","geometry":{"type":"Point","coordinates":[-84.63202,40.478444]}},{"properties":{"city":"Fort Recovery","zip":"45846","latitude":40.412733,"ai type w bus size":"Other Edu","primary_sic_description":"DRIVING INSTRUCTION","returned address":"105 S Wayne St","county":"Mercer","country":"USA","returned latitude":40.412762,"returned longitude":-84.779331,"longitude":-84.7796,"id":"a6611ednvij6","infousa_id":234187318,"state":"OH"},"type":"Feature","geometry":{"type":"Point","coordinates":[-84.7796,40.412733]}},{"properties":{"city":"Celina","zip":"45822","latitude":40.557633,"ai type w bus size":"Other Edu","primary_sic_description":"EDUCATION CENTERS","returned address":"500-508 Touvelle St","county":"Mercer","country":"USA","returned latitude":40.5576443,"returned longitude":-84.5774352,"longitude":-84.577447,"id":"a6611ehcrlx2","infousa_id":695969030,"state":"OH"},"type":"Feature","geometry":{"type":"Point","coordinates":[-84.577447,40.557633]}},{"properties":{"city":"Celina","zip":"45822","latitude":40.549014,"ai type w bus size":"Other Community Support Organization","primary_sic_description":"EMPLOYMENT AGENCIES &amp; OPPORTUNITIES","returned address":"204-210 W Market St","county":"Mercer","country":"USA","returned latitude":40.5490073,"returned longitude":-84.572612,"longitude":-84.572612,"id":"a6611e78dchc","infousa_id":649244308,"state":"OH"},"type":"Feature","geometry":{"type":"Point","coordinates":[-84.572612,40.549014]}},{"properties":{"city":"Celina","zip":"45822","latitude":40.550012,"ai type w bus size":"Other Government Facilities","primary_sic_description":"FEDERAL GOVERNMENT-CONSERVATION DEPTS","returned address":"214 W Livingston St","county":"Mercer","country":"USA","returned latitude":40.5498199,"returned longitude":-84.572922,"longitude":-84.572748,"id":"a6611edpfnqt","infousa_id":140556846,"state":"OH"},"type":"Feature","geometry":{"type":"Point","coordinates":[-84.572748,40.550012]}},{"properties":{"city":"Burkettsville","zip":"45310","latitude":40.352037,"ai type w bus size":"Public Safety Entities","primary_sic_description":"FIRE DEPARTMENTS","returned address":"25 W Main St","county":"Mercer","country":"USA","returned latitude":40.352118,"returned longitude":-84.644367,"longitude":-84.644392,"id":"a6611ec6mtjm","infousa_id":835287673,"state":"OH"},"type":"Feature","geometry":{"type":"Point","coordinates":[-84.644392,40.352037]}},{"properties":{"city":"Celina","zip":"45822","latitude":40.550059,"ai type w bus size":"Public Safety Entities","primary_sic_description":"FIRE DEPARTMENTS","returned address":"200-212 N Main St","county":"Mercer","country":"USA","returned latitude":40.5500591,"returned longitude":-84.5707739,"longitude":-84.570789,"id":"a6611eb6ocps","infousa_id":835461492,"state":"OH"},"type":"Feature","geometry":{"type":"Point","coordinates":[-84.570789,40.550059]}},{"properties":{"city":"Celina","zip":"45822","latitude":40.539657,"ai type w bus size":"Public Safety Entities","primary_sic_description":"FIRE DEPARTMENTS","returned address":"5428 St Rt 29","county":"Mercer","country":"USA","returned latitude":40.541859,"returned longitude":-84.592714,"longitude":-84.593329,"id":"a6611e4js5tg","infousa_id":581015088,"state":"OH"},"type":"Feature","geometry":{"type":"Point","coordinates":[-84.593329,40.539657]}},{"properties":{"city":"Coldwater","zip":"45828","latitude":40.489748,"ai type w bus size":"Public Safety Entities","primary_sic_description":"FIRE DEPARTMENTS","returned address":"911-999 N 2nd St","county":"Mercer","country":"USA","returned latitude":40.4897479,"returned longitude":-84.6287103,"longitude":-84.628698,"id":"a6611ek4gb1g","infousa_id":835529421,"state":"OH"},"type":"Feature","geometry":{"type":"Point","coordinates":[-84.628698,40.489748]}},{"properties":{"city":"Fort Recovery","zip":"45846","latitude":40.412749,"ai type w bus size":"Public Safety Entities","primary_sic_description":"FIRE DEPARTMENTS","returned address":"111-133 Main St","county":"Mercer","country":"USA","returned latitude":40.4127499,"returned longitude":-84.7781208,"longitude":-84.778109,"id":"a6611eceas1x","infousa_id":990401796,"state":"OH"},"type":"Feature","geometry":{"type":"Point","coordinates":[-84.778109,40.412749]}},{"properties":{"city":"Mendon","zip":"45862","latitude":40.672599,"ai type w bus size":"Public Safety Entities","primary_sic_description":"FIRE DEPARTMENTS","returned address":"Drake St","county":"Mercer","country":"USA","returned latitude":40.6725916,"returned longitude":-84.5204254,"longitude":-84.520322,"id":"a6611e6ti8ng","infousa_id":895859205,"state":"OH"},"type":"Feature","geometry":{"type":"Point","coordinates":[-84.520322,40.672599]}},{"properties":{"city":"Mendon","zip":"45862","latitude":40.672599,"ai type w bus size":"Public Safety Entities","primary_sic_description":"FIRE DEPARTMENTS","returned address":"Drake St","county":"Mercer","country":"USA","returned latitude":40.6725916,"returned longitude":-84.5204254,"longitude":-84.520322,"id":"a6611e56j757","infousa_id":380271643,"state":"OH"},"type":"Feature","geometry":{"type":"Point","coordinates":[-84.520322,40.672599]}},{"properties":{"city":"Rockford","zip":"45882","latitude":40.693207,"ai type w bus size":"Public Safety Entities","primary_sic_description":"FIRE DEPARTMENTS","returned address":"249-295 N Main St","county":"Mercer","country":"USA","returned latitude":40.6932069,"returned longitude":-84.6464176,"longitude":-84.646441,"id":"a6611eb19u2e","infousa_id":835284373,"state":"OH"},"type":"Feature","geometry":{"type":"Point","coordinates":[-84.646441,40.693207]}},{"properties":{"city":"St Henry","zip":"45883","latitude":40.421373,"ai type w bus size":"Public Safety Entities","primary_sic_description":"FIRE DEPARTMENTS","returned address":"512 E Kremer-Hoying Rd","county":"Mercer","country":"USA","returned latitude":40.421155,"returned longitude":-84.632829,"longitude":-84.632898,"id":"a6611e4cy13a","infousa_id":358099281,"state":"OH"},"type":"Feature","geometry":{"type":"Point","coordinates":[-84.632898,40.421373]}},{"properties":{"city":"Celina","zip":"45822","latitude":40.550934,"ai type w bus size":"Other Edu","primary_sic_description":"FOUNDATION-EDUC PHILANTHROPIC RESEARCH","returned address":"100-148 W Fulton St","county":"Mercer","country":"USA","returned latitude":40.5509493,"returned longitude":-84.5711383,"longitude":-84.571138,"id":"a6611eedvbr3","infousa_id":990398109,"state":"OH"},"type":"Feature","geometry":{"type":"Point","coordinates":[-84.571138,40.550934]}},{"properties":{"city":"Celina","zip":"45822","latitude":40.550059,"ai type w bus size":"Other Government Facilities","primary_sic_description":"GOVERNMENT OFFICES-CITY, VILLAGE &amp; TWP","returned address":"200-212 N Main St","county":"Mercer","country":"USA","returned latitude":40.5500591,"returned longitude":-84.5707739,"longitude":-84.570789,"id":"a6611e6dm9f9","infousa_id":990398380,"state":"OH"},"type":"Feature","geometry":{"type":"Point","coordinates":[-84.570789,40.550059]}},{"properties":{"city":"Celina","zip":"45822","latitude":40.550059,"ai type w bus size":"Other Government Facilities","primary_sic_description":"GOVERNMENT OFFICES-CITY, VILLAGE &amp; TWP","returned address":"200-212 N Main St","county":"Mercer","country":"USA","returned latitude":40.5500591,"returned longitude":-84.5707739,"longitude":-84.570789,"id":"a6611e8opw8i","infousa_id":304675887,"state":"OH"},"type":"Feature","geometry":{"type":"Point","coordinates":[-84.570789,40.550059]}},{"properties":{"city":"Celina","zip":"45822","latitude":40.549019,"ai type w bus size":"Other Government Facilities","primary_sic_description":"GOVERNMENT OFFICES-CITY, VILLAGE &amp; TWP","returned address":"411 W Market St","county":"Mercer","country":"USA","returned latitude":40.549327,"returned longitude":-84.575569,"longitude":-84.57557,"id":"a6611eddtz30","infousa_id":551613243,"state":"OH"},"type":"Feature","geometry":{"type":"Point","coordinates":[-84.57557,40.549019]}},{"properties":{"city":"Celina","zip":"45822","latitude":40.549019,"ai type w bus size":"Other Government Facilities","primary_sic_description":"GOVERNMENT OFFICES-CITY, VILLAGE &amp; TWP","returned address":"411 W Market St","county":"Mercer","country":"USA","returned latitude":40.549327,"returned longitude":-84.575569,"longitude":-84.57557,"id":"a6611e4atord","infousa_id":835455981,"state":"OH"},"type":"Feature","geometry":{"type":"Point","coordinates":[-84.57557,40.549019]}},{"properties":{"city":"Celina","zip":"45822","latitude":40.542408,"ai type w bus size":"Other Government Facilities","primary_sic_description":"GOVERNMENT OFFICES-CITY, VILLAGE &amp; TWP","returned address":"731-837 S Sugar St","county":"Mercer","country":"USA","returned latitude":40.5424078,"returned longitude":-84.5738404,"longitude":-84.573862,"id":"a6611egzplwj","infousa_id":551614399,"state":"OH"},"type":"Feature","geometry":{"type":"Point","coordinates":[-84.573862,40.542408]}},{"properties":{"city":"Celina","zip":"45822","latitude":40.555259,"ai type w bus size":"Other Government Facilities","primary_sic_description":"GOVERNMENT OFFICES-CITY, VILLAGE &amp; TWP","returned address":"807-839 Pro Dr","county":"Mercer","country":"USA","returned latitude":40.5552611,"returned longitude":-84.5551189,"longitude":-84.555122,"id":"a6611eaap4q9","infousa_id":461689812,"state":"OH"},"type":"Feature","geometry":{"type":"Point","coordinates":[-84.555122,40.555259]}},{"properties":{"city":"Celina","zip":"45822","latitude":40.489094,"ai type w bus size":"Other Government Facilities","primary_sic_description":"GOVERNMENT OFFICES-CITY, VILLAGE &amp; TWP","returned address":"130 E Main St","county":"Mercer","country":"USA","returned latitude":40.488736,"returned longitude":-84.545551,"longitude":-84.545185,"id":"a6611eigltgi","infousa_id":366745578,"state":"OH"},"type":"Feature","geometry":{"type":"Point","coordinates":[-84.545185,40.489094]}},{"properties":{"city":"Celina","zip":"45822","latitude":40.489094,"ai type w bus size":"Other Government Facilities","primary_sic_description":"GOVERNMENT OFFICES-CITY, VILLAGE &amp; TWP","returned address":"130 E Main St","county":"Mercer","country":"USA","returned latitude":40.488736,"returned longitude":-84.545551,"longitude":-84.545185,"id":"a6611e45hgwm","infousa_id":440452381,"state":"OH"},"type":"Feature","geometry":{"type":"Point","coordinates":[-84.545185,40.489094]}},{"properties":{"city":"Celina","zip":"45822","latitude":40.437788,"ai type w bus size":"Other Government Facilities","primary_sic_description":"GOVERNMENT OFFICES-CITY, VILLAGE &amp; TWP","returned address":"1-123 Wayne St","county":"Mercer","country":"USA","returned latitude":40.4378222,"returned longitude":-84.4965675,"longitude":-84.496568,"id":"a6611ea510p3","infousa_id":551615602,"state":"OH"},"type":"Feature","geometry":{"type":"Point","coordinates":[-84.496568,40.437788]}},{"properties":{"city":"Coldwater","zip":"45828","latitude":40.478679,"ai type w bus size":"Other Government Facilities","primary_sic_description":"GOVERNMENT OFFICES-CITY, VILLAGE &amp; TWP","returned address":"200-398 Mill St","county":"Mercer","country":"USA","returned latitude":40.4786777,"returned longitude":-84.6319914,"longitude":-84.631973,"id":"a6611eff7v2f","infousa_id":551613250,"state":"OH"},"type":"Feature","geometry":{"type":"Point","coordinates":[-84.631973,40.478679]}},{"properties":{"city":"Coldwater","zip":"45828","latitude":40.476133,"ai type w bus size":"Other Government Facilities","primary_sic_description":"GOVERNMENT OFFICES-CITY, VILLAGE &amp; TWP","returned address":"702 W Sycamore St","county":"Mercer","country":"USA","returned latitude":40.47637,"returned longitude":-84.63705,"longitude":-84.636897,"id":"a6611ejqo2ti","infousa_id":835531559,"state":"OH"},"type":"Feature","geometry":{"type":"Point","coordinates":[-84.636897,40.476133]}},{"properties":{"city":"Fort Recovery","zip":"45846","latitude":40.411348,"ai type w bus size":"Other Government Facilities","primary_sic_description":"GOVERNMENT OFFICES-CITY, VILLAGE &amp; TWP","returned address":"135-199 Main St","county":"Mercer","country":"USA","returned latitude":40.4113483,"returned longitude":-84.778282,"longitude":-84.778277,"id":"a6611e96cusi","infousa_id":990401804,"state":"OH"},"type":"Feature","geometry":{"type":"Point","coordinates":[-84.778277,40.411348]}},{"properties":{"city":"Montezuma","zip":"45866","latitude":40.489129,"ai type w bus size":"Other Government Facilities","primary_sic_description":"GOVERNMENT OFFICES-CITY, VILLAGE &amp; TWP","returned address":"16-34 W Main St","county":"Mercer","country":"USA","returned latitude":40.4891188,"returned longitude":-84.5505108,"longitude":-84.550513,"id":"a6611ea6ott6","infousa_id":551613417,"state":"OH"},"type":"Feature","geometry":{"type":"Point","coordinates":[-84.550513,40.489129]}},{"properties":{"city":"St Henry","zip":"45883","latitude":40.421643,"ai type w bus size":"Other Government Facilities","primary_sic_description":"GOVERNMENT OFFICES-CITY, VILLAGE &amp; TWP","returned address":"Linn St","county":"Mercer","country":"USA","returned latitude":40.4217982,"returned longitude":-84.6324596,"longitude":-84.632425,"id":"a6611efob392","infousa_id":835530981,"state":"OH"},"type":"Feature","geometry":{"type":"Point","coordinates":[-84.632425,40.421643]}},{"properties":{"city":"Celina","zip":"45822","latitude":40.550012,"ai type w bus size":"Other Government Facilities","primary_sic_description":"GOVERNMENT OFFICES-COUNTY","returned address":"214 W Livingston St","county":"Mercer","country":"USA","returned latitude":40.5498199,"returned longitude":-84.572922,"longitude":-84.572748,"id":"a6611ei8m4rl","infousa_id":140555574,"state":"OH"},"type":"Feature","geometry":{"type":"Point","coordinates":[-84.572748,40.550012]}},{"properties":{"city":"Celina","zip":"45822","latitude":40.549501,"ai type w bus size":"Other Government Facilities","primary_sic_description":"GOVERNMENT OFFICES-COUNTY","returned address":"101-199 N Main St","county":"Mercer","country":"USA","returned latitude":40.549501,"returned longitude":-84.5708184,"longitude":-84.570825,"id":"a6611eec1pjg","infousa_id":835460171,"state":"OH"},"type":"Feature","geometry":{"type":"Point","coordinates":[-84.570825,40.549501]}},{"properties":{"city":"Celina","zip":"45822","latitude":40.549501,"ai type w bus size":"Other Government Facilities","primary_sic_description":"GOVERNMENT OFFICES-COUNTY","returned address":"101-199 N Main St","county":"Mercer","country":"USA","returned latitude":40.549501,"returned longitude":-84.5708184,"longitude":-84.570825,"id":"a6611e6c5npg","infousa_id":835456781,"state":"OH"},"type":"Feature","geometry":{"type":"Point","coordinates":[-84.570825,40.549501]}},{"properties":{"city":"Celina","zip":"45822","latitude":40.54998,"ai type w bus size":"Other Government Facilities","primary_sic_description":"GOVERNMENT OFFICES-COUNTY","returned address":"125 W Livingston St","county":"Mercer","country":"USA","returned latitude":40.55027,"returned longitude":-84.571788,"longitude":-84.571198,"id":"a6611e8y1qbb","infousa_id":835460296,"state":"OH"},"type":"Feature","geometry":{"type":"Point","coordinates":[-84.571198,40.54998]}},{"properties":{"city":"Celina","zip":"45822","latitude":40.550012,"ai type w bus size":"Other Government Facilities","primary_sic_description":"GOVERNMENT OFFICES-COUNTY","returned address":"214 W Livingston St","county":"Mercer","country":"USA","returned latitude":40.5498199,"returned longitude":-84.572922,"longitude":-84.572748,"id":"a6611e9dfyhy","infousa_id":835458035,"state":"OH"},"type":"Feature","geometry":{"type":"Point","coordinates":[-84.572748,40.550012]}},{"properties":{"city":"Celina","zip":"45822","latitude":40.549501,"ai type w bus size":"Other Government Facilities","primary_sic_description":"GOVERNMENT OFFICES-COUNTY","returned address":"101-199 N Main St","county":"Mercer","country":"USA","returned latitude":40.549501,"returned longitude":-84.5708184,"longitude":-84.570825,"id":"a6611e86qkxh","infousa_id":551613334,"state":"OH"},"type":"Feature","geometry":{"type":"Point","coordinates":[-84.570825,40.549501]}},{"properties":{"city":"Celina","zip":"45822","latitude":40.560884,"ai type w bus size":"Other Government Facilities","primary_sic_description":"GOVERNMENT OFFICES-COUNTY","returned address":"7257-7377 State Highway 49","county":"Mercer","country":"USA","returned latitude":40.560884,"returned longitude":-84.784626,"longitude":-84.784638,"id":"a6611edv8yem","infousa_id":231604737,"state":"OH"},"type":"Feature","geometry":{"type":"Point","coordinates":[-84.784638,40.560884]}},{"properties":{"city":"Celina","zip":"45822","latitude":40.551063,"ai type w bus size":"Other Government Facilities","primary_sic_description":"GOVERNMENT OFFICES-COUNTY","returned address":"322 Riley St","county":"Mercer","country":"USA","returned latitude":40.551713,"returned longitude":-84.5806209,"longitude":-84.580781,"id":"a6611e9gp808","infousa_id":835458498,"state":"OH"},"type":"Feature","geometry":{"type":"Point","coordinates":[-84.580781,40.551063]}},{"properties":{"city":"Celina","zip":"45822","latitude":40.549711,"ai type w bus size":"Other Government Facilities","primary_sic_description":"GOVERNMENT OFFICES-COUNTY","returned address":"1110 W Market St","county":"Mercer","country":"USA","returned latitude":40.549549,"returned longitude":-84.585792,"longitude":-84.58548,"id":"a6611eaadkwl","infousa_id":835458134,"state":"OH"},"type":"Feature","geometry":{"type":"Point","coordinates":[-84.58548,40.549711]}},{"properties":{"city":"Celina","zip":"45822","latitude":40.549711,"ai type w bus size":"Other Government Facilities","primary_sic_description":"GOVERNMENT OFFICES-COUNTY","returned address":"1110 W Market St","county":"Mercer","country":"USA","returned latitude":40.549549,"returned longitude":-84.585792,"longitude":-84.58548,"id":"a6611edxb7oo","infousa_id":479744161,"state":"OH"},"type":"Feature","geometry":{"type":"Point","coordinates":[-84.58548,40.549711]}},{"properties":{"city":"Celina","zip":"45822","latitude":40.545478,"ai type w bus size":"Other Government Facilities","primary_sic_description":"GOVERNMENT OFFICES-COUNTY","returned address":"5094-5100 State Route 29","county":"Mercer","country":"USA","returned latitude":40.545448,"returned longitude":-84.6054182,"longitude":-84.605418,"id":"a6611eey5ta7","infousa_id":498390327,"state":"OH"},"type":"Feature","geometry":{"type":"Point","coordinates":[-84.605418,40.545478]}},{"properties":{"city":"Celina","zip":"45822","latitude":40.550934,"ai type w bus size":"Other Government Facilities","primary_sic_description":"GOVERNMENT OFFICES-COUNTY","returned address":"100-150 E Fulton St","county":"Mercer","country":"USA","returned latitude":40.5509461,"returned longitude":-84.5702987,"longitude":-84.570299,"id":"a6611e4xrdae","infousa_id":551613326,"state":"OH"},"type":"Feature","geometry":{"type":"Point","coordinates":[-84.570299,40.550934]}},{"properties":{"city":"Celina","zip":"45822","latitude":40.549501,"ai type w bus size":"Other Government Facilities","primary_sic_description":"GOVERNMENT OFFICES-COUNTY","returned address":"101-199 N Main St","county":"Mercer","country":"USA","returned latitude":40.549501,"returned longitude":-84.5708184,"longitude":-84.570825,"id":"a6611ed492bi","infousa_id":479744187,"state":"OH"},"type":"Feature","geometry":{"type":"Point","coordinates":[-84.570825,40.549501]}},{"properties":{"city":"Celina","zip":"45822","latitude":40.549501,"ai type w bus size":"Other Government Facilities","primary_sic_description":"GOVERNMENT OFFICES-COUNTY","returned address":"101-199 N Main St","county":"Mercer","country":"USA","returned latitude":40.549501,"returned longitude":-84.5708184,"longitude":-84.570825,"id":"a6611e9x0n1a","infousa_id":835458779,"state":"OH"},"type":"Feature","geometry":{"type":"Point","coordinates":[-84.570825,40.549501]}},{"properties":{"city":"Celina","zip":"45822","latitude":40.550012,"ai type w bus size":"Other Government Facilities","primary_sic_description":"GOVERNMENT OFFICES-COUNTY","returned address":"214 W Livingston St","county":"Mercer","country":"USA","returned latitude":40.5498199,"returned longitude":-84.572922,"longitude":-84.572748,"id":"a6611e4gwla2","infousa_id":835458209,"state":"OH"},"type":"Feature","geometry":{"type":"Point","coordinates":[-84.572748,40.550012]}},{"properties":{"city":"Celina","zip":"45822","latitude":40.551229,"ai type w bus size":"Other Government Facilities","primary_sic_description":"GOVERNMENT OFFICES-COUNTY","returned address":"322 Riley St","county":"Mercer","country":"USA","returned latitude":40.551713,"returned longitude":-84.5806209,"longitude":-84.58078,"id":"a6611egao5c8","infousa_id":835461039,"state":"OH"},"type":"Feature","geometry":{"type":"Point","coordinates":[-84.58078,40.551229]}},{"properties":{"city":"Celina","zip":"45822","latitude":40.480137,"ai type w bus size":"Other Government Facilities","primary_sic_description":"GOVERNMENT OFFICES-COUNTY","returned address":"4419-4495 Guadalupe Rd","county":"Mercer","country":"USA","returned latitude":40.4801771,"returned longitude":-84.5520693,"longitude":-84.552069,"id":"a6611e6qnhlf","infousa_id":479744179,"state":"OH"},"type":"Feature","geometry":{"type":"Point","coordinates":[-84.552069,40.480137]}},{"properties":{"city":"Celina","zip":"45822","latitude":40.550012,"ai type w bus size":"Other Government Facilities","primary_sic_description":"GOVERNMENT OFFICES-COUNTY","returned address":"214 W Livingston St","county":"Mercer","country":"USA","returned latitude":40.5498199,"returned longitude":-84.572922,"longitude":-84.572748,"id":"a6611e4e2o3j","infousa_id":208824649,"state":"OH"},"type":"Feature","geometry":{"type":"Point","coordinates":[-84.572748,40.550012]}},{"properties":{"city":"Celina","zip":"45822","latitude":40.550012,"ai type w bus size":"Other Government Facilities","primary_sic_description":"GOVERNMENT OFFICES-COUNTY","returned address":"214 W Livingston St","county":"Mercer","country":"USA","returned latitude":40.5498199,"returned longitude":-84.572922,"longitude":-84.572748,"id":"a6611ej9er4q","infousa_id":835458357,"state":"OH"},"type":"Feature","geometry":{"type":"Point","coordinates":[-84.572748,40.550012]}},{"properties":{"city":"Coldwater","zip":"45828","latitude":40.509009,"ai type w bus size":"Other Government Facilities","primary_sic_description":"GOVERNMENT OFFICES-COUNTY","returned address":"1434-1498 St Anthony Rd","county":"Mercer","country":"USA","returned latitude":40.5090036,"returned longitude":-84.746899,"longitude":-84.746899,"id":"a6611eaoxygo","infousa_id":946091840,"state":"OH"},"type":"Feature","geometry":{"type":"Point","coordinates":[-84.746899,40.509009]}},{"properties":{"city":"Celina","zip":"45822","latitude":40.550507,"ai type w bus size":"Other Government Facilities","primary_sic_description":"GOVERNMENT OFFICES-STATE","returned address":"7809-7837 State Route 703","county":"Mercer","country":"USA","returned latitude":40.550512,"returned longitude":-84.5004699,"longitude":-84.500469,"id":"a6611e718ffa","infousa_id":835222647,"state":"OH"},"type":"Feature","geometry":{"type":"Point","coordinates":[-84.500469,40.550507]}},{"properties":{"city":"Rockford","zip":"45882","latitude":40.652375,"ai type w bus size":"Other Government Facilities","primary_sic_description":"GOVERNMENT OFFICES-STATE","returned address":"10101-10439 Main St","county":"Mercer","country":"USA","returned latitude":40.652375,"returned longitude":-84.6474211,"longitude":-84.64741,"id":"a6611e8116zr","infousa_id":638454587,"state":"OH"},"type":"Feature","geometry":{"type":"Point","coordinates":[-84.64741,40.652375]}},{"properties":{"city":"Rockford","zip":"45882","latitude":40.684173,"ai type w bus size":"Other Health","primary_sic_description":"HEALTH SERVICES","returned address":"400 Buckeye St","county":"Mercer","country":"USA","returned latitude":40.684023,"returned longitude":-84.646654,"longitude":-84.64674,"id":"a6611eb1thqr","infousa_id":661409540,"state":"OH"},"type":"Feature","geometry":{"type":"Point","coordinates":[-84.64674,40.684173]}},{"properties":{"city":"Celina","zip":"45822","latitude":40.560353,"ai type w bus size":"Other Health","primary_sic_description":"HOME HEALTH SERVICE","returned address":"Myers Rd","county":"Mercer","country":"USA","returned latitude":40.5603572,"returned longitude":-84.5636418,"longitude":-84.563827,"id":"a6611eeyk1vg","infousa_id":391060092,"state":"OH"},"type":"Feature","geometry":{"type":"Point","coordinates":[-84.563827,40.560353]}},{"properties":{"city":"Celina","zip":"45822","latitude":40.560557,"ai type w bus size":"Other Health","primary_sic_description":"HOME HEALTH SERVICE","returned address":"1101-1143 N Main St","county":"Mercer","country":"USA","returned latitude":40.560557,"returned longitude":-84.5712131,"longitude":-84.571205,"id":"a6611ebt8i02","infousa_id":835531443,"state":"OH"},"type":"Feature","geometry":{"type":"Point","coordinates":[-84.571205,40.560557]}},{"properties":{"city":"Celina","zip":"45822","latitude":40.545429,"ai type w bus size":"Other Health","primary_sic_description":"HOME HEALTH SERVICE","returned address":"415 S Sugar St","county":"Mercer","country":"USA","returned latitude":40.545298,"returned longitude":-84.574093,"longitude":-84.573861,"id":"a6611e62jiyk","infousa_id":835459132,"state":"OH"},"type":"Feature","geometry":{"type":"Point","coordinates":[-84.573861,40.545429]}},{"properties":{"city":"Celina","zip":"45822","latitude":40.552951,"ai type w bus size":"Other Health","primary_sic_description":"HOME HEALTH SERVICE","returned address":"4802-4862 Mud Pike Rd","county":"Mercer","country":"USA","returned latitude":40.552964,"returned longitude":-84.616222,"longitude":-84.616222,"id":"a6611ejgxogk","infousa_id":140555814,"state":"OH"},"type":"Feature","geometry":{"type":"Point","coordinates":[-84.616222,40.552951]}},{"properties":{"city":"Celina","zip":"45822","latitude":40.549017,"ai type w bus size":"Other Health","primary_sic_description":"HOME HEALTH SERVICE","returned address":"101-199 W Market St","county":"Mercer","country":"USA","returned latitude":40.5490284,"returned longitude":-84.5711079,"longitude":-84.571108,"id":"a6611e697lh9","infousa_id":692242449,"state":"OH"},"type":"Feature","geometry":{"type":"Point","coordinates":[-84.571108,40.549017]}},{"properties":{"city":"Coldwater","zip":"45828","latitude":40.479778,"ai type w bus size":"Medial and Healthcare Providers","primary_sic_description":"HOSPICES","returned address":"216-222 W Main St","county":"Mercer","country":"USA","returned latitude":40.4797905,"returned longitude":-84.6306412,"longitude":-84.630641,"id":"a6611e58bqyo","infousa_id":638348052,"state":"OH"},"type":"Feature","geometry":{"type":"Point","coordinates":[-84.630641,40.479778]}},{"properties":{"city":"Coldwater","zip":"45828","latitude":40.479778,"ai type w bus size":"Medial and Healthcare Providers","primary_sic_description":"HOSPICES","returned address":"216-222 W Main St","county":"Mercer","country":"USA","returned latitude":40.4797905,"returned longitude":-84.6306412,"longitude":-84.630641,"id":"a6611ec2wcyw","infousa_id":895860088,"state":"OH"},"type":"Feature","geometry":{"type":"Point","coordinates":[-84.630641,40.479778]}},{"properties":{"city":"Celina","zip":"45822","latitude":40.539106,"ai type w bus size":"Medial and Healthcare Providers","primary_sic_description":"HOSPITALS","returned address":"958-998 S Main St","county":"Mercer","country":"USA","returned latitude":40.5390997,"returned longitude":-84.5749322,"longitude":-84.574947,"id":"a6611ekj7qb3","infousa_id":434240156,"state":"OH"},"type":"Feature","geometry":{"type":"Point","coordinates":[-84.574947,40.539106]}},{"properties":{"city":"Coldwater","zip":"45828","latitude":40.479791,"ai type w bus size":"Medial and Healthcare Providers","primary_sic_description":"HOSPITALS","returned address":"800-814 W Main St","county":"Mercer","country":"USA","returned latitude":40.4798054,"returned longitude":-84.6390627,"longitude":-84.639063,"id":"a6611ef9mim4","infousa_id":835531476,"state":"OH"},"type":"Feature","geometry":{"type":"Point","coordinates":[-84.639063,40.479791]}},{"properties":{"city":"Celina","zip":"45822","latitude":40.551013,"ai type w bus size":"Libraries","primary_sic_description":"LIBRARIES-PUBLIC","returned address":"301-311 N Main St","county":"Mercer","country":"USA","returned latitude":40.551013,"returned longitude":-84.5708241,"longitude":-84.570827,"id":"a6611e4sb2at","infousa_id":140553819,"state":"OH"},"type":"Feature","geometry":{"type":"Point","coordinates":[-84.570827,40.551013]}},{"properties":{"city":"Celina","zip":"45822","latitude":40.436893,"ai type w bus size":"Libraries","primary_sic_description":"LIBRARIES-PUBLIC","returned address":"8 E Franklin St","county":"Mercer","country":"USA","returned latitude":40.4368908,"returned longitude":-84.493108,"longitude":-84.493108,"id":"a6611e8oqt24","infousa_id":835668674,"state":"OH"},"type":"Feature","geometry":{"type":"Point","coordinates":[-84.493108,40.436893]}},{"properties":{"city":"Coldwater","zip":"45828","latitude":40.479754,"ai type w bus size":"Libraries","primary_sic_description":"LIBRARIES-PUBLIC","returned address":"315-399 W Main St","county":"Mercer","country":"USA","returned latitude":40.4797544,"returned longitude":-84.63171,"longitude":-84.63171,"id":"a6611ecxqbxr","infousa_id":140558339,"state":"OH"},"type":"Feature","geometry":{"type":"Point","coordinates":[-84.63171,40.479754]}},{"properties":{"city":"Fort Recovery","zip":"45846","latitude":40.413286,"ai type w bus size":"Libraries","primary_sic_description":"LIBRARIES-PUBLIC","returned address":"101-199 Wayne St","county":"Mercer","country":"USA","returned latitude":40.4132869,"returned longitude":-84.7795855,"longitude":-84.77957,"id":"a6611ec6hkn4","infousa_id":835286907,"state":"OH"},"type":"Feature","geometry":{"type":"Point","coordinates":[-84.77957,40.413286]}},{"properties":{"city":"Mendon","zip":"45862","latitude":40.673333,"ai type w bus size":"Libraries","primary_sic_description":"LIBRARIES-PUBLIC","returned address":"101-205 Market St","county":"Mercer","country":"USA","returned latitude":40.6733725,"returned longitude":-84.5202464,"longitude":-84.520246,"id":"a6611ece8fbt","infousa_id":835596750,"state":"OH"},"type":"Feature","geometry":{"type":"Point","coordinates":[-84.520246,40.673333]}},{"properties":{"city":"Rockford","zip":"45882","latitude":40.691219,"ai type w bus size":"Libraries","primary_sic_description":"LIBRARIES-PUBLIC","returned address":"121-139 S Main St","county":"Mercer","country":"USA","returned latitude":40.691219,"returned longitude":-84.6463827,"longitude":-84.646377,"id":"a6611ec7t8ul","infousa_id":835283904,"state":"OH"},"type":"Feature","geometry":{"type":"Point","coordinates":[-84.646377,40.691219]}},{"properties":{"city":"St Henry","zip":"45883","latitude":40.417719,"ai type w bus size":"Libraries","primary_sic_description":"LIBRARIES-PUBLIC","returned address":"400-412 E Main St","county":"Mercer","country":"USA","returned latitude":40.4177021,"returned longitude":-84.6348707,"longitude":-84.634871,"id":"a6611ecnqcxc","infousa_id":835530460,"state":"OH"},"type":"Feature","geometry":{"type":"Point","coordinates":[-84.634871,40.417719]}},{"properties":{"city":"Celina","zip":"45822","latitude":40.545465,"ai type w bus size":"Other Health","primary_sic_description":"MENTAL HEALTH SERVICES","returned address":"5056-5080 State Route 29","county":"Mercer","country":"USA","returned latitude":40.545446,"returned longitude":-84.606978,"longitude":-84.606978,"id":"a6611e7fo4ap","infousa_id":140558909,"state":"OH"},"type":"Feature","geometry":{"type":"Point","coordinates":[-84.606978,40.545465]}},{"properties":{"city":"Celina","zip":"45822","latitude":40.548986,"ai type w bus size":"Other Community Support Organization","primary_sic_description":"MUSEUMS","returned address":"100-114 E Market St","county":"Mercer","country":"USA","returned latitude":40.5489561,"returned longitude":-84.5702748,"longitude":-84.570274,"id":"a6611edsn9ih","infousa_id":140555541,"state":"OH"},"type":"Feature","geometry":{"type":"Point","coordinates":[-84.570274,40.548986]}},{"properties":{"city":"Fort Recovery","zip":"45846","latitude":40.413221,"ai type w bus size":"Other Community Support Organization","primary_sic_description":"MUSEUMS","returned address":"Fort Site St","county":"Mercer","country":"USA","returned latitude":40.4137543,"returned longitude":-84.7802829,"longitude":-84.780359,"id":"a6611e4a0sjn","infousa_id":835287616,"state":"OH"},"type":"Feature","geometry":{"type":"Point","coordinates":[-84.780359,40.413221]}},{"properties":{"city":"Celina","zip":"45822","latitude":40.546725,"ai type w bus size":"Other Govt","primary_sic_description":"NONCLASSIFIED ESTABLISHMENTS","returned address":"4601 Nicholson Dr","county":"Mercer","country":"USA","returned latitude":40.546829,"returned longitude":-84.521283,"longitude":-84.521328,"id":"a6611ece2818","infousa_id":354265886,"state":"OH"},"type":"Feature","geometry":{"type":"Point","coordinates":[-84.521328,40.546725]}},{"properties":{"city":"Celina","zip":"45822","latitude":40.549152,"ai type w bus size":"Other Govt","primary_sic_description":"NONCLASSIFIED ESTABLISHMENTS","returned address":"101-153 N Mill St","county":"Mercer","country":"USA","returned latitude":40.5491518,"returned longitude":-84.5750987,"longitude":-84.575087,"id":"a6611e60xi6n","infousa_id":677529208,"state":"OH"},"type":"Feature","geometry":{"type":"Point","coordinates":[-84.575087,40.549152]}},{"properties":{"city":"Celina","zip":"45822","latitude":40.545485,"ai type w bus size":"Other Govt","primary_sic_description":"NONCLASSIFIED ESTABLISHMENTS","returned address":"State Route 29","county":"Mercer","country":"USA","returned latitude":40.5454829,"returned longitude":-84.600502,"longitude":-84.600453,"id":"a6611eagfaur","infousa_id":356630848,"state":"OH"},"type":"Feature","geometry":{"type":"Point","coordinates":[-84.600453,40.545485]}},{"properties":{"city":"Celina","zip":"45822","latitude":40.556972,"ai type w bus size":"Other Govt","primary_sic_description":"NONCLASSIFIED ESTABLISHMENTS","returned address":"450-452 Touvelle St","county":"Mercer","country":"USA","returned latitude":40.5569679,"returned longitude":-84.576367,"longitude":-84.576362,"id":"a6611e8iy2wa","infousa_id":368480364,"state":"OH"},"type":"Feature","geometry":{"type":"Point","coordinates":[-84.576362,40.556972]}},{"properties":{"city":"Celina","zip":"45822","latitude":40.543149,"ai type w bus size":"Other Govt","primary_sic_description":"NONCLASSIFIED ESTABLISHMENTS","returned address":"601-699 Elm St","county":"Mercer","country":"USA","returned latitude":40.5431491,"returned longitude":-84.5801808,"longitude":-84.580202,"id":"a6611e4pgik5","infousa_id":353708142,"state":"OH"},"type":"Feature","geometry":{"type":"Point","coordinates":[-84.580202,40.543149]}},{"properties":{"city":"Celina","zip":"45822","latitude":40.562902,"ai type w bus size":"Other Govt","primary_sic_description":"NONCLASSIFIED ESTABLISHMENTS","returned address":"600-604 Royal Ln","county":"Mercer","country":"USA","returned latitude":40.562901,"returned longitude":-84.563161,"longitude":-84.563161,"id":"a6611egp2nrn","infousa_id":367769676,"state":"OH"},"type":"Feature","geometry":{"type":"Point","coordinates":[-84.563161,40.562902]}},{"properties":{"city":"Coldwater","zip":"45828","latitude":40.513969,"ai type w bus size":"Other Govt","primary_sic_description":"NONCLASSIFIED ESTABLISHMENTS","returned address":"5653-5951 Rauh Rd","county":"Mercer","country":"USA","returned latitude":40.5139688,"returned longitude":-84.7651007,"longitude":-84.765145,"id":"a6611e90qm26","infousa_id":581016086,"state":"OH"},"type":"Feature","geometry":{"type":"Point","coordinates":[-84.765145,40.513969]}},{"properties":{"city":"Fort Recovery","zip":"45846","latitude":40.398076,"ai type w bus size":"Other Govt","primary_sic_description":"NONCLASSIFIED ESTABLISHMENTS","returned address":"1601-1705 St Peter Rd","county":"Mercer","country":"USA","returned latitude":40.398076,"returned longitude":-84.7475499,"longitude":-84.747544,"id":"a6611ece6hmd","infousa_id":551613532,"state":"OH"},"type":"Feature","geometry":{"type":"Point","coordinates":[-84.747544,40.398076]}},{"properties":{"city":"Maria Stein","zip":"45860","latitude":40.407579,"ai type w bus size":"Other Govt","primary_sic_description":"NONCLASSIFIED ESTABLISHMENTS","returned address":"8548-8752 State Highway 119","county":"Mercer","country":"USA","returned latitude":40.4075757,"returned longitude":-84.4716451,"longitude":-84.471645,"id":"a6611eel18kr","infousa_id":551615438,"state":"OH"},"type":"Feature","geometry":{"type":"Point","coordinates":[-84.471645,40.407579]}},{"properties":{"city":"Rockford","zip":"45882","latitude":40.686873,"ai type w bus size":"Other Govt","primary_sic_description":"NONCLASSIFIED ESTABLISHMENTS","returned address":"153 E Walnut St","county":"Mercer","country":"USA","returned latitude":40.687116,"returned longitude":-84.645401,"longitude":-84.645467,"id":"a6611eg7nbsg","infousa_id":353723125,"state":"OH"},"type":"Feature","geometry":{"type":"Point","coordinates":[-84.645467,40.686873]}},{"properties":{"city":"Celina","zip":"45822","latitude":40.555201,"ai type w bus size":"Other Health","primary_sic_description":"NURSES &amp; NURSES' REGISTRIES","returned address":"807-839 Pro Dr","county":"Mercer","country":"USA","returned latitude":40.5552036,"returned longitude":-84.5550537,"longitude":-84.555058,"id":"a6611ecwtryx","infousa_id":461689507,"state":"OH"},"type":"Feature","geometry":{"type":"Point","coordinates":[-84.555058,40.555201]}},{"properties":{"city":"Celina","zip":"45822","latitude":40.560391,"ai type w bus size":"Medial and Healthcare Providers","primary_sic_description":"NURSING &amp; CONVALESCENT HOMES","returned address":"1251 Myers Rd","county":"Mercer","country":"USA","returned latitude":40.560981,"returned longitude":-84.5533279,"longitude":-84.554115,"id":"a6611e8rcbf6","infousa_id":140553058,"state":"OH"},"type":"Feature","geometry":{"type":"Point","coordinates":[-84.554115,40.560391]}},{"properties":{"city":"Celina","zip":"45822","latitude":40.560381,"ai type w bus size":"Medial and Healthcare Providers","primary_sic_description":"NURSING &amp; CONVALESCENT HOMES","returned address":"1580-1598 Myers Rd","county":"Mercer","country":"USA","returned latitude":40.5603642,"returned longitude":-84.551713,"longitude":-84.551713,"id":"a6611e8pgsfv","infousa_id":649243334,"state":"OH"},"type":"Feature","geometry":{"type":"Point","coordinates":[-84.551713,40.560381]}},{"properties":{"city":"Coldwater","zip":"45828","latitude":40.479791,"ai type w bus size":"Medial and Healthcare Providers","primary_sic_description":"NURSING &amp; CONVALESCENT HOMES","returned address":"816-818 W Main St","county":"Mercer","country":"USA","returned latitude":40.4798062,"returned longitude":-84.6395593,"longitude":-84.639559,"id":"a6611e8dsr5q","infousa_id":8722118,"state":"OH"},"type":"Feature","geometry":{"type":"Point","coordinates":[-84.639559,40.479791]}},{"properties":{"city":"Rockford","zip":"45882","latitude":40.684173,"ai type w bus size":"Medial and Healthcare Providers","primary_sic_description":"NURSING &amp; CONVALESCENT HOMES","returned address":"400 Buckeye St","county":"Mercer","country":"USA","returned latitude":40.684023,"returned longitude":-84.646654,"longitude":-84.64674,"id":"a6611ect3egf","infousa_id":140600792,"state":"OH"},"type":"Feature","geometry":{"type":"Point","coordinates":[-84.64674,40.684173]}},{"properties":{"city":"Rockford","zip":"45882","latitude":40.663529,"ai type w bus size":"Medial and Healthcare Providers","primary_sic_description":"NURSING &amp; CONVALESCENT HOMES","returned address":"10703-10747 Main St","county":"Mercer","country":"USA","returned latitude":40.6635293,"returned longitude":-84.6475206,"longitude":-84.647535,"id":"a6611eiz6tg1","infousa_id":8724262,"state":"OH"},"type":"Feature","geometry":{"type":"Point","coordinates":[-84.647535,40.663529]}},{"properties":{"city":"St Henry","zip":"45883","latitude":40.418213,"ai type w bus size":"Medial and Healthcare Providers","primary_sic_description":"NURSING &amp; CONVALESCENT HOMES","returned address":"532-590 Western Ave","county":"Mercer","country":"USA","returned latitude":40.418215,"returned longitude":-84.6442559,"longitude":-84.644258,"id":"a6611efuxwp2","infousa_id":521872358,"state":"OH"},"type":"Feature","geometry":{"type":"Point","coordinates":[-84.644258,40.418213]}},{"properties":{"city":"Celina","zip":"45822","latitude":40.539106,"ai type w bus size":"Other Health","primary_sic_description":"OCCUPATIONAL HEALTH &amp; SAFETY SERVICES","returned address":"958-998 S Main St","county":"Mercer","country":"USA","returned latitude":40.5390997,"returned longitude":-84.5749322,"longitude":-84.574947,"id":"a6611e9saerl","infousa_id":208825083,"state":"OH"},"type":"Feature","geometry":{"type":"Point","coordinates":[-84.574947,40.539106]}},{"properties":{"city":"Celina","zip":"45822","latitude":40.556727,"ai type w bus size":"Other Health","primary_sic_description":"OCCUPATIONAL HEALTH &amp; SAFETY SERVICES","returned address":"1000-1114 Havemann Rd","county":"Mercer","country":"USA","returned latitude":40.5567348,"returned longitude":-84.551118,"longitude":-84.551118,"id":"a6611e8puu1h","infousa_id":649243342,"state":"OH"},"type":"Feature","geometry":{"type":"Point","coordinates":[-84.551118,40.556727]}},{"properties":{"city":"Celina","zip":"45822","latitude":40.55916,"ai type w bus size":"Other Health","primary_sic_description":"OPTOMETRISTS OD","returned address":"1020 Grand Lake Rd","county":"Mercer","country":"USA","returned latitude":40.559793,"returned longitude":-84.551558,"longitude":-84.551642,"id":"a6611e80zqgw","infousa_id":380270835,"state":"OH"},"type":"Feature","geometry":{"type":"Point","coordinates":[-84.551642,40.55916]}},{"properties":{"city":"Celina","zip":"45822","latitude":40.560317,"ai type w bus size":"Other Health","primary_sic_description":"OPTOMETRISTS OD","returned address":"100-118 Summit St","county":"Mercer","country":"USA","returned latitude":40.5603136,"returned longitude":-84.5714429,"longitude":-84.571443,"id":"a6611efo0rm0","infousa_id":835459397,"state":"OH"},"type":"Feature","geometry":{"type":"Point","coordinates":[-84.571443,40.560317]}},{"properties":{"city":"Celina","zip":"45822","latitude":40.556717,"ai type w bus size":"Other Health","primary_sic_description":"OPTOMETRISTS OD","returned address":"1872-1906 Havemann Rd","county":"Mercer","country":"USA","returned latitude":40.556707,"returned longitude":-84.5378519,"longitude":-84.537851,"id":"a6611e5aac94","infousa_id":679038620,"state":"OH"},"type":"Feature","geometry":{"type":"Point","coordinates":[-84.537851,40.556717]}},{"properties":{"city":"Celina","zip":"45822","latitude":40.554397,"ai type w bus size":"Other Health","primary_sic_description":"OPTOMETRISTS OD","returned address":"700-702 E Wayne St","county":"Mercer","country":"USA","returned latitude":40.5544079,"returned longitude":-84.5582741,"longitude":-84.558262,"id":"a6611egctv5s","infousa_id":140551805,"state":"OH"},"type":"Feature","geometry":{"type":"Point","coordinates":[-84.558262,40.554397]}},{"properties":{"city":"Coldwater","zip":"45828","latitude":40.478691,"ai type w bus size":"Other Health","primary_sic_description":"OPTOMETRISTS OD","returned address":"201-217 S 2nd St","county":"Mercer","country":"USA","returned latitude":40.4786908,"returned longitude":-84.6287131,"longitude":-84.628748,"id":"a6611e5h3igd","infousa_id":140557844,"state":"OH"},"type":"Feature","geometry":{"type":"Point","coordinates":[-84.628748,40.478691]}},{"properties":{"city":"St Henry","zip":"45883","latitude":40.421372,"ai type w bus size":"Other Health","primary_sic_description":"OPTOMETRISTS OD","returned address":"522-528 E Kremer-Hoying Rd","county":"Mercer","country":"USA","returned latitude":40.4213804,"returned longitude":-84.632697,"longitude":-84.632697,"id":"a6611ei7rhdy","infousa_id":971610928,"state":"OH"},"type":"Feature","geometry":{"type":"Point","coordinates":[-84.632697,40.421372]}},{"properties":{"city":"Celina","zip":"45822","latitude":40.549561,"ai type w bus size":"Other Health","primary_sic_description":"PAIN CONTROL","returned address":"123-199 Hamilton St","county":"Mercer","country":"USA","returned latitude":40.5495605,"returned longitude":-84.5504206,"longitude":-84.550444,"id":"a6611edps0mh","infousa_id":649243367,"state":"OH"},"type":"Feature","geometry":{"type":"Point","coordinates":[-84.550444,40.549561]}},{"properties":{"city":"Celina","zip":"45822","latitude":40.547393,"ai type w bus size":"Other Community Support Organization","primary_sic_description":"PARKS","returned address":"331-345 Portland St","county":"Mercer","country":"USA","returned latitude":40.547393,"returned longitude":-84.5854513,"longitude":-84.585446,"id":"a6611eismwps","infousa_id":835455866,"state":"OH"},"type":"Feature","geometry":{"type":"Point","coordinates":[-84.585446,40.547393]}},{"properties":{"city":"Rockford","zip":"45882","latitude":40.693526,"ai type w bus size":"Other Community Support Organization","primary_sic_description":"PARKS","returned address":"502 Front St","county":"Mercer","country":"USA","returned latitude":40.693244,"returned longitude":-84.651816,"longitude":-84.65187,"id":"a6611eep2htm","infousa_id":684405103,"state":"OH"},"type":"Feature","geometry":{"type":"Point","coordinates":[-84.65187,40.693526]}},{"properties":{"city":"Celina","zip":"45822","latitude":40.556765,"ai type w bus size":"Other Health","primary_sic_description":"PHYSICAL THERAPISTS","returned address":"1795-1941 Havemann Rd","county":"Mercer","country":"USA","returned latitude":40.5567497,"returned longitude":-84.5408249,"longitude":-84.540825,"id":"a6611eef2enm","infousa_id":652099318,"state":"OH"},"type":"Feature","geometry":{"type":"Point","coordinates":[-84.540825,40.556765]}},{"properties":{"city":"Celina","zip":"45822","latitude":40.549561,"ai type w bus size":"Other Health","primary_sic_description":"PHYSICAL THERAPISTS","returned address":"123-199 Hamilton St","county":"Mercer","country":"USA","returned latitude":40.5495605,"returned longitude":-84.5504206,"longitude":-84.550444,"id":"a6611e82aikb","infousa_id":629566464,"state":"OH"},"type":"Feature","geometry":{"type":"Point","coordinates":[-84.550444,40.549561]}},{"properties":{"city":"Coldwater","zip":"45828","latitude":40.479791,"ai type w bus size":"Other Health","primary_sic_description":"PHYSICAL THERAPISTS","returned address":"800-814 W Main St","county":"Mercer","country":"USA","returned latitude":40.4798054,"returned longitude":-84.6390627,"longitude":-84.639063,"id":"a6611e4rt6xd","infousa_id":551611635,"state":"OH"},"type":"Feature","geometry":{"type":"Point","coordinates":[-84.639063,40.479791]}},{"properties":{"city":"Fort Recovery","zip":"45846","latitude":40.404853,"ai type w bus size":"Other Health","primary_sic_description":"PHYSICAL THERAPISTS","returned address":"1806-1820 Union City Rd","county":"Mercer","country":"USA","returned latitude":40.404853,"returned longitude":-84.7804681,"longitude":-84.780469,"id":"a6611e6xj5g3","infousa_id":212693790,"state":"OH"},"type":"Feature","geometry":{"type":"Point","coordinates":[-84.780469,40.404853]}},{"properties":{"city":"St Henry","zip":"45883","latitude":40.425451,"ai type w bus size":"Other Health","primary_sic_description":"PHYSICAL THERAPISTS","returned address":"426 Stachler Dr","county":"Mercer","country":"USA","returned latitude":40.4252139,"returned longitude":-84.627852,"longitude":-84.627101,"id":"a6611eklwbtr","infousa_id":224223891,"state":"OH"},"type":"Feature","geometry":{"type":"Point","coordinates":[-84.627101,40.425451]}},{"properties":{"city":"Celina","zip":"45822","latitude":40.547988,"ai type w bus size":"Medial and Healthcare Providers","primary_sic_description":"PHYSICIANS &amp; SURGEONS","returned address":"100-150 E Fayette St","county":"Mercer","country":"USA","returned latitude":40.5479941,"returned longitude":-84.5702738,"longitude":-84.570274,"id":"a6611ebdye7v","infousa_id":208825224,"state":"OH"},"type":"Feature","geometry":{"type":"Point","coordinates":[-84.570274,40.547988]}},{"properties":{"city":"Celina","zip":"45822","latitude":40.556727,"ai type w bus size":"Medial and Healthcare Providers","primary_sic_description":"PHYSICIANS &amp; SURGEONS","returned address":"1000-1114 Havemann Rd","county":"Mercer","country":"USA","returned latitude":40.5567348,"returned longitude":-84.551118,"longitude":-84.551118,"id":"a6611eg9riou","infousa_id":393475991,"state":"OH"},"type":"Feature","geometry":{"type":"Point","coordinates":[-84.551118,40.556727]}},{"properties":{"city":"Celina","zip":"45822","latitude":40.554695,"ai type w bus size":"Medial and Healthcare Providers","primary_sic_description":"PHYSICIANS &amp; SURGEONS","returned address":"700-702 E Wayne St","county":"Mercer","country":"USA","returned latitude":40.5547006,"returned longitude":-84.5578213,"longitude":-84.557815,"id":"a6611eea1g6m","infousa_id":140551813,"state":"OH"},"type":"Feature","geometry":{"type":"Point","coordinates":[-84.557815,40.554695]}},{"properties":{"city":"Celina","zip":"45822","latitude":40.556727,"ai type w bus size":"Medial and Healthcare Providers","primary_sic_description":"PHYSICIANS &amp; SURGEONS","returned address":"1000-1114 Havemann Rd","county":"Mercer","country":"USA","returned latitude":40.5567348,"returned longitude":-84.551118,"longitude":-84.551118,"id":"a6611e4uew3c","infousa_id":251916672,"state":"OH"},"type":"Feature","geometry":{"type":"Point","coordinates":[-84.551118,40.556727]}},{"properties":{"city":"Celina","zip":"45822","latitude":40.549015,"ai type w bus size":"Medial and Healthcare Providers","primary_sic_description":"PHYSICIANS &amp; SURGEONS","returned address":"301 E Market St","county":"Mercer","country":"USA","returned latitude":40.549226,"returned longitude":-84.567547,"longitude":-84.567294,"id":"a6611ecdi3y5","infousa_id":140551664,"state":"OH"},"type":"Feature","geometry":{"type":"Point","coordinates":[-84.567294,40.549015]}},{"properties":{"city":"Celina","zip":"45822","latitude":40.539106,"ai type w bus size":"Medial and Healthcare Providers","primary_sic_description":"PHYSICIANS &amp; SURGEONS","returned address":"958-998 S Main St","county":"Mercer","country":"USA","returned latitude":40.5390997,"returned longitude":-84.5749322,"longitude":-84.574947,"id":"a6611edbhtin","infousa_id":649243649,"state":"OH"},"type":"Feature","geometry":{"type":"Point","coordinates":[-84.574947,40.539106]}},{"properties":{"city":"Celina","zip":"45822","latitude":40.549015,"ai type w bus size":"Medial and Healthcare Providers","primary_sic_description":"PHYSICIANS &amp; SURGEONS","returned address":"301 E Market St","county":"Mercer","country":"USA","returned latitude":40.549226,"returned longitude":-84.567547,"longitude":-84.567294,"id":"a6611ehxeway","infousa_id":567995360,"state":"OH"},"type":"Feature","geometry":{"type":"Point","coordinates":[-84.567294,40.549015]}},{"properties":{"city":"Celina","zip":"45822","latitude":40.539106,"ai type w bus size":"Medial and Healthcare Providers","primary_sic_description":"PHYSICIANS &amp; SURGEONS","returned address":"958-998 S Main St","county":"Mercer","country":"USA","returned latitude":40.5390997,"returned longitude":-84.5749322,"longitude":-84.574947,"id":"a6611e7m6urv","infousa_id":208825216,"state":"OH"},"type":"Feature","geometry":{"type":"Point","coordinates":[-84.574947,40.539106]}},{"properties":{"city":"Celina","zip":"45822","latitude":40.549561,"ai type w bus size":"Medial and Healthcare Providers","primary_sic_description":"PHYSICIANS &amp; SURGEONS","returned address":"123-199 Hamilton St","county":"Mercer","country":"USA","returned latitude":40.5495605,"returned longitude":-84.5504206,"longitude":-84.550444,"id":"a6611ebj898v","infousa_id":498392794,"state":"OH"},"type":"Feature","geometry":{"type":"Point","coordinates":[-84.550444,40.549561]}},{"properties":{"city":"Celina","zip":"45822","latitude":40.539106,"ai type w bus size":"Medial and Healthcare Providers","primary_sic_description":"PHYSICIANS &amp; SURGEONS","returned address":"958-998 S Main St","county":"Mercer","country":"USA","returned latitude":40.5390997,"returned longitude":-84.5749322,"longitude":-84.574947,"id":"a6611e61l33h","infousa_id":380271056,"state":"OH"},"type":"Feature","geometry":{"type":"Point","coordinates":[-84.574947,40.539106]}},{"properties":{"city":"Celina","zip":"45822","latitude":40.554596,"ai type w bus size":"Medial and Healthcare Providers","primary_sic_description":"PHYSICIANS &amp; SURGEONS","returned address":"700-702 E Wayne St","county":"Mercer","country":"USA","returned latitude":40.554603,"returned longitude":-84.5579719,"longitude":-84.557964,"id":"a6611ebata19","infousa_id":835457383,"state":"OH"},"type":"Feature","geometry":{"type":"Point","coordinates":[-84.557964,40.554596]}},{"properties":{"city":"Celina","zip":"45822","latitude":40.539106,"ai type w bus size":"Medial and Healthcare Providers","primary_sic_description":"PHYSICIANS &amp; SURGEONS","returned address":"958-998 S Main St","county":"Mercer","country":"USA","returned latitude":40.5390997,"returned longitude":-84.5749322,"longitude":-84.574947,"id":"a6611e6d3oib","infousa_id":679038919,"state":"OH"},"type":"Feature","geometry":{"type":"Point","coordinates":[-84.574947,40.539106]}},{"properties":{"city":"Celina","zip":"45822","latitude":40.555259,"ai type w bus size":"Medial and Healthcare Providers","primary_sic_description":"PHYSICIANS &amp; SURGEONS","returned address":"808 Pro Dr","county":"Mercer","country":"USA","returned latitude":40.554775,"returned longitude":-84.555248,"longitude":-84.555174,"id":"a6611egfccar","infousa_id":521874032,"state":"OH"},"type":"Feature","geometry":{"type":"Point","coordinates":[-84.555174,40.555259]}},{"properties":{"city":"Celina","zip":"45822","latitude":40.545712,"ai type w bus size":"Medial and Healthcare Providers","primary_sic_description":"PHYSICIANS &amp; SURGEONS","returned address":"203 W Logan St","county":"Mercer","country":"USA","returned latitude":40.5458454,"returned longitude":-84.5725279,"longitude":-84.572799,"id":"a6611ebqzhto","infousa_id":358103174,"state":"OH"},"type":"Feature","geometry":{"type":"Point","coordinates":[-84.572799,40.545712]}},{"properties":{"city":"Celina","zip":"45822","latitude":40.539106,"ai type w bus size":"Medial and Healthcare Providers","primary_sic_description":"PHYSICIANS &amp; SURGEONS","returned address":"958-998 S Main St","county":"Mercer","country":"USA","returned latitude":40.5390997,"returned longitude":-84.5749322,"longitude":-84.574947,"id":"a6611e6y2132","infousa_id":649243714,"state":"OH"},"type":"Feature","geometry":{"type":"Point","coordinates":[-84.574947,40.539106]}},{"properties":{"city":"Celina","zip":"45822","latitude":40.539106,"ai type w bus size":"Medial and Healthcare Providers","primary_sic_description":"PHYSICIANS &amp; SURGEONS","returned address":"958-998 S Main St","county":"Mercer","country":"USA","returned latitude":40.5390997,"returned longitude":-84.5749322,"longitude":-84.574947,"id":"a6611ej1inny","infousa_id":581013570,"state":"OH"},"type":"Feature","geometry":{"type":"Point","coordinates":[-84.574947,40.539106]}},{"properties":{"city":"Celina","zip":"45822","latitude":40.559471,"ai type w bus size":"Medial and Healthcare Providers","primary_sic_description":"PHYSICIANS &amp; SURGEONS","returned address":"909 N Main St","county":"Mercer","country":"USA","returned latitude":40.5594107,"returned longitude":-84.5712443,"longitude":-84.571204,"id":"a6611ejbnys7","infousa_id":440451185,"state":"OH"},"type":"Feature","geometry":{"type":"Point","coordinates":[-84.571204,40.559471]}},{"properties":{"city":"Celina","zip":"45822","latitude":40.539106,"ai type w bus size":"Medial and Healthcare Providers","primary_sic_description":"PHYSICIANS &amp; SURGEONS","returned address":"958-998 S Main St","county":"Mercer","country":"USA","returned latitude":40.5390997,"returned longitude":-84.5749322,"longitude":-84.574947,"id":"a6611edhgnjy","infousa_id":497012807,"state":"OH"},"type":"Feature","geometry":{"type":"Point","coordinates":[-84.574947,40.539106]}},{"properties":{"city":"Celina","zip":"45822","latitude":40.539106,"ai type w bus size":"Medial and Healthcare Providers","primary_sic_description":"PHYSICIANS &amp; SURGEONS","returned address":"958-998 S Main St","county":"Mercer","country":"USA","returned latitude":40.5390997,"returned longitude":-84.5749322,"longitude":-84.574947,"id":"a6611eh5393k","infousa_id":434240750,"state":"OH"},"type":"Feature","geometry":{"type":"Point","coordinates":[-84.574947,40.539106]}},{"properties":{"city":"Celina","zip":"45822","latitude":40.549561,"ai type w bus size":"Medial and Healthcare Providers","primary_sic_description":"PHYSICIANS &amp; SURGEONS","returned address":"123-199 Hamilton St","county":"Mercer","country":"USA","returned latitude":40.5495605,"returned longitude":-84.5504206,"longitude":-84.550444,"id":"a6611ejspytz","infousa_id":636749939,"state":"OH"},"type":"Feature","geometry":{"type":"Point","coordinates":[-84.550444,40.549561]}},{"properties":{"city":"Celina","zip":"45822","latitude":40.539106,"ai type w bus size":"Medial and Healthcare Providers","primary_sic_description":"PHYSICIANS &amp; SURGEONS","returned address":"958-998 S Main St","county":"Mercer","country":"USA","returned latitude":40.5390997,"returned longitude":-84.5749322,"longitude":-84.574947,"id":"a6611e5ucd7f","infousa_id":434007506,"state":"OH"},"type":"Feature","geometry":{"type":"Point","coordinates":[-84.574947,40.539106]}},{"properties":{"city":"Celina","zip":"45822","latitude":40.539106,"ai type w bus size":"Medial and Healthcare Providers","primary_sic_description":"PHYSICIANS &amp; SURGEONS","returned address":"958-998 S Main St","county":"Mercer","country":"USA","returned latitude":40.5390997,"returned longitude":-84.5749322,"longitude":-84.574947,"id":"a6611e9ddvdl","infousa_id":581013497,"state":"OH"},"type":"Feature","geometry":{"type":"Point","coordinates":[-84.574947,40.539106]}},{"properties":{"city":"Coldwater","zip":"45828","latitude":40.47814,"ai type w bus size":"Medial and Healthcare Providers","primary_sic_description":"PHYSICIANS &amp; SURGEONS","returned address":"256-298 S Oak St","county":"Mercer","country":"USA","returned latitude":40.4781402,"returned longitude":-84.6365809,"longitude":-84.636601,"id":"a6611ee97yih","infousa_id":140558297,"state":"OH"},"type":"Feature","geometry":{"type":"Point","coordinates":[-84.636601,40.47814]}},{"properties":{"city":"Coldwater","zip":"45828","latitude":40.479791,"ai type w bus size":"Medial and Healthcare Providers","primary_sic_description":"PHYSICIANS &amp; SURGEONS","returned address":"800-814 W Main St","county":"Mercer","country":"USA","returned latitude":40.4798054,"returned longitude":-84.6390627,"longitude":-84.639063,"id":"a6611ef5m9gg","infousa_id":516805850,"state":"OH"},"type":"Feature","geometry":{"type":"Point","coordinates":[-84.639063,40.479791]}},{"properties":{"city":"Fort Recovery","zip":"45846","latitude":40.410202,"ai type w bus size":"Medial and Healthcare Providers","primary_sic_description":"PHYSICIANS &amp; SURGEONS","returned address":"711-721 Blue Jacket Dr","county":"Mercer","country":"USA","returned latitude":40.4101837,"returned longitude":-84.7709754,"longitude":-84.770975,"id":"a6611ejcoovr","infousa_id":971609466,"state":"OH"},"type":"Feature","geometry":{"type":"Point","coordinates":[-84.770975,40.410202]}},{"properties":{"city":"Fort Recovery","zip":"45846","latitude":40.404853,"ai type w bus size":"Medial and Healthcare Providers","primary_sic_description":"PHYSICIANS &amp; SURGEONS","returned address":"1806-1820 Union City Rd","county":"Mercer","country":"USA","returned latitude":40.404853,"returned longitude":-84.7804681,"longitude":-84.780469,"id":"a6611egxql71","infousa_id":835287152,"state":"OH"},"type":"Feature","geometry":{"type":"Point","coordinates":[-84.780469,40.404853]}},{"properties":{"city":"Maria Stein","zip":"45860","latitude":40.40762,"ai type w bus size":"Medial and Healthcare Providers","primary_sic_description":"PHYSICIANS &amp; SURGEONS","returned address":"8250-8498 State Highway 119","county":"Mercer","country":"USA","returned latitude":40.4075927,"returned longitude":-84.4769329,"longitude":-84.476933,"id":"a6611e8sjqke","infousa_id":973942048,"state":"OH"},"type":"Feature","geometry":{"type":"Point","coordinates":[-84.476933,40.40762]}},{"properties":{"city":"Rockford","zip":"45882","latitude":40.687674,"ai type w bus size":"Medial and Healthcare Providers","primary_sic_description":"PHYSICIANS &amp; SURGEONS","returned address":"500-518 S Main St","county":"Mercer","country":"USA","returned latitude":40.6876733,"returned longitude":-84.6463723,"longitude":-84.646387,"id":"a6611eejfzz5","infousa_id":463067181,"state":"OH"},"type":"Feature","geometry":{"type":"Point","coordinates":[-84.646387,40.687674]}},{"properties":{"city":"St Henry","zip":"45883","latitude":40.424822,"ai type w bus size":"Medial and Healthcare Providers","primary_sic_description":"PHYSICIANS &amp; SURGEONS","returned address":"411 Stachler Dr","county":"Mercer","country":"USA","returned latitude":40.424703,"returned longitude":-84.626454,"longitude":-84.627107,"id":"a6611e8ju6ie","infousa_id":380271098,"state":"OH"},"type":"Feature","geometry":{"type":"Point","coordinates":[-84.627107,40.424822]}},{"properties":{"city":"St Henry","zip":"45883","latitude":40.424822,"ai type w bus size":"Medial and Healthcare Providers","primary_sic_description":"PHYSICIANS &amp; SURGEONS","returned address":"411 Stachler Dr","county":"Mercer","country":"USA","returned latitude":40.424703,"returned longitude":-84.626454,"longitude":-84.627107,"id":"a6611e7ol47f","infousa_id":479745853,"state":"OH"},"type":"Feature","geometry":{"type":"Point","coordinates":[-84.627107,40.424822]}},{"properties":{"city":"Celina","zip":"45822","latitude":40.561545,"ai type w bus size":"Other Health","primary_sic_description":"PODIATRISTS","returned address":"1523 Irmscher Blvd","county":"Mercer","country":"USA","returned latitude":40.561697,"returned longitude":-84.543892,"longitude":-84.543576,"id":"a6611eizluzp","infousa_id":946091048,"state":"OH"},"type":"Feature","geometry":{"type":"Point","coordinates":[-84.543576,40.561545]}},{"properties":{"city":"Coldwater","zip":"45828","latitude":40.479652,"ai type w bus size":"Other Health","primary_sic_description":"PODIATRISTS","returned address":"100-198 S Market St","county":"Mercer","country":"USA","returned latitude":40.479652,"returned longitude":-84.6309441,"longitude":-84.630945,"id":"a6611ebvdzbu","infousa_id":946091659,"state":"OH"},"type":"Feature","geometry":{"type":"Point","coordinates":[-84.630945,40.479652]}},{"properties":{"city":"Celina","zip":"45822","latitude":40.550059,"ai type w bus size":"Public Safety Entities","primary_sic_description":"POLICE DEPARTMENTS","returned address":"200-212 N Main St","county":"Mercer","country":"USA","returned latitude":40.5500591,"returned longitude":-84.5707739,"longitude":-84.570789,"id":"a6611eemx5v4","infousa_id":835457094,"state":"OH"},"type":"Feature","geometry":{"type":"Point","coordinates":[-84.570789,40.550059]}},{"properties":{"city":"Coldwater","zip":"45828","latitude":40.479754,"ai type w bus size":"Public Safety Entities","primary_sic_description":"POLICE DEPARTMENTS","returned address":"315-399 W Main St","county":"Mercer","country":"USA","returned latitude":40.4797544,"returned longitude":-84.631686,"longitude":-84.631686,"id":"a6611e6yfsjx","infousa_id":835529793,"state":"OH"},"type":"Feature","geometry":{"type":"Point","coordinates":[-84.631686,40.479754]}},{"properties":{"city":"Fort Recovery","zip":"45846","latitude":40.411348,"ai type w bus size":"Public Safety Entities","primary_sic_description":"POLICE DEPARTMENTS","returned address":"135-199 Main St","county":"Mercer","country":"USA","returned latitude":40.4113483,"returned longitude":-84.778282,"longitude":-84.778277,"id":"a6611eg5285h","infousa_id":835286741,"state":"OH"},"type":"Feature","geometry":{"type":"Point","coordinates":[-84.778277,40.411348]}},{"properties":{"city":"Mendon","zip":"45862","latitude":40.673156,"ai type w bus size":"Public Safety Entities","primary_sic_description":"POLICE DEPARTMENTS","returned address":"100-146 S Main St","county":"Mercer","country":"USA","returned latitude":40.6731559,"returned longitude":-84.5186757,"longitude":-84.518664,"id":"a6611e9f4isf","infousa_id":835596487,"state":"OH"},"type":"Feature","geometry":{"type":"Point","coordinates":[-84.518664,40.673156]}},{"properties":{"city":"Rockford","zip":"45882","latitude":40.691515,"ai type w bus size":"Public Safety Entities","primary_sic_description":"POLICE DEPARTMENTS","returned address":"500-506 Market St","county":"Mercer","country":"USA","returned latitude":40.691501,"returned longitude":-84.6517694,"longitude":-84.65177,"id":"a6611e5w7kuf","infousa_id":997851738,"state":"OH"},"type":"Feature","geometry":{"type":"Point","coordinates":[-84.65177,40.691515]}},{"properties":{"city":"Burkettsville","zip":"45310","latitude":40.352037,"ai type w bus size":"Other Government Facilities","primary_sic_description":"POST OFFICES","returned address":"25 W Main St","county":"Mercer","country":"USA","returned latitude":40.352118,"returned longitude":-84.644367,"longitude":-84.644392,"id":"a6611ef8syrr","infousa_id":835286808,"state":"OH"},"type":"Feature","geometry":{"type":"Point","coordinates":[-84.644392,40.352037]}},{"properties":{"city":"Celina","zip":"45822","latitude":40.550042,"ai type w bus size":"Other Government Facilities","primary_sic_description":"POST OFFICES","returned address":"201 N Main St","county":"Mercer","country":"USA","returned latitude":40.550205,"returned longitude":-84.5712889,"longitude":-84.570828,"id":"a6611earpdpp","infousa_id":835457284,"state":"OH"},"type":"Feature","geometry":{"type":"Point","coordinates":[-84.570828,40.550042]}},{"properties":{"city":"Coldwater","zip":"45828","latitude":40.479751,"ai type w bus size":"Other Government Facilities","primary_sic_description":"POST OFFICES","returned address":"101-119 E Main St","county":"Mercer","country":"USA","returned latitude":40.4797666,"returned longitude":-84.6286213,"longitude":-84.628621,"id":"a6611ebrbvad","infousa_id":835530171,"state":"OH"},"type":"Feature","geometry":{"type":"Point","coordinates":[-84.628621,40.479751]}},{"properties":{"city":"Fort Recovery","zip":"45846","latitude":40.387501,"ai type w bus size":"Other Government Facilities","primary_sic_description":"POST OFFICES","returned address":"1261-1283 Wourms Rd","county":"Mercer","country":"USA","returned latitude":40.387501,"returned longitude":-84.7194005,"longitude":-84.719395,"id":"a6611eiz24pp","infousa_id":835286725,"state":"OH"},"type":"Feature","geometry":{"type":"Point","coordinates":[-84.719395,40.387501]}},{"properties":{"city":"Marion","zip":"45860","latitude":40.407604,"ai type w bus size":"Other Government Facilities","primary_sic_description":"POST OFFICES","returned address":"8581 State Highway 119","county":"Mercer","country":"USA","returned latitude":40.4076879,"returned longitude":-84.4712772,"longitude":-84.471239,"id":"a6611e7v16fk","infousa_id":835667957,"state":"OH"},"type":"Feature","geometry":{"type":"Point","coordinates":[-84.471239,40.407604]}},{"properties":{"city":"Mendon","zip":"45862","latitude":40.673613,"ai type w bus size":"Other Government Facilities","primary_sic_description":"POST OFFICES","returned address":"101 N Main St","county":"Mercer","country":"USA","returned latitude":40.6740645,"returned longitude":-84.5186645,"longitude":-84.518673,"id":"a6611e4vfirc","infousa_id":835596677,"state":"OH"},"type":"Feature","geometry":{"type":"Point","coordinates":[-84.518673,40.673613]}},{"properties":{"city":"Montezuma","zip":"45866","latitude":40.489129,"ai type w bus size":"Other Government Facilities","primary_sic_description":"POST OFFICES","returned address":"16-34 W Main St","county":"Mercer","country":"USA","returned latitude":40.4891188,"returned longitude":-84.5505108,"longitude":-84.550513,"id":"a6611ehn3x59","infousa_id":835222704,"state":"OH"},"type":"Feature","geometry":{"type":"Point","coordinates":[-84.550513,40.489129]}},{"properties":{"city":"Rockford","zip":"45882","latitude":40.692488,"ai type w bus size":"Other Government Facilities","primary_sic_description":"POST OFFICES","returned address":"157-199 N Main St","county":"Mercer","country":"USA","returned latitude":40.692489,"returned longitude":-84.6464021,"longitude":-84.646442,"id":"a6611easipbb","infousa_id":482723087,"state":"OH"},"type":"Feature","geometry":{"type":"Point","coordinates":[-84.646442,40.692488]}},{"properties":{"city":"St Henry","zip":"45883","latitude":40.417744,"ai type w bus size":"Other Government Facilities","primary_sic_description":"POST OFFICES","returned address":"535-581 E Main St","county":"Mercer","country":"USA","returned latitude":40.4177377,"returned longitude":-84.632991,"longitude":-84.632991,"id":"a6611ee354h1","infousa_id":835530957,"state":"OH"},"type":"Feature","geometry":{"type":"Point","coordinates":[-84.632991,40.417744]}},{"properties":{"city":"Celina","zip":"45822","latitude":40.549019,"ai type w bus size":"Other Health","primary_sic_description":"PSYCHOLOGISTS","returned address":"300-310 W Market St","county":"Mercer","country":"USA","returned latitude":40.5490055,"returned longitude":-84.5741137,"longitude":-84.574114,"id":"a6611egukbth","infousa_id":434189809,"state":"OH"},"type":"Feature","geometry":{"type":"Point","coordinates":[-84.574114,40.549019]}},{"properties":{"city":"Burkettsville","zip":"45310","latitude":40.352037,"ai type w bus size":"Other Edu","primary_sic_description":"REHABILITATION SERVICES","returned address":"25 W Main St","county":"Mercer","country":"USA","returned latitude":40.352118,"returned longitude":-84.644367,"longitude":-84.644392,"id":"a6611eanzt0c","infousa_id":310282991,"state":"OH"},"type":"Feature","geometry":{"type":"Point","coordinates":[-84.644392,40.352037]}},{"properties":{"city":"Celina","zip":"45822","latitude":40.560557,"ai type w bus size":"Other Edu","primary_sic_description":"REHABILITATION SERVICES","returned address":"1101-1143 N Main St","county":"Mercer","country":"USA","returned latitude":40.560557,"returned longitude":-84.5712131,"longitude":-84.571205,"id":"a6611e758xl3","infousa_id":551611619,"state":"OH"},"type":"Feature","geometry":{"type":"Point","coordinates":[-84.571205,40.560557]}},{"properties":{"city":"Celina","zip":"45822","latitude":40.552862,"ai type w bus size":"Other Edu","primary_sic_description":"RELIGIOUS SCHOOLS","returned address":"219 W Wayne St","county":"Mercer","country":"USA","returned latitude":40.553036,"returned longitude":-84.57292,"longitude":-84.572421,"id":"a6611e79uusk","infousa_id":450309489,"state":"OH"},"type":"Feature","geometry":{"type":"Point","coordinates":[-84.572421,40.552862]}},{"properties":{"city":"St Henry","zip":"45883","latitude":40.428334,"ai type w bus size":"Other Edu","primary_sic_description":"RELIGIOUS SCHOOLS","returned address":"2846-2890 U.S. 127","county":"Mercer","country":"USA","returned latitude":40.4283341,"returned longitude":-84.5716215,"longitude":-84.571599,"id":"a6611e7eh6zz","infousa_id":551612476,"state":"OH"},"type":"Feature","geometry":{"type":"Point","coordinates":[-84.571599,40.428334]}},{"properties":{"city":"Rockford","zip":"45882","latitude":40.663047,"ai type w bus size":"Other Health","primary_sic_description":"REST HOMES","returned address":"10703-10747 Main St","county":"Mercer","country":"USA","returned latitude":40.6630469,"returned longitude":-84.6475191,"longitude":-84.647529,"id":"a6611ek77w97","infousa_id":553814435,"state":"OH"},"type":"Feature","geometry":{"type":"Point","coordinates":[-84.647529,40.663047]}},{"properties":{"city":"Celina","zip":"45822","latitude":40.550212,"ai type w bus size":"Schools (K-12)","primary_sic_description":"SCHOOLS","returned address":"553 E Livingston St","county":"Mercer","country":"USA","returned latitude":40.550359,"returned longitude":-84.562562,"longitude":-84.562331,"id":"a6611e745mny","infousa_id":461689390,"state":"OH"},"type":"Feature","geometry":{"type":"Point","coordinates":[-84.562331,40.550212]}},{"properties":{"city":"Celina","zip":"45822","latitude":40.545546,"ai type w bus size":"Schools (K-12)","primary_sic_description":"SCHOOLS","returned address":"1199-1223 W Logan St","county":"Mercer","country":"USA","returned latitude":40.5455509,"returned longitude":-84.5880971,"longitude":-84.588097,"id":"a6611ehuwub6","infousa_id":368447710,"state":"OH"},"type":"Feature","geometry":{"type":"Point","coordinates":[-84.588097,40.545546]}},{"properties":{"city":"Celina","zip":"45822","latitude":40.550212,"ai type w bus size":"Schools (K-12)","primary_sic_description":"SCHOOLS","returned address":"553 E Livingston St","county":"Mercer","country":"USA","returned latitude":40.550359,"returned longitude":-84.562562,"longitude":-84.562331,"id":"a6611e7r6zoh","infousa_id":498390467,"state":"OH"},"type":"Feature","geometry":{"type":"Point","coordinates":[-84.562331,40.550212]}},{"properties":{"city":"Celina","zip":"45822","latitude":40.550212,"ai type w bus size":"Schools (K-12)","primary_sic_description":"SCHOOLS","returned address":"553 E Livingston St","county":"Mercer","country":"USA","returned latitude":40.550359,"returned longitude":-84.562562,"longitude":-84.562331,"id":"a6611easdhe0","infousa_id":450304381,"state":"OH"},"type":"Feature","geometry":{"type":"Point","coordinates":[-84.562331,40.550212]}},{"properties":{"city":"Celina","zip":"45822","latitude":40.549063,"ai type w bus size":"Schools (K-12)","primary_sic_description":"SCHOOLS","returned address":"417-423 E Market St","county":"Mercer","country":"USA","returned latitude":40.5491259,"returned longitude":-84.5653488,"longitude":-84.565348,"id":"a6611e7vv2fd","infousa_id":407754571,"state":"OH"},"type":"Feature","geometry":{"type":"Point","coordinates":[-84.565348,40.549063]}},{"properties":{"city":"Celina","zip":"45822","latitude":40.550212,"ai type w bus size":"Schools (K-12)","primary_sic_description":"SCHOOLS","returned address":"553 E Livingston St","county":"Mercer","country":"USA","returned latitude":40.550359,"returned longitude":-84.562562,"longitude":-84.562331,"id":"a6611ea0km9l","infousa_id":946090669,"state":"OH"},"type":"Feature","geometry":{"type":"Point","coordinates":[-84.562331,40.550212]}},{"properties":{"city":"Coldwater","zip":"45828","latitude":40.482107,"ai type w bus size":"Schools (K-12)","primary_sic_description":"SCHOOLS","returned address":"307-321 N 2nd St","county":"Mercer","country":"USA","returned latitude":40.4821068,"returned longitude":-84.6287162,"longitude":-84.628703,"id":"a6611eivb95y","infousa_id":462142332,"state":"OH"},"type":"Feature","geometry":{"type":"Point","coordinates":[-84.628703,40.482107]}},{"properties":{"city":"Coldwater","zip":"45828","latitude":40.482107,"ai type w bus size":"Schools (K-12)","primary_sic_description":"SCHOOLS","returned address":"307-321 N 2nd St","county":"Mercer","country":"USA","returned latitude":40.4821068,"returned longitude":-84.6287162,"longitude":-84.628703,"id":"a6611ej1uy4o","infousa_id":140558263,"state":"OH"},"type":"Feature","geometry":{"type":"Point","coordinates":[-84.628703,40.482107]}},{"properties":{"city":"Coldwater","zip":"45828","latitude":40.482107,"ai type w bus size":"Schools (K-12)","primary_sic_description":"SCHOOLS","returned address":"307-321 N 2nd St","county":"Mercer","country":"USA","returned latitude":40.4821068,"returned longitude":-84.6287162,"longitude":-84.628703,"id":"a6611e5bf104","infousa_id":479745077,"state":"OH"},"type":"Feature","geometry":{"type":"Point","coordinates":[-84.628703,40.482107]}},{"properties":{"city":"Coldwater","zip":"45828","latitude":40.482107,"ai type w bus size":"Schools (K-12)","primary_sic_description":"SCHOOLS","returned address":"307-321 N 2nd St","county":"Mercer","country":"USA","returned latitude":40.4821068,"returned longitude":-84.6287162,"longitude":-84.628703,"id":"a6611ec4cuoa","infousa_id":140558248,"state":"OH"},"type":"Feature","geometry":{"type":"Point","coordinates":[-84.628703,40.482107]}},{"properties":{"city":"Fort Recovery","zip":"45846","latitude":40.403834,"ai type w bus size":"Schools (K-12)","primary_sic_description":"SCHOOLS","returned address":"821-855 Sharpsburg Rd","county":"Mercer","country":"USA","returned latitude":40.4038415,"returned longitude":-84.768609,"longitude":-84.768617,"id":"a6611e5bdxzb","infousa_id":835286824,"state":"OH"},"type":"Feature","geometry":{"type":"Point","coordinates":[-84.768617,40.403834]}},{"properties":{"city":"Fort Recovery","zip":"45846","latitude":40.412779,"ai type w bus size":"Schools (K-12)","primary_sic_description":"SCHOOLS","returned address":"Butler St","county":"Mercer","country":"USA","returned latitude":40.4127735,"returned longitude":-84.7751055,"longitude":-84.774946,"id":"a6611ejy8iwg","infousa_id":835287046,"state":"OH"},"type":"Feature","geometry":{"type":"Point","coordinates":[-84.774946,40.412779]}},{"properties":{"city":"Fort Recovery","zip":"45846","latitude":40.403834,"ai type w bus size":"Schools (K-12)","primary_sic_description":"SCHOOLS","returned address":"821-855 Sharpsburg Rd","county":"Mercer","country":"USA","returned latitude":40.4038415,"returned longitude":-84.768609,"longitude":-84.768617,"id":"a6611e7nkd9d","infousa_id":140585639,"state":"OH"},"type":"Feature","geometry":{"type":"Point","coordinates":[-84.768617,40.403834]}},{"properties":{"city":"Fort Recovery","zip":"45846","latitude":40.403834,"ai type w bus size":"Schools (K-12)","primary_sic_description":"SCHOOLS","returned address":"821-855 Sharpsburg Rd","county":"Mercer","country":"USA","returned latitude":40.4038415,"returned longitude":-84.768609,"longitude":-84.768617,"id":"a6611ek4z9bi","infousa_id":208825778,"state":"OH"},"type":"Feature","geometry":{"type":"Point","coordinates":[-84.768617,40.403834]}},{"properties":{"city":"Fort Recovery","zip":"45846","latitude":40.412779,"ai type w bus size":"Schools (K-12)","primary_sic_description":"SCHOOLS","returned address":"Butler St","county":"Mercer","country":"USA","returned latitude":40.4127735,"returned longitude":-84.7751055,"longitude":-84.774946,"id":"a6611egnx6p4","infousa_id":461689242,"state":"OH"},"type":"Feature","geometry":{"type":"Point","coordinates":[-84.774946,40.412779]}},{"properties":{"city":"Maria Stein","zip":"45860","latitude":40.407596,"ai type w bus size":"Schools (K-12)","primary_sic_description":"SCHOOLS","returned address":"8000-8248 State Highway 119","county":"Mercer","country":"USA","returned latitude":40.4075892,"returned longitude":-84.486329,"longitude":-84.486329,"id":"a6611ef7islv","infousa_id":140589029,"state":"OH"},"type":"Feature","geometry":{"type":"Point","coordinates":[-84.486329,40.407596]}},{"properties":{"city":"Maria Stein","zip":"45860","latitude":40.404139,"ai type w bus size":"Schools (K-12)","primary_sic_description":"SCHOOLS","returned address":"1501-1999 State Highway 716","county":"Mercer","country":"USA","returned latitude":40.4041389,"returned longitude":-84.4935491,"longitude":-84.493511,"id":"a6611e4irw27","infousa_id":140589045,"state":"OH"},"type":"Feature","geometry":{"type":"Point","coordinates":[-84.493511,40.404139]}},{"properties":{"city":"Maria Stein","zip":"45860","latitude":40.407596,"ai type w bus size":"Schools (K-12)","primary_sic_description":"SCHOOLS","returned address":"8000-8248 State Highway 119","county":"Mercer","country":"USA","returned latitude":40.4075892,"returned longitude":-84.486329,"longitude":-84.486329,"id":"a6611ek7w0bm","infousa_id":649245149,"state":"OH"},"type":"Feature","geometry":{"type":"Point","coordinates":[-84.486329,40.407596]}},{"properties":{"city":"Rockford","zip":"45882","latitude":40.684211,"ai type w bus size":"Schools (K-12)","primary_sic_description":"SCHOOLS","returned address":"201 Buckeye St","county":"Mercer","country":"USA","returned latitude":40.683371,"returned longitude":-84.648629,"longitude":-84.648222,"id":"a6611ecyswlm","infousa_id":835284126,"state":"OH"},"type":"Feature","geometry":{"type":"Point","coordinates":[-84.648222,40.684211]}},{"properties":{"city":"St Henry","zip":"45883","latitude":40.415871,"ai type w bus size":"Schools (K-12)","primary_sic_description":"SCHOOLS","returned address":"571-599 E Columbus St","county":"Mercer","country":"USA","returned latitude":40.4158758,"returned longitude":-84.6308741,"longitude":-84.630874,"id":"a6611eizmg5z","infousa_id":140601931,"state":"OH"},"type":"Feature","geometry":{"type":"Point","coordinates":[-84.630874,40.415871]}},{"properties":{"city":"Celina","zip":"45822","latitude":40.428334,"ai type w bus size":"Other Institutions of Higher Education","primary_sic_description":"SCHOOLS-UNIVERSITIES &amp; COLLEGES ACADEMIC","returned address":"8578 State Route 703","county":"Mercer","country":"USA","returned latitude":40.5509944,"returned longitude":-84.4759465,"longitude":-84.571599,"id":"a6611eid7x6a","infousa_id":498390509,"state":"OH"},"type":"Feature","geometry":{"type":"Point","coordinates":[-84.571599,40.428334]}},{"properties":{"city":"St Henry","zip":"45883","latitude":40.550958,"ai type w bus size":"Other Institutions of Higher Education","primary_sic_description":"SCHOOLS-UNIVERSITIES &amp; COLLEGES ACADEMIC","returned address":"2846-2890 U.S. 127","county":"Mercer","country":"USA","returned latitude":40.4283341,"returned longitude":-84.5716215,"longitude":-84.475946,"id":"a6611eb4yfgc","infousa_id":1258144,"state":"OH"},"type":"Feature","geometry":{"type":"Point","coordinates":[-84.475946,40.550958]}},{"properties":{"city":"Celina","zip":"45822","latitude":40.547991,"ai type w bus size":"Other Community Support Organization","primary_sic_description":"SOCIAL SERVICE &amp; WELFARE ORGANIZATIONS","returned address":"100-116 W Fayette St","county":"Mercer","country":"USA","returned latitude":40.5480006,"returned longitude":-84.5711651,"longitude":-84.571165,"id":"a6611eiwtx2e","infousa_id":521874396,"state":"OH"},"type":"Feature","geometry":{"type":"Point","coordinates":[-84.571165,40.547991]}},{"properties":{"city":"Celina","zip":"45822","latitude":40.547991,"ai type w bus size":"Other Community Support Organization","primary_sic_description":"SOCIAL SERVICE &amp; WELFARE ORGANIZATIONS","returned address":"100-116 W Fayette St","county":"Mercer","country":"USA","returned latitude":40.5480006,"returned longitude":-84.5711651,"longitude":-84.571165,"id":"a6611e7kgrr5","infousa_id":835456385,"state":"OH"},"type":"Feature","geometry":{"type":"Point","coordinates":[-84.571165,40.547991]}},{"properties":{"city":"Celina","zip":"45822","latitude":40.550012,"ai type w bus size":"Other Community Support Organization","primary_sic_description":"SOCIAL SERVICE &amp; WELFARE ORGANIZATIONS","returned address":"214 W Livingston St","county":"Mercer","country":"USA","returned latitude":40.5498199,"returned longitude":-84.572922,"longitude":-84.572748,"id":"a6611e44589j","infousa_id":434339941,"state":"OH"},"type":"Feature","geometry":{"type":"Point","coordinates":[-84.572748,40.550012]}},{"properties":{"city":"Celina","zip":"45822","latitude":40.551907,"ai type w bus size":"Other Community Support Organization","primary_sic_description":"SOCIAL SERVICE &amp; WELFARE ORGANIZATIONS","returned address":"307 E Anthony St","county":"Mercer","country":"USA","returned latitude":40.552101,"returned longitude":-84.5675119,"longitude":-84.56758,"id":"a6611e4efjrg","infousa_id":140555863,"state":"OH"},"type":"Feature","geometry":{"type":"Point","coordinates":[-84.56758,40.551907]}},{"properties":{"city":"Celina","zip":"45822","latitude":40.547991,"ai type w bus size":"Other Community Support Organization","primary_sic_description":"SOCIAL SERVICE &amp; WELFARE ORGANIZATIONS","returned address":"100-116 W Fayette St","county":"Mercer","country":"USA","returned latitude":40.5480006,"returned longitude":-84.5711651,"longitude":-84.571165,"id":"a6611e87ti2h","infousa_id":895860344,"state":"OH"},"type":"Feature","geometry":{"type":"Point","coordinates":[-84.571165,40.547991]}},{"properties":{"city":"Coldwater","zip":"45828","latitude":40.483698,"ai type w bus size":"Other Community Support Organization","primary_sic_description":"SOCIAL SERVICE &amp; WELFARE ORGANIZATIONS","returned address":"403 N 2nd St","county":"Mercer","country":"USA","returned latitude":40.4837879,"returned longitude":-84.628368,"longitude":-84.628747,"id":"a6611ejisv79","infousa_id":990400632,"state":"OH"},"type":"Feature","geometry":{"type":"Point","coordinates":[-84.628747,40.483698]}},{"properties":{"city":"Celina","zip":"45822","latitude":40.545787,"ai type w bus size":"Other Community Support Organization","primary_sic_description":"VETERANS' &amp; MILITARY ORGANIZATIONS","returned address":"2007 State Route 703","county":"Mercer","country":"USA","returned latitude":40.5458154,"returned longitude":-84.5428503,"longitude":-84.542849,"id":"a6611ea60gcw","infousa_id":835460346,"state":"OH"},"type":"Feature","geometry":{"type":"Point","coordinates":[-84.542849,40.545787]}},{"properties":{"city":"Celina","zip":"45822","latitude":40.545556,"ai type w bus size":"Other Community Support Organization","primary_sic_description":"VETERANS' &amp; MILITARY ORGANIZATIONS","returned address":"1100-1138 W Logan St","county":"Mercer","country":"USA","returned latitude":40.5455389,"returned longitude":-84.5859649,"longitude":-84.585965,"id":"a6611e7xchms","infousa_id":835457987,"state":"OH"},"type":"Feature","geometry":{"type":"Point","coordinates":[-84.585965,40.545556]}},{"properties":{"city":"Coldwater","zip":"45828","latitude":40.457219,"ai type w bus size":"Other Community Support Organization","primary_sic_description":"VETERANS' &amp; MILITARY ORGANIZATIONS","returned address":"3742-3800 State Highway 118","county":"Mercer","country":"USA","returned latitude":40.457219,"returned longitude":-84.6287757,"longitude":-84.628778,"id":"a6611e99ily9","infousa_id":835530353,"state":"OH"},"type":"Feature","geometry":{"type":"Point","coordinates":[-84.628778,40.457219]}},{"properties":{"city":"Fort Recovery","zip":"45846","latitude":40.414036,"ai type w bus size":"Other Community Support Organization","primary_sic_description":"VETERANS' &amp; MILITARY ORGANIZATIONS","returned address":"282-298 State Highway 119","county":"Mercer","country":"USA","returned latitude":40.4140218,"returned longitude":-84.7954419,"longitude":-84.795438,"id":"a6611efocfyh","infousa_id":835286923,"state":"OH"},"type":"Feature","geometry":{"type":"Point","coordinates":[-84.795438,40.414036]}},{"properties":{"city":"St Henry","zip":"45883","latitude":40.417752,"ai type w bus size":"Other Community Support Organization","primary_sic_description":"VETERANS' &amp; MILITARY ORGANIZATIONS","returned address":"111-133 E Main St","county":"Mercer","country":"USA","returned latitude":40.4177505,"returned longitude":-84.639913,"longitude":-84.639913,"id":"a6611eg2wg8r","infousa_id":581013109,"state":"OH"},"type":"Feature","geometry":{"type":"Point","coordinates":[-84.639913,40.417752]}},{"properties":{"city":"Celina","zip":"45822","latitude":40.550983,"ai type w bus size":"Other Community Support Organization","primary_sic_description":"YOUTH ORGANIZATIONS &amp; CENTERS","returned address":"8522-8578 State Route 703","county":"Mercer","country":"USA","returned latitude":40.550991,"returned longitude":-84.4763781,"longitude":-84.476378,"id":"a6611eaffncg","infousa_id":835461443,"state":"OH"},"type":"Feature","geometry":{"type":"Point","coordinates":[-84.476378,40.550983]}}],"is_temporal":false,"author":{"url":"","metadata":"","contact_name":"","contact_address":"","source":"","contact_phone":""},"source":"","pagination":{"sort":null,"start":0,"total":315,"limit":1000000},"state":"complete","tags":"","published":"2014-08-14T17:01:02-04:00","id":201654}