{"type":"FeatureCollection","data_type":"Dataset","url_type":null,"permissions":[{"permissions":{"download":true,"view":true},"group_id":"everyone"}],"classification":null,"title":"District Capitals","count":170,"stream_id":201932,"contributor":{"url":"http://geocommons.com/users/39402","name":"cersgis"},"data_attributes":null,"calculation_params":null,"icon_link":null,"link":"http://geocommons.com/overlays/201932.json","extent":[-3.09383,4.86635,1.16123,11.0576],"geometry_types":["point"],"unique_name":null,"name":"District Capitals","feature_count":170,"description":"District capitals of the identifiable districts","next_feature":null,"is_raster":false,"short_classification":"Y","stats":{"POPCAP":{"max":1014879,"mean":18264.3588235294,"variance":7609968167.08349,"stdev":87235.1314957655,"min":0,"median":4098}},"features":[{"properties":{"NAMECAP":"Ofinso","POPCAP":2908,"DISTRICT":"OFINSO","STATUS":"District Capital","id":"0"},"type":"Feature","geometry":{"type":"Point","coordinates":[-1.670200706285,6.93563126630221]}},{"properties":{"NAMECAP":"Effiduase","POPCAP":8800,"DISTRICT":"SEKYERE EAST","STATUS":"District Capital","id":"1"},"type":"Feature","geometry":{"type":"Point","coordinates":[-1.39744687156662,6.84829806405101]}},{"properties":{"NAMECAP":"Tepa","POPCAP":8100,"DISTRICT":"AHAFO ANO NORTH","STATUS":"District Capital","id":"2"},"type":"Feature","geometry":{"type":"Point","coordinates":[-2.165504694713,7.0047726542029]}},{"properties":{"NAMECAP":"Bekwai","POPCAP":11800,"DISTRICT":"BEKWAI MUNICIPAL","STATUS":"District Capital","id":"3"},"type":"Feature","geometry":{"type":"Point","coordinates":[-1.56926786966988,6.45166587031709]}},{"properties":{"NAMECAP":"Konongo-odumase","POPCAP":20600,"DISTRICT":"ASANTE-AKYEM NORTH","STATUS":"District Capital","id":"4"},"type":"Feature","geometry":{"type":"Point","coordinates":[-1.21236956192959,6.62304686662406]}},{"properties":{"NAMECAP":"Kumasi","POPCAP":488991,"DISTRICT":"KUMASI METRO","STATUS":"Regional Capital","id":"5"},"type":"Feature","geometry":{"type":"Point","coordinates":[-1.62162792754264,6.69614266505468]}},{"properties":{"NAMECAP":"Obuasi","POPCAP":60000,"DISTRICT":"ADANSI WEST","STATUS":"District Capital","id":"6"},"type":"Feature","geometry":{"type":"Point","coordinates":[-1.66481268467818,6.19648551195215]}},{"properties":{"NAMECAP":"Manso Nkwanta","POPCAP":1508,"DISTRICT":"AMANSIE WEST","STATUS":"District Capital","id":"7"},"type":"Feature","geometry":{"type":"Point","coordinates":[-1.88707399433607,6.4665303150793]}},{"properties":{"NAMECAP":"Juaso","POPCAP":5900,"DISTRICT":"ASANTE-AKYEM SOUTH","STATUS":"District Capital","id":"8"},"type":"Feature","geometry":{"type":"Point","coordinates":[-1.12171757294488,6.57934664848931]}},{"properties":{"NAMECAP":"Mamponteng","POPCAP":4098,"DISTRICT":"KWABRE","STATUS":"District Capital","id":"9"},"type":"Feature","geometry":{"type":"Point","coordinates":[-1.56839227750102,6.78539084526662]}},{"properties":{"NAMECAP":"Agona Akrofoso","POPCAP":6000,"DISTRICT":"AFIGYA SEKYERE","STATUS":"District Capital","id":"10"},"type":"Feature","geometry":{"type":"Point","coordinates":[-1.46969330387833,6.9183859736336]}},{"properties":{"NAMECAP":"Ejura","POPCAP":18600,"DISTRICT":"EJURA/SEKYERE","STATUS":"District Capital","id":"11"},"type":"Feature","geometry":{"type":"Point","coordinates":[-1.35902512160163,7.38030194263755]}},{"properties":{"NAMECAP":"New Edubiase","POPCAP":6000,"DISTRICT":"ADANSI EAST","STATUS":"District Capital","id":"12"},"type":"Feature","geometry":{"type":"Point","coordinates":[-1.39374268116087,6.05792140237838]}},{"properties":{"NAMECAP":"Kuntenase","POPCAP":1548,"DISTRICT":"BOSUMTWI KWANWOMA","STATUS":"District Capital","id":"13"},"type":"Feature","geometry":{"type":"Point","coordinates":[-1.47787213395282,6.53968667167392]}},{"properties":{"NAMECAP":"Ejisu","POPCAP":5100,"DISTRICT":"EJISU/JUABEN","STATUS":"District Capital","id":"14"},"type":"Feature","geometry":{"type":"Point","coordinates":[-1.47171700073995,6.71901225192838]}},{"properties":{"NAMECAP":"Nkawie","POPCAP":2371,"DISTRICT":"ATWIMA NWABIAGYA","STATUS":"District Capital","id":"15"},"type":"Feature","geometry":{"type":"Point","coordinates":[-1.80907785962041,6.66439723134162]}},{"properties":{"NAMECAP":"Mankranso","POPCAP":1676,"DISTRICT":"AHAFO ANO SOUTH","STATUS":"District Capital","id":"16"},"type":"Feature","geometry":{"type":"Point","coordinates":[-1.86240053248802,6.81685923667975]}},{"properties":{"NAMECAP":"Mampong Ashanti","POPCAP":19800,"DISTRICT":"SEKYERE WEST","STATUS":"District Capital","id":"17"},"type":"Feature","geometry":{"type":"Point","coordinates":[-1.4003077385146,7.06182401837242]}},{"properties":{"NAMECAP":"Goaso","POPCAP":6800,"DISTRICT":"ASUNAFO","STATUS":"District Capital","id":"18"},"type":"Feature","geometry":{"type":"Point","coordinates":[-2.52002286977351,6.79866170035946]}},{"properties":{"NAMECAP":"Kenyase No. 1","POPCAP":7200,"DISTRICT":"ASUTIFI","STATUS":"District Capital","id":"19"},"type":"Feature","geometry":{"type":"Point","coordinates":[-2.38010168146006,6.97157000613745]}},{"properties":{"NAMECAP":"Dormaa Ahenkro","POPCAP":1300,"DISTRICT":"DORMAA","STATUS":"District Capital","id":"20"},"type":"Feature","geometry":{"type":"Point","coordinates":[-2.87475681376322,7.27783726717293]}},{"properties":{"NAMECAP":"Berekum","POPCAP":21900,"DISTRICT":"BEREKUM","STATUS":"District Capital","id":"21"},"type":"Feature","geometry":{"type":"Point","coordinates":[-2.58300805168657,7.44871996870136]}},{"properties":{"NAMECAP":"Bechem","POPCAP":9200,"DISTRICT":"TANO","STATUS":"District Capital","id":"22"},"type":"Feature","geometry":{"type":"Point","coordinates":[-2.11885595396904,7.12134455721268]}},{"properties":{"NAMECAP":"Wenchi","POPCAP":18400,"DISTRICT":"WENCHI","STATUS":"District Capital","id":"23"},"type":"Feature","geometry":{"type":"Point","coordinates":[-2.10620761003799,7.73752020769667]}},{"properties":{"NAMECAP":"Sunyani","POPCAP":36100,"DISTRICT":"SUNYANI","STATUS":"Regional Capital","id":"24"},"type":"Feature","geometry":{"type":"Point","coordinates":[-2.330508471307,7.33763550764047]}},{"properties":{"NAMECAP":"Kwame Danso","POPCAP":5700,"DISTRICT":"SENE","STATUS":"District Capital","id":"25"},"type":"Feature","geometry":{"type":"Point","coordinates":[-0.677285374207001,7.72802161126404]}},{"properties":{"NAMECAP":"Atebubu","POPCAP":9800,"DISTRICT":"ATEBUBU","STATUS":"District Capital","id":"26"},"type":"Feature","geometry":{"type":"Point","coordinates":[-0.986535073297068,7.74638699444033]}},{"properties":{"NAMECAP":"Kintampo","POPCAP":14100,"DISTRICT":"KINTAMPO","STATUS":"District Capital","id":"27"},"type":"Feature","geometry":{"type":"Point","coordinates":[-1.72682750320448,8.05127524252336]}},{"properties":{"NAMECAP":"Drobo","POPCAP":1538,"DISTRICT":"JAMAN","STATUS":"District Capital","id":"28"},"type":"Feature","geometry":{"type":"Point","coordinates":[-2.78641533928823,7.5854663750552]}},{"properties":{"NAMECAP":"Nkoranza","POPCAP":1500,"DISTRICT":"NKORANZA","STATUS":"District Capital","id":"29"},"type":"Feature","geometry":{"type":"Point","coordinates":[-1.71009314147043,7.56539391473459]}},{"properties":{"NAMECAP":"Techiman","POPCAP":25200,"DISTRICT":"TECHIMAN","STATUS":"District Capital","id":"30"},"type":"Feature","geometry":{"type":"Point","coordinates":[-1.93728768910498,7.57970332103044]}},{"properties":{"NAMECAP":"Assin Fosu","POPCAP":10700,"DISTRICT":"ASSIN","STATUS":"District Capital","id":"31"},"type":"Feature","geometry":{"type":"Point","coordinates":[-1.27537763173455,5.69240044898263]}},{"properties":{"NAMECAP":"Breman Asikuma","POPCAP":8200,"DISTRICT":"ASIKUMA/ODOBEN/BRAKWA","STATUS":"District Capital","id":"32"},"type":"Feature","geometry":{"type":"Point","coordinates":[-0.996099889819605,5.57930898035688]}},{"properties":{"NAMECAP":"Twifo Praso","POPCAP":3613,"DISTRICT":"TWIFO-HEMAN/LOWER DENKYIRA","STATUS":"District Capital","id":"33"},"type":"Feature","geometry":{"type":"Point","coordinates":[-1.55105006746202,5.60971354812013]}},{"properties":{"NAMECAP":"Abura Dunkwa","POPCAP":5200,"DISTRICT":"ABURA/ASEBU/KWAMANKESE","STATUS":"District Capital","id":"34"},"type":"Feature","geometry":{"type":"Point","coordinates":[-1.16749680090431,5.33440207861095]}},{"properties":{"NAMECAP":"Cape Coast","POPCAP":86620,"DISTRICT":"CAPE COAST","STATUS":"Regional Capital","id":"35"},"type":"Feature","geometry":{"type":"Point","coordinates":[-1.23769581361049,5.10511302426639]}},{"properties":{"NAMECAP":"Saltpond","POPCAP":12600,"DISTRICT":"MFANTSIMAN","STATUS":"District Capital","id":"36"},"type":"Feature","geometry":{"type":"Point","coordinates":[-1.05855321930103,5.19687508991104]}},{"properties":{"NAMECAP":"Winneba","POPCAP":26200,"DISTRICT":"AWUTU/EWUTU/SENYA","STATUS":"District Capital","id":"37"},"type":"Feature","geometry":{"type":"Point","coordinates":[-0.620458663021737,5.33558558832193]}},{"properties":{"NAMECAP":"Agona Swedru","POPCAP":30300,"DISTRICT":"AGONA","STATUS":"District Capital","id":"38"},"type":"Feature","geometry":{"type":"Point","coordinates":[-0.700495243620419,5.5282940801982]}},{"properties":{"NAMECAP":"Apam","POPCAP":13200,"DISTRICT":"GOMOA","STATUS":"District Capital","id":"39"},"type":"Feature","geometry":{"type":"Point","coordinates":[-0.732016325491685,5.28327226067158]}},{"properties":{"NAMECAP":"Elmina","POPCAP":15600,"DISTRICT":"KOMENDA/EDNA EGUAFO/ABIRE","STATUS":"District Capital","id":"40"},"type":"Feature","geometry":{"type":"Point","coordinates":[-1.34941458744198,5.08196210347337]}},{"properties":{"NAMECAP":"Ajumako","POPCAP":2798,"DISTRICT":"AJUMAKO/ENYAN/ESUNAFO","STATUS":"District Capital","id":"41"},"type":"Feature","geometry":{"type":"Point","coordinates":[-0.955979705368282,5.42257975934378]}},{"properties":{"NAMECAP":"Dunkwa-on-ofin","POPCAP":16900,"DISTRICT":"UPPER DENKYIRA","STATUS":"District Capital","id":"42"},"type":"Feature","geometry":{"type":"Point","coordinates":[-1.78061461505456,5.96708106297704]}},{"properties":{"NAMECAP":"Suhum","POPCAP":21800,"DISTRICT":"SUHUM/KRABOA/COALTAR","STATUS":"District Capital","id":"43"},"type":"Feature","geometry":{"type":"Point","coordinates":[-0.449971467926838,6.03693198420185]}},{"properties":{"NAMECAP":"Koforidua","POPCAP":98008,"DISTRICT":"NEW JUABEN","STATUS":"Regional Capital","id":"44"},"type":"Feature","geometry":{"type":"Point","coordinates":[-0.259758592346558,6.09078025065427]}},{"properties":{"NAMECAP":"Nsawam","POPCAP":31900,"DISTRICT":"AKWAPIM SOUTH","STATUS":"District Capital","id":"45"},"type":"Feature","geometry":{"type":"Point","coordinates":[-0.349658817681411,5.80913733743293]}},{"properties":{"NAMECAP":"Akropong Akwapim","POPCAP":10500,"DISTRICT":"AKWAPIM NORTH","STATUS":"District Capital","id":"46"},"type":"Feature","geometry":{"type":"Point","coordinates":[-0.0868683315172564,5.97098874313966]}},{"properties":{"NAMECAP":"Somanya","POPCAP":12700,"DISTRICT":"YILO KROBO","STATUS":"District Capital","id":"47"},"type":"Feature","geometry":{"type":"Point","coordinates":[-0.0144118357145676,6.10223244860711]}},{"properties":{"NAMECAP":"Kibi","POPCAP":7200,"DISTRICT":"EAST AKIM","STATUS":"District Capital","id":"48"},"type":"Feature","geometry":{"type":"Point","coordinates":[-0.557083368990639,6.16225241854145]}},{"properties":{"NAMECAP":"Kade","POPCAP":8600,"DISTRICT":"KWAEBIBIREM","STATUS":"District Capital","id":"49"},"type":"Feature","geometry":{"type":"Point","coordinates":[-0.840201736152096,6.0921692774134]}},{"properties":{"NAMECAP":"Begoro","POPCAP":18200,"DISTRICT":"FANTEAKWA","STATUS":"District Capital","id":"50"},"type":"Feature","geometry":{"type":"Point","coordinates":[-0.379080266508652,6.3845581927537]}},{"properties":{"NAMECAP":"Mpraeso","POPCAP":6700,"DISTRICT":"KWAHU SOUTH","STATUS":"District Capital","id":"51"},"type":"Feature","geometry":{"type":"Point","coordinates":[-0.734414876271524,6.58980702513278]}},{"properties":{"NAMECAP":"Odumase Krobo","POPCAP":9200,"DISTRICT":"MANYA KROBO","STATUS":"District Capital","id":"52"},"type":"Feature","geometry":{"type":"Point","coordinates":[0.00305918950986167,6.13215541073189]}},{"properties":{"NAMECAP":"Atimpoku","POPCAP":1652,"DISTRICT":"ASUOGYAMAN","STATUS":"District Capital","id":"53"},"type":"Feature","geometry":{"type":"Point","coordinates":[0.0916630916229027,6.23619317219338]}},{"properties":{"NAMECAP":"Asamankese","POPCAP":23000,"DISTRICT":"WEST AKIM","STATUS":"District Capital","id":"54"},"type":"Feature","geometry":{"type":"Point","coordinates":[-0.669280231618632,5.86306094426031]}},{"properties":{"NAMECAP":"New Abirem","POPCAP":1480,"DISTRICT":"BIRIM NORTH","STATUS":"District Capital","id":"55"},"type":"Feature","geometry":{"type":"Point","coordinates":[-0.998280645110841,6.33770322013139]}},{"properties":{"NAMECAP":"Donkorkrom","POPCAP":2826,"DISTRICT":"AFRAM PLAINS","STATUS":"District Capital","id":"56"},"type":"Feature","geometry":{"type":"Point","coordinates":[-0.0839114868796768,7.04251860634569]}},{"properties":{"NAMECAP":"Akim Oda","POPCAP":24400,"DISTRICT":"BIRIM SOUNTH","STATUS":"District Capital","id":"57"},"type":"Feature","geometry":{"type":"Point","coordinates":[-0.980292618887898,5.92910384427245]}},{"properties":{"NAMECAP":"Zebilla","POPCAP":5155,"DISTRICT":"BAWKU WEST","STATUS":"District Capital","id":"58"},"type":"Feature","geometry":{"type":"Point","coordinates":[-0.49833512468456,10.9329948278587]}},{"properties":{"NAMECAP":"Bawku","POPCAP":33900,"DISTRICT":"BAWKU EAST","STATUS":"District Capital","id":"59"},"type":"Feature","geometry":{"type":"Point","coordinates":[-0.242991568339072,11.0576124042935]}},{"properties":{"NAMECAP":"Bolgatanga","POPCAP":31500,"DISTRICT":"BOLGATANGA","STATUS":"Regional Capital","id":"60"},"type":"Feature","geometry":{"type":"Point","coordinates":[-0.853030921573989,10.7817420814869]}},{"properties":{"NAMECAP":"Bongo","POPCAP":3171,"DISTRICT":"BONGO","STATUS":"District Capital","id":"61"},"type":"Feature","geometry":{"type":"Point","coordinates":[-0.806012334014111,10.9100789877833]}},{"properties":{"NAMECAP":"Navrongo","POPCAP":10600,"DISTRICT":"KASSENA/NANKANA","STATUS":"District Capital","id":"62"},"type":"Feature","geometry":{"type":"Point","coordinates":[-1.08936298046604,10.891737923394]}},{"properties":{"NAMECAP":"Sandema","POPCAP":0,"DISTRICT":"BULSA","STATUS":"District Capital","id":"63"},"type":"Feature","geometry":{"type":"Point","coordinates":[-1.28108036665791,10.7383890008504]}},{"properties":{"NAMECAP":"Hohoe","POPCAP":21000,"DISTRICT":"HOHOE","STATUS":"District Capital","id":"64"},"type":"Feature","geometry":{"type":"Point","coordinates":[0.476076244320995,7.15118788703839]}},{"properties":{"NAMECAP":"Jasikan","POPCAP":6600,"DISTRICT":"JASIKAN","STATUS":"District Capital","id":"65"},"type":"Feature","geometry":{"type":"Point","coordinates":[0.471165805013703,7.40678357064624]}},{"properties":{"NAMECAP":"Kadjebi","POPCAP":7500,"DISTRICT":"KADJEBI","STATUS":"District Capital","id":"66"},"type":"Feature","geometry":{"type":"Point","coordinates":[0.475510357742743,7.5274767772275]}},{"properties":{"NAMECAP":"Kete-krachi","POPCAP":7200,"DISTRICT":"KRACHI WEST","STATUS":"District Capital","id":"67"},"type":"Feature","geometry":{"type":"Point","coordinates":[-0.0479756455380943,7.79276751404929]}},{"properties":{"NAMECAP":"Kpandu","POPCAP":15800,"DISTRICT":"KPANDU","STATUS":"District Capital","id":"68"},"type":"Feature","geometry":{"type":"Point","coordinates":[0.293140648861594,6.99466799752638]}},{"properties":{"NAMECAP":"Ho","POPCAP":37200,"DISTRICT":"HO","STATUS":"Regional Capital","id":"69"},"type":"Feature","geometry":{"type":"Point","coordinates":[0.469885020580132,6.60847472274992]}},{"properties":{"NAMECAP":"Nkwanta","POPCAP":4334,"DISTRICT":"NKWANTA","STATUS":"District Capital","id":"70"},"type":"Feature","geometry":{"type":"Point","coordinates":[0.521381734574871,8.25447844307433]}},{"properties":{"NAMECAP":"Akatsi","POPCAP":6400,"DISTRICT":"AKATSI","STATUS":"District Capital","id":"71"},"type":"Feature","geometry":{"type":"Point","coordinates":[0.798046588095849,6.13072537591756]}},{"properties":{"NAMECAP":"Sogakope","POPCAP":4270,"DISTRICT":"SOGAKOPE","STATUS":"District Capital","id":"72"},"type":"Feature","geometry":{"type":"Point","coordinates":[0.593734144418652,5.99826525889246]}},{"properties":{"NAMECAP":"Adidome","POPCAP":3966,"DISTRICT":"ADIDOME","STATUS":"District Capital","id":"73"},"type":"Feature","geometry":{"type":"Point","coordinates":[0.507215737545464,6.06334256362064]}},{"properties":{"NAMECAP":"Denu","POPCAP":4237,"DISTRICT":"KETU","STATUS":"District Capital","id":"74"},"type":"Feature","geometry":{"type":"Point","coordinates":[1.16122949037313,6.0950813214879]}},{"properties":{"NAMECAP":"Keta","POPCAP":12700,"DISTRICT":"KETA","STATUS":"District Capital","id":"75"},"type":"Feature","geometry":{"type":"Point","coordinates":[0.989655315090667,5.92054986207577]}},{"properties":{"NAMECAP":"Half Assini","POPCAP":8800,"DISTRICT":"JOMORO","STATUS":"District Capital","id":"76"},"type":"Feature","geometry":{"type":"Point","coordinates":[-2.88142180476625,5.04877137660171]}},{"properties":{"NAMECAP":"Sekondi","POPCAP":31916,"DISTRICT":"SEKONDI MUNICIPAL","STATUS":"Regional Capital","id":"77"},"type":"Feature","geometry":{"type":"Point","coordinates":[-1.70974421538537,4.93333434585828]}},{"properties":{"NAMECAP":"Agona Nkwanta","POPCAP":3979,"DISTRICT":"AHANTA WEST","STATUS":"District Capital","id":"78"},"type":"Feature","geometry":{"type":"Point","coordinates":[-1.96676790749494,4.88569640656492]}},{"properties":{"NAMECAP":"Axim","POPCAP":13100,"DISTRICT":"NZEMA EAST","STATUS":"District Capital","id":"79"},"type":"Feature","geometry":{"type":"Point","coordinates":[-2.23990792605843,4.86635341423273]}},{"properties":{"NAMECAP":"Bibiani","POPCAP":10200,"DISTRICT":"BIBIANI ANWIAWSO","STATUS":"District Capital","id":"80"},"type":"Feature","geometry":{"type":"Point","coordinates":[-2.31742882790396,6.4494609754368]}},{"properties":{"NAMECAP":"Juabeso","POPCAP":1100,"DISTRICT":"JUABESO BIA","STATUS":"District Capital","id":"81"},"type":"Feature","geometry":{"type":"Point","coordinates":[-2.82852363642508,6.33154534541505]}},{"properties":{"NAMECAP":"Daboase","POPCAP":2300,"DISTRICT":"MPOHOR/WASSA EAST","STATUS":"District Capital","id":"82"},"type":"Feature","geometry":{"type":"Point","coordinates":[-1.65836501163042,5.1325073190268]}},{"properties":{"NAMECAP":"Tarkwa","POPCAP":22000,"DISTRICT":"WASSA WEST","STATUS":"District Capital","id":"83"},"type":"Feature","geometry":{"type":"Point","coordinates":[-1.99488472981534,5.30308198377908]}},{"properties":{"NAMECAP":"Asankragua","POPCAP":6300,"DISTRICT":"WASSA AMENFI","STATUS":"District Capital","id":"84"},"type":"Feature","geometry":{"type":"Point","coordinates":[-2.43767809917513,5.8086819583538]}},{"properties":{"NAMECAP":"Enchi","POPCAP":6100,"DISTRICT":"AOWIN-SUAMAN","STATUS":"District Capital","id":"85"},"type":"Feature","geometry":{"type":"Point","coordinates":[-2.82399487542826,5.81818246194074]}},{"properties":{"NAMECAP":"Sefwi Wiawso","POPCAP":6000,"DISTRICT":"SEFWI WIASO","STATUS":"District Capital","id":"86"},"type":"Feature","geometry":{"type":"Point","coordinates":[-2.48638033923231,6.2066879199164]}},{"properties":{"NAMECAP":"Tamale","POPCAP":150072,"DISTRICT":"WEST DAGOMBA","STATUS":"Regional Capital","id":"87"},"type":"Feature","geometry":{"type":"Point","coordinates":[-0.842720092640236,9.40206812525291]}},{"properties":{"NAMECAP":"Savelugu","POPCAP":1700,"DISTRICT":"SAVELUGU/NANTOM","STATUS":"District Capital","id":"88"},"type":"Feature","geometry":{"type":"Point","coordinates":[-0.828188122658864,9.62460325832947]}},{"properties":{"NAMECAP":"Tolon","POPCAP":3320,"DISTRICT":"TOLON/KUMBUGU","STATUS":"District Capital","id":"89"},"type":"Feature","geometry":{"type":"Point","coordinates":[-1.0647140908676,9.4311850941773]}},{"properties":{"NAMECAP":"Damongo","POPCAP":12600,"DISTRICT":"WEST GONJA","STATUS":"District Capital","id":"90"},"type":"Feature","geometry":{"type":"Point","coordinates":[-1.8155304204728,9.07723425591551]}},{"properties":{"NAMECAP":"Bole","POPCAP":6100,"DISTRICT":"BOLE","STATUS":"District Capital","id":"91"},"type":"Feature","geometry":{"type":"Point","coordinates":[-2.49073410137785,9.02675436717571]}},{"properties":{"NAMECAP":"Yendi","POPCAP":30700,"DISTRICT":"EAST DAGOMBA","STATUS":"District Capital","id":"92"},"type":"Feature","geometry":{"type":"Point","coordinates":[-0.00963199651544095,9.43900965337444]}},{"properties":{"NAMECAP":"Zabzugu","POPCAP":8900,"DISTRICT":"ZABZUGU/TATALE","STATUS":"District Capital","id":"93"},"type":"Feature","geometry":{"type":"Point","coordinates":[0.36752956963594,9.29221914903564]}},{"properties":{"NAMECAP":"Gushiegu","POPCAP":8800,"DISTRICT":"GUSHIEGU/KARAGA","STATUS":"District Capital","id":"94"},"type":"Feature","geometry":{"type":"Point","coordinates":[-0.217964233439485,9.9212274415159]}},{"properties":{"NAMECAP":"Walewale","POPCAP":8100,"DISTRICT":"WEST MAMPRUSI","STATUS":"District Capital","id":"95"},"type":"Feature","geometry":{"type":"Point","coordinates":[-0.799093367144462,10.3473768094164]}},{"properties":{"NAMECAP":"Saboba","POPCAP":1563,"DISTRICT":"SABOBA/CHEREPONI","STATUS":"District Capital","id":"96"},"type":"Feature","geometry":{"type":"Point","coordinates":[0.317976920299903,9.7067117556384]}},{"properties":{"NAMECAP":"Bimbila","POPCAP":10500,"DISTRICT":"NANUMBA","STATUS":"District Capital","id":"97"},"type":"Feature","geometry":{"type":"Point","coordinates":[0.0573801310812876,8.8558368559857]}},{"properties":{"NAMECAP":"Gambaga","POPCAP":5800,"DISTRICT":"EAST MAMPRUSI","STATUS":"District Capital","id":"98"},"type":"Feature","geometry":{"type":"Point","coordinates":[-0.440992386705656,10.5297422266386]}},{"properties":{"NAMECAP":"Salaga","POPCAP":10600,"DISTRICT":"EAST GONJA","STATUS":"District Capital","id":"99"},"type":"Feature","geometry":{"type":"Point","coordinates":[-0.520832957009452,8.54879950302105]}},{"properties":{"NAMECAP":"Dodowa","POPCAP":4732,"DISTRICT":"DANGBE WEST","STATUS":"District Capital","id":"100"},"type":"Feature","geometry":{"type":"Point","coordinates":[-0.105335653487601,5.87737130406615]}},{"properties":{"NAMECAP":"Amasaman","POPCAP":1333,"DISTRICT":"GA","STATUS":"District Capital","id":"101"},"type":"Feature","geometry":{"type":"Point","coordinates":[-0.302042156129138,5.70637156704388]}},{"properties":{"NAMECAP":"Accra","POPCAP":1014879,"DISTRICT":"ACCRA METRO","STATUS":"National Capital","id":"102"},"type":"Feature","geometry":{"type":"Point","coordinates":[-0.206457168443147,5.53895568209024]}},{"properties":{"NAMECAP":"Tema Municipal Area","POPCAP":98100,"DISTRICT":"TEMA","STATUS":"District Capital","id":"103"},"type":"Feature","geometry":{"type":"Point","coordinates":[-0.00863236084441731,5.62806637878516]}},{"properties":{"NAMECAP":"Ada Foah","POPCAP":5445,"DISTRICT":"DANGBE EAST","STATUS":"District Capital","id":"104"},"type":"Feature","geometry":{"type":"Point","coordinates":[0.634214902246873,5.78226536711959]}},{"properties":{"NAMECAP":"Wa","POPCAP":35000,"DISTRICT":"WA","STATUS":"Regional Capital","id":"105"},"type":"Feature","geometry":{"type":"Point","coordinates":[-2.49840664983452,10.0601663455319]}},{"properties":{"NAMECAP":"Nadawli","POPCAP":1254,"DISTRICT":"NADAWLI","STATUS":"District Capital","id":"106"},"type":"Feature","geometry":{"type":"Point","coordinates":[-2.66748786094966,10.3701429229608]}},{"properties":{"NAMECAP":"Tumu","POPCAP":6000,"DISTRICT":"SISSALA","STATUS":"District Capital","id":"107"},"type":"Feature","geometry":{"type":"Point","coordinates":[-1.98564434191309,10.8745088433482]}},{"properties":{"NAMECAP":"Jirapa","POPCAP":5400,"DISTRICT":"JIRAPA/LAMBUSIE","STATUS":"District Capital","id":"108"},"type":"Feature","geometry":{"type":"Point","coordinates":[-2.70285844927181,10.5315179685652]}},{"properties":{"NAMECAP":"Lawra","POPCAP":4080,"DISTRICT":"LAWRA","STATUS":"District Capital","id":"109"},"type":"Feature","geometry":{"type":"Point","coordinates":[-2.89022493485817,10.6441182950086]}},{"properties":{"NAMECAP":"Tongo","POPCAP":0,"DISTRICT":"TALENSI-NABDAM","STATUS":"District Capital","id":"110"},"type":"Feature","geometry":{"type":"Point","coordinates":[-0.799908836430076,10.7084272605808]}},{"properties":{"NAMECAP":"Gwollu","POPCAP":0,"DISTRICT":"SISSALA-WEST","STATUS":"District Capital","id":"111"},"type":"Feature","geometry":{"type":"Point","coordinates":[-2.21721417409758,10.9794170889493]}},{"properties":{"NAMECAP":"Garu","POPCAP":0,"DISTRICT":"GARU-TEMPANE","STATUS":"District Capital","id":"112"},"type":"Feature","geometry":{"type":"Point","coordinates":[-0.178147397813273,10.8539850791866]}},{"properties":{"NAMECAP":"Bunkpurugu","POPCAP":0,"DISTRICT":"BUNKPURUGU  YUNYOO","STATUS":"District Capital","id":"113"},"type":"Feature","geometry":{"type":"Point","coordinates":[0.0962764245235591,10.51865313938]}},{"properties":{"NAMECAP":"Karaga","POPCAP":0,"DISTRICT":"KARAGA","STATUS":"District Capital","id":"114"},"type":"Feature","geometry":{"type":"Point","coordinates":[-0.431732757012599,9.92680780317082]}},{"properties":{"NAMECAP":"Funsi","POPCAP":0,"DISTRICT":"WA EAST","STATUS":"District Capital","id":"115"},"type":"Feature","geometry":{"type":"Point","coordinates":[-1.96872193911107,10.2943293638986]}},{"properties":{"NAMECAP":"Wenchiau","POPCAP":0,"DISTRICT":"WA WEST","STATUS":"District Capital","id":"116"},"type":"Feature","geometry":{"type":"Point","coordinates":[-2.68235854162462,9.82570740268137]}},{"properties":{"NAMECAP":"Sawla","POPCAP":0,"DISTRICT":"SAWLA - TUNA - KALBA","STATUS":"District Capital","id":"117"},"type":"Feature","geometry":{"type":"Point","coordinates":[-2.4138921737746,9.27254222543363]}},{"properties":{"NAMECAP":"Buipe","POPCAP":0,"DISTRICT":"CENTRAL GONJA","STATUS":"District Capital","id":"118"},"type":"Feature","geometry":{"type":"Point","coordinates":[-1.46328883233937,8.77474586077892]}},{"properties":{"NAMECAP":"Wulensi","POPCAP":0,"DISTRICT":"NANUMBA  SOUTH","STATUS":"District Capital","id":"119"},"type":"Feature","geometry":{"type":"Point","coordinates":[-0.00134765351483431,8.65457126354282]}},{"properties":{"NAMECAP":"Dambai","POPCAP":0,"DISTRICT":"KRACHI EAST","STATUS":"District Capital","id":"120"},"type":"Feature","geometry":{"type":"Point","coordinates":[0.178625460816608,8.06786234396683]}},{"properties":{"NAMECAP":"Yeji","POPCAP":0,"DISTRICT":"PRU","STATUS":"District Capital","id":"121"},"type":"Feature","geometry":{"type":"Point","coordinates":[-0.650172825038722,8.22319773109118]}},{"properties":{"NAMECAP":"Sampa","POPCAP":0,"DISTRICT":"JAMAN NORTH","STATUS":"District Capital","id":"122"},"type":"Feature","geometry":{"type":"Point","coordinates":[-2.69619264006918,7.94768009275327]}},{"properties":{"NAMECAP":"Nsawkaw","POPCAP":0,"DISTRICT":"TAIN","STATUS":"District Capital","id":"123"},"type":"Feature","geometry":{"type":"Point","coordinates":[-2.31349224727127,7.87559199518148]}},{"properties":{"NAMECAP":"Jema","POPCAP":0,"DISTRICT":"KINTAMPO SOUTH","STATUS":"District Capital","id":"124"},"type":"Feature","geometry":{"type":"Point","coordinates":[-1.77076835441284,7.90010528903162]}},{"properties":{"NAMECAP":"Duayaw Nkwanta","POPCAP":0,"DISTRICT":"TANO NORTH","STATUS":"District Capital","id":"125"},"type":"Feature","geometry":{"type":"Point","coordinates":[-2.10073046886605,7.17240798268356]}},{"properties":{"NAMECAP":"Old Debiso","POPCAP":0,"DISTRICT":"BIA","STATUS":"District Capital","id":"126"},"type":"Feature","geometry":{"type":"Point","coordinates":[-3.09382895060864,6.65851790705801]}},{"properties":{"NAMECAP":"Kukuom","POPCAP":0,"DISTRICT":"ASUNAFO SOUTH","STATUS":"District Capital","id":"127"},"type":"Feature","geometry":{"type":"Point","coordinates":[-2.44309773851059,6.69417683637128]}},{"properties":{"NAMECAP":"Nyinahin","POPCAP":0,"DISTRICT":"ATWIMA MPONUA","STATUS":"District Capital","id":"128"},"type":"Feature","geometry":{"type":"Point","coordinates":[-2.11632785494397,6.5960157585359]}},{"properties":{"NAMECAP":"Nkawkaw","POPCAP":0,"DISTRICT":"KWAHU WEST","STATUS":"District Capital","id":"129"},"type":"Feature","geometry":{"type":"Point","coordinates":[-0.775426008918855,6.55114506564855]}},{"properties":{"NAMECAP":"Kwabeng","POPCAP":0,"DISTRICT":"ATWIMA","STATUS":"District Capital","id":"130"},"type":"Feature","geometry":{"type":"Point","coordinates":[-0.588962273305556,6.31814921283481]}},{"properties":{"NAMECAP":"Kpeve","POPCAP":0,"DISTRICT":"SOUTH DAYI","STATUS":"District Capital","id":"131"},"type":"Feature","geometry":{"type":"Point","coordinates":[0.333993057874317,6.6618473045613]}},{"properties":{"NAMECAP":"Kpetoe","POPCAP":0,"DISTRICT":"ADAKLU ANYIGBE","STATUS":"District Capital","id":"132"},"type":"Feature","geometry":{"type":"Point","coordinates":[0.695036049660025,6.54716626060902]}},{"properties":{"NAMECAP":"Nsuaem Kyekyewere","POPCAP":0,"DISTRICT":"ASSIN SOUTH","STATUS":"District Capital","id":"133"},"type":"Feature","geometry":{"type":"Point","coordinates":[-1.15813614213005,5.48045945164872]}},{"properties":{"NAMECAP":"Wassa Akropong","POPCAP":0,"DISTRICT":"WASSA AMEMFI EAST","STATUS":"District Capital","id":"134"},"type":"Feature","geometry":{"type":"Point","coordinates":[-2.08789566290567,5.78323204211455]}},{"properties":{"NAMECAP":"Jacobu","POPCAP":0,"DISTRICT":"AMANSIE CENTRAL","STATUS":"District Capital","id":"135"},"type":"Feature","geometry":{"type":"Point","coordinates":[-1.67006021605526,6.34717812668524]}},{"properties":{"NAMECAP":"Fomena","POPCAP":0,"DISTRICT":"AMANSIE EAST","STATUS":"District Capital","id":"136"},"type":"Feature","geometry":{"type":"Point","coordinates":[-1.51360986282258,6.28350289065045]}},{"properties":{"NAMECAP":"Abokobi","POPCAP":0,"DISTRICT":"GA EAST","STATUS":"District Capital","id":"137"},"type":"Feature","geometry":{"type":"Point","coordinates":[-0.205042535787272,5.73530715058535]}},{"properties":{"NAMECAP":"Lambusie","POPCAP":0,"DISTRICT":"LAMBUSSIE-KRANI","STATUS":"District Capital","id":"138"},"type":"Feature","geometry":{"type":"Point","coordinates":[-2.71110418238531,10.8391230264405]}},{"properties":{"NAMECAP":"Paga","POPCAP":0,"DISTRICT":"KASSENA NANKANA WEST","STATUS":"District Capital","id":"139"},"type":"Feature","geometry":{"type":"Point","coordinates":[-1.1014308486924,10.9722599119833]}},{"properties":{"NAMECAP":"Chereponi","POPCAP":0,"DISTRICT":"CHEREPONI","STATUS":"District Capital","id":"140"},"type":"Feature","geometry":{"type":"Point","coordinates":[0.291533180426139,10.1376104912113]}},{"properties":{"NAMECAP":"Kpandai","POPCAP":0,"DISTRICT":"KPANDAI","STATUS":"District Capital","id":"141"},"type":"Feature","geometry":{"type":"Point","coordinates":[-0.010275662020336,8.46849573523752]}},{"properties":{"NAMECAP":"Odumase","POPCAP":0,"DISTRICT":"SUNYANI WEST","STATUS":"District Capital","id":"142"},"type":"Feature","geometry":{"type":"Point","coordinates":[-2.31912756664571,7.37225251761872]}},{"properties":{"NAMECAP":"Busunya","POPCAP":0,"DISTRICT":"NKORANZA NORTH","STATUS":"District Capital","id":"143"},"type":"Feature","geometry":{"type":"Point","coordinates":[-1.66141754199921,7.6877469929913]}},{"properties":{"NAMECAP":"Wamfie","POPCAP":0,"DISTRICT":"DORMAA EAST","STATUS":"District Capital","id":"144"},"type":"Feature","geometry":{"type":"Point","coordinates":[-2.69983038784161,7.29671801148211]}},{"properties":{"NAMECAP":"Asiwa","POPCAP":0,"DISTRICT":"BOSOME FREHO","STATUS":"District Capital","id":"145"},"type":"Feature","geometry":{"type":"Point","coordinates":[-1.33213648274081,6.42742778062913]}},{"properties":{"NAMECAP":"Nkonya Ahenkro","POPCAP":0,"DISTRICT":"BIAKOYE","STATUS":"District Capital","id":"146"},"type":"Feature","geometry":{"type":"Point","coordinates":[0.323647804041508,7.1162558537045]}},{"properties":{"NAMECAP":"Dzodze","POPCAP":0,"DISTRICT":"KETU NORTH","STATUS":"District Capital","id":"147"},"type":"Feature","geometry":{"type":"Point","coordinates":[0.996396953679532,6.23336854622974]}},{"properties":{"NAMECAP":"Gbawe","POPCAP":0,"DISTRICT":"GA SOUTH","STATUS":"District Capital","id":"148"},"type":"Feature","geometry":{"type":"Point","coordinates":[-0.309390200295643,5.57613518186613]}},{"properties":{"NAMECAP":"Awutu Breku","POPCAP":0,"DISTRICT":"AWUTU SENYA","STATUS":"District Capital","id":"149"},"type":"Feature","geometry":{"type":"Point","coordinates":[-0.512547947285198,5.51020973606791]}},{"properties":{"NAMECAP":"Gomoa Afranse","POPCAP":0,"DISTRICT":"GOMOA EAST","STATUS":"District Capital","id":"150"},"type":"Feature","geometry":{"type":"Point","coordinates":[-0.747634704135273,5.51014559811266]}},{"properties":{"NAMECAP":"Nsabaa","POPCAP":0,"DISTRICT":"AGONA EAST MUNICIPALITY","STATUS":"District Capital","id":"151"},"type":"Feature","geometry":{"type":"Point","coordinates":[-0.752159391611902,5.64363518955201]}},{"properties":{"NAMECAP":"Kpasa","POPCAP":0,"DISTRICT":"NKWANTA NORTH","STATUS":"District Capital","id":"152"},"type":"Feature","geometry":{"type":"Point","coordinates":[0.309521751249313,8.48881026246228]}},{"properties":{"NAMECAP":"Asesewa","POPCAP":0,"DISTRICT":"UPPER MANYA","STATUS":"District Capital","id":"153"},"type":"Feature","geometry":{"type":"Point","coordinates":[-0.142582693953137,6.39468575858748]}},{"properties":{"NAMECAP":"Abetifi","POPCAP":0,"DISTRICT":"KWAHU EAST","STATUS":"District Capital","id":"154"},"type":"Feature","geometry":{"type":"Point","coordinates":[-0.747584048087692,6.67209936664842]}},{"properties":{"NAMECAP":"Kodie","POPCAP":0,"DISTRICT":"AFIGYA KWABRE","STATUS":"District Capital","id":"155"},"type":"Feature","geometry":{"type":"Point","coordinates":[-1.64880933060939,6.81705873959155]}},{"properties":{"NAMECAP":"Akumadan","POPCAP":0,"DISTRICT":"OFFINSO NORTH","STATUS":"District Capital","id":"156"},"type":"Feature","geometry":{"type":"Point","coordinates":[-1.9586066774523,7.39901510954504]}},{"properties":{"NAMECAP":"Shama","POPCAP":0,"DISTRICT":"SHAMA AHANTA EAST","STATUS":"District Capital","id":"157"},"type":"Feature","geometry":{"type":"Point","coordinates":[-1.63375593137165,5.01063460317236]}},{"properties":{"NAMECAP":"Nkroful","POPCAP":0,"DISTRICT":"ELLEMBELLE","STATUS":"District Capital","id":"158"},"type":"Feature","geometry":{"type":"Point","coordinates":[-2.32569156798509,4.96494515249358]}},{"properties":{"NAMECAP":"Bogoso","POPCAP":0,"DISTRICT":"TARKWA HUNI VALLEY","STATUS":"District Capital","id":"159"},"type":"Feature","geometry":{"type":"Point","coordinates":[-2.00623226193855,5.5679291474498]}},{"properties":{"NAMECAP":"Diaso","POPCAP":0,"DISTRICT":"UPPER DENKYIRA","STATUS":"District Capital","id":"160"},"type":"Feature","geometry":{"type":"Point","coordinates":[-2.15335876875645,6.1513858964588]}},{"properties":{"NAMECAP":"Akontombra","POPCAP":0,"DISTRICT":"SEFWI AKONTOMBRA","STATUS":"District Capital","id":"161"},"type":"Feature","geometry":{"type":"Point","coordinates":[-2.87333876812666,6.04588282507048]}},{"properties":{"NAMECAP":"Kumawu","POPCAP":0,"DISTRICT":"SEKYERE AFRAM PLAINS","STATUS":"District Capital","id":"162"},"type":"Feature","geometry":{"type":"Point","coordinates":[-1.27694907584715,6.90873215101637]}},{"properties":{"NAMECAP":"Nsuta","POPCAP":0,"DISTRICT":"SEKYERE CENTRAL","STATUS":"District Capital","id":"163"},"type":"Feature","geometry":{"type":"Point","coordinates":[-1.38194994656136,7.01083156627372]}},{"properties":{"NAMECAP":"Foase Kokoben","POPCAP":0,"DISTRICT":"ATWIMA-KWANWOMA","STATUS":"District Capital","id":"164"},"type":"Feature","geometry":{"type":"Point","coordinates":[-1.71645462301506,6.61183718557556]}},{"properties":{"NAMECAP":"Adenta","POPCAP":0,"DISTRICT":"ADENTAN MUNICIPAL","STATUS":"District Capital","id":"165"},"type":"Feature","geometry":{"type":"Point","coordinates":[-0.170581572248041,5.70634598693269]}},{"properties":{"NAMECAP":"Nungua","POPCAP":0,"DISTRICT":"LEDZOKUKU KROWOR MUNICIPALITY","STATUS":"District Capital","id":"166"},"type":"Feature","geometry":{"type":"Point","coordinates":[-0.0788906806258063,5.60147211768612]}},{"properties":{"NAMECAP":"Ashaiman","POPCAP":0,"DISTRICT":"ASHAIMAN","STATUS":"District Capital","id":"167"},"type":"Feature","geometry":{"type":"Point","coordinates":[-0.0292679410238139,5.68826478752593]}},{"properties":{"NAMECAP":"Akim Swedru","POPCAP":0,"DISTRICT":"BIRIM SOUTH","STATUS":"District Capital","id":"168"},"type":"Feature","geometry":{"type":"Point","coordinates":[-1.01294360790233,5.8942519557436]}},{"properties":{"NAMECAP":"Ofoase","POPCAP":0,"DISTRICT":"AKYEMANSAH","STATUS":"District Capital","id":"169"},"type":"Feature","geometry":{"type":"Point","coordinates":[-1.14110149803039,6.17037265477777]}}],"is_temporal":false,"author":{"url":"","metadata":"","contact_name":"","contact_address":"","source":"","contact_phone":""},"source":"","pagination":{"sort":null,"start":0,"total":170,"limit":1000000},"state":"complete","tags":"","published":"2014-08-14T17:30:27-04:00","id":201932}