{"type":"FeatureCollection","data_type":"Dataset","url_type":null,"permissions":[{"permissions":{"download":true,"view":true},"group_id":"everyone"}],"classification":null,"title":"snow_totals_0730","count":57,"stream_id":202203,"contributor":{"url":"http://geocommons.com/users/28467","name":"bheberto"},"data_attributes":null,"calculation_params":null,"icon_link":null,"link":"http://geocommons.com/overlays/202203.json","extent":[-106.0,39.1,-102.53,40.93],"geometry_types":["point"],"unique_name":null,"name":"snow_totals_0730","feature_count":57,"description":"","next_feature":null,"is_raster":false,"short_classification":"Y","stats":{"latitude":{"max":40.93,"mean":39.8356140350877,"variance":0.150510776942356,"stdev":0.387957184419049,"min":39.1,"median":39.77},"time":{"max":"2030/01/01 23:00:00 -0500","mean":"1801/02/28 06:47:18 -0456","variance":1.99850131857886e+20,"stdev":14136835991.7588,"min":"827/12/31 23:59:58 -0456","median":"2030/01/01 06:00:00 -0500"},"inches":{"max":48.0,"mean":14.5157894736842,"variance":69.6881390977444,"stdev":8.34794220737928,"min":2.0,"median":13.0},"date":{"max":"2012/02/03 00:00:00 -0500","mean":"2012/02/03 00:00:00 -0500","variance":0.0,"stdev":0.0,"min":"2012/02/03 00:00:00 -0500","median":"2012/02/03 00:00:00 -0500"},"longitude":{"max":-102.53,"mean":-105.027368421053,"variance":0.265598308270676,"stdev":0.515362307770636,"min":-106.0,"median":-105.09}},"features":[{"properties":{"city":"GENESEE","latitude":39.69,"inches":19.2,"time":{"end_time":"2030/01/02 00:00:00 -0500","original":"1235 PM","granularity":"hour","time":"2030/01/01 23:00:00 -0500"},"county":"JEFFERSON","date":{"end_time":"2012/02/04 00:00:00 -0500","original":"02/03/2012","granularity":"day","time":"2012/02/03 00:00:00 -0500"},"event":"HEAVY SNOW","notes":null,"longitude":-105.27,"id":"a62c116eauj4","source":"TRAINED SPOTTER","state":"CO"},"type":"Feature","geometry":{"type":"Point","coordinates":[-105.27,39.69]}},{"properties":{"city":"1 SW WESTMINSTER","latitude":39.87,"inches":13.7,"time":{"end_time":"2030/01/01 17:00:00 -0500","original":"1228 PM","granularity":"hour","time":"2030/01/01 16:00:00 -0500"},"county":"JEFFERSON","date":{"end_time":"2012/02/04 00:00:00 -0500","original":"02/03/2012","granularity":"day","time":"2012/02/03 00:00:00 -0500"},"event":"HEAVY SNOW","notes":null,"longitude":-105.07,"id":"a62c11cj04qt","source":"TRAINED SPOTTER","state":"CO"},"type":"Feature","geometry":{"type":"Point","coordinates":[-105.07,39.87]}},{"properties":{"city":"14 WSW AGATE","latitude":39.42,"inches":19.5,"time":{"end_time":"2030/01/01 17:00:00 -0500","original":"1228 PM","granularity":"hour","time":"2030/01/01 16:00:00 -0500"},"county":"ELBERT","date":{"end_time":"2012/02/04 00:00:00 -0500","original":"02/03/2012","granularity":"day","time":"2012/02/03 00:00:00 -0500"},"event":"HEAVY SNOW","notes":null,"longitude":-104.2,"id":"a62c11igdbjn","source":"TRAINED SPOTTER","state":"CO"},"type":"Feature","geometry":{"type":"Point","coordinates":[-104.2,39.42]}},{"properties":{"city":"2 W FORT COLLINS","latitude":40.56,"inches":9.0,"time":{"end_time":"2030/01/01 19:00:00 -0500","original":"1206 PM","granularity":"hour","time":"2030/01/01 18:00:00 -0500"},"county":"LARIMER","date":{"end_time":"2012/02/04 00:00:00 -0500","original":"02/03/2012","granularity":"day","time":"2012/02/03 00:00:00 -0500"},"event":"HEAVY SNOW","notes":null,"longitude":-105.11,"id":"a62c115iq013","source":"PUBLIC","state":"CO"},"type":"Feature","geometry":{"type":"Point","coordinates":[-105.11,40.56]}},{"properties":{"city":"5 SE FRANKTOWN","latitude":39.33,"inches":12.7,"time":{"end_time":"2030/01/01 13:00:00 -0500","original":"1200 PM","granularity":"hour","time":"2030/01/01 12:00:00 -0500"},"county":"DOUGLAS","date":{"end_time":"2012/02/04 00:00:00 -0500","original":"02/03/2012","granularity":"day","time":"2012/02/03 00:00:00 -0500"},"event":"HEAVY SNOW","notes":null,"longitude":-104.68,"id":"a62c11a841rt","source":"TRAINED SPOTTER","state":"CO"},"type":"Feature","geometry":{"type":"Point","coordinates":[-104.68,39.33]}},{"properties":{"city":"4 S EVERGREEN","latitude":39.58,"inches":20.4,"time":{"end_time":"2030/01/01 13:00:00 -0500","original":"1200 PM","granularity":"hour","time":"2030/01/01 12:00:00 -0500"},"county":"JEFFERSON","date":{"end_time":"2012/02/04 00:00:00 -0500","original":"02/03/2012","granularity":"day","time":"2012/02/03 00:00:00 -0500"},"event":"HEAVY SNOW","notes":null,"longitude":-105.34,"id":"a62c11bjtne2","source":"TRAINED SPOTTER","state":"CO"},"type":"Feature","geometry":{"type":"Point","coordinates":[-105.34,39.58]}},{"properties":{"city":"5 SSW ARAPAHOE PARK","latitude":39.57,"inches":16.8,"time":{"end_time":"2030/01/01 13:00:00 -0500","original":"1200 PM","granularity":"hour","time":"2030/01/01 12:00:00 -0500"},"county":"ARAPAHOE","date":{"end_time":"2012/02/04 00:00:00 -0500","original":"02/03/2012","granularity":"day","time":"2012/02/03 00:00:00 -0500"},"event":"HEAVY SNOW","notes":null,"longitude":-104.72,"id":"a62c11e3ppss","source":"TRAINED SPOTTER","state":"CO"},"type":"Feature","geometry":{"type":"Point","coordinates":[-104.72,39.57]}},{"properties":{"city":"5 SE WESTCREEK","latitude":39.1,"inches":13.5,"time":{"end_time":"2030/01/01 07:00:00 -0500","original":"1158 AM","granularity":"hour","time":"2030/01/01 06:00:00 -0500"},"county":"TELLER","date":{"end_time":"2012/02/04 00:00:00 -0500","original":"02/03/2012","granularity":"day","time":"2012/02/03 00:00:00 -0500"},"event":"HEAVY SNOW","notes":null,"longitude":-105.1,"id":"a62c11efumxx","source":"TRAINED SPOTTER","state":"CO"},"type":"Feature","geometry":{"type":"Point","coordinates":[-105.1,39.1]}},{"properties":{"city":"4 ENE NEDERLAND","latitude":39.99,"inches":28.5,"time":{"end_time":"2030/01/01 06:00:00 -0500","original":"1145 AM","granularity":"hour","time":"2030/01/01 05:00:00 -0500"},"county":"BOULDER","date":{"end_time":"2012/02/04 00:00:00 -0500","original":"02/03/2012","granularity":"day","time":"2012/02/03 00:00:00 -0500"},"event":"HEAVY SNOW","notes":null,"longitude":-105.45,"id":"a62c11i5lygs","source":"TRAINED SPOTTER","state":"CO"},"type":"Feature","geometry":{"type":"Point","coordinates":[-105.45,39.99]}},{"properties":{"city":"3 S EVERGREEN","latitude":39.59,"inches":36.0,"time":{"end_time":"2030/01/01 05:00:00 -0500","original":"1132 AM","granularity":"hour","time":"2030/01/01 04:00:00 -0500"},"county":"JEFFERSON","date":{"end_time":"2012/02/04 00:00:00 -0500","original":"02/03/2012","granularity":"day","time":"2012/02/03 00:00:00 -0500"},"event":"HEAVY SNOW","notes":null,"longitude":-105.34,"id":"a62c11fjcele","source":"TRAINED SPOTTER","state":"CO"},"type":"Feature","geometry":{"type":"Point","coordinates":[-105.34,39.59]}},{"properties":{"city":"1 E IDAHO SPRINGS","latitude":39.74,"inches":9.5,"time":{"end_time":"2030/01/01 03:00:00 -0500","original":"1130 AM","granularity":"hour","time":"2030/01/01 02:00:00 -0500"},"county":"CLEAR CREEK","date":{"end_time":"2012/02/04 00:00:00 -0500","original":"02/03/2012","granularity":"day","time":"2012/02/03 00:00:00 -0500"},"event":"HEAVY SNOW","notes":null,"longitude":-105.49,"id":"a62c11ihv44e","source":"TRAINED SPOTTER","state":"CO"},"type":"Feature","geometry":{"type":"Point","coordinates":[-105.49,39.74]}},{"properties":{"city":"E SEDGWICK","latitude":40.93,"inches":2.0,"time":{"end_time":"2030/01/01 03:00:00 -0500","original":"1130 AM","granularity":"hour","time":"2030/01/01 02:00:00 -0500"},"county":"SEDGWICK","date":{"end_time":"2012/02/04 00:00:00 -0500","original":"02/03/2012","granularity":"day","time":"2012/02/03 00:00:00 -0500"},"event":"SNOW","notes":null,"longitude":-102.53,"id":"a62c11gxdqsx","source":"TRAINED SPOTTER","state":"CO"},"type":"Feature","geometry":{"type":"Point","coordinates":[-102.53,40.93]}},{"properties":{"city":"2 SSE BOULDER","latitude":40.0,"inches":13.5,"time":{"end_time":"2030/01/01 08:00:00 -0500","original":"1123 AM","granularity":"hour","time":"2030/01/01 07:00:00 -0500"},"county":"BOULDER","date":{"end_time":"2012/02/04 00:00:00 -0500","original":"02/03/2012","granularity":"day","time":"2012/02/03 00:00:00 -0500"},"event":"HEAVY SNOW","notes":null,"longitude":-105.24,"id":"a62c113t1iso","source":"NWS EMPLOYEE","state":"CO"},"type":"Feature","geometry":{"type":"Point","coordinates":[-105.24,40.0]}},{"properties":{"city":"4 NW ELIZABETH","latitude":39.4,"inches":11.0,"time":{"end_time":"2030/01/01 05:00:00 -0500","original":"1120 AM","granularity":"hour","time":"2030/01/01 04:00:00 -0500"},"county":"DOUGLAS","date":{"end_time":"2012/02/04 00:00:00 -0500","original":"02/03/2012","granularity":"day","time":"2012/02/03 00:00:00 -0500"},"event":"HEAVY SNOW","notes":null,"longitude":-104.65,"id":"a62c11dshpe3","source":"TRAINED SPOTTER","state":"CO"},"type":"Feature","geometry":{"type":"Point","coordinates":[-104.65,39.4]}},{"properties":{"city":"4 WSW ELDORADO SPRINGS","latitude":39.91,"inches":20.0,"time":{"end_time":"2030/01/01 05:00:00 -0500","original":"1120 AM","granularity":"hour","time":"2030/01/01 04:00:00 -0500"},"county":"JEFFERSON","date":{"end_time":"2012/02/04 00:00:00 -0500","original":"02/03/2012","granularity":"day","time":"2012/02/03 00:00:00 -0500"},"event":"HEAVY SNOW","notes":null,"longitude":-105.34,"id":"a62c116z4432","source":"TRAINED SPOTTER","state":"CO"},"type":"Feature","geometry":{"type":"Point","coordinates":[-105.34,39.91]}},{"properties":{"city":"2 NW FREDERICK","latitude":40.12,"inches":8.5,"time":{"end_time":"2030/01/01 09:00:00 -0500","original":"1100 AM","granularity":"hour","time":"2030/01/01 08:00:00 -0500"},"county":"WELD","date":{"end_time":"2012/02/04 00:00:00 -0500","original":"02/03/2012","granularity":"day","time":"2012/02/03 00:00:00 -0500"},"event":"HEAVY SNOW","notes":null,"longitude":-104.96,"id":"a62c11ixp79k","source":"TRAINED SPOTTER","state":"CO"},"type":"Feature","geometry":{"type":"Point","coordinates":[-104.96,40.12]}},{"properties":{"city":"3 N BLACK HAWK","latitude":39.84,"inches":48.0,"time":{"end_time":"2030/01/01 09:00:00 -0500","original":"1100 AM","granularity":"hour","time":"2030/01/01 08:00:00 -0500"},"county":"GILPIN","date":{"end_time":"2012/02/04 00:00:00 -0500","original":"02/03/2012","granularity":"day","time":"2012/02/03 00:00:00 -0500"},"event":"HEAVY SNOW","notes":null,"longitude":-105.49,"id":"a62c11aq3gk4","source":"BROADCAST MEDIA","state":"CO"},"type":"Feature","geometry":{"type":"Point","coordinates":[-105.49,39.84]}},{"properties":{"city":"LOVELAND","latitude":40.42,"inches":9.0,"time":{"end_time":"2030/01/01 09:00:00 -0500","original":"1100 AM","granularity":"hour","time":"2030/01/01 08:00:00 -0500"},"county":"LARIMER","date":{"end_time":"2012/02/04 00:00:00 -0500","original":"02/03/2012","granularity":"day","time":"2012/02/03 00:00:00 -0500"},"event":"HEAVY SNOW","notes":null,"longitude":-105.07,"id":"a62c113nvi77","source":"TRAINED SPOTTER","state":"CO"},"type":"Feature","geometry":{"type":"Point","coordinates":[-105.07,40.42]}},{"properties":{"city":"3 W CONIFER","latitude":39.51,"inches":28.0,"time":{"end_time":"2030/01/01 09:00:00 -0500","original":"1052 AM","granularity":"hour","time":"2030/01/01 08:00:00 -0500"},"county":"JEFFERSON","date":{"end_time":"2012/02/04 00:00:00 -0500","original":"02/03/2012","granularity":"day","time":"2012/02/03 00:00:00 -0500"},"event":"HEAVY SNOW","notes":null,"longitude":-105.36,"id":"a62c119gplri","source":"TRAINED SPOTTER","state":"CO"},"type":"Feature","geometry":{"type":"Point","coordinates":[-105.36,39.51]}},{"properties":{"city":"3 SSE BOULDER","latitude":39.99,"inches":16.3,"time":{"end_time":"2030/01/01 09:00:00 -0500","original":"1052 AM","granularity":"hour","time":"2030/01/01 08:00:00 -0500"},"county":"BOULDER","date":{"end_time":"2012/02/04 00:00:00 -0500","original":"02/03/2012","granularity":"day","time":"2012/02/03 00:00:00 -0500"},"event":"HEAVY SNOW","notes":null,"longitude":-105.23,"id":"a62c116xryb0","source":"TRAINED SPOTTER","state":"CO"},"type":"Feature","geometry":{"type":"Point","coordinates":[-105.23,39.99]}},{"properties":{"city":"1 SSW LAFAYETTE","latitude":39.99,"inches":12.0,"time":{"end_time":"2030/01/01 09:00:00 -0500","original":"1052 AM","granularity":"hour","time":"2030/01/01 08:00:00 -0500"},"county":"BOULDER","date":{"end_time":"2012/02/04 00:00:00 -0500","original":"02/03/2012","granularity":"day","time":"2012/02/03 00:00:00 -0500"},"event":"HEAVY SNOW","notes":null,"longitude":-105.1,"id":"a62c11gb5wm1","source":"TRAINED SPOTTER","state":"CO"},"type":"Feature","geometry":{"type":"Point","coordinates":[-105.1,39.99]}},{"properties":{"city":"4 SSE PINECLIFFE","latitude":39.88,"inches":34.5,"time":{"end_time":"2030/01/01 11:00:00 -0500","original":"1042 AM","granularity":"hour","time":"2030/01/01 10:00:00 -0500"},"county":"GILPIN","date":{"end_time":"2012/02/04 00:00:00 -0500","original":"02/03/2012","granularity":"day","time":"2012/02/03 00:00:00 -0500"},"event":"HEAVY SNOW","notes":null,"longitude":-105.39,"id":"a62c11erwrpd","source":"TRAINED SPOTTER","state":"CO"},"type":"Feature","geometry":{"type":"Point","coordinates":[-105.39,39.88]}},{"properties":{"city":"SHERRELWOOD","latitude":39.84,"inches":7.5,"time":{"end_time":"2030/01/01 11:00:00 -0500","original":"1030 AM","granularity":"hour","time":"2030/01/01 10:00:00 -0500"},"county":"ADAMS","date":{"end_time":"2012/02/04 00:00:00 -0500","original":"02/03/2012","granularity":"day","time":"2012/02/03 00:00:00 -0500"},"event":"HEAVY SNOW","notes":null,"longitude":-105.0,"id":"a62c114mqv2j","source":"BROADCAST MEDIA","state":"CO"},"type":"Feature","geometry":{"type":"Point","coordinates":[-105.0,39.84]}},{"properties":{"city":"3 S ESTES PARK","latitude":40.33,"inches":10.4,"time":{"end_time":"1021/01/01 00:00:00 -0456","original":"1020","granularity":"year","time":"1020/01/01 00:00:00 -0456"},"county":"LARIMER","date":{"end_time":"2012/02/04 00:00:00 -0500","original":"02/03/2012","granularity":"day","time":"2012/02/03 00:00:00 -0500"},"event":"HEAVY SNOW","notes":null,"longitude":-105.52,"id":"a62c11hi354g","source":"TRAINED SPOTTER","state":"CO"},"type":"Feature","geometry":{"type":"Point","coordinates":[-105.52,40.33]}},{"properties":{"city":"1 W NORTHGLENN","latitude":39.91,"inches":13.0,"time":{"end_time":"1021/01/01 00:00:00 -0456","original":"1020","granularity":"year","time":"1020/01/01 00:00:00 -0456"},"county":"ADAMS","date":{"end_time":"2012/02/04 00:00:00 -0500","original":"02/03/2012","granularity":"day","time":"2012/02/03 00:00:00 -0500"},"event":"HEAVY SNOW","notes":null,"longitude":-104.99,"id":"a62c115xkyat","source":"TRAINED SPOTTER","state":"CO"},"type":"Feature","geometry":{"type":"Point","coordinates":[-104.99,39.91]}},{"properties":{"city":"GENESEE","latitude":39.69,"inches":17.4,"time":{"end_time":"1021/01/01 00:00:00 -0456","original":"1020","granularity":"year","time":"1020/01/01 00:00:00 -0456"},"county":"JEFFERSON","date":{"end_time":"2012/02/04 00:00:00 -0500","original":"02/03/2012","granularity":"day","time":"2012/02/03 00:00:00 -0500"},"event":"HEAVY SNOW","notes":null,"longitude":-105.27,"id":"a62c11fzbhgk","source":"TRAINED SPOTTER","state":"CO"},"type":"Feature","geometry":{"type":"Point","coordinates":[-105.27,39.69]}},{"properties":{"city":"7 N GLEN HAVEN","latitude":40.55,"inches":13.1,"time":{"end_time":"1021/01/01 00:00:00 -0456","original":"1020","granularity":"year","time":"1020/01/01 00:00:00 -0456"},"county":"LarIMER","date":{"end_time":"2012/02/04 00:00:00 -0500","original":"02/03/2012","granularity":"day","time":"2012/02/03 00:00:00 -0500"},"event":"HEAVY SNOW","notes":null,"longitude":-105.44,"id":"a62c11d4xnme","source":"TRAINED SPOTTER","state":"CO"},"type":"Feature","geometry":{"type":"Point","coordinates":[-105.44,40.55]}},{"properties":{"city":"2 NE THORNTON","latitude":39.91,"inches":9.5,"time":{"end_time":"2030/01/01 05:00:00 -0500","original":"1000 AM","granularity":"hour","time":"2030/01/01 04:00:00 -0500"},"county":"ADAMS","date":{"end_time":"2012/02/04 00:00:00 -0500","original":"02/03/2012","granularity":"day","time":"2012/02/03 00:00:00 -0500"},"event":"HEAVY SNOW","notes":null,"longitude":-104.93,"id":"a62c11boov2q","source":"TRAINED SPOTTER","state":"CO"},"type":"Feature","geometry":{"type":"Point","coordinates":[-104.93,39.91]}},{"properties":{"city":"2 NNE LITTLETON","latitude":39.62,"inches":12.6,"time":{"end_time":"2030/01/01 05:00:00 -0500","original":"1000 AM","granularity":"hour","time":"2030/01/01 04:00:00 -0500"},"county":"ARAPAHOE","date":{"end_time":"2012/02/04 00:00:00 -0500","original":"02/03/2012","granularity":"day","time":"2012/02/03 00:00:00 -0500"},"event":"HEAVY SNOW","notes":null,"longitude":-105.0,"id":"a62c11fy6qsx","source":"TRAINED SPOTTER","state":"CO"},"type":"Feature","geometry":{"type":"Point","coordinates":[-105.0,39.62]}},{"properties":{"city":"1 S GREELEY","latitude":40.4,"inches":4.0,"time":{"end_time":"2030/01/01 05:00:00 -0500","original":"1000 AM","granularity":"hour","time":"2030/01/01 04:00:00 -0500"},"county":"WELD","date":{"end_time":"2012/02/04 00:00:00 -0500","original":"02/03/2012","granularity":"day","time":"2012/02/03 00:00:00 -0500"},"event":"HEAVY SNOW","notes":null,"longitude":-104.75,"id":"a62c11hd95gw","source":"TRAINED SPOTTER","state":"CO"},"type":"Feature","geometry":{"type":"Point","coordinates":[-104.75,40.4]}},{"properties":{"city":"NW DENVER","latitude":39.77,"inches":9.0,"time":{"end_time":"2030/01/01 11:00:00 -0500","original":"0958 AM","granularity":"hour","time":"2030/01/01 10:00:00 -0500"},"county":"DENVER","date":{"end_time":"2012/02/04 00:00:00 -0500","original":"02/03/2012","granularity":"day","time":"2012/02/03 00:00:00 -0500"},"event":"HEAVY SNOW","notes":null,"longitude":-104.87,"id":"a62c11e7q4rp","source":"NWS EMPLOYEE","state":"CO"},"type":"Feature","geometry":{"type":"Point","coordinates":[-104.87,39.77]}},{"properties":{"city":"WNW SIMLA","latitude":39.14,"inches":15.0,"time":{"end_time":"2030/01/01 10:00:00 -0500","original":"0957 AM","granularity":"hour","time":"2030/01/01 09:00:00 -0500"},"county":"ELBERT","date":{"end_time":"2012/02/04 00:00:00 -0500","original":"02/03/2012","granularity":"day","time":"2012/02/03 00:00:00 -0500"},"event":"HEAVY SNOW","notes":null,"longitude":-104.09,"id":"a62c113oondb","source":"TRAINED SPOTTER","state":"CO"},"type":"Feature","geometry":{"type":"Point","coordinates":[-104.09,39.14]}},{"properties":{"city":"5 SE FRANKTOWN","latitude":39.33,"inches":10.5,"time":{"end_time":"937/01/01 00:00:00 -0456","original":"0936","granularity":"year","time":"936/01/01 00:00:00 -0456"},"county":"DOUGLAS","date":{"end_time":"2012/02/04 00:00:00 -0500","original":"02/03/2012","granularity":"day","time":"2012/02/03 00:00:00 -0500"},"event":"HEAVY SNOW","notes":null,"longitude":-104.68,"id":"a62c11gn6ykv","source":"TRAINED SPOTTER","state":"CO"},"type":"Feature","geometry":{"type":"Point","coordinates":[-104.68,39.33]}},{"properties":{"city":"3 W JAMESTOWN","latitude":40.11,"inches":31.0,"time":{"end_time":"937/01/01 00:00:00 -0456","original":"0936","granularity":"year","time":"936/01/01 00:00:00 -0456"},"county":"BOULDER","date":{"end_time":"2012/02/04 00:00:00 -0500","original":"02/03/2012","granularity":"day","time":"2012/02/03 00:00:00 -0500"},"event":"HEAVY SNOW","notes":null,"longitude":-105.44,"id":"a62c116cm4ig","source":"TRAINED SPOTTER","state":"CO"},"type":"Feature","geometry":{"type":"Point","coordinates":[-105.44,40.11]}},{"properties":{"city":"N FAIRPLAY","latitude":39.23,"inches":2.0,"time":{"end_time":"937/01/01 00:00:00 -0456","original":"0936","granularity":"year","time":"936/01/01 00:00:00 -0456"},"county":"PARK","date":{"end_time":"2012/02/04 00:00:00 -0500","original":"02/03/2012","granularity":"day","time":"2012/02/03 00:00:00 -0500"},"event":"SNOW","notes":null,"longitude":-106.0,"id":"a62c11cv0twv","source":"TRAINED SPOTTER","state":"CO"},"type":"Feature","geometry":{"type":"Point","coordinates":[-106.0,39.23]}},{"properties":{"city":"2 W WESTMINSTER","latitude":39.88,"inches":13.0,"time":{"end_time":"2030/01/01 11:00:00 -0500","original":"0934 AM","granularity":"hour","time":"2030/01/01 10:00:00 -0500"},"county":"JEFFERSON","date":{"end_time":"2012/02/04 00:00:00 -0500","original":"02/03/2012","granularity":"day","time":"2012/02/03 00:00:00 -0500"},"event":"HEAVY SNOW","notes":null,"longitude":-105.09,"id":"a62c118cuk61","source":"TRAINED SPOTTER","state":"CO"},"type":"Feature","geometry":{"type":"Point","coordinates":[-105.09,39.88]}},{"properties":{"city":"2 ENE BERGEN PARK","latitude":39.71,"inches":10.0,"time":{"end_time":"2030/01/01 11:00:00 -0500","original":"0934 AM","granularity":"hour","time":"2030/01/01 10:00:00 -0500"},"county":"JEFFERSON","date":{"end_time":"2012/02/04 00:00:00 -0500","original":"02/03/2012","granularity":"day","time":"2012/02/03 00:00:00 -0500"},"event":"HEAVY SNOW","notes":null,"longitude":-105.32,"id":"a62c11acdvzx","source":"TRAINED SPOTTER","state":"CO"},"type":"Feature","geometry":{"type":"Point","coordinates":[-105.32,39.71]}},{"properties":{"city":"ERIE","latitude":40.03,"inches":14.0,"time":{"end_time":"2030/01/01 11:00:00 -0500","original":"0934 AM","granularity":"hour","time":"2030/01/01 10:00:00 -0500"},"county":"WELD","date":{"end_time":"2012/02/04 00:00:00 -0500","original":"02/03/2012","granularity":"day","time":"2012/02/03 00:00:00 -0500"},"event":"HEAVY SNOW","notes":null,"longitude":-105.05,"id":"a62c11gedpfx","source":"TRAINED SPOTTER","state":"CO"},"type":"Feature","geometry":{"type":"Point","coordinates":[-105.05,40.03]}},{"properties":{"city":"MORRISON","latitude":39.65,"inches":16.3,"time":{"end_time":"2030/01/01 07:00:00 -0500","original":"0930 AM","granularity":"hour","time":"2030/01/01 06:00:00 -0500"},"county":"JEFFERSON","date":{"end_time":"2012/02/04 00:00:00 -0500","original":"02/03/2012","granularity":"day","time":"2012/02/03 00:00:00 -0500"},"event":"HEAVY SNOW","notes":null,"longitude":-105.18,"id":"a62c11i81owh","source":"TRAINED SPOTTER","state":"CO"},"type":"Feature","geometry":{"type":"Point","coordinates":[-105.18,39.65]}},{"properties":{"city":"6 SW EVERGREEN","latitude":39.57,"inches":19.0,"time":{"end_time":"2030/01/01 12:00:00 -0500","original":"0923 AM","granularity":"hour","time":"2030/01/01 11:00:00 -0500"},"county":"CLEAR CREEK","date":{"end_time":"2012/02/04 00:00:00 -0500","original":"02/03/2012","granularity":"day","time":"2012/02/03 00:00:00 -0500"},"event":"HEAVY SNOW","notes":null,"longitude":-105.42,"id":"a62c11b3t91r","source":"TRAINED SPOTTER","state":"CO"},"type":"Feature","geometry":{"type":"Point","coordinates":[-105.42,39.57]}},{"properties":{"city":"1 SSW MASONVILLE","latitude":40.39,"inches":20.3,"time":{"end_time":"2030/01/01 12:00:00 -0500","original":"0923 AM","granularity":"hour","time":"2030/01/01 11:00:00 -0500"},"county":"LARIMER","date":{"end_time":"2012/02/04 00:00:00 -0500","original":"02/03/2012","granularity":"day","time":"2012/02/03 00:00:00 -0500"},"event":"HEAVY SNOW","notes":null,"longitude":-105.25,"id":"a62c11eiyp6f","source":"TRAINED SPOTTER","state":"CO"},"type":"Feature","geometry":{"type":"Point","coordinates":[-105.25,40.39]}},{"properties":{"city":"2 NE GREENWOOD VILLAGE","latitude":39.64,"inches":10.5,"time":{"end_time":"2030/01/01 03:00:00 -0500","original":"0914 AM","granularity":"hour","time":"2030/01/01 02:00:00 -0500"},"county":"DENVER","date":{"end_time":"2012/02/04 00:00:00 -0500","original":"02/03/2012","granularity":"day","time":"2012/02/03 00:00:00 -0500"},"event":"HEAVY SNOW","notes":null,"longitude":-104.89,"id":"a62c11c8w2ik","source":"TRAINED SPOTTER","state":"CO"},"type":"Feature","geometry":{"type":"Point","coordinates":[-104.89,39.64]}},{"properties":{"city":"3 N CONIFER","latitude":39.57,"inches":17.1,"time":{"end_time":"901/01/01 00:00:00 -0456","original":"0900","granularity":"year","time":"900/01/01 00:00:00 -0456"},"county":"JEFFERSON","date":{"end_time":"2012/02/04 00:00:00 -0500","original":"02/03/2012","granularity":"day","time":"2012/02/03 00:00:00 -0500"},"event":"HEAVY SNOW","notes":null,"longitude":-105.31,"id":"a62c11b39e5k","source":"TRAINED SPOTTER","state":"CO"},"type":"Feature","geometry":{"type":"Point","coordinates":[-105.31,39.57]}},{"properties":{"city":"5 SSW ARAPAHOE PARK","latitude":39.57,"inches":13.9,"time":{"end_time":"901/01/01 00:00:00 -0456","original":"0900","granularity":"year","time":"900/01/01 00:00:00 -0456"},"county":"ARAPAHOE","date":{"end_time":"2012/02/04 00:00:00 -0500","original":"02/03/2012","granularity":"day","time":"2012/02/03 00:00:00 -0500"},"event":"HEAVY SNOW","notes":null,"longitude":-104.72,"id":"a62c11ba054h","source":"TRAINED SPOTTER","state":"CO"},"type":"Feature","geometry":{"type":"Point","coordinates":[-104.72,39.57]}},{"properties":{"city":"NW CASTLE ROCK","latitude":39.38,"inches":9.0,"time":{"end_time":"901/01/01 00:00:00 -0456","original":"0900","granularity":"year","time":"900/01/01 00:00:00 -0456"},"county":"DOUGLAS","date":{"end_time":"2012/02/04 00:00:00 -0500","original":"02/03/2012","granularity":"day","time":"2012/02/03 00:00:00 -0500"},"event":"HEAVY SNOW","notes":null,"longitude":-104.85,"id":"a62c117btsrx","source":"TRAINED SPOTTER","state":"CO"},"type":"Feature","geometry":{"type":"Point","coordinates":[-104.85,39.38]}},{"properties":{"city":"FORT COLLINS","latitude":40.56,"inches":6.0,"time":{"end_time":"901/01/01 00:00:00 -0456","original":"0900","granularity":"year","time":"900/01/01 00:00:00 -0456"},"county":"LARIMER","date":{"end_time":"2012/02/04 00:00:00 -0500","original":"02/03/2012","granularity":"day","time":"2012/02/03 00:00:00 -0500"},"event":"HEAVY SNOW","notes":null,"longitude":-105.07,"id":"a62c11crntq1","source":"TRAINED SPOTTER","state":"CO"},"type":"Feature","geometry":{"type":"Point","coordinates":[-105.07,40.56]}},{"properties":{"city":"9 NE PONDEROSA PARK","latitude":39.5,"inches":14.5,"time":{"end_time":"2030/01/01 09:00:00 -0500","original":"0836 AM","granularity":"hour","time":"2030/01/01 08:00:00 -0500"},"county":"ELBERT","date":{"end_time":"2012/02/04 00:00:00 -0500","original":"02/03/2012","granularity":"day","time":"2012/02/03 00:00:00 -0500"},"event":"HEAVY SNOW","notes":null,"longitude":-104.53,"id":"a62c11bay5w6","source":"TRAINED SPOTTER","state":"CO"},"type":"Feature","geometry":{"type":"Point","coordinates":[-104.53,39.5]}},{"properties":{"city":"2 S ALLENSPARK","latitude":40.18,"inches":11.0,"time":{"end_time":"2030/01/01 09:00:00 -0500","original":"0836 AM","granularity":"hour","time":"2030/01/01 08:00:00 -0500"},"county":"BOULDER","date":{"end_time":"2012/02/04 00:00:00 -0500","original":"02/03/2012","granularity":"day","time":"2012/02/03 00:00:00 -0500"},"event":"HEAVY SNOW","notes":null,"longitude":-105.53,"id":"a62c11iu4j7c","source":"TRAINED SPOTTER","state":"CO"},"type":"Feature","geometry":{"type":"Point","coordinates":[-105.53,40.18]}},{"properties":{"city":"N LONGMONT","latitude":40.17,"inches":11.5,"time":{"end_time":"2030/01/01 03:00:00 -0500","original":"0830 AM","granularity":"hour","time":"2030/01/01 02:00:00 -0500"},"county":"BOULDER","date":{"end_time":"2012/02/04 00:00:00 -0500","original":"02/03/2012","granularity":"day","time":"2012/02/03 00:00:00 -0500"},"event":"HEAVY SNOW","notes":null,"longitude":-105.11,"id":"a62c1158kshg","source":"TRAINED SPOTTER","state":"CO"},"type":"Feature","geometry":{"type":"Point","coordinates":[-105.11,40.17]}},{"properties":{"city":"2 SSE WOODLIN SCHOOL","latitude":39.76,"inches":6.5,"time":{"end_time":"2030/01/01 03:00:00 -0500","original":"0830 AM","granularity":"hour","time":"2030/01/01 02:00:00 -0500"},"county":"WASHINGTON","date":{"end_time":"2012/02/04 00:00:00 -0500","original":"02/03/2012","granularity":"day","time":"2012/02/03 00:00:00 -0500"},"event":"HEAVY SNOW","notes":null,"longitude":-103.5,"id":"a62c11dqjozd","source":"TRAINED SPOTTER","state":"CO"},"type":"Feature","geometry":{"type":"Point","coordinates":[-103.5,39.76]}},{"properties":{"city":"EVERGREEN","latitude":39.63,"inches":15.0,"time":{"end_time":"2030/01/01 03:00:00 -0500","original":"0830 AM","granularity":"hour","time":"2030/01/01 02:00:00 -0500"},"county":"JEFFERSON","date":{"end_time":"2012/02/04 00:00:00 -0500","original":"02/03/2012","granularity":"day","time":"2012/02/03 00:00:00 -0500"},"event":"HEAVY SNOW","notes":null,"longitude":-105.34,"id":"a62c114z7ri4","source":"TRAINED SPOTTER","state":"CO"},"type":"Feature","geometry":{"type":"Point","coordinates":[-105.34,39.63]}},{"properties":{"city":"2 SW LOVELAND","latitude":40.4,"inches":9.5,"time":{"end_time":"829/01/01 00:00:00 -0456","original":"0828","granularity":"year","time":"828/01/01 00:00:00 -0456"},"county":"LARIMER","date":{"end_time":"2012/02/04 00:00:00 -0500","original":"02/03/2012","granularity":"day","time":"2012/02/03 00:00:00 -0500"},"event":"HEAVY SNOW","notes":null,"longitude":-105.09,"id":"a62c116v4anf","source":"TRAINED SPOTTER","state":"CO"},"type":"Feature","geometry":{"type":"Point","coordinates":[-105.09,40.4]}},{"properties":{"city":"1 NNW ERIE","latitude":40.04,"inches":12.0,"time":{"end_time":"2030/01/01 11:00:00 -0500","original":"0826 AM","granularity":"hour","time":"2030/01/01 10:00:00 -0500"},"county":"BOULDER","date":{"end_time":"2012/02/04 00:00:00 -0500","original":"02/03/2012","granularity":"day","time":"2012/02/03 00:00:00 -0500"},"event":"HEAVY SNOW","notes":null,"longitude":-105.05,"id":"a62c119eiyg2","source":"TRAINED SPOTTER","state":"CO"},"type":"Feature","geometry":{"type":"Point","coordinates":[-105.05,40.04]}},{"properties":{"city":"1 SE GLENDALE","latitude":39.69,"inches":6.9,"time":{"end_time":"2030/01/01 11:00:00 -0500","original":"0826 AM","granularity":"hour","time":"2030/01/01 10:00:00 -0500"},"county":"DENVER","date":{"end_time":"2012/02/04 00:00:00 -0500","original":"02/03/2012","granularity":"day","time":"2012/02/03 00:00:00 -0500"},"event":"HEAVY SNOW","notes":null,"longitude":-104.92,"id":"a62c11irhbr8","source":"TRAINED SPOTTER","state":"CO"},"type":"Feature","geometry":{"type":"Point","coordinates":[-104.92,39.69]}},{"properties":{"city":"1 WSW BROOMFIELD","latitude":39.93,"inches":12.0,"time":{"end_time":"2030/01/01 05:00:00 -0500","original":"0820 AM","granularity":"hour","time":"2030/01/01 04:00:00 -0500"},"county":"BROOMFIELD","date":{"end_time":"2012/02/04 00:00:00 -0500","original":"02/03/2012","granularity":"day","time":"2012/02/03 00:00:00 -0500"},"event":"HEAVY SNOW","notes":null,"longitude":-105.08,"id":"a62c11ccra5b","source":"NWS EMPLOYEE","state":"CO"},"type":"Feature","geometry":{"type":"Point","coordinates":[-105.08,39.93]}},{"properties":{"city":"GENESEE","latitude":39.69,"inches":14.5,"time":{"end_time":"2030/01/01 07:00:00 -0500","original":"0810 AM","granularity":"hour","time":"2030/01/01 06:00:00 -0500"},"county":"JEFFERSON","date":{"end_time":"2012/02/04 00:00:00 -0500","original":"02/03/2012","granularity":"day","time":"2012/02/03 00:00:00 -0500"},"event":"HEAVY SNOW","notes":null,"longitude":-105.27,"id":"a62c11grxlgh","source":"TRAINED SPOTTER","state":"CO"},"type":"Feature","geometry":{"type":"Point","coordinates":[-105.27,39.69]}},{"properties":{"city":"4 NNW CASTLE ROCK","latitude":39.43,"inches":8.3,"time":{"end_time":"2030/01/01 07:00:00 -0500","original":"0810 AM","granularity":"hour","time":"2030/01/01 06:00:00 -0500"},"county":"DOUGLAS","date":{"end_time":"2012/02/04 00:00:00 -0500","original":"02/03/2012","granularity":"day","time":"2012/02/03 00:00:00 -0500"},"event":"HEAVY SNOW","notes":null,"longitude":-104.88,"id":"a62c11ii7zmm","source":"TRAINED SPOTTER","state":"CO"},"type":"Feature","geometry":{"type":"Point","coordinates":[-104.88,39.43]}}],"is_temporal":true,"author":{"url":"","metadata":null,"contact_name":null,"contact_address":null,"source":null,"contact_phone":null},"source":"","pagination":{"sort":null,"start":0,"total":57,"limit":1000000},"state":"complete","tags":"","published":"2014-08-14T17:51:15-04:00","id":202203}