{"type":"FeatureCollection","data_type":"Dataset","url_type":null,"permissions":[{"permissions":{"download":true,"view":true},"group_id":"everyone"}],"classification":null,"title":"snow_totals_0730","count":65,"stream_id":202375,"contributor":{"url":"http://geocommons.com/users/28467","name":"bheberto"},"data_attributes":null,"calculation_params":null,"icon_link":null,"link":"http://geocommons.com/overlays/202375.json","extent":[-106.0,39.1,105.34,40.93],"geometry_types":["point"],"unique_name":null,"name":"snow_totals_0730","feature_count":65,"description":"","next_feature":null,"is_raster":false,"short_classification":"Y","stats":{"latitude":{"max":40.93,"mean":39.8232307692308,"variance":0.153612836538462,"stdev":0.391934735049678,"min":39.1,"median":39.74},"time":{"max":"2030/01/01 23:00:00 -0500","mean":"1846/02/26 19:44:48 -0456","variance":1.68508252190859e+20,"stdev":12981072844.3707,"min":"827/12/31 23:59:58 -0456","median":"2030/01/01 08:00:00 -0500"},"inches":{"max":48.0,"mean":14.4876923076923,"variance":62.1742211538461,"stdev":7.88506316739734,"min":2.0,"median":13.0},"date":{"max":"2012/02/03 00:00:00 -0500","mean":"2012/02/03 00:00:00 -0500","variance":0.0,"stdev":0.0,"min":"2012/02/03 00:00:00 -0500","median":"2012/02/03 00:00:00 -0500"},"longitude":{"max":105.34,"mean":-101.724923076923,"variance":680.705512884615,"stdev":26.0903337058884,"min":-106.0,"median":-105.07}},"features":[{"properties":{"city":"1 SSW BENNETT","latitude":39.74,"inches":13.0,"time":{"end_time":"2030/01/01 17:00:00 -0500","original":"0304 PM","granularity":"hour","time":"2030/01/01 16:00:00 -0500"},"county":"ADAMS","date":{"end_time":"2012/02/04 00:00:00 -0500","original":"02/03/2012","granularity":"day","time":"2012/02/03 00:00:00 -0500"},"event":"HEAVY SNOW","notes":null,"longitude":-104.43,"id":"a7ia0kss0xt7","source":"TRAINED SPOTTER","state":"CO"},"type":"Feature","geometry":{"type":"Point","coordinates":[-104.43,39.74]}},{"properties":{"city":"1 E CASTLE ROCK","latitude":39.38,"inches":14.8,"time":{"end_time":"2030/01/01 15:00:00 -0500","original":"0302 PM","granularity":"hour","time":"2030/01/01 14:00:00 -0500"},"county":"DOUGLAS","date":{"end_time":"2012/02/04 00:00:00 -0500","original":"02/03/2012","granularity":"day","time":"2012/02/03 00:00:00 -0500"},"event":"HEAVY SNOW","notes":null,"longitude":-104.83,"id":"a7ia0krdf270","source":"TRAINED SPOTTER","state":"CO"},"type":"Feature","geometry":{"type":"Point","coordinates":[-104.83,39.38]}},{"properties":{"city":"14 WSW AGATE","latitude":39.42,"inches":23.0,"time":{"end_time":"2030/01/01 14:00:00 -0500","original":"0301 PM","granularity":"hour","time":"2030/01/01 13:00:00 -0500"},"county":"ELBERT","date":{"end_time":"2012/02/04 00:00:00 -0500","original":"02/03/2012","granularity":"day","time":"2012/02/03 00:00:00 -0500"},"event":"HEAVY SNOW","notes":null,"longitude":-104.2,"id":"a7ia0l3l86zd","source":"TRAINED SPOTTER","state":"CO"},"type":"Feature","geometry":{"type":"Point","coordinates":[-104.2,39.42]}},{"properties":{"city":"4 ESE FRANKTOWN","latitude":39.36,"inches":14.5,"time":{"end_time":"2030/01/01 14:00:00 -0500","original":"0301 PM","granularity":"hour","time":"2030/01/01 13:00:00 -0500"},"county":"DOUGLAS","date":{"end_time":"2012/02/04 00:00:00 -0500","original":"02/03/2012","granularity":"day","time":"2012/02/03 00:00:00 -0500"},"event":"HEAVY SNOW","notes":null,"longitude":-104.69,"id":"a7ia0l6ks5se","source":"TRAINED SPOTTER","state":"CO"},"type":"Feature","geometry":{"type":"Point","coordinates":[-104.69,39.36]}},{"properties":{"city":"5 SSW ARAPAHOE PARK","latitude":39.57,"inches":19.9,"time":{"end_time":"2030/01/01 13:00:00 -0500","original":"0300 PM","granularity":"hour","time":"2030/01/01 12:00:00 -0500"},"county":"ARAPAHOE","date":{"end_time":"2012/02/04 00:00:00 -0500","original":"02/03/2012","granularity":"day","time":"2012/02/03 00:00:00 -0500"},"event":"HEAVY SNOW","notes":null,"longitude":-104.71,"id":"a7ia0l3w1elx","source":"TRAINED SPOTTER","state":"CO"},"type":"Feature","geometry":{"type":"Point","coordinates":[-104.71,39.57]}},{"properties":{"city":"GOLD HILL","latitude":40.06,"inches":24.0,"time":{"end_time":"2030/01/01 15:00:00 -0500","original":"0230 PM","granularity":"hour","time":"2030/01/01 14:00:00 -0500"},"county":"BOULDER","date":{"end_time":"2012/02/04 00:00:00 -0500","original":"02/03/2012","granularity":"day","time":"2012/02/03 00:00:00 -0500"},"event":"HEAVY SNOW","notes":null,"longitude":-105.41,"id":"a7ia0kxvm5z2","source":"TRAINED SPOTTER","state":"CO"},"type":"Feature","geometry":{"type":"Point","coordinates":[-105.41,40.06]}},{"properties":{"city":"3 W CONIFER","latitude":39.51,"inches":31.0,"time":{"end_time":"2030/01/01 21:00:00 -0500","original":"0200 PM","granularity":"hour","time":"2030/01/01 20:00:00 -0500"},"county":"JEFFERSON","date":{"end_time":"2012/02/04 00:00:00 -0500","original":"02/03/2012","granularity":"day","time":"2012/02/03 00:00:00 -0500"},"event":"HEAVY SNOW","notes":null,"longitude":-105.36,"id":"a7ia0l4jikhl","source":"TRAINED SPOTTER","state":"CO"},"type":"Feature","geometry":{"type":"Point","coordinates":[-105.36,39.51]}},{"properties":{"city":"STERLING","latitude":40.65,"inches":5.0,"time":{"end_time":"2030/01/01 21:00:00 -0500","original":"0200 PM","granularity":"hour","time":"2030/01/01 20:00:00 -0500"},"county":"LOGAN","date":{"end_time":"2012/02/04 00:00:00 -0500","original":"02/03/2012","granularity":"day","time":"2012/02/03 00:00:00 -0500"},"event":"SNOW","notes":null,"longitude":-103.2,"id":"a7ia0l5s03ru","source":"TRAINED SPOTTER","state":"CO"},"type":"Feature","geometry":{"type":"Point","coordinates":[-103.2,40.65]}},{"properties":{"city":"3 W JAMESTOWN","latitude":40.11,"inches":35.1,"time":{"end_time":"2030/01/01 21:00:00 -0500","original":"0200 PM","granularity":"hour","time":"2030/01/01 20:00:00 -0500"},"county":"BOULDER","date":{"end_time":"2012/02/04 00:00:00 -0500","original":"02/03/2012","granularity":"day","time":"2012/02/03 00:00:00 -0500"},"event":"HEAVY SNOW","notes":null,"longitude":-105.44,"id":"a7ia0l1gpkfb","source":"TRAINED SPOTTER","state":"CO"},"type":"Feature","geometry":{"type":"Point","coordinates":[-105.44,40.11]}},{"properties":{"city":"3 SW AURORA","latitude":39.66,"inches":12.0,"time":{"end_time":"2030/01/02 00:00:00 -0500","original":"0143 PM","granularity":"hour","time":"2030/01/01 23:00:00 -0500"},"county":"ARAPAHOE","date":{"end_time":"2012/02/04 00:00:00 -0500","original":"02/03/2012","granularity":"day","time":"2012/02/03 00:00:00 -0500"},"event":"HEAVY SNOW","notes":null,"longitude":-104.77,"id":"a7ia0l3wdamz","source":"TRAINED SPOTTER","state":"CO"},"type":"Feature","geometry":{"type":"Point","coordinates":[-104.77,39.66]}},{"properties":{"city":"EVERGREEN","latitude":39.63,"inches":17.0,"time":{"end_time":"2030/01/02 00:00:00 -0500","original":"0143 PM","granularity":"hour","time":"2030/01/01 23:00:00 -0500"},"county":"JEFFERSON","date":{"end_time":"2012/02/04 00:00:00 -0500","original":"02/03/2012","granularity":"day","time":"2012/02/03 00:00:00 -0500"},"event":"HEAVY SNOW","notes":null,"longitude":105.34,"id":"a7ia0l3htuqh","source":"TRAINED SPOTTER","state":"CO"},"type":"Feature","geometry":{"type":"Point","coordinates":[105.34,39.63]}},{"properties":{"city":"GENESEE","latitude":39.69,"inches":19.2,"time":{"end_time":"2030/01/02 00:00:00 -0500","original":"1235 PM","granularity":"hour","time":"2030/01/01 23:00:00 -0500"},"county":"JEFFERSON","date":{"end_time":"2012/02/04 00:00:00 -0500","original":"02/03/2012","granularity":"day","time":"2012/02/03 00:00:00 -0500"},"event":"HEAVY SNOW","notes":null,"longitude":-105.27,"id":"a7ia0kth0r2e","source":"TRAINED SPOTTER","state":"CO"},"type":"Feature","geometry":{"type":"Point","coordinates":[-105.27,39.69]}},{"properties":{"city":"1 SW WESTMINSTER","latitude":39.87,"inches":13.7,"time":{"end_time":"2030/01/01 17:00:00 -0500","original":"1228 PM","granularity":"hour","time":"2030/01/01 16:00:00 -0500"},"county":"JEFFERSON","date":{"end_time":"2012/02/04 00:00:00 -0500","original":"02/03/2012","granularity":"day","time":"2012/02/03 00:00:00 -0500"},"event":"HEAVY SNOW","notes":null,"longitude":-105.07,"id":"a7ia0ksph5y1","source":"TRAINED SPOTTER","state":"CO"},"type":"Feature","geometry":{"type":"Point","coordinates":[-105.07,39.87]}},{"properties":{"city":"14 WSW AGATE","latitude":39.42,"inches":19.5,"time":{"end_time":"2030/01/01 17:00:00 -0500","original":"1228 PM","granularity":"hour","time":"2030/01/01 16:00:00 -0500"},"county":"ELBERT","date":{"end_time":"2012/02/04 00:00:00 -0500","original":"02/03/2012","granularity":"day","time":"2012/02/03 00:00:00 -0500"},"event":"HEAVY SNOW","notes":null,"longitude":-104.2,"id":"a7ia0krkndwt","source":"TRAINED SPOTTER","state":"CO"},"type":"Feature","geometry":{"type":"Point","coordinates":[-104.2,39.42]}},{"properties":{"city":"2 W FORT COLLINS","latitude":40.56,"inches":9.0,"time":{"end_time":"2030/01/01 19:00:00 -0500","original":"1206 PM","granularity":"hour","time":"2030/01/01 18:00:00 -0500"},"county":"LARIMER","date":{"end_time":"2012/02/04 00:00:00 -0500","original":"02/03/2012","granularity":"day","time":"2012/02/03 00:00:00 -0500"},"event":"HEAVY SNOW","notes":null,"longitude":-105.11,"id":"a7ia0kwiwz5h","source":"PUBLIC","state":"CO"},"type":"Feature","geometry":{"type":"Point","coordinates":[-105.11,40.56]}},{"properties":{"city":"5 SE FRANKTOWN","latitude":39.33,"inches":12.7,"time":{"end_time":"2030/01/01 13:00:00 -0500","original":"1200 PM","granularity":"hour","time":"2030/01/01 12:00:00 -0500"},"county":"DOUGLAS","date":{"end_time":"2012/02/04 00:00:00 -0500","original":"02/03/2012","granularity":"day","time":"2012/02/03 00:00:00 -0500"},"event":"HEAVY SNOW","notes":null,"longitude":-104.68,"id":"a7ia0kwik2ms","source":"TRAINED SPOTTER","state":"CO"},"type":"Feature","geometry":{"type":"Point","coordinates":[-104.68,39.33]}},{"properties":{"city":"4 S EVERGREEN","latitude":39.58,"inches":20.4,"time":{"end_time":"2030/01/01 13:00:00 -0500","original":"1200 PM","granularity":"hour","time":"2030/01/01 12:00:00 -0500"},"county":"JEFFERSON","date":{"end_time":"2012/02/04 00:00:00 -0500","original":"02/03/2012","granularity":"day","time":"2012/02/03 00:00:00 -0500"},"event":"HEAVY SNOW","notes":null,"longitude":-105.34,"id":"a7ia0l3o92kn","source":"TRAINED SPOTTER","state":"CO"},"type":"Feature","geometry":{"type":"Point","coordinates":[-105.34,39.58]}},{"properties":{"city":"5 SSW ARAPAHOE PARK","latitude":39.57,"inches":16.8,"time":{"end_time":"2030/01/01 13:00:00 -0500","original":"1200 PM","granularity":"hour","time":"2030/01/01 12:00:00 -0500"},"county":"ARAPAHOE","date":{"end_time":"2012/02/04 00:00:00 -0500","original":"02/03/2012","granularity":"day","time":"2012/02/03 00:00:00 -0500"},"event":"HEAVY SNOW","notes":null,"longitude":-104.72,"id":"a7ia0krheetk","source":"TRAINED SPOTTER","state":"CO"},"type":"Feature","geometry":{"type":"Point","coordinates":[-104.72,39.57]}},{"properties":{"city":"5 SE WESTCREEK","latitude":39.1,"inches":13.5,"time":{"end_time":"2030/01/01 07:00:00 -0500","original":"1158 AM","granularity":"hour","time":"2030/01/01 06:00:00 -0500"},"county":"TELLER","date":{"end_time":"2012/02/04 00:00:00 -0500","original":"02/03/2012","granularity":"day","time":"2012/02/03 00:00:00 -0500"},"event":"HEAVY SNOW","notes":null,"longitude":-105.1,"id":"a7ia0l66avvk","source":"TRAINED SPOTTER","state":"CO"},"type":"Feature","geometry":{"type":"Point","coordinates":[-105.1,39.1]}},{"properties":{"city":"4 ENE NEDERLAND","latitude":39.99,"inches":28.5,"time":{"end_time":"2030/01/01 06:00:00 -0500","original":"1145 AM","granularity":"hour","time":"2030/01/01 05:00:00 -0500"},"county":"BOULDER","date":{"end_time":"2012/02/04 00:00:00 -0500","original":"02/03/2012","granularity":"day","time":"2012/02/03 00:00:00 -0500"},"event":"HEAVY SNOW","notes":null,"longitude":-105.45,"id":"a7ia0kuzlavb","source":"TRAINED SPOTTER","state":"CO"},"type":"Feature","geometry":{"type":"Point","coordinates":[-105.45,39.99]}},{"properties":{"city":"1 E IDAHO SPRINGS","latitude":39.74,"inches":9.5,"time":{"end_time":"2030/01/01 03:00:00 -0500","original":"1130 AM","granularity":"hour","time":"2030/01/01 02:00:00 -0500"},"county":"CLEAR CREEK","date":{"end_time":"2012/02/04 00:00:00 -0500","original":"02/03/2012","granularity":"day","time":"2012/02/03 00:00:00 -0500"},"event":"HEAVY SNOW","notes":null,"longitude":-105.49,"id":"a7ia0l1svih0","source":"TRAINED SPOTTER","state":"CO"},"type":"Feature","geometry":{"type":"Point","coordinates":[-105.49,39.74]}},{"properties":{"city":"E SEDGWICK","latitude":40.93,"inches":2.0,"time":{"end_time":"2030/01/01 03:00:00 -0500","original":"1130 AM","granularity":"hour","time":"2030/01/01 02:00:00 -0500"},"county":"SEDGWICK","date":{"end_time":"2012/02/04 00:00:00 -0500","original":"02/03/2012","granularity":"day","time":"2012/02/03 00:00:00 -0500"},"event":"SNOW","notes":null,"longitude":-102.53,"id":"a7ia0kyh01ou","source":"TRAINED SPOTTER","state":"CO"},"type":"Feature","geometry":{"type":"Point","coordinates":[-102.53,40.93]}},{"properties":{"city":"2 SSE BOULDER","latitude":40.0,"inches":13.5,"time":{"end_time":"2030/01/01 08:00:00 -0500","original":"1123 AM","granularity":"hour","time":"2030/01/01 07:00:00 -0500"},"county":"BOULDER","date":{"end_time":"2012/02/04 00:00:00 -0500","original":"02/03/2012","granularity":"day","time":"2012/02/03 00:00:00 -0500"},"event":"HEAVY SNOW","notes":null,"longitude":-105.24,"id":"a7ia0l2xmrl6","source":"NWS EMPLOYEE","state":"CO"},"type":"Feature","geometry":{"type":"Point","coordinates":[-105.24,40.0]}},{"properties":{"city":"4 NW ELIZABETH","latitude":39.4,"inches":11.0,"time":{"end_time":"2030/01/01 05:00:00 -0500","original":"1120 AM","granularity":"hour","time":"2030/01/01 04:00:00 -0500"},"county":"DOUGLAS","date":{"end_time":"2012/02/04 00:00:00 -0500","original":"02/03/2012","granularity":"day","time":"2012/02/03 00:00:00 -0500"},"event":"HEAVY SNOW","notes":null,"longitude":-104.65,"id":"a7ia0ksx7v9f","source":"TRAINED SPOTTER","state":"CO"},"type":"Feature","geometry":{"type":"Point","coordinates":[-104.65,39.4]}},{"properties":{"city":"4 WSW ELDORADO SPRINGS","latitude":39.91,"inches":20.0,"time":{"end_time":"2030/01/01 05:00:00 -0500","original":"1120 AM","granularity":"hour","time":"2030/01/01 04:00:00 -0500"},"county":"JEFFERSON","date":{"end_time":"2012/02/04 00:00:00 -0500","original":"02/03/2012","granularity":"day","time":"2012/02/03 00:00:00 -0500"},"event":"HEAVY SNOW","notes":null,"longitude":-105.34,"id":"a7ia0l0vde7v","source":"TRAINED SPOTTER","state":"CO"},"type":"Feature","geometry":{"type":"Point","coordinates":[-105.34,39.91]}},{"properties":{"city":"2 NW FREDERICK","latitude":40.12,"inches":8.5,"time":{"end_time":"2030/01/01 09:00:00 -0500","original":"1100 AM","granularity":"hour","time":"2030/01/01 08:00:00 -0500"},"county":"WELD","date":{"end_time":"2012/02/04 00:00:00 -0500","original":"02/03/2012","granularity":"day","time":"2012/02/03 00:00:00 -0500"},"event":"HEAVY SNOW","notes":null,"longitude":-104.96,"id":"a7ia0l54rit4","source":"TRAINED SPOTTER","state":"CO"},"type":"Feature","geometry":{"type":"Point","coordinates":[-104.96,40.12]}},{"properties":{"city":"3 N BLACK HAWK","latitude":39.84,"inches":48.0,"time":{"end_time":"2030/01/01 09:00:00 -0500","original":"1100 AM","granularity":"hour","time":"2030/01/01 08:00:00 -0500"},"county":"GILPIN","date":{"end_time":"2012/02/04 00:00:00 -0500","original":"02/03/2012","granularity":"day","time":"2012/02/03 00:00:00 -0500"},"event":"HEAVY SNOW","notes":null,"longitude":-105.49,"id":"a7ia0kvxiffm","source":"BROADCAST MEDIA","state":"CO"},"type":"Feature","geometry":{"type":"Point","coordinates":[-105.49,39.84]}},{"properties":{"city":"LOVELAND","latitude":40.42,"inches":9.0,"time":{"end_time":"2030/01/01 09:00:00 -0500","original":"1100 AM","granularity":"hour","time":"2030/01/01 08:00:00 -0500"},"county":"LARIMER","date":{"end_time":"2012/02/04 00:00:00 -0500","original":"02/03/2012","granularity":"day","time":"2012/02/03 00:00:00 -0500"},"event":"HEAVY SNOW","notes":null,"longitude":-105.07,"id":"a7ia0ks381iz","source":"TRAINED SPOTTER","state":"CO"},"type":"Feature","geometry":{"type":"Point","coordinates":[-105.07,40.42]}},{"properties":{"city":"3 SSE BOULDER","latitude":39.99,"inches":16.3,"time":{"end_time":"2030/01/01 09:00:00 -0500","original":"1052 AM","granularity":"hour","time":"2030/01/01 08:00:00 -0500"},"county":"BOULDER","date":{"end_time":"2012/02/04 00:00:00 -0500","original":"02/03/2012","granularity":"day","time":"2012/02/03 00:00:00 -0500"},"event":"HEAVY SNOW","notes":null,"longitude":-105.23,"id":"a7ia0l32g3ty","source":"TRAINED SPOTTER","state":"CO"},"type":"Feature","geometry":{"type":"Point","coordinates":[-105.23,39.99]}},{"properties":{"city":"1 SSW LAFAYETTE","latitude":39.99,"inches":12.0,"time":{"end_time":"2030/01/01 09:00:00 -0500","original":"1052 AM","granularity":"hour","time":"2030/01/01 08:00:00 -0500"},"county":"BOULDER","date":{"end_time":"2012/02/04 00:00:00 -0500","original":"02/03/2012","granularity":"day","time":"2012/02/03 00:00:00 -0500"},"event":"HEAVY SNOW","notes":null,"longitude":-105.1,"id":"a7ia0kt1cf28","source":"TRAINED SPOTTER","state":"CO"},"type":"Feature","geometry":{"type":"Point","coordinates":[-105.1,39.99]}},{"properties":{"city":"4 SSE PINECLIFFE","latitude":39.88,"inches":34.5,"time":{"end_time":"2030/01/01 11:00:00 -0500","original":"1042 AM","granularity":"hour","time":"2030/01/01 10:00:00 -0500"},"county":"GILPIN","date":{"end_time":"2012/02/04 00:00:00 -0500","original":"02/03/2012","granularity":"day","time":"2012/02/03 00:00:00 -0500"},"event":"HEAVY SNOW","notes":null,"longitude":-105.39,"id":"a7ia0l1f9aow","source":"TRAINED SPOTTER","state":"CO"},"type":"Feature","geometry":{"type":"Point","coordinates":[-105.39,39.88]}},{"properties":{"city":"SHERRELWOOD","latitude":39.84,"inches":7.5,"time":{"end_time":"2030/01/01 11:00:00 -0500","original":"1030 AM","granularity":"hour","time":"2030/01/01 10:00:00 -0500"},"county":"ADAMS","date":{"end_time":"2012/02/04 00:00:00 -0500","original":"02/03/2012","granularity":"day","time":"2012/02/03 00:00:00 -0500"},"event":"HEAVY SNOW","notes":null,"longitude":-105.0,"id":"a7ia0l6znuhn","source":"BROADCAST MEDIA","state":"CO"},"type":"Feature","geometry":{"type":"Point","coordinates":[-105.0,39.84]}},{"properties":{"city":"3 S ESTES PARK","latitude":40.33,"inches":10.4,"time":{"end_time":"1021/01/01 00:00:00 -0456","original":"1020","granularity":"year","time":"1020/01/01 00:00:00 -0456"},"county":"LARIMER","date":{"end_time":"2012/02/04 00:00:00 -0500","original":"02/03/2012","granularity":"day","time":"2012/02/03 00:00:00 -0500"},"event":"HEAVY SNOW","notes":null,"longitude":-105.52,"id":"a7ia0kwbiumc","source":"TRAINED SPOTTER","state":"CO"},"type":"Feature","geometry":{"type":"Point","coordinates":[-105.52,40.33]}},{"properties":{"city":"1 W NORTHGLENN","latitude":39.91,"inches":13.0,"time":{"end_time":"1021/01/01 00:00:00 -0456","original":"1020","granularity":"year","time":"1020/01/01 00:00:00 -0456"},"county":"ADAMS","date":{"end_time":"2012/02/04 00:00:00 -0500","original":"02/03/2012","granularity":"day","time":"2012/02/03 00:00:00 -0500"},"event":"HEAVY SNOW","notes":null,"longitude":-104.99,"id":"a7ia0kzjt03a","source":"TRAINED SPOTTER","state":"CO"},"type":"Feature","geometry":{"type":"Point","coordinates":[-104.99,39.91]}},{"properties":{"city":"GENESEE","latitude":39.69,"inches":17.4,"time":{"end_time":"1021/01/01 00:00:00 -0456","original":"1020","granularity":"year","time":"1020/01/01 00:00:00 -0456"},"county":"JEFFERSON","date":{"end_time":"2012/02/04 00:00:00 -0500","original":"02/03/2012","granularity":"day","time":"2012/02/03 00:00:00 -0500"},"event":"HEAVY SNOW","notes":null,"longitude":-105.27,"id":"a7ia0l017542","source":"TRAINED SPOTTER","state":"CO"},"type":"Feature","geometry":{"type":"Point","coordinates":[-105.27,39.69]}},{"properties":{"city":"7 N GLEN HAVEN","latitude":40.55,"inches":13.1,"time":{"end_time":"1021/01/01 00:00:00 -0456","original":"1020","granularity":"year","time":"1020/01/01 00:00:00 -0456"},"county":"LarIMER","date":{"end_time":"2012/02/04 00:00:00 -0500","original":"02/03/2012","granularity":"day","time":"2012/02/03 00:00:00 -0500"},"event":"HEAVY SNOW","notes":null,"longitude":-105.44,"id":"a7ia0l247wqz","source":"TRAINED SPOTTER","state":"CO"},"type":"Feature","geometry":{"type":"Point","coordinates":[-105.44,40.55]}},{"properties":{"city":"2 NE THORNTON","latitude":39.91,"inches":9.5,"time":{"end_time":"2030/01/01 05:00:00 -0500","original":"1000 AM","granularity":"hour","time":"2030/01/01 04:00:00 -0500"},"county":"ADAMS","date":{"end_time":"2012/02/04 00:00:00 -0500","original":"02/03/2012","granularity":"day","time":"2012/02/03 00:00:00 -0500"},"event":"HEAVY SNOW","notes":null,"longitude":-104.93,"id":"a7ia0l1i0olq","source":"TRAINED SPOTTER","state":"CO"},"type":"Feature","geometry":{"type":"Point","coordinates":[-104.93,39.91]}},{"properties":{"city":"2 NNE LITTLETON","latitude":39.62,"inches":12.6,"time":{"end_time":"2030/01/01 05:00:00 -0500","original":"1000 AM","granularity":"hour","time":"2030/01/01 04:00:00 -0500"},"county":"ARAPAHOE","date":{"end_time":"2012/02/04 00:00:00 -0500","original":"02/03/2012","granularity":"day","time":"2012/02/03 00:00:00 -0500"},"event":"HEAVY SNOW","notes":null,"longitude":-105.0,"id":"a7ia0kx44na9","source":"TRAINED SPOTTER","state":"CO"},"type":"Feature","geometry":{"type":"Point","coordinates":[-105.0,39.62]}},{"properties":{"city":"1 S GREELEY","latitude":40.4,"inches":4.0,"time":{"end_time":"2030/01/01 05:00:00 -0500","original":"1000 AM","granularity":"hour","time":"2030/01/01 04:00:00 -0500"},"county":"WELD","date":{"end_time":"2012/02/04 00:00:00 -0500","original":"02/03/2012","granularity":"day","time":"2012/02/03 00:00:00 -0500"},"event":"HEAVY SNOW","notes":null,"longitude":-104.75,"id":"a7ia0kwudtio","source":"TRAINED SPOTTER","state":"CO"},"type":"Feature","geometry":{"type":"Point","coordinates":[-104.75,40.4]}},{"properties":{"city":"NW DENVER","latitude":39.77,"inches":9.0,"time":{"end_time":"2030/01/01 11:00:00 -0500","original":"0958 AM","granularity":"hour","time":"2030/01/01 10:00:00 -0500"},"county":"DENVER","date":{"end_time":"2012/02/04 00:00:00 -0500","original":"02/03/2012","granularity":"day","time":"2012/02/03 00:00:00 -0500"},"event":"HEAVY SNOW","notes":null,"longitude":-104.87,"id":"a7ia0l387g8k","source":"NWS EMPLOYEE","state":"CO"},"type":"Feature","geometry":{"type":"Point","coordinates":[-104.87,39.77]}},{"properties":{"city":"WNW SIMLA","latitude":39.14,"inches":15.0,"time":{"end_time":"2030/01/01 10:00:00 -0500","original":"0957 AM","granularity":"hour","time":"2030/01/01 09:00:00 -0500"},"county":"ELBERT","date":{"end_time":"2012/02/04 00:00:00 -0500","original":"02/03/2012","granularity":"day","time":"2012/02/03 00:00:00 -0500"},"event":"HEAVY SNOW","notes":null,"longitude":-104.09,"id":"a7ia0l2vva9u","source":"TRAINED SPOTTER","state":"CO"},"type":"Feature","geometry":{"type":"Point","coordinates":[-104.09,39.14]}},{"properties":{"city":"5 SE FRANKTOWN","latitude":39.33,"inches":10.5,"time":{"end_time":"937/01/01 00:00:00 -0456","original":"0936","granularity":"year","time":"936/01/01 00:00:00 -0456"},"county":"DOUGLAS","date":{"end_time":"2012/02/04 00:00:00 -0500","original":"02/03/2012","granularity":"day","time":"2012/02/03 00:00:00 -0500"},"event":"HEAVY SNOW","notes":null,"longitude":-104.68,"id":"a7ia0l77jwex","source":"TRAINED SPOTTER","state":"CO"},"type":"Feature","geometry":{"type":"Point","coordinates":[-104.68,39.33]}},{"properties":{"city":"N FAIRPLAY","latitude":39.23,"inches":2.0,"time":{"end_time":"937/01/01 00:00:00 -0456","original":"0936","granularity":"year","time":"936/01/01 00:00:00 -0456"},"county":"PARK","date":{"end_time":"2012/02/04 00:00:00 -0500","original":"02/03/2012","granularity":"day","time":"2012/02/03 00:00:00 -0500"},"event":"SNOW","notes":null,"longitude":-106.0,"id":"a7ia0kzjjpp3","source":"TRAINED SPOTTER","state":"CO"},"type":"Feature","geometry":{"type":"Point","coordinates":[-106.0,39.23]}},{"properties":{"city":"2 W WESTMINSTER","latitude":39.88,"inches":13.0,"time":{"end_time":"2030/01/01 11:00:00 -0500","original":"0934 AM","granularity":"hour","time":"2030/01/01 10:00:00 -0500"},"county":"JEFFERSON","date":{"end_time":"2012/02/04 00:00:00 -0500","original":"02/03/2012","granularity":"day","time":"2012/02/03 00:00:00 -0500"},"event":"HEAVY SNOW","notes":null,"longitude":-105.09,"id":"a7ia0kva1d8p","source":"TRAINED SPOTTER","state":"CO"},"type":"Feature","geometry":{"type":"Point","coordinates":[-105.09,39.88]}},{"properties":{"city":"2 ENE BERGEN PARK","latitude":39.71,"inches":10.0,"time":{"end_time":"2030/01/01 11:00:00 -0500","original":"0934 AM","granularity":"hour","time":"2030/01/01 10:00:00 -0500"},"county":"JEFFERSON","date":{"end_time":"2012/02/04 00:00:00 -0500","original":"02/03/2012","granularity":"day","time":"2012/02/03 00:00:00 -0500"},"event":"HEAVY SNOW","notes":null,"longitude":-105.32,"id":"a7ia0kzpsgqa","source":"TRAINED SPOTTER","state":"CO"},"type":"Feature","geometry":{"type":"Point","coordinates":[-105.32,39.71]}},{"properties":{"city":"ERIE","latitude":40.03,"inches":14.0,"time":{"end_time":"2030/01/01 11:00:00 -0500","original":"0934 AM","granularity":"hour","time":"2030/01/01 10:00:00 -0500"},"county":"WELD","date":{"end_time":"2012/02/04 00:00:00 -0500","original":"02/03/2012","granularity":"day","time":"2012/02/03 00:00:00 -0500"},"event":"HEAVY SNOW","notes":null,"longitude":-105.05,"id":"a7ia0l0v1x7c","source":"TRAINED SPOTTER","state":"CO"},"type":"Feature","geometry":{"type":"Point","coordinates":[-105.05,40.03]}},{"properties":{"city":"MORRISON","latitude":39.65,"inches":16.3,"time":{"end_time":"2030/01/01 07:00:00 -0500","original":"0930 AM","granularity":"hour","time":"2030/01/01 06:00:00 -0500"},"county":"JEFFERSON","date":{"end_time":"2012/02/04 00:00:00 -0500","original":"02/03/2012","granularity":"day","time":"2012/02/03 00:00:00 -0500"},"event":"HEAVY SNOW","notes":null,"longitude":-105.18,"id":"a7ia0kvky2cd","source":"TRAINED SPOTTER","state":"CO"},"type":"Feature","geometry":{"type":"Point","coordinates":[-105.18,39.65]}},{"properties":{"city":"6 SW EVERGREEN","latitude":39.57,"inches":19.0,"time":{"end_time":"2030/01/01 12:00:00 -0500","original":"0923 AM","granularity":"hour","time":"2030/01/01 11:00:00 -0500"},"county":"CLEAR CREEK","date":{"end_time":"2012/02/04 00:00:00 -0500","original":"02/03/2012","granularity":"day","time":"2012/02/03 00:00:00 -0500"},"event":"HEAVY SNOW","notes":null,"longitude":-105.42,"id":"a7ia0kros5zq","source":"TRAINED SPOTTER","state":"CO"},"type":"Feature","geometry":{"type":"Point","coordinates":[-105.42,39.57]}},{"properties":{"city":"1 SSW MASONVILLE","latitude":40.39,"inches":20.3,"time":{"end_time":"2030/01/01 12:00:00 -0500","original":"0923 AM","granularity":"hour","time":"2030/01/01 11:00:00 -0500"},"county":"LARIMER","date":{"end_time":"2012/02/04 00:00:00 -0500","original":"02/03/2012","granularity":"day","time":"2012/02/03 00:00:00 -0500"},"event":"HEAVY SNOW","notes":null,"longitude":-105.25,"id":"a7ia0kybi9m7","source":"TRAINED SPOTTER","state":"CO"},"type":"Feature","geometry":{"type":"Point","coordinates":[-105.25,40.39]}},{"properties":{"city":"2 NE GREENWOOD VILLAGE","latitude":39.64,"inches":10.5,"time":{"end_time":"2030/01/01 03:00:00 -0500","original":"0914 AM","granularity":"hour","time":"2030/01/01 02:00:00 -0500"},"county":"DENVER","date":{"end_time":"2012/02/04 00:00:00 -0500","original":"02/03/2012","granularity":"day","time":"2012/02/03 00:00:00 -0500"},"event":"HEAVY SNOW","notes":null,"longitude":-104.89,"id":"a7ia0l5zu26n","source":"TRAINED SPOTTER","state":"CO"},"type":"Feature","geometry":{"type":"Point","coordinates":[-104.89,39.64]}},{"properties":{"city":"3 N CONIFER","latitude":39.57,"inches":17.1,"time":{"end_time":"901/01/01 00:00:00 -0456","original":"0900","granularity":"year","time":"900/01/01 00:00:00 -0456"},"county":"JEFFERSON","date":{"end_time":"2012/02/04 00:00:00 -0500","original":"02/03/2012","granularity":"day","time":"2012/02/03 00:00:00 -0500"},"event":"HEAVY SNOW","notes":null,"longitude":-105.31,"id":"a7ia0kvgu2km","source":"TRAINED SPOTTER","state":"CO"},"type":"Feature","geometry":{"type":"Point","coordinates":[-105.31,39.57]}},{"properties":{"city":"5 SSW ARAPAHOE PARK","latitude":39.57,"inches":13.9,"time":{"end_time":"901/01/01 00:00:00 -0456","original":"0900","granularity":"year","time":"900/01/01 00:00:00 -0456"},"county":"ARAPAHOE","date":{"end_time":"2012/02/04 00:00:00 -0500","original":"02/03/2012","granularity":"day","time":"2012/02/03 00:00:00 -0500"},"event":"HEAVY SNOW","notes":null,"longitude":-104.72,"id":"a7ia0kzrms4j","source":"TRAINED SPOTTER","state":"CO"},"type":"Feature","geometry":{"type":"Point","coordinates":[-104.72,39.57]}},{"properties":{"city":"NW CASTLE ROCK","latitude":39.38,"inches":9.0,"time":{"end_time":"901/01/01 00:00:00 -0456","original":"0900","granularity":"year","time":"900/01/01 00:00:00 -0456"},"county":"DOUGLAS","date":{"end_time":"2012/02/04 00:00:00 -0500","original":"02/03/2012","granularity":"day","time":"2012/02/03 00:00:00 -0500"},"event":"HEAVY SNOW","notes":null,"longitude":-104.85,"id":"a7ia0kul4aq3","source":"TRAINED SPOTTER","state":"CO"},"type":"Feature","geometry":{"type":"Point","coordinates":[-104.85,39.38]}},{"properties":{"city":"FORT COLLINS","latitude":40.56,"inches":6.0,"time":{"end_time":"901/01/01 00:00:00 -0456","original":"0900","granularity":"year","time":"900/01/01 00:00:00 -0456"},"county":"LARIMER","date":{"end_time":"2012/02/04 00:00:00 -0500","original":"02/03/2012","granularity":"day","time":"2012/02/03 00:00:00 -0500"},"event":"HEAVY SNOW","notes":null,"longitude":-105.07,"id":"a7ia0l2bge02","source":"TRAINED SPOTTER","state":"CO"},"type":"Feature","geometry":{"type":"Point","coordinates":[-105.07,40.56]}},{"properties":{"city":"9 NE PONDEROSA PARK","latitude":39.5,"inches":14.5,"time":{"end_time":"2030/01/01 09:00:00 -0500","original":"0836 AM","granularity":"hour","time":"2030/01/01 08:00:00 -0500"},"county":"ELBERT","date":{"end_time":"2012/02/04 00:00:00 -0500","original":"02/03/2012","granularity":"day","time":"2012/02/03 00:00:00 -0500"},"event":"HEAVY SNOW","notes":null,"longitude":-104.53,"id":"a7ia0l2sx43a","source":"TRAINED SPOTTER","state":"CO"},"type":"Feature","geometry":{"type":"Point","coordinates":[-104.53,39.5]}},{"properties":{"city":"2 S ALLENSPARK","latitude":40.18,"inches":11.0,"time":{"end_time":"2030/01/01 09:00:00 -0500","original":"0836 AM","granularity":"hour","time":"2030/01/01 08:00:00 -0500"},"county":"BOULDER","date":{"end_time":"2012/02/04 00:00:00 -0500","original":"02/03/2012","granularity":"day","time":"2012/02/03 00:00:00 -0500"},"event":"HEAVY SNOW","notes":null,"longitude":-105.53,"id":"a7ia0l3r3quk","source":"TRAINED SPOTTER","state":"CO"},"type":"Feature","geometry":{"type":"Point","coordinates":[-105.53,40.18]}},{"properties":{"city":"N LONGMONT","latitude":40.17,"inches":11.5,"time":{"end_time":"2030/01/01 03:00:00 -0500","original":"0830 AM","granularity":"hour","time":"2030/01/01 02:00:00 -0500"},"county":"BOULDER","date":{"end_time":"2012/02/04 00:00:00 -0500","original":"02/03/2012","granularity":"day","time":"2012/02/03 00:00:00 -0500"},"event":"HEAVY SNOW","notes":null,"longitude":-105.11,"id":"a7ia0krgj529","source":"TRAINED SPOTTER","state":"CO"},"type":"Feature","geometry":{"type":"Point","coordinates":[-105.11,40.17]}},{"properties":{"city":"2 SSE WOODLIN SCHOOL","latitude":39.76,"inches":6.5,"time":{"end_time":"2030/01/01 03:00:00 -0500","original":"0830 AM","granularity":"hour","time":"2030/01/01 02:00:00 -0500"},"county":"WASHINGTON","date":{"end_time":"2012/02/04 00:00:00 -0500","original":"02/03/2012","granularity":"day","time":"2012/02/03 00:00:00 -0500"},"event":"HEAVY SNOW","notes":null,"longitude":-103.5,"id":"a7ia0l4sv5y3","source":"TRAINED SPOTTER","state":"CO"},"type":"Feature","geometry":{"type":"Point","coordinates":[-103.5,39.76]}},{"properties":{"city":"EVERGREEN","latitude":39.63,"inches":15.0,"time":{"end_time":"2030/01/01 03:00:00 -0500","original":"0830 AM","granularity":"hour","time":"2030/01/01 02:00:00 -0500"},"county":"JEFFERSON","date":{"end_time":"2012/02/04 00:00:00 -0500","original":"02/03/2012","granularity":"day","time":"2012/02/03 00:00:00 -0500"},"event":"HEAVY SNOW","notes":null,"longitude":-105.34,"id":"a7ia0kywb1j3","source":"TRAINED SPOTTER","state":"CO"},"type":"Feature","geometry":{"type":"Point","coordinates":[-105.34,39.63]}},{"properties":{"city":"2 SW LOVELAND","latitude":40.4,"inches":9.5,"time":{"end_time":"829/01/01 00:00:00 -0456","original":"0828","granularity":"year","time":"828/01/01 00:00:00 -0456"},"county":"LARIMER","date":{"end_time":"2012/02/04 00:00:00 -0500","original":"02/03/2012","granularity":"day","time":"2012/02/03 00:00:00 -0500"},"event":"HEAVY SNOW","notes":null,"longitude":-105.09,"id":"a7ia0ktjfs0g","source":"TRAINED SPOTTER","state":"CO"},"type":"Feature","geometry":{"type":"Point","coordinates":[-105.09,40.4]}},{"properties":{"city":"1 NNW ERIE","latitude":40.04,"inches":12.0,"time":{"end_time":"2030/01/01 11:00:00 -0500","original":"0826 AM","granularity":"hour","time":"2030/01/01 10:00:00 -0500"},"county":"BOULDER","date":{"end_time":"2012/02/04 00:00:00 -0500","original":"02/03/2012","granularity":"day","time":"2012/02/03 00:00:00 -0500"},"event":"HEAVY SNOW","notes":null,"longitude":-105.05,"id":"a7ia0l197pyr","source":"TRAINED SPOTTER","state":"CO"},"type":"Feature","geometry":{"type":"Point","coordinates":[-105.05,40.04]}},{"properties":{"city":"1 SE GLENDALE","latitude":39.69,"inches":6.9,"time":{"end_time":"2030/01/01 11:00:00 -0500","original":"0826 AM","granularity":"hour","time":"2030/01/01 10:00:00 -0500"},"county":"DENVER","date":{"end_time":"2012/02/04 00:00:00 -0500","original":"02/03/2012","granularity":"day","time":"2012/02/03 00:00:00 -0500"},"event":"HEAVY SNOW","notes":null,"longitude":-104.92,"id":"a7ia0kuj76kl","source":"TRAINED SPOTTER","state":"CO"},"type":"Feature","geometry":{"type":"Point","coordinates":[-104.92,39.69]}},{"properties":{"city":"1 WSW BROOMFIELD","latitude":39.93,"inches":12.0,"time":{"end_time":"2030/01/01 05:00:00 -0500","original":"0820 AM","granularity":"hour","time":"2030/01/01 04:00:00 -0500"},"county":"BROOMFIELD","date":{"end_time":"2012/02/04 00:00:00 -0500","original":"02/03/2012","granularity":"day","time":"2012/02/03 00:00:00 -0500"},"event":"HEAVY SNOW","notes":null,"longitude":-105.08,"id":"a7ia0l4zcmab","source":"NWS EMPLOYEE","state":"CO"},"type":"Feature","geometry":{"type":"Point","coordinates":[-105.08,39.93]}},{"properties":{"city":"GENESEE","latitude":39.69,"inches":14.5,"time":{"end_time":"2030/01/01 07:00:00 -0500","original":"0810 AM","granularity":"hour","time":"2030/01/01 06:00:00 -0500"},"county":"JEFFERSON","date":{"end_time":"2012/02/04 00:00:00 -0500","original":"02/03/2012","granularity":"day","time":"2012/02/03 00:00:00 -0500"},"event":"HEAVY SNOW","notes":null,"longitude":-105.27,"id":"a7ia0l48qwrq","source":"TRAINED SPOTTER","state":"CO"},"type":"Feature","geometry":{"type":"Point","coordinates":[-105.27,39.69]}},{"properties":{"city":"4 NNW CASTLE ROCK","latitude":39.43,"inches":8.3,"time":{"end_time":"2030/01/01 07:00:00 -0500","original":"0810 AM","granularity":"hour","time":"2030/01/01 06:00:00 -0500"},"county":"DOUGLAS","date":{"end_time":"2012/02/04 00:00:00 -0500","original":"02/03/2012","granularity":"day","time":"2012/02/03 00:00:00 -0500"},"event":"HEAVY SNOW","notes":null,"longitude":-104.88,"id":"a7ia0l75wxy3","source":"TRAINED SPOTTER","state":"CO"},"type":"Feature","geometry":{"type":"Point","coordinates":[-104.88,39.43]}}],"is_temporal":true,"author":{"url":"","metadata":null,"contact_name":null,"contact_address":null,"source":null,"contact_phone":null},"source":"","pagination":{"sort":null,"start":0,"total":65,"limit":1000000},"state":"complete","tags":"","published":"2014-08-14T18:04:06-04:00","id":202375}