{"type":"FeatureCollection","data_type":"Dataset","url_type":null,"permissions":[{"permissions":{"download":true,"view":true},"group_id":"everyone"}],"classification":null,"title":"snow_totals_0730","count":90,"stream_id":202420,"contributor":{"url":"http://geocommons.com/users/28467","name":"bheberto"},"data_attributes":null,"calculation_params":null,"icon_link":null,"link":"http://geocommons.com/overlays/202420.json","extent":[-106.0,38.36,-102.53,40.93],"geometry_types":["point"],"unique_name":null,"name":"snow_totals_0730","feature_count":90,"description":"","next_feature":null,"is_raster":false,"short_classification":"Y","stats":{"latitude":{"max":40.93,"mean":39.7997777777778,"variance":0.143831410736579,"stdev":0.3792511183063,"min":38.36,"median":39.74},"time":{"max":"2030/01/01 23:00:00 -0500","mean":"1909/05/20 01:38:53 -0500","variance":1.17713150610437e+20,"stdev":10849569144.0,"min":"827/12/31 23:59:58 -0456","median":"2030/01/01 12:00:00 -0500"},"inches":{"max":48.0,"mean":16.0622222222222,"variance":67.3924893882646,"stdev":8.20929286773621,"min":2.0,"median":14.5},"date":{"max":"2012/02/03 00:00:00 -0500","mean":"2012/02/03 00:00:00 -0500","variance":0.0,"stdev":0.0,"min":"2012/02/03 00:00:00 -0500","median":"2012/02/03 00:00:00 -0500"},"longitude":{"max":-102.53,"mean":-104.970666666667,"variance":0.275071460674156,"stdev":0.524472554738717,"min":-106.0,"median":-105.07}},"features":[{"properties":{"city":"1 N STRASBURG","latitude":39.75,"inches":20.0,"time":{"end_time":"2030/01/01 14:00:00 -0500","original":"0853 PM","granularity":"hour","time":"2030/01/01 13:00:00 -0500"},"county":"ADAMS","date":{"end_time":"2012/02/04 00:00:00 -0500","original":"02/03/2012","granularity":"day","time":"2012/02/03 00:00:00 -0500"},"event":"HEAVY SNOW","notes":null,"longitude":-104.3,"id":"a6p6vwkt0p31","source":"TRAINED SPOTTER","state":"CO"},"type":"Feature","geometry":{"type":"Point","coordinates":[-104.3,39.75]}},{"properties":{"city":"GENESEE","latitude":39.69,"inches":25.0,"time":{"end_time":"2030/01/01 15:00:00 -0500","original":"0830 PM","granularity":"hour","time":"2030/01/01 14:00:00 -0500"},"county":"JEFFERSON","date":{"end_time":"2012/02/04 00:00:00 -0500","original":"02/03/2012","granularity":"day","time":"2012/02/03 00:00:00 -0500"},"event":"HEAVY SNOW","notes":"1.8 INCHES IN PAST HOUR","longitude":-105.27,"id":"a6p6vwib2du4","source":"TRAINED SPOTTER","state":"CO"},"type":"Feature","geometry":{"type":"Point","coordinates":[-105.27,39.69]}},{"properties":{"city":"1 S EVERGREEN","latitude":39.63,"inches":28.0,"time":{"end_time":"2030/01/02 00:00:00 -0500","original":"0815 PM","granularity":"hour","time":"2030/01/01 23:00:00 -0500"},"county":"JEFFERSON","date":{"end_time":"2012/02/04 00:00:00 -0500","original":"02/03/2012","granularity":"day","time":"2012/02/03 00:00:00 -0500"},"event":"HEAVY SNOW","notes":null,"longitude":-105.34,"id":"a6p6vwkhcutx","source":"TRAINED SPOTTER","state":"CO"},"type":"Feature","geometry":{"type":"Point","coordinates":[-105.34,39.63]}},{"properties":{"city":"3 W JAMESTOWN","latitude":40.11,"inches":41.4,"time":{"end_time":"2030/01/01 23:00:00 -0500","original":"0802 PM","granularity":"hour","time":"2030/01/01 22:00:00 -0500"},"county":"BOULDER","date":{"end_time":"2012/02/04 00:00:00 -0500","original":"02/03/2012","granularity":"day","time":"2012/02/03 00:00:00 -0500"},"event":"HEAVY SNOW","notes":"2 INCH PER HOUR SNOWFALL RATE","longitude":-105.44,"id":"a6p6vwi5dp11","source":"TRAINED SPOTTER","state":"CO"},"type":"Feature","geometry":{"type":"Point","coordinates":[-105.44,40.11]}},{"properties":{"city":"BOULDER","latitude":40.03,"inches":17.9,"time":{"end_time":"2030/01/01 23:00:00 -0500","original":"0802 PM","granularity":"hour","time":"2030/01/01 22:00:00 -0500"},"county":"BOULDER","date":{"end_time":"2012/02/04 00:00:00 -0500","original":"02/03/2012","granularity":"day","time":"2012/02/03 00:00:00 -0500"},"event":"HEAVY SNOW","notes":null,"longitude":-105.25,"id":"a6p6vwaqi2co","source":"CO-OP OBSERVER","state":"CO"},"type":"Feature","geometry":{"type":"Point","coordinates":[-105.25,40.03]}},{"properties":{"city":"1 SW WESTMINSTER","latitude":39.87,"inches":18.5,"time":{"end_time":"2030/01/01 20:00:00 -0500","original":"0751 PM","granularity":"hour","time":"2030/01/01 19:00:00 -0500"},"county":"JEFFERSON","date":{"end_time":"2012/02/04 00:00:00 -0500","original":"02/03/2012","granularity":"day","time":"2012/02/03 00:00:00 -0500"},"event":"SNOW","notes":null,"longitude":-105.07,"id":"a6p6vwkpc0kn","source":"TRAINED SPOTTER","state":"CO"},"type":"Feature","geometry":{"type":"Point","coordinates":[-105.07,39.87]}},{"properties":{"city":"5 NW THURMAN","latitude":39.65,"inches":14.0,"time":{"end_time":"2030/01/01 21:00:00 -0500","original":"0740 PM","granularity":"hour","time":"2030/01/01 20:00:00 -0500"},"county":"WASHINGTON","date":{"end_time":"2012/02/04 00:00:00 -0500","original":"02/03/2012","granularity":"day","time":"2012/02/03 00:00:00 -0500"},"event":"HEAVY SNOW","notes":"DRIFTS UP TO 3 FT. WINDS 20-25 MPH.","longitude":-103.28,"id":"a6p6vwhp7726","source":"EMERGENCY MNGR","state":"CO"},"type":"Feature","geometry":{"type":"Point","coordinates":[-103.28,39.65]}},{"properties":{"city":"3 N BLACK HAWK","latitude":39.84,"inches":35.6,"time":{"end_time":"2030/01/01 21:00:00 -0500","original":"0740 PM","granularity":"hour","time":"2030/01/01 20:00:00 -0500"},"county":"GILPIN","date":{"end_time":"2012/02/04 00:00:00 -0500","original":"02/03/2012","granularity":"day","time":"2012/02/03 00:00:00 -0500"},"event":"SNOW","notes":null,"longitude":-105.49,"id":"a6p6vwlm0e38","source":"TRAINED SPOTTER","state":"CO"},"type":"Feature","geometry":{"type":"Point","coordinates":[-105.49,39.84]}},{"properties":{"city":"GENESEE","latitude":39.69,"inches":23.2,"time":{"end_time":"2030/01/01 13:00:00 -0500","original":"0732 PM","granularity":"hour","time":"2030/01/01 12:00:00 -0500"},"county":"JEFFERSON","date":{"end_time":"2012/02/04 00:00:00 -0500","original":"02/03/2012","granularity":"day","time":"2012/02/03 00:00:00 -0500"},"event":"HEAVY SNOW","notes":"2.2 IN THE PAST 2 HOURS.","longitude":-105.27,"id":"a6p6vwavxisc","source":"TRAINED SPOTTER","state":"CO"},"type":"Feature","geometry":{"type":"Point","coordinates":[-105.27,39.69]}},{"properties":{"city":"LAKEWOOD","latitude":39.7,"inches":13.0,"time":{"end_time":"2030/01/01 19:00:00 -0500","original":"0714 PM","granularity":"hour","time":"2030/01/01 18:00:00 -0500"},"county":"JEFFERSON","date":{"end_time":"2012/02/04 00:00:00 -0500","original":"02/03/2012","granularity":"day","time":"2012/02/03 00:00:00 -0500"},"event":"HEAVY SNOW","notes":null,"longitude":-105.11,"id":"a6p6vwh18844","source":"TRAINED SPOTTER","state":"CO"},"type":"Feature","geometry":{"type":"Point","coordinates":[-105.11,39.7]}},{"properties":{"city":"2 N ORODELL","latitude":40.04,"inches":18.0,"time":{"end_time":"2030/01/01 18:00:00 -0500","original":"0653 PM","granularity":"hour","time":"2030/01/01 17:00:00 -0500"},"county":"BOULDER","date":{"end_time":"2012/02/04 00:00:00 -0500","original":"02/03/2012","granularity":"day","time":"2012/02/03 00:00:00 -0500"},"event":"HEAVY SNOW","notes":"SUNSHINE CANYON","longitude":-105.33,"id":"a6p6vweh4lqg","source":"TRAINED SPOTTER","state":"CO"},"type":"Feature","geometry":{"type":"Point","coordinates":[-105.33,40.04]}},{"properties":{"city":"4 S ROCKY FLATS","latitude":39.83,"inches":17.5,"time":{"end_time":"2030/01/01 18:00:00 -0500","original":"0653 PM","granularity":"hour","time":"2030/01/01 17:00:00 -0500"},"county":"JEFFERSON","date":{"end_time":"2012/02/04 00:00:00 -0500","original":"02/03/2012","granularity":"day","time":"2012/02/03 00:00:00 -0500"},"event":"HEAVY SNOW","notes":"DRIFTS TO 3 FEET","longitude":-105.19,"id":"a6p6vw7hjagz","source":"TRAINED SPOTTER","state":"CO"},"type":"Feature","geometry":{"type":"Point","coordinates":[-105.19,39.83]}},{"properties":{"city":"DENVER","latitude":39.73,"inches":14.0,"time":{"end_time":"2030/01/01 17:00:00 -0500","original":"0652 PM","granularity":"hour","time":"2030/01/01 16:00:00 -0500"},"county":"DENVER","date":{"end_time":"2012/02/04 00:00:00 -0500","original":"02/03/2012","granularity":"day","time":"2012/02/03 00:00:00 -0500"},"event":"HEAVY SNOW","notes":null,"longitude":-104.96,"id":"a6p6vwb0higd","source":"TRAINED SPOTTER","state":"CO"},"type":"Feature","geometry":{"type":"Point","coordinates":[-104.96,39.73]}},{"properties":{"city":"1 SW WESTMINSTER","latitude":39.87,"inches":16.7,"time":{"end_time":"2030/01/01 23:00:00 -0500","original":"0418 PM","granularity":"hour","time":"2030/01/01 22:00:00 -0500"},"county":"JEFFERSON","date":{"end_time":"2012/02/04 00:00:00 -0500","original":"02/03/2012","granularity":"day","time":"2012/02/03 00:00:00 -0500"},"event":"HEAVY SNOW","notes":null,"longitude":-105.07,"id":"a6p6vwks9ibi","source":"TRAINED SPOTTER","state":"CO"},"type":"Feature","geometry":{"type":"Point","coordinates":[-105.07,39.87]}},{"properties":{"city":"1 NW STRASBURG","latitude":39.75,"inches":17.8,"time":{"end_time":"2030/01/01 23:00:00 -0500","original":"0418 PM","granularity":"hour","time":"2030/01/01 22:00:00 -0500"},"county":"ADAMS","date":{"end_time":"2012/02/04 00:00:00 -0500","original":"02/03/2012","granularity":"day","time":"2012/02/03 00:00:00 -0500"},"event":"HEAVY SNOW","notes":"4 TO 5 FOOT DRIFTS","longitude":-104.32,"id":"a6p6vwkeko0p","source":"TRAINED SPOTTER","state":"CO"},"type":"Feature","geometry":{"type":"Point","coordinates":[-104.32,39.75]}},{"properties":{"city":"9 NE PONDEROSA PARK","latitude":39.5,"inches":17.5,"time":{"end_time":"2030/01/01 23:00:00 -0500","original":"0418 PM","granularity":"hour","time":"2030/01/01 22:00:00 -0500"},"county":"ELBERT","date":{"end_time":"2012/02/04 00:00:00 -0500","original":"02/03/2012","granularity":"day","time":"2012/02/03 00:00:00 -0500"},"event":"HEAVY SNOW","notes":null,"longitude":-104.53,"id":"a6p6vwmmnzo8","source":"TRAINED SPOTTER","state":"CO"},"type":"Feature","geometry":{"type":"Point","coordinates":[-104.53,39.5]}},{"properties":{"city":"2 N LOVELAND","latitude":40.45,"inches":9.0,"time":{"end_time":"2030/01/01 23:00:00 -0500","original":"0418 PM","granularity":"hour","time":"2030/01/01 22:00:00 -0500"},"county":"LARIMER","date":{"end_time":"2012/02/04 00:00:00 -0500","original":"02/03/2012","granularity":"day","time":"2012/02/03 00:00:00 -0500"},"event":"HEAVY SNOW","notes":"3 FOOT DRIFTS","longitude":-105.07,"id":"a6p6vwg1x0to","source":"TRAINED SPOTTER","state":"CO"},"type":"Feature","geometry":{"type":"Point","coordinates":[-105.07,40.45]}},{"properties":{"city":"3 WNW CHATFIELD RESERVO","latitude":39.58,"inches":17.0,"time":{"end_time":"2030/01/01 23:00:00 -0500","original":"0418 PM","granularity":"hour","time":"2030/01/01 22:00:00 -0500"},"county":"JEFFERSON","date":{"end_time":"2012/02/04 00:00:00 -0500","original":"02/03/2012","granularity":"day","time":"2012/02/03 00:00:00 -0500"},"event":"HEAVY SNOW","notes":null,"longitude":-105.11,"id":"a6p6vw8k5ci3","source":"TRAINED SPOTTER","state":"CO"},"type":"Feature","geometry":{"type":"Point","coordinates":[-105.11,39.58]}},{"properties":{"city":"3 SSW BEVERLY HILLS","latitude":39.43,"inches":15.5,"time":{"end_time":"2030/01/01 23:00:00 -0500","original":"0418 PM","granularity":"hour","time":"2030/01/01 22:00:00 -0500"},"county":"DOUGLAS","date":{"end_time":"2012/02/04 00:00:00 -0500","original":"02/03/2012","granularity":"day","time":"2012/02/03 00:00:00 -0500"},"event":"HEAVY SNOW","notes":null,"longitude":-104.9,"id":"a6p6vw75x6eh","source":"TRAINED SPOTTER","state":"CO"},"type":"Feature","geometry":{"type":"Point","coordinates":[-104.9,39.43]}},{"properties":{"city":"3 W WESTMINSTER","latitude":39.87,"inches":16.0,"time":{"end_time":"2030/01/01 23:00:00 -0500","original":"0418 PM","granularity":"hour","time":"2030/01/01 22:00:00 -0500"},"county":"JEFFERSON","date":{"end_time":"2012/02/04 00:00:00 -0500","original":"02/03/2012","granularity":"day","time":"2012/02/03 00:00:00 -0500"},"event":"HEAVY SNOW","notes":null,"longitude":-105.11,"id":"a6p6vw788qa8","source":"TRAINED SPOTTER","state":"CO"},"type":"Feature","geometry":{"type":"Point","coordinates":[-105.11,39.87]}},{"properties":{"city":"W AURORA","latitude":39.7,"inches":14.0,"time":{"end_time":"2030/01/01 23:00:00 -0500","original":"0418 PM","granularity":"hour","time":"2030/01/01 22:00:00 -0500"},"county":"ARAPAHOE","date":{"end_time":"2012/02/04 00:00:00 -0500","original":"02/03/2012","granularity":"day","time":"2012/02/03 00:00:00 -0500"},"event":"HEAVY SNOW","notes":null,"longitude":-104.73,"id":"a6p6vwnbs8jn","source":"TRAINED SPOTTER","state":"CO"},"type":"Feature","geometry":{"type":"Point","coordinates":[-104.73,39.7]}},{"properties":{"city":"2 NNE LITTLETON","latitude":39.62,"inches":14.9,"time":{"end_time":"2030/01/01 23:00:00 -0500","original":"0418 PM","granularity":"hour","time":"2030/01/01 22:00:00 -0500"},"county":"ARAPAHOE","date":{"end_time":"2012/02/04 00:00:00 -0500","original":"02/03/2012","granularity":"day","time":"2012/02/03 00:00:00 -0500"},"event":"HEAVY SNOW","notes":null,"longitude":-105.0,"id":"a6p6vwmwh0js","source":"TRAINED SPOTTER","state":"CO"},"type":"Feature","geometry":{"type":"Point","coordinates":[-105.0,39.62]}},{"properties":{"city":"AURORA","latitude":39.7,"inches":17.0,"time":{"end_time":"2030/01/01 23:00:00 -0500","original":"0418 PM","granularity":"hour","time":"2030/01/01 22:00:00 -0500"},"county":"ARAPAHOE","date":{"end_time":"2012/02/04 00:00:00 -0500","original":"02/03/2012","granularity":"day","time":"2012/02/03 00:00:00 -0500"},"event":"HEAVY SNOW","notes":null,"longitude":-104.73,"id":"a6p6vwip68zj","source":"TRAINED SPOTTER","state":"CO"},"type":"Feature","geometry":{"type":"Point","coordinates":[-104.73,39.7]}},{"properties":{"city":"DENVER","latitude":39.77,"inches":13.0,"time":{"end_time":"2030/01/01 20:00:00 -0500","original":"0415 PM","granularity":"hour","time":"2030/01/01 19:00:00 -0500"},"county":"DENVER","date":{"end_time":"2012/02/04 00:00:00 -0500","original":"02/03/2012","granularity":"day","time":"2012/02/03 00:00:00 -0500"},"event":"HEAVY SNOW","notes":null,"longitude":-104.87,"id":"a6p6vwn1m6s1","source":"TRAINED SPOTTER","state":"CO"},"type":"Feature","geometry":{"type":"Point","coordinates":[-104.87,39.77]}},{"properties":{"city":"3 NW IDLEDALE","latitude":39.7,"inches":20.5,"time":{"end_time":"2030/01/01 20:00:00 -0500","original":"0415 PM","granularity":"hour","time":"2030/01/01 19:00:00 -0500"},"county":"JEFFERSON","date":{"end_time":"2012/02/04 00:00:00 -0500","original":"02/03/2012","granularity":"day","time":"2012/02/03 00:00:00 -0500"},"event":"HEAVY SNOW","notes":null,"longitude":-105.28,"id":"a6p6vwbnvjeq","source":"TRAINED SPOTTER","state":"CO"},"type":"Feature","geometry":{"type":"Point","coordinates":[-105.28,39.7]}},{"properties":{"city":"6 NNE KIOWA","latitude":39.43,"inches":17.0,"time":{"end_time":"2030/01/01 21:00:00 -0500","original":"0404 PM","granularity":"hour","time":"2030/01/01 20:00:00 -0500"},"county":"ELBERT","date":{"end_time":"2012/02/04 00:00:00 -0500","original":"02/03/2012","granularity":"day","time":"2012/02/03 00:00:00 -0500"},"event":"HEAVY SNOW","notes":"3 TO 5 FOOT DRIFTS","longitude":-104.42,"id":"a6p6vwjr3458","source":"PUBLIC","state":"CO"},"type":"Feature","geometry":{"type":"Point","coordinates":[-104.42,39.43]}},{"properties":{"city":"AURORA","latitude":39.7,"inches":12.5,"time":{"end_time":"2030/01/01 21:00:00 -0500","original":"0404 PM","granularity":"hour","time":"2030/01/01 20:00:00 -0500"},"county":"ARAPAHOE","date":{"end_time":"2012/02/04 00:00:00 -0500","original":"02/03/2012","granularity":"day","time":"2012/02/03 00:00:00 -0500"},"event":"HEAVY SNOW","notes":null,"longitude":-104.73,"id":"a6p6vwhaxboy","source":"NWS EMPLOYEE","state":"CO"},"type":"Feature","geometry":{"type":"Point","coordinates":[-104.73,39.7]}},{"properties":{"city":"COAL CREEK","latitude":38.36,"inches":38.4,"time":{"end_time":"2030/01/01 21:00:00 -0500","original":"0404 PM","granularity":"hour","time":"2030/01/01 20:00:00 -0500"},"county":"FREMONT","date":{"end_time":"2012/02/04 00:00:00 -0500","original":"02/03/2012","granularity":"day","time":"2012/02/03 00:00:00 -0500"},"event":"HEAVY SNOW","notes":null,"longitude":-105.14,"id":"a6p6vwe7yhz3","source":"TRAINED SPOTTER","state":"CO"},"type":"Feature","geometry":{"type":"Point","coordinates":[-105.14,38.36]}},{"properties":{"city":"1 SSW BENNETT","latitude":39.74,"inches":13.0,"time":{"end_time":"2030/01/01 17:00:00 -0500","original":"0304 PM","granularity":"hour","time":"2030/01/01 16:00:00 -0500"},"county":"ADAMS","date":{"end_time":"2012/02/04 00:00:00 -0500","original":"02/03/2012","granularity":"day","time":"2012/02/03 00:00:00 -0500"},"event":"HEAVY SNOW","notes":null,"longitude":-104.43,"id":"a6p6vw79elna","source":"TRAINED SPOTTER","state":"CO"},"type":"Feature","geometry":{"type":"Point","coordinates":[-104.43,39.74]}},{"properties":{"city":"1 E CASTLE ROCK","latitude":39.38,"inches":14.8,"time":{"end_time":"2030/01/01 15:00:00 -0500","original":"0302 PM","granularity":"hour","time":"2030/01/01 14:00:00 -0500"},"county":"DOUGLAS","date":{"end_time":"2012/02/04 00:00:00 -0500","original":"02/03/2012","granularity":"day","time":"2012/02/03 00:00:00 -0500"},"event":"HEAVY SNOW","notes":null,"longitude":-104.83,"id":"a6p6vwl7tbjq","source":"TRAINED SPOTTER","state":"CO"},"type":"Feature","geometry":{"type":"Point","coordinates":[-104.83,39.38]}},{"properties":{"city":"14 WSW AGATE","latitude":39.42,"inches":23.0,"time":{"end_time":"2030/01/01 14:00:00 -0500","original":"0301 PM","granularity":"hour","time":"2030/01/01 13:00:00 -0500"},"county":"ELBERT","date":{"end_time":"2012/02/04 00:00:00 -0500","original":"02/03/2012","granularity":"day","time":"2012/02/03 00:00:00 -0500"},"event":"HEAVY SNOW","notes":null,"longitude":-104.2,"id":"a6p6vw7hjjpc","source":"TRAINED SPOTTER","state":"CO"},"type":"Feature","geometry":{"type":"Point","coordinates":[-104.2,39.42]}},{"properties":{"city":"4 ESE FRANKTOWN","latitude":39.36,"inches":14.5,"time":{"end_time":"2030/01/01 14:00:00 -0500","original":"0301 PM","granularity":"hour","time":"2030/01/01 13:00:00 -0500"},"county":"DOUGLAS","date":{"end_time":"2012/02/04 00:00:00 -0500","original":"02/03/2012","granularity":"day","time":"2012/02/03 00:00:00 -0500"},"event":"HEAVY SNOW","notes":null,"longitude":-104.69,"id":"a6p6vw96oydb","source":"TRAINED SPOTTER","state":"CO"},"type":"Feature","geometry":{"type":"Point","coordinates":[-104.69,39.36]}},{"properties":{"city":"5 SSW ARAPAHOE PARK","latitude":39.57,"inches":19.9,"time":{"end_time":"2030/01/01 13:00:00 -0500","original":"0300 PM","granularity":"hour","time":"2030/01/01 12:00:00 -0500"},"county":"ARAPAHOE","date":{"end_time":"2012/02/04 00:00:00 -0500","original":"02/03/2012","granularity":"day","time":"2012/02/03 00:00:00 -0500"},"event":"HEAVY SNOW","notes":null,"longitude":-104.71,"id":"a6p6vwncwfnc","source":"TRAINED SPOTTER","state":"CO"},"type":"Feature","geometry":{"type":"Point","coordinates":[-104.71,39.57]}},{"properties":{"city":"GOLD HILL","latitude":40.06,"inches":24.0,"time":{"end_time":"2030/01/01 15:00:00 -0500","original":"0230 PM","granularity":"hour","time":"2030/01/01 14:00:00 -0500"},"county":"BOULDER","date":{"end_time":"2012/02/04 00:00:00 -0500","original":"02/03/2012","granularity":"day","time":"2012/02/03 00:00:00 -0500"},"event":"HEAVY SNOW","notes":null,"longitude":-105.41,"id":"a6p6vw81k6fl","source":"TRAINED SPOTTER","state":"CO"},"type":"Feature","geometry":{"type":"Point","coordinates":[-105.41,40.06]}},{"properties":{"city":"3 W CONIFER","latitude":39.51,"inches":31.0,"time":{"end_time":"2030/01/01 21:00:00 -0500","original":"0200 PM","granularity":"hour","time":"2030/01/01 20:00:00 -0500"},"county":"JEFFERSON","date":{"end_time":"2012/02/04 00:00:00 -0500","original":"02/03/2012","granularity":"day","time":"2012/02/03 00:00:00 -0500"},"event":"HEAVY SNOW","notes":null,"longitude":-105.36,"id":"a6p6vweqi5nh","source":"TRAINED SPOTTER","state":"CO"},"type":"Feature","geometry":{"type":"Point","coordinates":[-105.36,39.51]}},{"properties":{"city":"STERLING","latitude":40.65,"inches":5.0,"time":{"end_time":"2030/01/01 21:00:00 -0500","original":"0200 PM","granularity":"hour","time":"2030/01/01 20:00:00 -0500"},"county":"LOGAN","date":{"end_time":"2012/02/04 00:00:00 -0500","original":"02/03/2012","granularity":"day","time":"2012/02/03 00:00:00 -0500"},"event":"SNOW","notes":null,"longitude":-103.2,"id":"a6p6vw82rm27","source":"TRAINED SPOTTER","state":"CO"},"type":"Feature","geometry":{"type":"Point","coordinates":[-103.2,40.65]}},{"properties":{"city":"3 W JAMESTOWN","latitude":40.11,"inches":35.1,"time":{"end_time":"2030/01/01 21:00:00 -0500","original":"0200 PM","granularity":"hour","time":"2030/01/01 20:00:00 -0500"},"county":"BOULDER","date":{"end_time":"2012/02/04 00:00:00 -0500","original":"02/03/2012","granularity":"day","time":"2012/02/03 00:00:00 -0500"},"event":"HEAVY SNOW","notes":null,"longitude":-105.44,"id":"a6p6vw85kp12","source":"TRAINED SPOTTER","state":"CO"},"type":"Feature","geometry":{"type":"Point","coordinates":[-105.44,40.11]}},{"properties":{"city":"3 SW AURORA","latitude":39.66,"inches":12.0,"time":{"end_time":"2030/01/02 00:00:00 -0500","original":"0143 PM","granularity":"hour","time":"2030/01/01 23:00:00 -0500"},"county":"ARAPAHOE","date":{"end_time":"2012/02/04 00:00:00 -0500","original":"02/03/2012","granularity":"day","time":"2012/02/03 00:00:00 -0500"},"event":"HEAVY SNOW","notes":null,"longitude":-104.77,"id":"a6p6vw7r0dx0","source":"TRAINED SPOTTER","state":"CO"},"type":"Feature","geometry":{"type":"Point","coordinates":[-104.77,39.66]}},{"properties":{"city":"EVERGREEN","latitude":39.63,"inches":17.0,"time":{"end_time":"2030/01/02 00:00:00 -0500","original":"0143 PM","granularity":"hour","time":"2030/01/01 23:00:00 -0500"},"county":"JEFFERSON","date":{"end_time":"2012/02/04 00:00:00 -0500","original":"02/03/2012","granularity":"day","time":"2012/02/03 00:00:00 -0500"},"event":"HEAVY SNOW","notes":null,"longitude":-105.34,"id":"a6p6vwd5u25n","source":"TRAINED SPOTTER","state":"CO"},"type":"Feature","geometry":{"type":"Point","coordinates":[-105.34,39.63]}},{"properties":{"city":"GENESEE","latitude":39.69,"inches":19.2,"time":{"end_time":"2030/01/02 00:00:00 -0500","original":"1235 PM","granularity":"hour","time":"2030/01/01 23:00:00 -0500"},"county":"JEFFERSON","date":{"end_time":"2012/02/04 00:00:00 -0500","original":"02/03/2012","granularity":"day","time":"2012/02/03 00:00:00 -0500"},"event":"HEAVY SNOW","notes":null,"longitude":-105.27,"id":"a6p6vwihruwc","source":"TRAINED SPOTTER","state":"CO"},"type":"Feature","geometry":{"type":"Point","coordinates":[-105.27,39.69]}},{"properties":{"city":"1 SW WESTMINSTER","latitude":39.87,"inches":13.7,"time":{"end_time":"2030/01/01 17:00:00 -0500","original":"1228 PM","granularity":"hour","time":"2030/01/01 16:00:00 -0500"},"county":"JEFFERSON","date":{"end_time":"2012/02/04 00:00:00 -0500","original":"02/03/2012","granularity":"day","time":"2012/02/03 00:00:00 -0500"},"event":"HEAVY SNOW","notes":null,"longitude":-105.07,"id":"a6p6vw7k3li8","source":"TRAINED SPOTTER","state":"CO"},"type":"Feature","geometry":{"type":"Point","coordinates":[-105.07,39.87]}},{"properties":{"city":"2 W FORT COLLINS","latitude":40.56,"inches":9.0,"time":{"end_time":"2030/01/01 19:00:00 -0500","original":"1206 PM","granularity":"hour","time":"2030/01/01 18:00:00 -0500"},"county":"LARIMER","date":{"end_time":"2012/02/04 00:00:00 -0500","original":"02/03/2012","granularity":"day","time":"2012/02/03 00:00:00 -0500"},"event":"HEAVY SNOW","notes":null,"longitude":-105.11,"id":"a6p6vwf508eo","source":"PUBLIC","state":"CO"},"type":"Feature","geometry":{"type":"Point","coordinates":[-105.11,40.56]}},{"properties":{"city":"5 SE FRANKTOWN","latitude":39.33,"inches":12.7,"time":{"end_time":"2030/01/01 13:00:00 -0500","original":"1200 PM","granularity":"hour","time":"2030/01/01 12:00:00 -0500"},"county":"DOUGLAS","date":{"end_time":"2012/02/04 00:00:00 -0500","original":"02/03/2012","granularity":"day","time":"2012/02/03 00:00:00 -0500"},"event":"HEAVY SNOW","notes":null,"longitude":-104.68,"id":"a6p6vwiv8uue","source":"TRAINED SPOTTER","state":"CO"},"type":"Feature","geometry":{"type":"Point","coordinates":[-104.68,39.33]}},{"properties":{"city":"4 S EVERGREEN","latitude":39.58,"inches":20.4,"time":{"end_time":"2030/01/01 13:00:00 -0500","original":"1200 PM","granularity":"hour","time":"2030/01/01 12:00:00 -0500"},"county":"JEFFERSON","date":{"end_time":"2012/02/04 00:00:00 -0500","original":"02/03/2012","granularity":"day","time":"2012/02/03 00:00:00 -0500"},"event":"HEAVY SNOW","notes":null,"longitude":-105.34,"id":"a6p6vwb6t9pc","source":"TRAINED SPOTTER","state":"CO"},"type":"Feature","geometry":{"type":"Point","coordinates":[-105.34,39.58]}},{"properties":{"city":"5 SSW ARAPAHOE PARK","latitude":39.57,"inches":16.8,"time":{"end_time":"2030/01/01 13:00:00 -0500","original":"1200 PM","granularity":"hour","time":"2030/01/01 12:00:00 -0500"},"county":"ARAPAHOE","date":{"end_time":"2012/02/04 00:00:00 -0500","original":"02/03/2012","granularity":"day","time":"2012/02/03 00:00:00 -0500"},"event":"HEAVY SNOW","notes":null,"longitude":-104.72,"id":"a6p6vw80c6mi","source":"TRAINED SPOTTER","state":"CO"},"type":"Feature","geometry":{"type":"Point","coordinates":[-104.72,39.57]}},{"properties":{"city":"5 SE WESTCREEK","latitude":39.1,"inches":13.5,"time":{"end_time":"2030/01/01 07:00:00 -0500","original":"1158 AM","granularity":"hour","time":"2030/01/01 06:00:00 -0500"},"county":"TELLER","date":{"end_time":"2012/02/04 00:00:00 -0500","original":"02/03/2012","granularity":"day","time":"2012/02/03 00:00:00 -0500"},"event":"HEAVY SNOW","notes":null,"longitude":-105.1,"id":"a6p6vwciwn0m","source":"TRAINED SPOTTER","state":"CO"},"type":"Feature","geometry":{"type":"Point","coordinates":[-105.1,39.1]}},{"properties":{"city":"4 ENE NEDERLAND","latitude":39.99,"inches":28.5,"time":{"end_time":"2030/01/01 06:00:00 -0500","original":"1145 AM","granularity":"hour","time":"2030/01/01 05:00:00 -0500"},"county":"BOULDER","date":{"end_time":"2012/02/04 00:00:00 -0500","original":"02/03/2012","granularity":"day","time":"2012/02/03 00:00:00 -0500"},"event":"HEAVY SNOW","notes":null,"longitude":-105.45,"id":"a6p6vwgdzs2k","source":"TRAINED SPOTTER","state":"CO"},"type":"Feature","geometry":{"type":"Point","coordinates":[-105.45,39.99]}},{"properties":{"city":"1 E IDAHO SPRINGS","latitude":39.74,"inches":9.5,"time":{"end_time":"2030/01/01 03:00:00 -0500","original":"1130 AM","granularity":"hour","time":"2030/01/01 02:00:00 -0500"},"county":"CLEAR CREEK","date":{"end_time":"2012/02/04 00:00:00 -0500","original":"02/03/2012","granularity":"day","time":"2012/02/03 00:00:00 -0500"},"event":"HEAVY SNOW","notes":null,"longitude":-105.49,"id":"a6p6vwk65h1x","source":"TRAINED SPOTTER","state":"CO"},"type":"Feature","geometry":{"type":"Point","coordinates":[-105.49,39.74]}},{"properties":{"city":"E SEDGWICK","latitude":40.93,"inches":2.0,"time":{"end_time":"2030/01/01 03:00:00 -0500","original":"1130 AM","granularity":"hour","time":"2030/01/01 02:00:00 -0500"},"county":"SEDGWICK","date":{"end_time":"2012/02/04 00:00:00 -0500","original":"02/03/2012","granularity":"day","time":"2012/02/03 00:00:00 -0500"},"event":"SNOW","notes":null,"longitude":-102.53,"id":"a6p6vwc9dhoy","source":"TRAINED SPOTTER","state":"CO"},"type":"Feature","geometry":{"type":"Point","coordinates":[-102.53,40.93]}},{"properties":{"city":"2 SSE BOULDER","latitude":40.0,"inches":13.5,"time":{"end_time":"2030/01/01 08:00:00 -0500","original":"1123 AM","granularity":"hour","time":"2030/01/01 07:00:00 -0500"},"county":"BOULDER","date":{"end_time":"2012/02/04 00:00:00 -0500","original":"02/03/2012","granularity":"day","time":"2012/02/03 00:00:00 -0500"},"event":"HEAVY SNOW","notes":null,"longitude":-105.24,"id":"a6p6vwjabte9","source":"NWS EMPLOYEE","state":"CO"},"type":"Feature","geometry":{"type":"Point","coordinates":[-105.24,40.0]}},{"properties":{"city":"4 NW ELIZABETH","latitude":39.4,"inches":11.0,"time":{"end_time":"2030/01/01 05:00:00 -0500","original":"1120 AM","granularity":"hour","time":"2030/01/01 04:00:00 -0500"},"county":"DOUGLAS","date":{"end_time":"2012/02/04 00:00:00 -0500","original":"02/03/2012","granularity":"day","time":"2012/02/03 00:00:00 -0500"},"event":"HEAVY SNOW","notes":null,"longitude":-104.65,"id":"a6p6vw8y8gbf","source":"TRAINED SPOTTER","state":"CO"},"type":"Feature","geometry":{"type":"Point","coordinates":[-104.65,39.4]}},{"properties":{"city":"4 WSW ELDORADO SPRINGS","latitude":39.91,"inches":20.0,"time":{"end_time":"2030/01/01 05:00:00 -0500","original":"1120 AM","granularity":"hour","time":"2030/01/01 04:00:00 -0500"},"county":"JEFFERSON","date":{"end_time":"2012/02/04 00:00:00 -0500","original":"02/03/2012","granularity":"day","time":"2012/02/03 00:00:00 -0500"},"event":"HEAVY SNOW","notes":null,"longitude":-105.34,"id":"a6p6vwhqnb0c","source":"TRAINED SPOTTER","state":"CO"},"type":"Feature","geometry":{"type":"Point","coordinates":[-105.34,39.91]}},{"properties":{"city":"2 NW FREDERICK","latitude":40.12,"inches":8.5,"time":{"end_time":"2030/01/01 09:00:00 -0500","original":"1100 AM","granularity":"hour","time":"2030/01/01 08:00:00 -0500"},"county":"WELD","date":{"end_time":"2012/02/04 00:00:00 -0500","original":"02/03/2012","granularity":"day","time":"2012/02/03 00:00:00 -0500"},"event":"HEAVY SNOW","notes":null,"longitude":-104.96,"id":"a6p6vwkhs9hr","source":"TRAINED SPOTTER","state":"CO"},"type":"Feature","geometry":{"type":"Point","coordinates":[-104.96,40.12]}},{"properties":{"city":"3 N BLACK HAWK","latitude":39.84,"inches":48.0,"time":{"end_time":"2030/01/01 09:00:00 -0500","original":"1100 AM","granularity":"hour","time":"2030/01/01 08:00:00 -0500"},"county":"GILPIN","date":{"end_time":"2012/02/04 00:00:00 -0500","original":"02/03/2012","granularity":"day","time":"2012/02/03 00:00:00 -0500"},"event":"HEAVY SNOW","notes":null,"longitude":-105.49,"id":"a6p6vw77rijo","source":"BROADCAST MEDIA","state":"CO"},"type":"Feature","geometry":{"type":"Point","coordinates":[-105.49,39.84]}},{"properties":{"city":"LOVELAND","latitude":40.42,"inches":9.0,"time":{"end_time":"2030/01/01 09:00:00 -0500","original":"1100 AM","granularity":"hour","time":"2030/01/01 08:00:00 -0500"},"county":"LARIMER","date":{"end_time":"2012/02/04 00:00:00 -0500","original":"02/03/2012","granularity":"day","time":"2012/02/03 00:00:00 -0500"},"event":"HEAVY SNOW","notes":null,"longitude":-105.07,"id":"a6p6vw80zva0","source":"TRAINED SPOTTER","state":"CO"},"type":"Feature","geometry":{"type":"Point","coordinates":[-105.07,40.42]}},{"properties":{"city":"3 SSE BOULDER","latitude":39.99,"inches":16.3,"time":{"end_time":"2030/01/01 09:00:00 -0500","original":"1052 AM","granularity":"hour","time":"2030/01/01 08:00:00 -0500"},"county":"BOULDER","date":{"end_time":"2012/02/04 00:00:00 -0500","original":"02/03/2012","granularity":"day","time":"2012/02/03 00:00:00 -0500"},"event":"HEAVY SNOW","notes":null,"longitude":-105.23,"id":"a6p6vwjt9628","source":"TRAINED SPOTTER","state":"CO"},"type":"Feature","geometry":{"type":"Point","coordinates":[-105.23,39.99]}},{"properties":{"city":"1 SSW LAFAYETTE","latitude":39.99,"inches":12.0,"time":{"end_time":"2030/01/01 09:00:00 -0500","original":"1052 AM","granularity":"hour","time":"2030/01/01 08:00:00 -0500"},"county":"BOULDER","date":{"end_time":"2012/02/04 00:00:00 -0500","original":"02/03/2012","granularity":"day","time":"2012/02/03 00:00:00 -0500"},"event":"HEAVY SNOW","notes":null,"longitude":-105.1,"id":"a6p6vwndcjw9","source":"TRAINED SPOTTER","state":"CO"},"type":"Feature","geometry":{"type":"Point","coordinates":[-105.1,39.99]}},{"properties":{"city":"4 SSE PINECLIFFE","latitude":39.88,"inches":34.5,"time":{"end_time":"2030/01/01 11:00:00 -0500","original":"1042 AM","granularity":"hour","time":"2030/01/01 10:00:00 -0500"},"county":"GILPIN","date":{"end_time":"2012/02/04 00:00:00 -0500","original":"02/03/2012","granularity":"day","time":"2012/02/03 00:00:00 -0500"},"event":"HEAVY SNOW","notes":null,"longitude":-105.39,"id":"a6p6vwcpyyni","source":"TRAINED SPOTTER","state":"CO"},"type":"Feature","geometry":{"type":"Point","coordinates":[-105.39,39.88]}},{"properties":{"city":"SHERRELWOOD","latitude":39.84,"inches":7.5,"time":{"end_time":"2030/01/01 11:00:00 -0500","original":"1030 AM","granularity":"hour","time":"2030/01/01 10:00:00 -0500"},"county":"ADAMS","date":{"end_time":"2012/02/04 00:00:00 -0500","original":"02/03/2012","granularity":"day","time":"2012/02/03 00:00:00 -0500"},"event":"HEAVY SNOW","notes":null,"longitude":-105.0,"id":"a6p6vwdt4jb5","source":"BROADCAST MEDIA","state":"CO"},"type":"Feature","geometry":{"type":"Point","coordinates":[-105.0,39.84]}},{"properties":{"city":"3 S ESTES PARK","latitude":40.33,"inches":10.4,"time":{"end_time":"1021/01/01 00:00:00 -0456","original":"1020","granularity":"year","time":"1020/01/01 00:00:00 -0456"},"county":"LARIMER","date":{"end_time":"2012/02/04 00:00:00 -0500","original":"02/03/2012","granularity":"day","time":"2012/02/03 00:00:00 -0500"},"event":"HEAVY SNOW","notes":null,"longitude":-105.52,"id":"a6p6vw9cchfy","source":"TRAINED SPOTTER","state":"CO"},"type":"Feature","geometry":{"type":"Point","coordinates":[-105.52,40.33]}},{"properties":{"city":"1 W NORTHGLENN","latitude":39.91,"inches":13.0,"time":{"end_time":"1021/01/01 00:00:00 -0456","original":"1020","granularity":"year","time":"1020/01/01 00:00:00 -0456"},"county":"ADAMS","date":{"end_time":"2012/02/04 00:00:00 -0500","original":"02/03/2012","granularity":"day","time":"2012/02/03 00:00:00 -0500"},"event":"HEAVY SNOW","notes":null,"longitude":-104.99,"id":"a6p6vwijrg8s","source":"TRAINED SPOTTER","state":"CO"},"type":"Feature","geometry":{"type":"Point","coordinates":[-104.99,39.91]}},{"properties":{"city":"GENESEE","latitude":39.69,"inches":17.4,"time":{"end_time":"1021/01/01 00:00:00 -0456","original":"1020","granularity":"year","time":"1020/01/01 00:00:00 -0456"},"county":"JEFFERSON","date":{"end_time":"2012/02/04 00:00:00 -0500","original":"02/03/2012","granularity":"day","time":"2012/02/03 00:00:00 -0500"},"event":"HEAVY SNOW","notes":null,"longitude":-105.27,"id":"a6p6vwhztmjk","source":"TRAINED SPOTTER","state":"CO"},"type":"Feature","geometry":{"type":"Point","coordinates":[-105.27,39.69]}},{"properties":{"city":"7 N GLEN HAVEN","latitude":40.55,"inches":13.1,"time":{"end_time":"1021/01/01 00:00:00 -0456","original":"1020","granularity":"year","time":"1020/01/01 00:00:00 -0456"},"county":"LarIMER","date":{"end_time":"2012/02/04 00:00:00 -0500","original":"02/03/2012","granularity":"day","time":"2012/02/03 00:00:00 -0500"},"event":"HEAVY SNOW","notes":null,"longitude":-105.44,"id":"a6p6vwg74k03","source":"TRAINED SPOTTER","state":"CO"},"type":"Feature","geometry":{"type":"Point","coordinates":[-105.44,40.55]}},{"properties":{"city":"2 NE THORNTON","latitude":39.91,"inches":9.5,"time":{"end_time":"2030/01/01 05:00:00 -0500","original":"1000 AM","granularity":"hour","time":"2030/01/01 04:00:00 -0500"},"county":"ADAMS","date":{"end_time":"2012/02/04 00:00:00 -0500","original":"02/03/2012","granularity":"day","time":"2012/02/03 00:00:00 -0500"},"event":"HEAVY SNOW","notes":null,"longitude":-104.93,"id":"a6p6vw7p3rrt","source":"TRAINED SPOTTER","state":"CO"},"type":"Feature","geometry":{"type":"Point","coordinates":[-104.93,39.91]}},{"properties":{"city":"2 NNE LITTLETON","latitude":39.62,"inches":12.6,"time":{"end_time":"2030/01/01 05:00:00 -0500","original":"1000 AM","granularity":"hour","time":"2030/01/01 04:00:00 -0500"},"county":"ARAPAHOE","date":{"end_time":"2012/02/04 00:00:00 -0500","original":"02/03/2012","granularity":"day","time":"2012/02/03 00:00:00 -0500"},"event":"HEAVY SNOW","notes":null,"longitude":-105.0,"id":"a6p6vwdhlybp","source":"TRAINED SPOTTER","state":"CO"},"type":"Feature","geometry":{"type":"Point","coordinates":[-105.0,39.62]}},{"properties":{"city":"1 S GREELEY","latitude":40.4,"inches":4.0,"time":{"end_time":"2030/01/01 05:00:00 -0500","original":"1000 AM","granularity":"hour","time":"2030/01/01 04:00:00 -0500"},"county":"WELD","date":{"end_time":"2012/02/04 00:00:00 -0500","original":"02/03/2012","granularity":"day","time":"2012/02/03 00:00:00 -0500"},"event":"HEAVY SNOW","notes":null,"longitude":-104.75,"id":"a6p6vwmvdhqc","source":"TRAINED SPOTTER","state":"CO"},"type":"Feature","geometry":{"type":"Point","coordinates":[-104.75,40.4]}},{"properties":{"city":"WNW SIMLA","latitude":39.14,"inches":15.0,"time":{"end_time":"2030/01/01 10:00:00 -0500","original":"0957 AM","granularity":"hour","time":"2030/01/01 09:00:00 -0500"},"county":"ELBERT","date":{"end_time":"2012/02/04 00:00:00 -0500","original":"02/03/2012","granularity":"day","time":"2012/02/03 00:00:00 -0500"},"event":"HEAVY SNOW","notes":null,"longitude":-104.09,"id":"a6p6vwna3lmj","source":"TRAINED SPOTTER","state":"CO"},"type":"Feature","geometry":{"type":"Point","coordinates":[-104.09,39.14]}},{"properties":{"city":"N FAIRPLAY","latitude":39.23,"inches":2.0,"time":{"end_time":"937/01/01 00:00:00 -0456","original":"0936","granularity":"year","time":"936/01/01 00:00:00 -0456"},"county":"PARK","date":{"end_time":"2012/02/04 00:00:00 -0500","original":"02/03/2012","granularity":"day","time":"2012/02/03 00:00:00 -0500"},"event":"SNOW","notes":null,"longitude":-106.0,"id":"a6p6vwndveu3","source":"TRAINED SPOTTER","state":"CO"},"type":"Feature","geometry":{"type":"Point","coordinates":[-106.0,39.23]}},{"properties":{"city":"2 W WESTMINSTER","latitude":39.88,"inches":13.0,"time":{"end_time":"2030/01/01 11:00:00 -0500","original":"0934 AM","granularity":"hour","time":"2030/01/01 10:00:00 -0500"},"county":"JEFFERSON","date":{"end_time":"2012/02/04 00:00:00 -0500","original":"02/03/2012","granularity":"day","time":"2012/02/03 00:00:00 -0500"},"event":"HEAVY SNOW","notes":null,"longitude":-105.09,"id":"a6p6vwcelgjh","source":"TRAINED SPOTTER","state":"CO"},"type":"Feature","geometry":{"type":"Point","coordinates":[-105.09,39.88]}},{"properties":{"city":"2 ENE BERGEN PARK","latitude":39.71,"inches":10.0,"time":{"end_time":"2030/01/01 11:00:00 -0500","original":"0934 AM","granularity":"hour","time":"2030/01/01 10:00:00 -0500"},"county":"JEFFERSON","date":{"end_time":"2012/02/04 00:00:00 -0500","original":"02/03/2012","granularity":"day","time":"2012/02/03 00:00:00 -0500"},"event":"HEAVY SNOW","notes":null,"longitude":-105.32,"id":"a6p6vwja4whx","source":"TRAINED SPOTTER","state":"CO"},"type":"Feature","geometry":{"type":"Point","coordinates":[-105.32,39.71]}},{"properties":{"city":"ERIE","latitude":40.03,"inches":14.0,"time":{"end_time":"2030/01/01 11:00:00 -0500","original":"0934 AM","granularity":"hour","time":"2030/01/01 10:00:00 -0500"},"county":"WELD","date":{"end_time":"2012/02/04 00:00:00 -0500","original":"02/03/2012","granularity":"day","time":"2012/02/03 00:00:00 -0500"},"event":"HEAVY SNOW","notes":null,"longitude":-105.05,"id":"a6p6vwfnio8k","source":"TRAINED SPOTTER","state":"CO"},"type":"Feature","geometry":{"type":"Point","coordinates":[-105.05,40.03]}},{"properties":{"city":"MORRISON","latitude":39.65,"inches":16.3,"time":{"end_time":"2030/01/01 07:00:00 -0500","original":"0930 AM","granularity":"hour","time":"2030/01/01 06:00:00 -0500"},"county":"JEFFERSON","date":{"end_time":"2012/02/04 00:00:00 -0500","original":"02/03/2012","granularity":"day","time":"2012/02/03 00:00:00 -0500"},"event":"HEAVY SNOW","notes":null,"longitude":-105.18,"id":"a6p6vwe0l10b","source":"TRAINED SPOTTER","state":"CO"},"type":"Feature","geometry":{"type":"Point","coordinates":[-105.18,39.65]}},{"properties":{"city":"6 SW EVERGREEN","latitude":39.57,"inches":19.0,"time":{"end_time":"2030/01/01 12:00:00 -0500","original":"0923 AM","granularity":"hour","time":"2030/01/01 11:00:00 -0500"},"county":"CLEAR CREEK","date":{"end_time":"2012/02/04 00:00:00 -0500","original":"02/03/2012","granularity":"day","time":"2012/02/03 00:00:00 -0500"},"event":"HEAVY SNOW","notes":null,"longitude":-105.42,"id":"a6p6vwapuqsx","source":"TRAINED SPOTTER","state":"CO"},"type":"Feature","geometry":{"type":"Point","coordinates":[-105.42,39.57]}},{"properties":{"city":"1 SSW MASONVILLE","latitude":40.39,"inches":20.3,"time":{"end_time":"2030/01/01 12:00:00 -0500","original":"0923 AM","granularity":"hour","time":"2030/01/01 11:00:00 -0500"},"county":"LARIMER","date":{"end_time":"2012/02/04 00:00:00 -0500","original":"02/03/2012","granularity":"day","time":"2012/02/03 00:00:00 -0500"},"event":"HEAVY SNOW","notes":null,"longitude":-105.25,"id":"a6p6vw9rmts2","source":"TRAINED SPOTTER","state":"CO"},"type":"Feature","geometry":{"type":"Point","coordinates":[-105.25,40.39]}},{"properties":{"city":"2 NE GREENWOOD VILLAGE","latitude":39.64,"inches":10.5,"time":{"end_time":"2030/01/01 03:00:00 -0500","original":"0914 AM","granularity":"hour","time":"2030/01/01 02:00:00 -0500"},"county":"DENVER","date":{"end_time":"2012/02/04 00:00:00 -0500","original":"02/03/2012","granularity":"day","time":"2012/02/03 00:00:00 -0500"},"event":"HEAVY SNOW","notes":null,"longitude":-104.89,"id":"a6p6vwb6xchg","source":"TRAINED SPOTTER","state":"CO"},"type":"Feature","geometry":{"type":"Point","coordinates":[-104.89,39.64]}},{"properties":{"city":"3 N CONIFER","latitude":39.57,"inches":17.1,"time":{"end_time":"901/01/01 00:00:00 -0456","original":"0900","granularity":"year","time":"900/01/01 00:00:00 -0456"},"county":"JEFFERSON","date":{"end_time":"2012/02/04 00:00:00 -0500","original":"02/03/2012","granularity":"day","time":"2012/02/03 00:00:00 -0500"},"event":"HEAVY SNOW","notes":null,"longitude":-105.31,"id":"a6p6vw87z9ki","source":"TRAINED SPOTTER","state":"CO"},"type":"Feature","geometry":{"type":"Point","coordinates":[-105.31,39.57]}},{"properties":{"city":"5 SSW ARAPAHOE PARK","latitude":39.57,"inches":13.9,"time":{"end_time":"901/01/01 00:00:00 -0456","original":"0900","granularity":"year","time":"900/01/01 00:00:00 -0456"},"county":"ARAPAHOE","date":{"end_time":"2012/02/04 00:00:00 -0500","original":"02/03/2012","granularity":"day","time":"2012/02/03 00:00:00 -0500"},"event":"HEAVY SNOW","notes":null,"longitude":-104.72,"id":"a6p6vwcfhlr9","source":"TRAINED SPOTTER","state":"CO"},"type":"Feature","geometry":{"type":"Point","coordinates":[-104.72,39.57]}},{"properties":{"city":"NW CASTLE ROCK","latitude":39.38,"inches":9.0,"time":{"end_time":"901/01/01 00:00:00 -0456","original":"0900","granularity":"year","time":"900/01/01 00:00:00 -0456"},"county":"DOUGLAS","date":{"end_time":"2012/02/04 00:00:00 -0500","original":"02/03/2012","granularity":"day","time":"2012/02/03 00:00:00 -0500"},"event":"HEAVY SNOW","notes":null,"longitude":-104.85,"id":"a6p6vwi9dtc2","source":"TRAINED SPOTTER","state":"CO"},"type":"Feature","geometry":{"type":"Point","coordinates":[-104.85,39.38]}},{"properties":{"city":"FORT COLLINS","latitude":40.56,"inches":6.0,"time":{"end_time":"901/01/01 00:00:00 -0456","original":"0900","granularity":"year","time":"900/01/01 00:00:00 -0456"},"county":"LARIMER","date":{"end_time":"2012/02/04 00:00:00 -0500","original":"02/03/2012","granularity":"day","time":"2012/02/03 00:00:00 -0500"},"event":"HEAVY SNOW","notes":null,"longitude":-105.07,"id":"a6p6vwi900cz","source":"TRAINED SPOTTER","state":"CO"},"type":"Feature","geometry":{"type":"Point","coordinates":[-105.07,40.56]}},{"properties":{"city":"9 NE PONDEROSA PARK","latitude":39.5,"inches":14.5,"time":{"end_time":"2030/01/01 09:00:00 -0500","original":"0836 AM","granularity":"hour","time":"2030/01/01 08:00:00 -0500"},"county":"ELBERT","date":{"end_time":"2012/02/04 00:00:00 -0500","original":"02/03/2012","granularity":"day","time":"2012/02/03 00:00:00 -0500"},"event":"HEAVY SNOW","notes":null,"longitude":-104.53,"id":"a6p6vwiw9in8","source":"TRAINED SPOTTER","state":"CO"},"type":"Feature","geometry":{"type":"Point","coordinates":[-104.53,39.5]}},{"properties":{"city":"2 S ALLENSPARK","latitude":40.18,"inches":11.0,"time":{"end_time":"2030/01/01 09:00:00 -0500","original":"0836 AM","granularity":"hour","time":"2030/01/01 08:00:00 -0500"},"county":"BOULDER","date":{"end_time":"2012/02/04 00:00:00 -0500","original":"02/03/2012","granularity":"day","time":"2012/02/03 00:00:00 -0500"},"event":"HEAVY SNOW","notes":null,"longitude":-105.53,"id":"a6p6vway707s","source":"TRAINED SPOTTER","state":"CO"},"type":"Feature","geometry":{"type":"Point","coordinates":[-105.53,40.18]}},{"properties":{"city":"N LONGMONT","latitude":40.17,"inches":11.5,"time":{"end_time":"2030/01/01 03:00:00 -0500","original":"0830 AM","granularity":"hour","time":"2030/01/01 02:00:00 -0500"},"county":"BOULDER","date":{"end_time":"2012/02/04 00:00:00 -0500","original":"02/03/2012","granularity":"day","time":"2012/02/03 00:00:00 -0500"},"event":"HEAVY SNOW","notes":null,"longitude":-105.11,"id":"a6p6vwdxrmi1","source":"TRAINED SPOTTER","state":"CO"},"type":"Feature","geometry":{"type":"Point","coordinates":[-105.11,40.17]}},{"properties":{"city":"2 SSE WOODLIN SCHOOL","latitude":39.76,"inches":6.5,"time":{"end_time":"2030/01/01 03:00:00 -0500","original":"0830 AM","granularity":"hour","time":"2030/01/01 02:00:00 -0500"},"county":"WASHINGTON","date":{"end_time":"2012/02/04 00:00:00 -0500","original":"02/03/2012","granularity":"day","time":"2012/02/03 00:00:00 -0500"},"event":"HEAVY SNOW","notes":null,"longitude":-103.5,"id":"a6p6vwlwr4g3","source":"TRAINED SPOTTER","state":"CO"},"type":"Feature","geometry":{"type":"Point","coordinates":[-103.5,39.76]}},{"properties":{"city":"EVERGREEN","latitude":39.63,"inches":15.0,"time":{"end_time":"2030/01/01 03:00:00 -0500","original":"0830 AM","granularity":"hour","time":"2030/01/01 02:00:00 -0500"},"county":"JEFFERSON","date":{"end_time":"2012/02/04 00:00:00 -0500","original":"02/03/2012","granularity":"day","time":"2012/02/03 00:00:00 -0500"},"event":"HEAVY SNOW","notes":null,"longitude":-105.34,"id":"a6p6vwiv6bth","source":"TRAINED SPOTTER","state":"CO"},"type":"Feature","geometry":{"type":"Point","coordinates":[-105.34,39.63]}},{"properties":{"city":"2 SW LOVELAND","latitude":40.4,"inches":9.5,"time":{"end_time":"829/01/01 00:00:00 -0456","original":"0828","granularity":"year","time":"828/01/01 00:00:00 -0456"},"county":"LARIMER","date":{"end_time":"2012/02/04 00:00:00 -0500","original":"02/03/2012","granularity":"day","time":"2012/02/03 00:00:00 -0500"},"event":"HEAVY SNOW","notes":null,"longitude":-105.09,"id":"a6p6vw6v8zw0","source":"TRAINED SPOTTER","state":"CO"},"type":"Feature","geometry":{"type":"Point","coordinates":[-105.09,40.4]}},{"properties":{"city":"1 NNW ERIE","latitude":40.04,"inches":12.0,"time":{"end_time":"2030/01/01 11:00:00 -0500","original":"0826 AM","granularity":"hour","time":"2030/01/01 10:00:00 -0500"},"county":"BOULDER","date":{"end_time":"2012/02/04 00:00:00 -0500","original":"02/03/2012","granularity":"day","time":"2012/02/03 00:00:00 -0500"},"event":"HEAVY SNOW","notes":null,"longitude":-105.05,"id":"a6p6vwlp7com","source":"TRAINED SPOTTER","state":"CO"},"type":"Feature","geometry":{"type":"Point","coordinates":[-105.05,40.04]}},{"properties":{"city":"1 SE GLENDALE","latitude":39.69,"inches":6.9,"time":{"end_time":"2030/01/01 11:00:00 -0500","original":"0826 AM","granularity":"hour","time":"2030/01/01 10:00:00 -0500"},"county":"DENVER","date":{"end_time":"2012/02/04 00:00:00 -0500","original":"02/03/2012","granularity":"day","time":"2012/02/03 00:00:00 -0500"},"event":"HEAVY SNOW","notes":null,"longitude":-104.92,"id":"a6p6vw8moyu4","source":"TRAINED SPOTTER","state":"CO"},"type":"Feature","geometry":{"type":"Point","coordinates":[-104.92,39.69]}},{"properties":{"city":"1 WSW BROOMFIELD","latitude":39.93,"inches":12.0,"time":{"end_time":"2030/01/01 05:00:00 -0500","original":"0820 AM","granularity":"hour","time":"2030/01/01 04:00:00 -0500"},"county":"BROOMFIELD","date":{"end_time":"2012/02/04 00:00:00 -0500","original":"02/03/2012","granularity":"day","time":"2012/02/03 00:00:00 -0500"},"event":"HEAVY SNOW","notes":null,"longitude":-105.08,"id":"a6p6vwe3f6oy","source":"NWS EMPLOYEE","state":"CO"},"type":"Feature","geometry":{"type":"Point","coordinates":[-105.08,39.93]}},{"properties":{"city":"GENESEE","latitude":39.69,"inches":14.5,"time":{"end_time":"2030/01/01 07:00:00 -0500","original":"0810 AM","granularity":"hour","time":"2030/01/01 06:00:00 -0500"},"county":"JEFFERSON","date":{"end_time":"2012/02/04 00:00:00 -0500","original":"02/03/2012","granularity":"day","time":"2012/02/03 00:00:00 -0500"},"event":"HEAVY SNOW","notes":null,"longitude":-105.27,"id":"a6p6vwiw1l39","source":"TRAINED SPOTTER","state":"CO"},"type":"Feature","geometry":{"type":"Point","coordinates":[-105.27,39.69]}},{"properties":{"city":"4 NNW CASTLE ROCK","latitude":39.43,"inches":8.3,"time":{"end_time":"2030/01/01 07:00:00 -0500","original":"0810 AM","granularity":"hour","time":"2030/01/01 06:00:00 -0500"},"county":"DOUGLAS","date":{"end_time":"2012/02/04 00:00:00 -0500","original":"02/03/2012","granularity":"day","time":"2012/02/03 00:00:00 -0500"},"event":"HEAVY SNOW","notes":null,"longitude":-104.88,"id":"a6p6vwcjhpri","source":"TRAINED SPOTTER","state":"CO"},"type":"Feature","geometry":{"type":"Point","coordinates":[-104.88,39.43]}}],"is_temporal":true,"author":{"url":"","metadata":null,"contact_name":null,"contact_address":null,"source":null,"contact_phone":null},"source":"","pagination":{"sort":null,"start":0,"total":90,"limit":1000000},"state":"complete","tags":"","published":"2014-08-14T18:09:55-04:00","id":202420}