{"type":"FeatureCollection","data_type":"Dataset","url_type":null,"permissions":[{"permissions":{"download":true,"view":true},"group_id":"everyone"}],"classification":null,"title":"LR_Dealers","count":119,"stream_id":202793,"contributor":{"url":"http://geocommons.com/users/39027","name":"rlukyanov"},"data_attributes":null,"calculation_params":null,"icon_link":null,"link":"http://geocommons.com/overlays/202793.json","extent":[0.0,0.0,0.0,0.0],"geometry_types":[],"unique_name":null,"name":"LR_Dealers","feature_count":119,"description":"","next_feature":null,"is_raster":false,"short_classification":"Y","stats":{},"features":[{"properties":{"postcode":"YO23 3NX","dealer":"Armstrong Massey Land Rover","geo_score":0.0,"id":"aa1s379u45ug","geo_precision":"unmatched"},"type":"Feature","geometry":null},{"properties":{"postcode":"TN24 0HT","dealer":"Barretts Land Rover, Ashford","geo_score":0.0,"id":"aa1s37cu3rdq","geo_precision":"unmatched"},"type":"Feature","geometry":null},{"properties":{"postcode":"CT2 7PQ","dealer":"Barretts Land Rover, Canterbury","geo_score":0.0,"id":"aa1s37cp82kl","geo_precision":"unmatched"},"type":"Feature","geometry":null},{"properties":{"postcode":"DA14 6PB","dealer":"Beadles Land Rover, Sidcup","geo_score":0.0,"id":"aa1s37a6pwbj","geo_precision":"unmatched"},"type":"Feature","geometry":null},{"properties":{"postcode":"BN 7 2DN","dealer":"Caffyns Land Rover, Lewes","geo_score":0.0,"id":"aa1s3785dlf5","geo_precision":"unmatched"},"type":"Feature","geometry":null},{"properties":{"postcode":"SY23 3TL","dealer":"Cambrian Land Rover, Aberystwyth","geo_score":0.0,"id":"aa1s37b50i28","geo_precision":"unmatched"},"type":"Feature","geometry":null},{"properties":{"postcode":"BT12 6LR","dealer":"Charles Hurst Land Rover, Belfast","geo_score":0.0,"id":"aa1s371ll8kf","geo_precision":"unmatched"},"type":"Feature","geometry":null},{"properties":{"postcode":"WD4 9JS","dealer":"Chipperfield Land Rover","geo_score":0.0,"id":"aa1s378mcc1g","geo_precision":"unmatched"},"type":"Feature","geometry":null},{"properties":{"postcode":"B23 6QH","dealer":"Colliers Land Rover, Erdington","geo_score":0.0,"id":"aa1s372xsqbz","geo_precision":"unmatched"},"type":"Feature","geometry":null},{"properties":{"postcode":"LL31 9PL","dealer":"Conwy Land Rover","geo_score":0.0,"id":"aa1s371vi85c","geo_precision":"unmatched"},"type":"Feature","geometry":null},{"properties":{"postcode":"HX3 0UA","dealer":"Copley Land Rover, Halifax","geo_score":0.0,"id":"aa1s370d84ms","geo_precision":"unmatched"},"type":"Feature","geometry":null},{"properties":{"postcode":"EX32 8QZ","dealer":"County Land Rover, Barnstaple","geo_score":0.0,"id":"aa1s373dd37d","geo_precision":"unmatched"},"type":"Feature","geometry":null},{"properties":{"postcode":"TD 5 8DW","dealer":"Croall Bryson Land Rover, Kelso","geo_score":0.0,"id":"aa1s372x7qx4","geo_precision":"unmatched"},"type":"Feature","geometry":null},{"properties":{"postcode":"BT71 7DT","dealer":"Donnelly Land Rover, Dungannon","geo_score":0.0,"id":"aa1s377ig6oi","geo_precision":"unmatched"},"type":"Feature","geometry":null},{"properties":{"postcode":"WR9 9AY","dealer":"Droitwich Land Rover","geo_score":0.0,"id":"aa1s373oqq7b","geo_precision":"unmatched"},"type":"Feature","geometry":null},{"properties":{"postcode":"PE20 1JH","dealer":"Duckworth Land Rover, Boston","geo_score":0.0,"id":"aa1s375f6okc","geo_precision":"unmatched"},"type":"Feature","geometry":null},{"properties":{"postcode":"LN8 3RE","dealer":"Duckworth Land Rover, Market Rasen","geo_score":0.0,"id":"aa1s36xnc8yv","geo_precision":"unmatched"},"type":"Feature","geometry":null},{"properties":{"postcode":"BD9 4JB","dealer":"Farnell Land Rover, Bradford","geo_score":0.0,"id":"aa1s377lj22h","geo_precision":"unmatched"},"type":"Feature","geometry":null},{"properties":{"postcode":"LS20 8NJ","dealer":"Farnell Land Rover, Guiseley","geo_score":0.0,"id":"aa1s36z1nzhq","geo_precision":"unmatched"},"type":"Feature","geometry":null},{"properties":{"postcode":"LS10 1AD","dealer":"Farnell Land Rover, Leeds","geo_score":0.0,"id":"aa1s36yqouz1","geo_precision":"unmatched"},"type":"Feature","geometry":null},{"properties":{"postcode":"GL12 8SR","dealer":"M J Fews Land Rover","geo_score":0.0,"id":"aa1s377wfmau","geo_precision":"unmatched"},"type":"Feature","geometry":null},{"properties":{"postcode":"IV30 1XZ","dealer":"Frank Ogg Land Rover","geo_score":0.0,"id":"aa1s373hlmdb","geo_precision":"unmatched"},"type":"Feature","geometry":null},{"properties":{"postcode":"S 41 9EG","dealer":"Gordon Lamb Land Rover, Chesterfield","geo_score":0.0,"id":"aa1s37caq3g6","geo_precision":"unmatched"},"type":"Feature","geometry":null},{"properties":{"postcode":"SL5 7HS","dealer":"Guy Salmon Land Rover, Ascot","geo_score":0.0,"id":"aa1s36x7ywjw","geo_precision":"unmatched"},"type":"Feature","geometry":null},{"properties":{"postcode":"BS4 3QB","dealer":"Guy Salmon Land Rover, Bristol","geo_score":0.0,"id":"aa1s3726n6zc","geo_precision":"unmatched"},"type":"Feature","geometry":null},{"properties":{"postcode":"CV5 9GY","dealer":"Guy Salmon Land Rover, Coventry","geo_score":0.0,"id":"aa1s36xun9sg","geo_precision":"unmatched"},"type":"Feature","geometry":null},{"properties":{"postcode":"RH10 9PY","dealer":"Guy Salmon Land Rover, Crawley","geo_score":0.0,"id":"aa1s378alncc","geo_precision":"unmatched"},"type":"Feature","geometry":null},{"properties":{"postcode":"WA16 0ST","dealer":"Guy Salmon Land Rover, Knutsford","geo_score":0.0,"id":"aa1s370kf1wm","geo_precision":"unmatched"},"type":"Feature","geometry":null},{"properties":{"postcode":"ME20 7UB","dealer":"Guy Salmon Land Rover, Maidstone","geo_score":0.0,"id":"aa1s370sfvd7","geo_precision":"unmatched"},"type":"Feature","geometry":null},{"properties":{"postcode":"PO 6 4SJ","dealer":"Guy Salmon Land Rover, Portsmouth","geo_score":0.0,"id":"aa1s37bmdfo0","geo_precision":"unmatched"},"type":"Feature","geometry":null},{"properties":{"postcode":"S4 7UD","dealer":"Guy Salmon Land Rover, Sheffield","geo_score":0.0,"id":"aa1s3703yor1","geo_precision":"unmatched"},"type":"Feature","geometry":null},{"properties":{"postcode":"SK 1 4AQ","dealer":"Guy Salmon Land Rover, Stockport","geo_score":0.0,"id":"aa1s3708prti","geo_precision":"unmatched"},"type":"Feature","geometry":null},{"properties":{"postcode":"CV37 0HR","dealer":"Guy Salmon Land Rover, Stratford Upon Avon","geo_score":0.0,"id":"aa1s370cewwh","geo_precision":"unmatched"},"type":"Feature","geometry":null},{"properties":{"postcode":"KT7 0TA","dealer":"Guy Salmon Land Rover, Thames Ditton","geo_score":0.0,"id":"aa1s3728n8op","geo_precision":"unmatched"},"type":"Feature","geometry":null},{"properties":{"postcode":"WF2 6EH","dealer":"Guy Salmon Land Rover, Wakefield","geo_score":0.0,"id":"aa1s37acgmt0","geo_precision":"unmatched"},"type":"Feature","geometry":null},{"properties":{"postcode":"NR 6 6NA","dealer":"Hunters Land Rover, Norwich","geo_score":0.0,"id":"aa1s376l7j6m","geo_precision":"unmatched"},"type":"Feature","geometry":null},{"properties":{"postcode":"GU1 1DT","dealer":"Hunters Land Rover, Guildford","geo_score":0.0,"id":"aa1s378xqnwt","geo_precision":"unmatched"},"type":"Feature","geometry":null},{"properties":{"postcode":"SO17 1XS","dealer":"Hunters Land Rover, Southampton","geo_score":0.0,"id":"aa1s3726f66r","geo_precision":"unmatched"},"type":"Feature","geometry":null},{"properties":{"postcode":"EN5 5TY","dealer":"Hadley Green Land Rover","geo_score":0.0,"id":"aa1s371jxpap","geo_precision":"unmatched"},"type":"Feature","geometry":null},{"properties":{"postcode":"IP19 8HX","dealer":"Hammond Land Rover","geo_score":0.0,"id":"aa1s3796y497","geo_precision":"unmatched"},"type":"Feature","geometry":null},{"properties":{"postcode":"NN 3 9HX","dealer":"Hartwell Land Rover, Northampton","geo_score":0.0,"id":"aa1s36xbzamg","geo_precision":"unmatched"},"type":"Feature","geometry":null},{"properties":{"postcode":"OX2 9QY","dealer":"Hartwell Land Rover, Oxford","geo_score":0.0,"id":"aa1s378c216m","geo_precision":"unmatched"},"type":"Feature","geometry":null},{"properties":{"postcode":"RG21 6YH","dealer":"Harwoods Land Rover, Basingstoke","geo_score":0.0,"id":"aa1s37cl5pnz","geo_precision":"unmatched"},"type":"Feature","geometry":null},{"properties":{"postcode":"CR5 3EA","dealer":"Harwoods Land Rover, Croydon","geo_score":0.0,"id":"aa1s375tavz8","geo_precision":"unmatched"},"type":"Feature","geometry":null},{"properties":{"postcode":"TN8 5NG","dealer":"Harwoods Land Rover, Edenbridge","geo_score":0.0,"id":"aa1s372dovce","geo_precision":"unmatched"},"type":"Feature","geometry":null},{"properties":{"postcode":"RH20 1AS","dealer":"Harwoods Land Rover, Pulborough","geo_score":0.0,"id":"aa1s3709khs1","geo_precision":"unmatched"},"type":"Feature","geometry":null},{"properties":{"postcode":"TN9 1TB","dealer":"Harwoods Land Rover, Tonbridge","geo_score":0.0,"id":"aa1s371k8d11","geo_precision":"unmatched"},"type":"Feature","geometry":null},{"properties":{"postcode":"L3 4ED","dealer":"Hatfields Land Rover, Liverpool","geo_score":0.0,"id":"aa1s374a0daz","geo_precision":"unmatched"},"type":"Feature","geometry":null},{"properties":{"postcode":"HR7 4JW","dealer":"Hereford Land Rover","geo_score":0.0,"id":"aa1s370y16we","geo_precision":"unmatched"},"type":"Feature","geometry":null},{"properties":{"postcode":"BB9 6LL","dealer":"Hillendale Land Rover","geo_score":0.0,"id":"aa1s3710zq1o","geo_precision":"unmatched"},"type":"Feature","geometry":null},{"properties":{"postcode":"DE24 8JG","dealer":"Hunters Land Rover, Derby","geo_score":0.0,"id":"aa1s36yg514h","geo_precision":"unmatched"},"type":"Feature","geometry":null},{"properties":{"postcode":"PE30 4JH","dealer":"Hunters Land Rover, Kings Lynn","geo_score":0.0,"id":"aa1s379yyexl","geo_precision":"unmatched"},"type":"Feature","geometry":null},{"properties":{"postcode":"PR3 0RB","dealer":"James Edwards Land Rover, Brock","geo_score":0.0,"id":"aa1s37byul55","geo_precision":"unmatched"},"type":"Feature","geometry":null},{"properties":{"postcode":"CH1 4LD","dealer":"James Edwards Land Rover, Chester","geo_score":0.0,"id":"aa1s377ns3hh","geo_precision":"unmatched"},"type":"Feature","geometry":null},{"properties":{"postcode":"LA 9 6NZ","dealer":"Kentdale Land Rover","geo_score":0.0,"id":"aa1s37b6up65","geo_precision":"unmatched"},"type":"Feature","geometry":null},{"properties":{"postcode":"LA21 8BJ","dealer":"Lakeland Land Rover","geo_score":0.0,"id":"aa1s3760jaau","geo_precision":"unmatched"},"type":"Feature","geometry":null},{"properties":{"postcode":"RG2 0QX","dealer":"Lancaster Land Rover, Reading","geo_score":0.0,"id":"aa1s375d6uku","geo_precision":"unmatched"},"type":"Feature","geometry":null},{"properties":{"postcode":"AL7 1UT","dealer":"Lancaster Land Rover, Welwyn","geo_score":0.0,"id":"aa1s375m2tjz","geo_precision":"unmatched"},"type":"Feature","geometry":null},{"properties":{"postcode":"LD3 0SL","dealer":"Likes Land Rover, Hay on Wye","geo_score":0.0,"id":"aa1s36xcs8jw","geo_precision":"unmatched"},"type":"Feature","geometry":null},{"properties":{"postcode":"CA 1 2RP","dealer":"Lloyd Land Rover","geo_score":0.0,"id":"aa1s378790ta","geo_precision":"unmatched"},"type":"Feature","geometry":null},{"properties":{"postcode":"SW11 3SU","dealer":"Lookers Land Rover, Battersea","geo_score":0.0,"id":"aa1s379g1df3","geo_precision":"unmatched"},"type":"Feature","geometry":null},{"properties":{"postcode":"CM23 5GZ","dealer":"Lookers Land Rover, Bishops Stortford","geo_score":0.0,"id":"aa1s371rqawn","geo_precision":"unmatched"},"type":"Feature","geometry":null},{"properties":{"postcode":"CM 2 5PX","dealer":"Lookers Land Rover, Chelmsford","geo_score":0.0,"id":"aa1s374js5kq","geo_precision":"unmatched"},"type":"Feature","geometry":null},{"properties":{"postcode":"CO1 1XX","dealer":"Lookers Land Rover, Colchester","geo_score":0.0,"id":"aa1s37bywcs3","geo_precision":"unmatched"},"type":"Feature","geometry":null},{"properties":{"postcode":"W3 0SL","dealer":"Lookers Land Rover, Park Royal","geo_score":0.0,"id":"aa1s375wn5ym","geo_precision":"unmatched"},"type":"Feature","geometry":null},{"properties":{"postcode":"IV1 1UF","dealer":"Macrae &amp; Dick Land Rover","geo_score":0.0,"id":"aa1s379s369o","geo_precision":"unmatched"},"type":"Feature","geometry":null},{"properties":{"postcode":"MK41 0SF","dealer":"Marshall Land Rover, Bedford","geo_score":0.0,"id":"aa1s374t1rko","geo_precision":"unmatched"},"type":"Feature","geometry":null},{"properties":{"postcode":"CB5 8SQ","dealer":"Marshall Land Rover, Cambridge","geo_score":0.0,"id":"aa1s376rkguc","geo_precision":"unmatched"},"type":"Feature","geometry":null},{"properties":{"postcode":"LN6 3TA","dealer":"Marshall Land Rover, Lincoln","geo_score":0.0,"id":"aa1s36xc7fjt","geo_precision":"unmatched"},"type":"Feature","geometry":null},{"properties":{"postcode":"LE13 0DA","dealer":"Marshall Land Rover, Melton Mowbray","geo_score":0.0,"id":"aa1s37d1jzhz","geo_precision":"unmatched"},"type":"Feature","geometry":null},{"properties":{"postcode":"PE1 5AU","dealer":"Marshall Land Rover, Peterborough","geo_score":0.0,"id":"aa1s37617v9l","geo_precision":"unmatched"},"type":"Feature","geometry":null},{"properties":{"postcode":"EX 2 8EL","dealer":"Matford Land Rover","geo_score":0.0,"id":"aa1s3780n2il","geo_precision":"unmatched"},"type":"Feature","geometry":null},{"properties":{"postcode":"FK 7 8EP","dealer":"Morrisons Land Rover","geo_score":0.0,"id":"aa1s37ca7cze","geo_precision":"unmatched"},"type":"Feature","geometry":null},{"properties":{"postcode":"JE1 3US","dealer":"Motor Mall Land Rover, Jersey","geo_score":0.0,"id":"aa1s376djgb3","geo_precision":"unmatched"},"type":"Feature","geometry":null},{"properties":{"postcode":"IM2 1HE","dealer":"Mylchreests Land Rover","geo_score":0.0,"id":"aa1s377fkvhz","geo_precision":"unmatched"},"type":"Feature","geometry":null},{"properties":{"postcode":"SP 4 6EB","dealer":"Ottons Land Rover","geo_score":0.0,"id":"aa1s371je8td","geo_precision":"unmatched"},"type":"Feature","geometry":null},{"properties":{"postcode":"KA8 9BN","dealer":"Parks Land Rover","geo_score":0.0,"id":"aa1s375p5ipq","geo_precision":"unmatched"},"type":"Feature","geometry":null},{"properties":{"postcode":"EH14 1TG","dealer":"Pentland Land Rover","geo_score":0.0,"id":"aa1s377d3qh6","geo_precision":"unmatched"},"type":"Feature","geometry":null},{"properties":{"postcode":"BD24 9AD","dealer":"Ribblesdale Land Rover","geo_score":0.0,"id":"aa1s376jwk0f","geo_precision":"unmatched"},"type":"Feature","geometry":null},{"properties":{"postcode":"TR4 9LD","dealer":"Riders Land Rover","geo_score":0.0,"id":"aa1s3781jmrb","geo_precision":"unmatched"},"type":"Feature","geometry":null},{"properties":{"postcode":"HG 4 5DT","dealer":"Ripon Land Rover","geo_score":0.0,"id":"aa1s370tt8gt","geo_precision":"unmatched"},"type":"Feature","geometry":null},{"properties":{"postcode":"HD 5 0RP","dealer":"Rocar Moores Land Rover","geo_score":0.0,"id":"aa1s37coy5jp","geo_precision":"unmatched"},"type":"Feature","geometry":null},{"properties":{"postcode":"PL12 6LF","dealer":"Roger Young Land Rover","geo_score":0.0,"id":"aa1s36ynqcqh","geo_precision":"unmatched"},"type":"Feature","geometry":null},{"properties":{"postcode":"G 53 7RA","dealer":"Shields Land Rover","geo_score":0.0,"id":"aa1s378efksx","geo_precision":"unmatched"},"type":"Feature","geometry":null},{"properties":{"postcode":"SY 8 1XD","dealer":"Shukers Land Rover, Ludlow","geo_score":0.0,"id":"aa1s377cebbv","geo_precision":"unmatched"},"type":"Feature","geometry":null},{"properties":{"postcode":"SY 1 4AE","dealer":"Shukers Land Rover, Shrewsbury","geo_score":0.0,"id":"aa1s376fcvly","geo_precision":"unmatched"},"type":"Feature","geometry":null},{"properties":{"postcode":"ST16 3UF","dealer":"Stafford Land Rover","geo_score":0.0,"id":"aa1s37bgdyfu","geo_precision":"unmatched"},"type":"Feature","geometry":null},{"properties":{"postcode":"HP19 9QH","dealer":"Stratstone Land Rover, Aylesbury","geo_score":0.0,"id":"aa1s375zogds","geo_precision":"unmatched"},"type":"Feature","geometry":null},{"properties":{"postcode":"SL1 5QA","dealer":"Stratstone Land Rover, Burnham","geo_score":0.0,"id":"aa1s377xjvjd","geo_precision":"unmatched"},"type":"Feature","geometry":null},{"properties":{"postcode":"BL 9 6DJ","dealer":"Stratstone Land Rover, Bury","geo_score":0.0,"id":"aa1s371t7ahb","geo_precision":"unmatched"},"type":"Feature","geometry":null},{"properties":{"postcode":"CF11 8LR","dealer":"Stratstone Land Rover, Cardiff","geo_score":0.0,"id":"aa1s37a6x32g","geo_precision":"unmatched"},"type":"Feature","geometry":null},{"properties":{"postcode":"GL 2 9QF","dealer":"Stratstone Land Rover, Cheltenham","geo_score":0.0,"id":"aa1s36zhleaf","geo_precision":"unmatched"},"type":"Feature","geometry":null},{"properties":{"postcode":"KY15 4RB","dealer":"Stratstone Land Rover, Cupar","geo_score":0.0,"id":"aa1s36yb3nkx","geo_precision":"unmatched"},"type":"Feature","geometry":null},{"properties":{"postcode":"DN 2 4LR","dealer":"Stratstone Land Rover, Doncaster","geo_score":0.0,"id":"aa1s377bflce","geo_precision":"unmatched"},"type":"Feature","geometry":null},{"properties":{"postcode":"EH 7 6TJ","dealer":"Stratstone Land Rover, Edinburgh","geo_score":0.0,"id":"aa1s379n2tyz","geo_precision":"unmatched"},"type":"Feature","geometry":null},{"properties":{"postcode":"HU13 0EG","dealer":"Stratstone Land Rover, Hull","geo_score":0.0,"id":"aa1s377oamlp","geo_precision":"unmatched"},"type":"Feature","geometry":null},{"properties":{"postcode":"W1J 8DX","dealer":"Stratstone Land Rover, Mayfair","geo_score":0.0,"id":"aa1s37c0zvs7","geo_precision":"unmatched"},"type":"Feature","geometry":null},{"properties":{"postcode":"MK16 0RE","dealer":"Stratstone Land Rover, Milton Keynes","geo_score":0.0,"id":"aa1s371i4mzw","geo_precision":"unmatched"},"type":"Feature","geometry":null},{"properties":{"postcode":"NE15 8SX","dealer":"Stratstone Land Rover, Newcastle","geo_score":0.0,"id":"aa1s374fgn1r","geo_precision":"unmatched"},"type":"Feature","geometry":null},{"properties":{"postcode":"NP19 4SW","dealer":"Stratstone Land Rover, Newport","geo_score":0.0,"id":"aa1s3795nnuw","geo_precision":"unmatched"},"type":"Feature","geometry":null},{"properties":{"postcode":"NG2 1RT","dealer":"Stratstone Land Rover, Nottingham","geo_score":0.0,"id":"aa1s37brmmrz","geo_precision":"unmatched"},"type":"Feature","geometry":null},{"properties":{"postcode":"PH1 3GD","dealer":"Stratstone Land Rover, Perth","geo_score":0.0,"id":"aa1s3788x71e","geo_precision":"unmatched"},"type":"Feature","geometry":null},{"properties":{"postcode":"YO18 7JX","dealer":"Stratstone Land Rover, Pickering","geo_score":0.0,"id":"aa1s375ac4hs","geo_precision":"unmatched"},"type":"Feature","geometry":null},{"properties":{"postcode":"B90 4EL","dealer":"Stratstone Land Rover, Solihull","geo_score":0.0,"id":"aa1s379h4fpj","geo_precision":"unmatched"},"type":"Feature","geometry":null},{"properties":{"postcode":"TS18 3RB","dealer":"Stratstone Land Rover, Stockton","geo_score":0.0,"id":"aa1s37c6am6q","geo_precision":"unmatched"},"type":"Feature","geometry":null},{"properties":{"postcode":"ST 1 4EG","dealer":"Stratstone Land Rover, Stoke On Trent","geo_score":0.0,"id":"aa1s375p5kd0","geo_precision":"unmatched"},"type":"Feature","geometry":null},{"properties":{"postcode":"DY 9 7BU","dealer":"Stratstone Land Rover, Stourbridge","geo_score":0.0,"id":"aa1s376jiwim","geo_precision":"unmatched"},"type":"Feature","geometry":null},{"properties":{"postcode":"SA 6 8QP","dealer":"Stratstone Land Rover, Swansea","geo_score":0.0,"id":"aa1s37b7hpku","geo_precision":"unmatched"},"type":"Feature","geometry":null},{"properties":{"postcode":"E18 2QL","dealer":"Stratstone Land Rover, Woodford","geo_score":0.0,"id":"aa1s36zq1wg7","geo_precision":"unmatched"},"type":"Feature","geometry":null},{"properties":{"postcode":"LE3 2RE","dealer":"Sturgess Land Rover","geo_score":0.0,"id":"aa1s36zm1xan","geo_precision":"unmatched"},"type":"Feature","geometry":null},{"properties":{"postcode":"SN4 8EP","dealer":"T H White Land Rover","geo_score":0.0,"id":"aa1s37610ilo","geo_precision":"unmatched"},"type":"Feature","geometry":null},{"properties":{"postcode":"BT74 6HL","dealer":"T P Topping Land Rover","geo_score":0.0,"id":"aa1s372ibjuz","geo_precision":"unmatched"},"type":"Feature","geometry":null},{"properties":{"postcode":"G20 7YD","dealer":"Taggarts Land Rover, Glasgow","geo_score":0.0,"id":"aa1s375btz0v","geo_precision":"unmatched"},"type":"Feature","geometry":null},{"properties":{"postcode":"ML1 2UD","dealer":"Taggarts Land Rover, Motherwell","geo_score":0.0,"id":"aa1s37bsfmab","geo_precision":"unmatched"},"type":"Feature","geometry":null},{"properties":{"postcode":"TA2 8BN","dealer":"Taunton Land Rover","geo_score":0.0,"id":"aa1s374yxbdu","geo_precision":"unmatched"},"type":"Feature","geometry":null},{"properties":{"postcode":"AB12 3AT","dealer":"Town &amp; County Land Rover, Aberdeen","geo_score":0.0,"id":"aa1s378e1jn8","geo_precision":"unmatched"},"type":"Feature","geometry":null},{"properties":{"postcode":"BH23 2BN","dealer":"Westover Land Rover, Dorset","geo_score":0.0,"id":"aa1s378sunjg","geo_precision":"unmatched"},"type":"Feature","geometry":null},{"properties":{"postcode":"M 15 6DU","dealer":"Williams Land Rover, Manchester","geo_score":0.0,"id":"aa1s36x8p8nv","geo_precision":"unmatched"},"type":"Feature","geometry":null},{"properties":{"postcode":"BA22 8RT","dealer":"Yeovil Land Rover","geo_score":0.0,"id":"aa1s372iyp5f","geo_precision":"unmatched"},"type":"Feature","geometry":null}],"is_temporal":false,"author":{"url":"","metadata":null,"contact_name":null,"contact_address":null,"source":null,"contact_phone":null},"source":"","pagination":{"sort":null,"start":0,"total":119,"limit":1000000},"state":"parsed","tags":"","published":"2014-08-14T18:37:22-04:00","id":202793}