{"type":"FeatureCollection","data_type":"Dataset","url_type":null,"permissions":[{"permissions":{"download":true,"view":true},"group_id":"everyone"}],"classification":null,"title":"LR Dealers","count":119,"stream_id":202817,"contributor":{"url":"http://geocommons.com/users/39027","name":"rlukyanov"},"data_attributes":null,"calculation_params":null,"icon_link":null,"link":"http://geocommons.com/overlays/202817.json","extent":[0.897008,51.1276,1.18752,53.9053],"geometry_types":["point"],"unique_name":null,"name":"LR Dealers","feature_count":119,"description":"","next_feature":null,"is_raster":false,"short_classification":"Y","stats":{"latitude":{"max":null,"min":null,"median":null},"longitude":{"max":null,"min":null,"median":null}},"features":[{"properties":{"latitude":"53.905349N","postcode":"YO23 3NX","dealer":"Armstrong Massey Land Rover","country":"UK","longitude":"1.187521W","id":"0"},"type":"Feature","geometry":{"type":"Point","coordinates":[1.187521,53.905349]}},{"properties":{"latitude":"51.127594N","postcode":"TN24 0HT","dealer":"Barretts Land Rover, Ashford","country":"UK","longitude":"0.897008E","id":"1"},"type":"Feature","geometry":{"type":"Point","coordinates":[0.897008,51.127594]}},{"properties":{"latitude":null,"postcode":"CT2 7PQ","dealer":"Barretts Land Rover, Canterbury","country":"UK","longitude":null,"id":"a65ykjjeqb1l"},"type":"Feature","geometry":null},{"properties":{"latitude":null,"postcode":"DA14 6PB","dealer":"Beadles Land Rover, Sidcup","country":"UK","longitude":null,"id":"a65ykjr0j89x"},"type":"Feature","geometry":null},{"properties":{"latitude":null,"postcode":"BN 7 2DN","dealer":"Caffyns Land Rover, Lewes","country":"UK","longitude":null,"id":"a65ykjfel8e4"},"type":"Feature","geometry":null},{"properties":{"latitude":null,"postcode":"SY23 3TL","dealer":"Cambrian Land Rover, Aberystwyth","country":"UK","longitude":null,"id":"a65ykjsi33g3"},"type":"Feature","geometry":null},{"properties":{"latitude":null,"postcode":"BT12 6LR","dealer":"Charles Hurst Land Rover, Belfast","country":"UK","longitude":null,"id":"a65ykjkp8ah2"},"type":"Feature","geometry":null},{"properties":{"latitude":null,"postcode":"WD4 9JS","dealer":"Chipperfield Land Rover","country":"UK","longitude":null,"id":"a65ykjt9yfge"},"type":"Feature","geometry":null},{"properties":{"latitude":null,"postcode":"B23 6QH","dealer":"Colliers Land Rover, Erdington","country":"UK","longitude":null,"id":"a65ykjqjvicw"},"type":"Feature","geometry":null},{"properties":{"latitude":null,"postcode":"LL31 9PL","dealer":"Conwy Land Rover","country":"UK","longitude":null,"id":"a65ykjmt1a96"},"type":"Feature","geometry":null},{"properties":{"latitude":null,"postcode":"HX3 0UA","dealer":"Copley Land Rover, Halifax","country":"UK","longitude":null,"id":"a65ykjlj850i"},"type":"Feature","geometry":null},{"properties":{"latitude":null,"postcode":"EX32 8QZ","dealer":"County Land Rover, Barnstaple","country":"UK","longitude":null,"id":"a65ykjd2jwkg"},"type":"Feature","geometry":null},{"properties":{"latitude":null,"postcode":"TD 5 8DW","dealer":"Croall Bryson Land Rover, Kelso","country":"UK","longitude":null,"id":"a65ykjm41qp8"},"type":"Feature","geometry":null},{"properties":{"latitude":null,"postcode":"BT71 7DT","dealer":"Donnelly Land Rover, Dungannon","country":"UK","longitude":null,"id":"a65ykjdpxh6h"},"type":"Feature","geometry":null},{"properties":{"latitude":null,"postcode":"WR9 9AY","dealer":"Droitwich Land Rover","country":"UK","longitude":null,"id":"a65ykjp4xi98"},"type":"Feature","geometry":null},{"properties":{"latitude":null,"postcode":"PE20 1JH","dealer":"Duckworth Land Rover, Boston","country":"UK","longitude":null,"id":"a65ykjeygv3b"},"type":"Feature","geometry":null},{"properties":{"latitude":null,"postcode":"LN8 3RE","dealer":"Duckworth Land Rover, Market Rasen","country":"UK","longitude":null,"id":"a65ykjct7nr6"},"type":"Feature","geometry":null},{"properties":{"latitude":null,"postcode":"BD9 4JB","dealer":"Farnell Land Rover, Bradford","country":"UK","longitude":null,"id":"a65ykjpcfzld"},"type":"Feature","geometry":null},{"properties":{"latitude":null,"postcode":"LS20 8NJ","dealer":"Farnell Land Rover, Guiseley","country":"UK","longitude":null,"id":"a65ykjq2e55o"},"type":"Feature","geometry":null},{"properties":{"latitude":null,"postcode":"LS10 1AD","dealer":"Farnell Land Rover, Leeds","country":"UK","longitude":null,"id":"a65ykjryjk93"},"type":"Feature","geometry":null},{"properties":{"latitude":null,"postcode":"GL12 8SR","dealer":"M J Fews Land Rover","country":"UK","longitude":null,"id":"a65ykjrta038"},"type":"Feature","geometry":null},{"properties":{"latitude":null,"postcode":"IV30 1XZ","dealer":"Frank Ogg Land Rover","country":"UK","longitude":null,"id":"a65ykjd3wzda"},"type":"Feature","geometry":null},{"properties":{"latitude":null,"postcode":"S 41 9EG","dealer":"Gordon Lamb Land Rover, Chesterfield","country":"UK","longitude":null,"id":"a65ykjok5zl7"},"type":"Feature","geometry":null},{"properties":{"latitude":null,"postcode":"SL5 7HS","dealer":"Guy Salmon Land Rover, Ascot","country":"UK","longitude":null,"id":"a65ykjmnui6q"},"type":"Feature","geometry":null},{"properties":{"latitude":null,"postcode":"BS4 3QB","dealer":"Guy Salmon Land Rover, Bristol","country":"UK","longitude":null,"id":"a65ykjo4eixc"},"type":"Feature","geometry":null},{"properties":{"latitude":null,"postcode":"CV5 9GY","dealer":"Guy Salmon Land Rover, Coventry","country":"UK","longitude":null,"id":"a65ykjlom82f"},"type":"Feature","geometry":null},{"properties":{"latitude":null,"postcode":"RH10 9PY","dealer":"Guy Salmon Land Rover, Crawley","country":"UK","longitude":null,"id":"a65ykjlai0s0"},"type":"Feature","geometry":null},{"properties":{"latitude":null,"postcode":"WA16 0ST","dealer":"Guy Salmon Land Rover, Knutsford","country":"UK","longitude":null,"id":"a65ykjr8hojd"},"type":"Feature","geometry":null},{"properties":{"latitude":null,"postcode":"ME20 7UB","dealer":"Guy Salmon Land Rover, Maidstone","country":"UK","longitude":null,"id":"a65ykjrs9kxo"},"type":"Feature","geometry":null},{"properties":{"latitude":null,"postcode":"PO 6 4SJ","dealer":"Guy Salmon Land Rover, Portsmouth","country":"UK","longitude":null,"id":"a65ykjqxjnrd"},"type":"Feature","geometry":null},{"properties":{"latitude":null,"postcode":"S4 7UD","dealer":"Guy Salmon Land Rover, Sheffield","country":"UK","longitude":null,"id":"a65ykjr9348k"},"type":"Feature","geometry":null},{"properties":{"latitude":null,"postcode":"SK 1 4AQ","dealer":"Guy Salmon Land Rover, Stockport","country":"UK","longitude":null,"id":"a65ykjgz0zaf"},"type":"Feature","geometry":null},{"properties":{"latitude":null,"postcode":"CV37 0HR","dealer":"Guy Salmon Land Rover, Stratford Upon Avon","country":"UK","longitude":null,"id":"a65ykjorl681"},"type":"Feature","geometry":null},{"properties":{"latitude":null,"postcode":"KT7 0TA","dealer":"Guy Salmon Land Rover, Thames Ditton","country":"UK","longitude":null,"id":"a65ykjfl9u7c"},"type":"Feature","geometry":null},{"properties":{"latitude":null,"postcode":"WF2 6EH","dealer":"Guy Salmon Land Rover, Wakefield","country":"UK","longitude":null,"id":"a65ykjsyh15k"},"type":"Feature","geometry":null},{"properties":{"latitude":null,"postcode":"NR 6 6NA","dealer":"Hunters Land Rover, Norwich","country":"UK","longitude":null,"id":"a65ykjj7hyin"},"type":"Feature","geometry":null},{"properties":{"latitude":null,"postcode":"GU1 1DT","dealer":"Hunters Land Rover, Guildford","country":"UK","longitude":null,"id":"a65ykji36ehh"},"type":"Feature","geometry":null},{"properties":{"latitude":null,"postcode":"SO17 1XS","dealer":"Hunters Land Rover, Southampton","country":"UK","longitude":null,"id":"a65ykjjy4e3s"},"type":"Feature","geometry":null},{"properties":{"latitude":null,"postcode":"EN5 5TY","dealer":"Hadley Green Land Rover","country":"UK","longitude":null,"id":"a65ykjly6dus"},"type":"Feature","geometry":null},{"properties":{"latitude":null,"postcode":"IP19 8HX","dealer":"Hammond Land Rover","country":"UK","longitude":null,"id":"a65ykjq2p86k"},"type":"Feature","geometry":null},{"properties":{"latitude":null,"postcode":"NN 3 9HX","dealer":"Hartwell Land Rover, Northampton","country":"UK","longitude":null,"id":"a65ykjkrmsrs"},"type":"Feature","geometry":null},{"properties":{"latitude":null,"postcode":"OX2 9QY","dealer":"Hartwell Land Rover, Oxford","country":"UK","longitude":null,"id":"a65ykjhxgswf"},"type":"Feature","geometry":null},{"properties":{"latitude":null,"postcode":"RG21 6YH","dealer":"Harwoods Land Rover, Basingstoke","country":"UK","longitude":null,"id":"a65ykjjuv2yx"},"type":"Feature","geometry":null},{"properties":{"latitude":null,"postcode":"CR5 3EA","dealer":"Harwoods Land Rover, Croydon","country":"UK","longitude":null,"id":"a65ykjn92c88"},"type":"Feature","geometry":null},{"properties":{"latitude":null,"postcode":"TN8 5NG","dealer":"Harwoods Land Rover, Edenbridge","country":"UK","longitude":null,"id":"a65ykjnf7ibu"},"type":"Feature","geometry":null},{"properties":{"latitude":null,"postcode":"RH20 1AS","dealer":"Harwoods Land Rover, Pulborough","country":"UK","longitude":null,"id":"a65ykjofyplp"},"type":"Feature","geometry":null},{"properties":{"latitude":null,"postcode":"TN9 1TB","dealer":"Harwoods Land Rover, Tonbridge","country":"UK","longitude":null,"id":"a65ykjnc7to6"},"type":"Feature","geometry":null},{"properties":{"latitude":null,"postcode":"L3 4ED","dealer":"Hatfields Land Rover, Liverpool","country":"UK","longitude":null,"id":"a65ykji02i58"},"type":"Feature","geometry":null},{"properties":{"latitude":null,"postcode":"HR7 4JW","dealer":"Hereford Land Rover","country":"UK","longitude":null,"id":"a65ykjsn7u6v"},"type":"Feature","geometry":null},{"properties":{"latitude":null,"postcode":"BB9 6LL","dealer":"Hillendale Land Rover","country":"UK","longitude":null,"id":"a65ykjfq6j2q"},"type":"Feature","geometry":null},{"properties":{"latitude":null,"postcode":"DE24 8JG","dealer":"Hunters Land Rover, Derby","country":"UK","longitude":null,"id":"a65ykjom51sg"},"type":"Feature","geometry":null},{"properties":{"latitude":null,"postcode":"PE30 4JH","dealer":"Hunters Land Rover, Kings Lynn","country":"UK","longitude":null,"id":"a65ykjr3uu4x"},"type":"Feature","geometry":null},{"properties":{"latitude":null,"postcode":"PR3 0RB","dealer":"James Edwards Land Rover, Brock","country":"UK","longitude":null,"id":"a65ykje0qwmt"},"type":"Feature","geometry":null},{"properties":{"latitude":null,"postcode":"CH1 4LD","dealer":"James Edwards Land Rover, Chester","country":"UK","longitude":null,"id":"a65ykjqjdr0h"},"type":"Feature","geometry":null},{"properties":{"latitude":null,"postcode":"LA 9 6NZ","dealer":"Kentdale Land Rover","country":"UK","longitude":null,"id":"a65ykjiziubl"},"type":"Feature","geometry":null},{"properties":{"latitude":null,"postcode":"LA21 8BJ","dealer":"Lakeland Land Rover","country":"UK","longitude":null,"id":"a65ykjt4evdu"},"type":"Feature","geometry":null},{"properties":{"latitude":null,"postcode":"RG2 0QX","dealer":"Lancaster Land Rover, Reading","country":"UK","longitude":null,"id":"a65ykjqnv6xk"},"type":"Feature","geometry":null},{"properties":{"latitude":null,"postcode":"AL7 1UT","dealer":"Lancaster Land Rover, Welwyn","country":"UK","longitude":null,"id":"a65ykjpt2gwi"},"type":"Feature","geometry":null},{"properties":{"latitude":null,"postcode":"LD3 0SL","dealer":"Likes Land Rover, Hay on Wye","country":"UK","longitude":null,"id":"a65ykjhyy0xt"},"type":"Feature","geometry":null},{"properties":{"latitude":null,"postcode":"CA 1 2RP","dealer":"Lloyd Land Rover","country":"UK","longitude":null,"id":"a65ykjkge4w7"},"type":"Feature","geometry":null},{"properties":{"latitude":null,"postcode":"SW11 3SU","dealer":"Lookers Land Rover, Battersea","country":"UK","longitude":null,"id":"a65ykjid94zw"},"type":"Feature","geometry":null},{"properties":{"latitude":null,"postcode":"CM23 5GZ","dealer":"Lookers Land Rover, Bishops Stortford","country":"UK","longitude":null,"id":"a65ykjgdbv3m"},"type":"Feature","geometry":null},{"properties":{"latitude":null,"postcode":"CM 2 5PX","dealer":"Lookers Land Rover, Chelmsford","country":"UK","longitude":null,"id":"a65ykjq4qlgm"},"type":"Feature","geometry":null},{"properties":{"latitude":null,"postcode":"CO1 1XX","dealer":"Lookers Land Rover, Colchester","country":"UK","longitude":null,"id":"a65ykjr7mobs"},"type":"Feature","geometry":null},{"properties":{"latitude":null,"postcode":"W3 0SL","dealer":"Lookers Land Rover, Park Royal","country":"UK","longitude":null,"id":"a65ykjl67obd"},"type":"Feature","geometry":null},{"properties":{"latitude":null,"postcode":"IV1 1UF","dealer":"Macrae &amp; Dick Land Rover","country":"UK","longitude":null,"id":"a65ykjl6xhsr"},"type":"Feature","geometry":null},{"properties":{"latitude":null,"postcode":"MK41 0SF","dealer":"Marshall Land Rover, Bedford","country":"UK","longitude":null,"id":"a65ykjl7334d"},"type":"Feature","geometry":null},{"properties":{"latitude":null,"postcode":"CB5 8SQ","dealer":"Marshall Land Rover, Cambridge","country":"UK","longitude":null,"id":"a65ykjgk1qd9"},"type":"Feature","geometry":null},{"properties":{"latitude":null,"postcode":"LN6 3TA","dealer":"Marshall Land Rover, Lincoln","country":"UK","longitude":null,"id":"a65ykjqaxbs2"},"type":"Feature","geometry":null},{"properties":{"latitude":null,"postcode":"LE13 0DA","dealer":"Marshall Land Rover, Melton Mowbray","country":"UK","longitude":null,"id":"a65ykjiyyzzw"},"type":"Feature","geometry":null},{"properties":{"latitude":null,"postcode":"PE1 5AU","dealer":"Marshall Land Rover, Peterborough","country":"UK","longitude":null,"id":"a65ykjosl9gr"},"type":"Feature","geometry":null},{"properties":{"latitude":null,"postcode":"EX 2 8EL","dealer":"Matford Land Rover","country":"UK","longitude":null,"id":"a65ykjcxcnev"},"type":"Feature","geometry":null},{"properties":{"latitude":null,"postcode":"FK 7 8EP","dealer":"Morrisons Land Rover","country":"UK","longitude":null,"id":"a65ykjsg9nnw"},"type":"Feature","geometry":null},{"properties":{"latitude":null,"postcode":"JE1 3US","dealer":"Motor Mall Land Rover, Jersey","country":"UK","longitude":null,"id":"a65ykjmzy08b"},"type":"Feature","geometry":null},{"properties":{"latitude":null,"postcode":"IM2 1HE","dealer":"Mylchreests Land Rover","country":"UK","longitude":null,"id":"a65ykjkn31ng"},"type":"Feature","geometry":null},{"properties":{"latitude":null,"postcode":"SP 4 6EB","dealer":"Ottons Land Rover","country":"UK","longitude":null,"id":"a65ykjrsvg6q"},"type":"Feature","geometry":null},{"properties":{"latitude":null,"postcode":"KA8 9BN","dealer":"Parks Land Rover","country":"UK","longitude":null,"id":"a65ykjn1es8p"},"type":"Feature","geometry":null},{"properties":{"latitude":null,"postcode":"EH14 1TG","dealer":"Pentland Land Rover","country":"UK","longitude":null,"id":"a65ykjt4zil4"},"type":"Feature","geometry":null},{"properties":{"latitude":null,"postcode":"BD24 9AD","dealer":"Ribblesdale Land Rover","country":"UK","longitude":null,"id":"a65ykjgww1ro"},"type":"Feature","geometry":null},{"properties":{"latitude":null,"postcode":"TR4 9LD","dealer":"Riders Land Rover","country":"UK","longitude":null,"id":"a65ykjefmivb"},"type":"Feature","geometry":null},{"properties":{"latitude":null,"postcode":"HG 4 5DT","dealer":"Ripon Land Rover","country":"UK","longitude":null,"id":"a65ykjsz224l"},"type":"Feature","geometry":null},{"properties":{"latitude":null,"postcode":"HD 5 0RP","dealer":"Rocar Moores Land Rover","country":"UK","longitude":null,"id":"a65ykjskxhw3"},"type":"Feature","geometry":null},{"properties":{"latitude":null,"postcode":"PL12 6LF","dealer":"Roger Young Land Rover","country":"UK","longitude":null,"id":"a65ykjqy1yvx"},"type":"Feature","geometry":null},{"properties":{"latitude":null,"postcode":"G 53 7RA","dealer":"Shields Land Rover","country":"UK","longitude":null,"id":"a65ykjn90ir2"},"type":"Feature","geometry":null},{"properties":{"latitude":null,"postcode":"SY 8 1XD","dealer":"Shukers Land Rover, Ludlow","country":"UK","longitude":null,"id":"a65ykjozke9k"},"type":"Feature","geometry":null},{"properties":{"latitude":null,"postcode":"SY 1 4AE","dealer":"Shukers Land Rover, Shrewsbury","country":"UK","longitude":null,"id":"a65ykjix3kwy"},"type":"Feature","geometry":null},{"properties":{"latitude":null,"postcode":"ST16 3UF","dealer":"Stafford Land Rover","country":"UK","longitude":null,"id":"a65ykjjefqyw"},"type":"Feature","geometry":null},{"properties":{"latitude":null,"postcode":"HP19 9QH","dealer":"Stratstone Land Rover, Aylesbury","country":"UK","longitude":null,"id":"a65ykjqp5ay8"},"type":"Feature","geometry":null},{"properties":{"latitude":null,"postcode":"SL1 5QA","dealer":"Stratstone Land Rover, Burnham","country":"UK","longitude":null,"id":"a65ykjd1llef"},"type":"Feature","geometry":null},{"properties":{"latitude":null,"postcode":"BL 9 6DJ","dealer":"Stratstone Land Rover, Bury","country":"UK","longitude":null,"id":"a65ykjs4kqz2"},"type":"Feature","geometry":null},{"properties":{"latitude":null,"postcode":"CF11 8LR","dealer":"Stratstone Land Rover, Cardiff","country":"UK","longitude":null,"id":"a65ykjeb1jof"},"type":"Feature","geometry":null},{"properties":{"latitude":null,"postcode":"GL 2 9QF","dealer":"Stratstone Land Rover, Cheltenham","country":"UK","longitude":null,"id":"a65ykjhlmrig"},"type":"Feature","geometry":null},{"properties":{"latitude":null,"postcode":"KY15 4RB","dealer":"Stratstone Land Rover, Cupar","country":"UK","longitude":null,"id":"a65ykjjnakzy"},"type":"Feature","geometry":null},{"properties":{"latitude":null,"postcode":"DN 2 4LR","dealer":"Stratstone Land Rover, Doncaster","country":"UK","longitude":null,"id":"a65ykjjqugxa"},"type":"Feature","geometry":null},{"properties":{"latitude":null,"postcode":"EH 7 6TJ","dealer":"Stratstone Land Rover, Edinburgh","country":"UK","longitude":null,"id":"a65ykjet8uq6"},"type":"Feature","geometry":null},{"properties":{"latitude":null,"postcode":"HU13 0EG","dealer":"Stratstone Land Rover, Hull","country":"UK","longitude":null,"id":"a65ykjiw6yla"},"type":"Feature","geometry":null},{"properties":{"latitude":null,"postcode":"W1J 8DX","dealer":"Stratstone Land Rover, Mayfair","country":"UK","longitude":null,"id":"a65ykjdvcoga"},"type":"Feature","geometry":null},{"properties":{"latitude":null,"postcode":"MK16 0RE","dealer":"Stratstone Land Rover, Milton Keynes","country":"UK","longitude":null,"id":"a65ykjiucthg"},"type":"Feature","geometry":null},{"properties":{"latitude":null,"postcode":"NE15 8SX","dealer":"Stratstone Land Rover, Newcastle","country":"UK","longitude":null,"id":"a65ykjei2hw7"},"type":"Feature","geometry":null},{"properties":{"latitude":null,"postcode":"NP19 4SW","dealer":"Stratstone Land Rover, Newport","country":"UK","longitude":null,"id":"a65ykjea5u5l"},"type":"Feature","geometry":null},{"properties":{"latitude":null,"postcode":"NG2 1RT","dealer":"Stratstone Land Rover, Nottingham","country":"UK","longitude":null,"id":"a65ykjjnrtv4"},"type":"Feature","geometry":null},{"properties":{"latitude":null,"postcode":"PH1 3GD","dealer":"Stratstone Land Rover, Perth","country":"UK","longitude":null,"id":"a65ykjo09ss0"},"type":"Feature","geometry":null},{"properties":{"latitude":null,"postcode":"YO18 7JX","dealer":"Stratstone Land Rover, Pickering","country":"UK","longitude":null,"id":"a65ykjmkmwm1"},"type":"Feature","geometry":null},{"properties":{"latitude":null,"postcode":"B90 4EL","dealer":"Stratstone Land Rover, Solihull","country":"UK","longitude":null,"id":"a65ykjog51x3"},"type":"Feature","geometry":null},{"properties":{"latitude":null,"postcode":"TS18 3RB","dealer":"Stratstone Land Rover, Stockton","country":"UK","longitude":null,"id":"a65ykjr8kebv"},"type":"Feature","geometry":null},{"properties":{"latitude":null,"postcode":"ST 1 4EG","dealer":"Stratstone Land Rover, Stoke On Trent","country":"UK","longitude":null,"id":"a65ykjpo4fw9"},"type":"Feature","geometry":null},{"properties":{"latitude":null,"postcode":"DY 9 7BU","dealer":"Stratstone Land Rover, Stourbridge","country":"UK","longitude":null,"id":"a65ykjf8pd7o"},"type":"Feature","geometry":null},{"properties":{"latitude":null,"postcode":"SA 6 8QP","dealer":"Stratstone Land Rover, Swansea","country":"UK","longitude":null,"id":"a65ykjmvy8pr"},"type":"Feature","geometry":null},{"properties":{"latitude":null,"postcode":"E18 2QL","dealer":"Stratstone Land Rover, Woodford","country":"UK","longitude":null,"id":"a65ykjmop9fs"},"type":"Feature","geometry":null},{"properties":{"latitude":null,"postcode":"LE3 2RE","dealer":"Sturgess Land Rover","country":"UK","longitude":null,"id":"a65ykjqduht7"},"type":"Feature","geometry":null},{"properties":{"latitude":null,"postcode":"SN4 8EP","dealer":"T H White Land Rover","country":"UK","longitude":null,"id":"a65ykjs3pfeg"},"type":"Feature","geometry":null},{"properties":{"latitude":null,"postcode":"BT74 6HL","dealer":"T P Topping Land Rover","country":"UK","longitude":null,"id":"a65ykjkb029j"},"type":"Feature","geometry":null},{"properties":{"latitude":null,"postcode":"G20 7YD","dealer":"Taggarts Land Rover, Glasgow","country":"UK","longitude":null,"id":"a65ykjiqc1tf"},"type":"Feature","geometry":null},{"properties":{"latitude":null,"postcode":"ML1 2UD","dealer":"Taggarts Land Rover, Motherwell","country":"UK","longitude":null,"id":"a65ykjs8hnia"},"type":"Feature","geometry":null},{"properties":{"latitude":null,"postcode":"TA2 8BN","dealer":"Taunton Land Rover","country":"UK","longitude":null,"id":"a65ykjjrtufw"},"type":"Feature","geometry":null},{"properties":{"latitude":null,"postcode":"AB12 3AT","dealer":"Town &amp; County Land Rover, Aberdeen","country":"UK","longitude":null,"id":"a65ykjfn6tg8"},"type":"Feature","geometry":null},{"properties":{"latitude":null,"postcode":"BH23 2BN","dealer":"Westover Land Rover, Dorset","country":"UK","longitude":null,"id":"a65ykjoar23y"},"type":"Feature","geometry":null},{"properties":{"latitude":null,"postcode":"M 15 6DU","dealer":"Williams Land Rover, Manchester","country":"UK","longitude":null,"id":"a65ykjlkbfwc"},"type":"Feature","geometry":null},{"properties":{"latitude":null,"postcode":"BA22 8RT","dealer":"Yeovil Land Rover","country":"UK","longitude":null,"id":"a65ykjis7cw8"},"type":"Feature","geometry":null}],"is_temporal":false,"author":{"url":"","metadata":"","contact_name":"","contact_address":"","source":"","contact_phone":""},"source":"","pagination":{"sort":null,"start":0,"total":119,"limit":1000000},"state":"complete","tags":"","published":"2014-08-14T18:39:10-04:00","id":202817}