{"type":"FeatureCollection","data_type":"Dataset","url_type":null,"permissions":[{"permissions":{"download":true,"view":true},"group_id":"everyone"}],"classification":null,"title":"Test2","count":58,"stream_id":202860,"contributor":{"url":"http://geocommons.com/users/38068","name":"chris.birie"},"data_attributes":null,"calculation_params":null,"icon_link":null,"link":"http://geocommons.com/overlays/202860.json","extent":[0.0,0.0,0.0,0.0],"geometry_types":[],"unique_name":null,"name":"Test2","feature_count":58,"description":"Test2","next_feature":null,"is_raster":false,"short_classification":"Y","stats":{"shipments":{"max":109741,"variance":372694809.27072,"mean":10823.4655172414,"stdev":19305.3052105042,"min":1,"median":4326},"pieces":{"max":215762,"variance":1671773368.817,"mean":23363.0862068966,"stdev":40887.3252832342,"min":1,"median":9506},"orders":{"max":92734,"variance":268604847.173624,"mean":9233.86206896552,"stdev":16389.1685931173,"min":1,"median":3751}},"features":[{"properties":{"shipments":879,"geo_score":0.0,"pieces":1497,"orders":612,"id":"a69x6jngu6vo","geo_precision":"unmatched","state":"AB"},"type":"Feature","geometry":null},{"properties":{"shipments":3,"geo_score":0.0,"pieces":11,"orders":3,"id":"a69x6jlsj3sj","geo_precision":"unmatched","state":"AK"},"type":"Feature","geometry":null},{"properties":{"shipments":2783,"geo_score":0.0,"pieces":7862,"orders":2699,"id":"a69x6jojgsg0","geo_precision":"unmatched","state":"AL"},"type":"Feature","geometry":null},{"properties":{"shipments":977,"geo_score":0.0,"pieces":2401,"orders":923,"id":"a69x6js1tgm7","geo_precision":"unmatched","state":"AR"},"type":"Feature","geometry":null},{"properties":{"shipments":18956,"geo_score":0.0,"pieces":41632,"orders":16349,"id":"a69x6jsy5i27","geo_precision":"unmatched","state":"AZ"},"type":"Feature","geometry":null},{"properties":{"shipments":1392,"geo_score":0.0,"pieces":2248,"orders":958,"id":"a69x6jrnqc0q","geo_precision":"unmatched","state":"BC"},"type":"Feature","geometry":null},{"properties":{"shipments":109741,"geo_score":0.0,"pieces":215762,"orders":92734,"id":"a69x6jn99ghw","geo_precision":"unmatched","state":"CA"},"type":"Feature","geometry":null},{"properties":{"shipments":17882,"geo_score":0.0,"pieces":38266,"orders":14593,"id":"a69x6jmijbyb","geo_precision":"unmatched","state":"CO"},"type":"Feature","geometry":null},{"properties":{"shipments":3755,"geo_score":0.0,"pieces":8612,"orders":3437,"id":"a69x6jmvz6rh","geo_precision":"unmatched","state":"CT"},"type":"Feature","geometry":null},{"properties":{"shipments":1306,"geo_score":0.0,"pieces":2771,"orders":1242,"id":"a69x6jjk0skc","geo_precision":"unmatched","state":"DC"},"type":"Feature","geometry":null},{"properties":{"shipments":1213,"geo_score":0.0,"pieces":2824,"orders":1129,"id":"a69x6jobbxke","geo_precision":"unmatched","state":"DE"},"type":"Feature","geometry":null},{"properties":{"shipments":43556,"geo_score":0.0,"pieces":112322,"orders":41439,"id":"a69x6jovyv9u","geo_precision":"unmatched","state":"FL"},"type":"Feature","geometry":null},{"properties":{"shipments":13822,"geo_score":0.0,"pieces":31915,"orders":13331,"id":"a69x6jqmo62x","geo_precision":"unmatched","state":"GA"},"type":"Feature","geometry":null},{"properties":{"shipments":482,"geo_score":0.0,"pieces":1101,"orders":355,"id":"a69x6jke4k4o","geo_precision":"unmatched","state":"HI"},"type":"Feature","geometry":null},{"properties":{"shipments":4910,"geo_score":0.0,"pieces":10666,"orders":4264,"id":"a69x6jtne2zm","geo_precision":"unmatched","state":"IA"},"type":"Feature","geometry":null},{"properties":{"shipments":2144,"geo_score":0.0,"pieces":4659,"orders":1754,"id":"a69x6jt5uhz1","geo_precision":"unmatched","state":"ID"},"type":"Feature","geometry":null},{"properties":{"shipments":49511,"geo_score":0.0,"pieces":97490,"orders":39709,"id":"a69x6jyiaked","geo_precision":"unmatched","state":"IL"},"type":"Feature","geometry":null},{"properties":{"shipments":8441,"geo_score":0.0,"pieces":18199,"orders":7496,"id":"a69x6jy0zro2","geo_precision":"unmatched","state":"IN"},"type":"Feature","geometry":null},{"properties":{"shipments":4988,"geo_score":0.0,"pieces":13873,"orders":4287,"id":"a69x6juzlhit","geo_precision":"unmatched","state":"KS"},"type":"Feature","geometry":null},{"properties":{"shipments":2140,"geo_score":0.0,"pieces":5329,"orders":2028,"id":"a69x6jkboqqc","geo_precision":"unmatched","state":"KY"},"type":"Feature","geometry":null},{"properties":{"shipments":7762,"geo_score":0.0,"pieces":17887,"orders":6426,"id":"a69x6jvdfay5","geo_precision":"unmatched","state":"LA"},"type":"Feature","geometry":null},{"properties":{"shipments":23429,"geo_score":0.0,"pieces":39320,"orders":16173,"id":"a69x6jyvn3uh","geo_precision":"unmatched","state":"MA"},"type":"Feature","geometry":null},{"properties":{"shipments":12364,"geo_score":0.0,"pieces":27216,"orders":11280,"id":"a69x6jw53gzn","geo_precision":"unmatched","state":"MD"},"type":"Feature","geometry":null},{"properties":{"shipments":1949,"geo_score":0.0,"pieces":3133,"orders":1277,"id":"a69x6jjh47ar","geo_precision":"unmatched","state":"ME"},"type":"Feature","geometry":null},{"properties":{"shipments":22245,"geo_score":0.0,"pieces":44408,"orders":18685,"id":"a69x6jyrl0ga","geo_precision":"unmatched","state":"MI"},"type":"Feature","geometry":null},{"properties":{"shipments":5428,"geo_score":0.0,"pieces":12997,"orders":5186,"id":"a69x6jotixcb","geo_precision":"unmatched","state":"MN"},"type":"Feature","geometry":null},{"properties":{"shipments":13619,"geo_score":0.0,"pieces":31298,"orders":11976,"id":"a69x6jnpjvz9","geo_precision":"unmatched","state":"MO"},"type":"Feature","geometry":null},{"properties":{"shipments":1486,"geo_score":0.0,"pieces":3767,"orders":1301,"id":"a69x6jqhmfxl","geo_precision":"unmatched","state":"MS"},"type":"Feature","geometry":null},{"properties":{"shipments":1227,"geo_score":0.0,"pieces":2717,"orders":1045,"id":"a69x6jpr03vy","geo_precision":"unmatched","state":"MT"},"type":"Feature","geometry":null},{"properties":{"shipments":1,"geo_score":0.0,"pieces":1,"orders":1,"id":"a69x6jv55lis","geo_precision":"unmatched","state":"NB"},"type":"Feature","geometry":null},{"properties":{"shipments":4326,"geo_score":0.0,"pieces":11266,"orders":4157,"id":"a69x6jmt6b00","geo_precision":"unmatched","state":"NC"},"type":"Feature","geometry":null},{"properties":{"shipments":310,"geo_score":0.0,"pieces":954,"orders":288,"id":"a69x6juj2cp3","geo_precision":"unmatched","state":"ND"},"type":"Feature","geometry":null},{"properties":{"shipments":1947,"geo_score":0.0,"pieces":4673,"orders":1644,"id":"a69x6jss68h4","geo_precision":"unmatched","state":"NE"},"type":"Feature","geometry":null},{"properties":{"shipments":3185,"geo_score":0.0,"pieces":5267,"orders":2156,"id":"a69x6jrofq3t","geo_precision":"unmatched","state":"NH"},"type":"Feature","geometry":null},{"properties":{"shipments":18313,"geo_score":0.0,"pieces":38085,"orders":15425,"id":"a69x6jof67mr","geo_precision":"unmatched","state":"NJ"},"type":"Feature","geometry":null},{"properties":{"shipments":4252,"geo_score":0.0,"pieces":9039,"orders":3751,"id":"a69x6jrn1e42","geo_precision":"unmatched","state":"NM"},"type":"Feature","geometry":null},{"properties":{"shipments":4488,"geo_score":0.0,"pieces":10016,"orders":4068,"id":"a69x6jo81oss","geo_precision":"unmatched","state":"NV"},"type":"Feature","geometry":null},{"properties":{"shipments":23071,"geo_score":0.0,"pieces":53956,"orders":20375,"id":"a69x6jtr0ar2","geo_precision":"unmatched","state":"NY"},"type":"Feature","geometry":null},{"properties":{"shipments":12968,"geo_score":0.0,"pieces":29076,"orders":11769,"id":"a69x6jx1nh25","geo_precision":"unmatched","state":"OH"},"type":"Feature","geometry":null},{"properties":{"shipments":5135,"geo_score":0.0,"pieces":10373,"orders":4245,"id":"a69x6jqo6u45","geo_precision":"unmatched","state":"OK"},"type":"Feature","geometry":null},{"properties":{"shipments":4922,"geo_score":0.0,"pieces":9489,"orders":3102,"id":"a69x6jof178c","geo_precision":"unmatched","state":"ON"},"type":"Feature","geometry":null},{"properties":{"shipments":11820,"geo_score":0.0,"pieces":24774,"orders":10108,"id":"a69x6jmy17tz","geo_precision":"unmatched","state":"OR"},"type":"Feature","geometry":null},{"properties":{"shipments":15523,"geo_score":0.0,"pieces":32758,"orders":13869,"id":"a69x6jy0bthr","geo_precision":"unmatched","state":"PA"},"type":"Feature","geometry":null},{"properties":{"shipments":62,"geo_score":0.0,"pieces":112,"orders":31,"id":"a69x6jmn0zkq","geo_precision":"unmatched","state":"QC"},"type":"Feature","geometry":null},{"properties":{"shipments":2031,"geo_score":0.0,"pieces":3201,"orders":1320,"id":"a69x6jtfujsh","geo_precision":"unmatched","state":"RI"},"type":"Feature","geometry":null},{"properties":{"shipments":1133,"geo_score":0.0,"pieces":2838,"orders":1065,"id":"a69x6jwzvd1r","geo_precision":"unmatched","state":"SC"},"type":"Feature","geometry":null},{"properties":{"shipments":229,"geo_score":0.0,"pieces":533,"orders":222,"id":"a69x6jjpmlfk","geo_precision":"unmatched","state":"SD"},"type":"Feature","geometry":null},{"properties":{"shipments":3,"geo_score":0.0,"pieces":14,"orders":2,"id":"a69x6jtkd7ks","geo_precision":"unmatched","state":"SK"},"type":"Feature","geometry":null},{"properties":{"shipments":3999,"geo_score":0.0,"pieces":9506,"orders":3837,"id":"a69x6jkk5lvw","geo_precision":"unmatched","state":"TN"},"type":"Feature","geometry":null},{"properties":{"shipments":82093,"geo_score":0.0,"pieces":190096,"orders":69430,"id":"a69x6jxcxbss","geo_precision":"unmatched","state":"TX"},"type":"Feature","geometry":null},{"properties":{"shipments":4483,"geo_score":0.0,"pieces":10535,"orders":3627,"id":"a69x6jwbt85p","geo_precision":"unmatched","state":"UT"},"type":"Feature","geometry":null},{"properties":{"shipments":9531,"geo_score":0.0,"pieces":24013,"orders":8685,"id":"a69x6jn7ziof","geo_precision":"unmatched","state":"VA"},"type":"Feature","geometry":null},{"properties":{"shipments":1747,"geo_score":0.0,"pieces":2844,"orders":1115,"id":"a69x6jtkiqqh","geo_precision":"unmatched","state":"VT"},"type":"Feature","geometry":null},{"properties":{"shipments":26188,"geo_score":0.0,"pieces":53748,"orders":22437,"id":"a69x6jy0l7y5","geo_precision":"unmatched","state":"WA"},"type":"Feature","geometry":null},{"properties":{"shipments":6263,"geo_score":0.0,"pieces":12692,"orders":4994,"id":"a69x6jxktln4","geo_precision":"unmatched","state":"WI"},"type":"Feature","geometry":null},{"properties":{"shipments":443,"geo_score":0.0,"pieces":863,"orders":390,"id":"a69x6jvpgrky","geo_precision":"unmatched","state":"WV"},"type":"Feature","geometry":null},{"properties":{"shipments":902,"geo_score":0.0,"pieces":2150,"orders":757,"id":"a69x6jlb1zn9","geo_precision":"unmatched","state":"WY"},"type":"Feature","geometry":null},{"properties":{"shipments":3,"geo_score":0.0,"pieces":4,"orders":3,"id":"a69x6jpenp0a","geo_precision":"unmatched","state":"YT"},"type":"Feature","geometry":null}],"is_temporal":false,"author":{"url":"","metadata":"","contact_name":"","contact_address":"","source":"","contact_phone":""},"source":"","pagination":{"sort":null,"start":0,"total":58,"limit":1000000},"state":"complete","tags":"","published":"2014-08-14T18:41:22-04:00","id":202860}