{"type":"FeatureCollection","data_type":"Dataset Analysis","url_type":null,"permissions":[{"permissions":{"download":true,"view":true},"group_id":"everyone"}],"classification":null,"title":"Filtered Features of 'CSV_TARGET_STORES' based on 'RDC_Location'","count":344,"stream_id":203013,"contributor":{"url":"http://geocommons.com/users/39439","name":"dsh0007"},"data_attributes":null,"calculation_params":[{"calculation":"buffer_intersect","input":{"min_distance":"1","ds1":"202300","ds2":"203007","unit":"miles","include_distance":"1","distance":"500"}}],"icon_link":null,"link":"http://geocommons.com/overlays/203013.json","extent":[-82.095318,36.61923,-68.742951,44.840034],"geometry_types":null,"unique_name":null,"name":"Filtered Features of 'CSV_TARGET_STORES' based on 'RDC_Location'","feature_count":344,"description":"Dataset created by filtering features of 'CSV_TARGET_STORES' that are within a buffer of 1 to 500 miles around the features in 'RDC_Location'","next_feature":null,"is_raster":false,"short_classification":"Y","stats":{},"features":[{"properties":{"zip":"24202","city/state/zip":"Bristol","store name":"Bristol","geo_score":0.6,"column_1":"VIRGINIA","id":"257","geo_precision":"street","address":"16600 Highlands Center Blvd","state":"VA","distance":207.271819804229},"type":"Feature","geometry":{"type":"Point","coordinates":[-82.095318,36.61923]}},{"properties":{"zip":"23322","city/state/zip":"Chesapeake","store name":"Chesapeake South","geo_score":0.585,"column_1":"VIRGINIA","id":"261","geo_precision":"zip","address":"233 Carmichael Way","state":"VA","distance":27.5030741197175},"type":"Feature","geometry":{"type":"Point","coordinates":[-76.284384,36.628762]}},{"properties":{"zip":"23320","city/state/zip":"Chesapeake","store name":"Chesapeake East","geo_score":0.902,"column_1":"VIRGINIA","id":"260","geo_precision":"range","address":"1316 Greenbrier Pkwy","state":"VA","distance":25.8592482465133},"type":"Feature","geometry":{"type":"Point","coordinates":[-76.228814,36.772498]}},{"properties":{"zip":"23454","city/state/zip":"Virginia Beach","store name":"Virginia Beach SE","geo_score":0.708,"column_1":"VIRGINIA","id":"303","geo_precision":"street","address":"2233 Upton Dr","state":"VA","distance":41.3785647738682},"type":"Feature","geometry":{"type":"Point","coordinates":[-75.994372,36.782841]}},{"properties":{"zip":"23453","city/state/zip":"Virginia Beach","store name":"Virginia Beach South","geo_score":0.613,"column_1":"VIRGINIA","id":"304","geo_precision":"street","address":"2060 S Independence Blvd","state":"VA","distance":33.4639429338584},"type":"Feature","geometry":{"type":"Point","coordinates":[-76.108498,36.794823]}},{"properties":{"zip":"23451","city/state/zip":"Virginia Beach","store name":"Virginia Beach East","geo_score":0.488,"column_1":"VIRGINIA","id":"302","geo_precision":"street","address":"525 First Colonial Rd","state":"VA","distance":41.618334043606},"type":"Feature","geometry":{"type":"Point","coordinates":[-75.987031,36.821909]}},{"properties":{"zip":"23321","city/state/zip":"Chesapeake","store name":"Chesapeake Sq Mall","geo_score":0.902,"column_1":"VIRGINIA","id":"262","geo_precision":"range","address":"4200 Portsmouth Blvd","state":"VA","distance":12.5661065309621},"type":"Feature","geometry":{"type":"Point","coordinates":[-76.414848,36.823167]}},{"properties":{"zip":"23502","city/state/zip":"Norfolk","store name":"Norfolk","geo_score":0.902,"column_1":"VIRGINIA","id":"290","geo_precision":"range","address":"1245 N Military Hwy","state":"VA","distance":25.9625239811328},"type":"Feature","geometry":{"type":"Point","coordinates":[-76.210797,36.865766]}},{"properties":{"zip":"23666","city/state/zip":"Hampton","store name":"Hampton","geo_score":0.524,"column_1":"VIRGINIA","id":"280","geo_precision":"street","address":"5001 Holt Ave","state":"VA","distance":12.5231970727863},"type":"Feature","geometry":{"type":"Point","coordinates":[-76.418142,37.017801]}},{"properties":{"zip":"23602","city/state/zip":"Newport News","store name":"Newport News","geo_score":0.902,"column_1":"VIRGINIA","id":"289","geo_precision":"range","address":"12130 Jefferson Ave","state":"VA","distance":7.84954958644306},"type":"Feature","geometry":{"type":"Point","coordinates":[-76.492029,37.102152]}},{"properties":{"zip":"24073","city/state/zip":"Christiansburg","store name":"Christiansburg","geo_score":0.561,"column_1":"VIRGINIA","id":"264","geo_precision":"street","address":"195 Conston Ave","state":"VA","distance":91.7883092088388},"type":"Feature","geometry":{"type":"Point","coordinates":[-80.476706,37.130974]}},{"properties":{"zip":"23834","city/state/zip":"Colonial Heights","store name":"Colonial Heights","geo_score":0.902,"column_1":"VIRGINIA","id":"265","geo_precision":"range","address":"721 Southpark Blvd","state":"VA","distance":486.37651135502},"type":"Feature","geometry":{"type":"Point","coordinates":[-77.389895,37.249776]}},{"properties":{"zip":"23185","city/state/zip":"Williamsburg","store name":"Williamsburg East","geo_score":0.585,"column_1":"VIRGINIA","id":"307","geo_precision":"zip","address":"200 Marquis Pkwy","state":"VA","distance":496.76852335396},"type":"Feature","geometry":{"type":"Point","coordinates":[-76.661345,37.262924]}},{"properties":{"zip":"23188","city/state/zip":"Williamsburg","store name":"Williamsburg","geo_score":0.902,"column_1":"VIRGINIA","id":"306","geo_precision":"range","address":"4630 Monticello Ave","state":"VA","distance":490.098791516934},"type":"Feature","geometry":{"type":"Point","coordinates":[-76.758414,37.27017]}},{"properties":{"zip":"24012","city/state/zip":"Roanoke","store name":"Roanoke","geo_score":0.866,"column_1":"VIRGINIA","id":"297","geo_precision":"range","address":"4737 Valley View Blvd NW","state":"VA","distance":54.4525543033857},"type":"Feature","geometry":{"type":"Point","coordinates":[-79.95658,37.299388]}},{"properties":{"zip":"24540","city/state/zip":"Danville","store name":"Danville","geo_score":0.604,"column_1":"VIRGINIA","id":"267","geo_precision":"range","address":"155 Holt Garrison Pkwy","state":"VA","distance":493.727080132364},"type":"Feature","geometry":{"type":"Point","coordinates":[-79.067179,37.32141]}},{"properties":{"zip":"24502","city/state/zip":"Lynchburg","store name":"Lynchburg","geo_score":0.902,"column_1":"VIRGINIA","id":"283","geo_precision":"range","address":"4028 Wards Rd","state":"VA","distance":1.73658746786253},"type":"Feature","geometry":{"type":"Point","coordinates":[-79.18866,37.344504]}},{"properties":{"zip":"23831","city/state/zip":"Chester","store name":"Chester","geo_score":0.902,"column_1":"VIRGINIA","id":"263","geo_precision":"range","address":"2530 Weir Rd","state":"VA","distance":479.670358029774},"type":"Feature","geometry":{"type":"Point","coordinates":[-77.409613,37.349937]}},{"properties":{"zip":"23112","city/state/zip":"Midlothian","store name":"Richmond Brandermill","geo_score":0.559,"column_1":"VIRGINIA","id":"287","geo_precision":"street","address":"4601 Commonwealth Center Pkwy","state":"VA","distance":476.413005343141},"type":"Feature","geometry":{"type":"Point","coordinates":[-77.634672,37.419492]}},{"properties":{"zip":"23235","city/state/zip":"Richmond","store name":"Richmond West","geo_score":0.78,"column_1":"VIRGINIA","id":"296","geo_precision":"range","address":"11301 Midlothian Tpke","state":"VA","distance":470.303744553202},"type":"Feature","geometry":{"type":"Point","coordinates":[-77.605467,37.50592]}},{"properties":{"zip":"23231","city/state/zip":"Richmond","store name":"Richmond East","geo_score":0.902,"column_1":"VIRGINIA","id":"294","geo_precision":"range","address":"4521 S Laburnum Ave","state":"VA","distance":467.070069202079},"type":"Feature","geometry":{"type":"Point","coordinates":[-77.35668,37.527715]}},{"properties":{"zip":"23225","city/state/zip":"Richmond","store name":"Forest Hill","geo_score":0.902,"column_1":"VIRGINIA","id":"292","geo_precision":"range","address":"7107 Forest Hill Ave","state":"VA","distance":467.630989207774},"type":"Feature","geometry":{"type":"Point","coordinates":[-77.526749,37.537692]}},{"properties":{"zip":"23113","city/state/zip":"Midlothian","store name":"Richmond Far West","geo_score":0.585,"column_1":"VIRGINIA","id":"288","geo_precision":"zip","address":"201 Perimeter Dr","state":"VA","distance":466.594212826048},"type":"Feature","geometry":{"type":"Point","coordinates":[-77.71166,37.568203]}},{"properties":{"zip":"23230","city/state/zip":"Richmond","store name":"Richmond Central","geo_score":0.902,"column_1":"VIRGINIA","id":"293","geo_precision":"range","address":"5401 W Broad St","state":"VA","distance":464.060886635566},"type":"Feature","geometry":{"type":"Point","coordinates":[-77.500267,37.587127]}},{"properties":{"zip":"23111","city/state/zip":"Mechanicsville","store name":"Mechanicsville","geo_score":0.902,"column_1":"VIRGINIA","id":"286","geo_precision":"range","address":"7235 Bell Creek Rd","state":"VA","distance":461.998418042267},"type":"Feature","geometry":{"type":"Point","coordinates":[-77.348978,37.600848]}},{"properties":{"zip":"23228","city/state/zip":"Richmond","store name":"Richmond Near NW","geo_score":0.902,"column_1":"VIRGINIA","id":"295","geo_precision":"range","address":"9001 Staples Mill Rd","state":"VA","distance":460.699720693043},"type":"Feature","geometry":{"type":"Point","coordinates":[-77.511803,37.637213]}},{"properties":{"zip":"23060","city/state/zip":"Glen Allen","store name":"Richmond NW","geo_score":0.902,"column_1":"VIRGINIA","id":"278","geo_precision":"range","address":"11290 W Broad St","state":"VA","distance":460.376262539822},"type":"Feature","geometry":{"type":"Point","coordinates":[-77.607124,37.650512]}},{"properties":{"zip":"23059","city/state/zip":"Glen Allen","store name":"Virginia Center Commons","geo_score":0.902,"column_1":"VIRGINIA","id":"279","geo_precision":"range","address":"10100 Brook Rd","state":"VA","distance":457.819074197923},"type":"Feature","geometry":{"type":"Point","coordinates":[-77.460971,37.674134]}},{"properties":{"zip":"22911","city/state/zip":"Charlottesville","store name":"Charlottesville","geo_score":0.642,"column_1":"VIRGINIA","id":"259","geo_precision":"range","address":"312 Connor Dr","state":"VA","distance":449.745843752782},"type":"Feature","geometry":{"type":"Point","coordinates":[-78.278856,37.83203]}},{"properties":{"zip":"22980","city/state/zip":"Waynesboro","store name":"Waynesboro","geo_score":0.562,"column_1":"VIRGINIA","id":"305","geo_precision":"street","address":"811 Town Center Dr","state":"VA","distance":472.626743814491},"type":"Feature","geometry":{"type":"Point","coordinates":[-78.912199,38.07084]}},{"properties":{"zip":"22407","city/state/zip":"Fredericksburg","store name":"Fredericksburg S SuperTarget","geo_score":0.902,"column_1":"VIRGINIA","id":"274","geo_precision":"range","address":"9785 Jefferson Davis Hwy","state":"VA","distance":437.094668963185},"type":"Feature","geometry":{"type":"Point","coordinates":[-77.505138,38.228942]}},{"properties":{"zip":"20619","city/state/zip":"California","store name":"Lexington Park","geo_score":0.798,"column_1":"Maryland","id":"320","geo_precision":"range","address":"45155 First Colony Way","state":"MD","distance":4.33804489799888},"type":"Feature","geometry":{"type":"Point","coordinates":[-76.519761,38.297146]}},{"properties":{"zip":"22401","city/state/zip":"Fredericksburg","store name":"Fredericksburg","geo_score":0.902,"column_1":"VIRGINIA","id":"273","geo_precision":"range","address":"1180 Carl D Silver Pkwy","state":"VA","distance":436.221544105866},"type":"Feature","geometry":{"type":"Point","coordinates":[-77.511781,38.299041]}},{"properties":{"zip":"25309","city/state/zip":"Charleston","store name":"Charleston","geo_score":0.415,"column_1":"WEST VIRGINIA","id":"251","geo_precision":"street","address":"30 Rhl Blvd","state":"WV","distance":143.811244000168},"type":"Feature","geometry":{"type":"Point","coordinates":[-81.654089,38.378498]}},{"properties":{"zip":"22406","city/state/zip":"Fredericksburg","store name":"Stafford South","geo_score":0.585,"column_1":"VIRGINIA","id":"275","geo_precision":"zip","address":"25 S Gateway Dr","state":"VA","distance":433.874274525935},"type":"Feature","geometry":{"type":"Point","coordinates":[-77.534708,38.414357]}},{"properties":{"zip":"21804","city/state/zip":"Salisbury","store name":"Salisbury","geo_score":0.745,"column_1":"Maryland","id":"341","geo_precision":"range","address":"125 E North Point Dr","state":"MD","distance":68.8552297600033},"type":"Feature","geometry":{"type":"Point","coordinates":[-75.563451,38.415462]}},{"properties":{"zip":"22801","city/state/zip":"Harrisonburg","store name":"Harrisonburg","geo_score":0.902,"column_1":"VIRGINIA","id":"281","geo_precision":"range","address":"1995 E Market St","state":"VA","distance":461.19225139434},"type":"Feature","geometry":{"type":"Point","coordinates":[-78.840096,38.426214]}},{"properties":{"zip":"25504","city/state/zip":"Barboursville","store name":"Barboursville","geo_score":0.39,"column_1":"WEST VIRGINIA","id":"249","geo_precision":"street","address":"2070 Thundering Herd Rd","state":"WV","distance":161.582919132064},"type":"Feature","geometry":{"type":"Point","coordinates":[-81.97684,38.446773]}},{"properties":{"zip":"22701","city/state/zip":"Culpeper","store name":"Culpeper","geo_score":0.876,"column_1":"VIRGINIA","id":"266","geo_precision":"range","address":"15341 Montanus Dr","state":"VA","distance":404.586586423374},"type":"Feature","geometry":{"type":"Point","coordinates":[-77.968967,38.481838]}},{"properties":{"zip":"20646","city/state/zip":"La Plata","store name":"LaPlata","geo_score":0.709,"column_1":"Maryland","id":"334","geo_precision":"street","address":"60 Shining Willow Way","state":"MD","distance":471.032805589623},"type":"Feature","geometry":{"type":"Point","coordinates":[-76.97729,38.543014]}},{"properties":{"zip":"20603","city/state/zip":"Waldorf","store name":"Waldorf","geo_score":0.61,"column_1":"Maryland","id":"344","geo_precision":"street","address":"3300 Western Pkwy","state":"MD","distance":475.253542508408},"type":"Feature","geometry":{"type":"Point","coordinates":[-76.902041,38.641887]}},{"properties":{"zip":"22192","city/state/zip":"Woodbridge","store name":"Potomac Mills","geo_score":0.902,"column_1":"VIRGINIA","id":"310","geo_precision":"range","address":"2460 Prince William Pkwy","state":"VA","distance":449.449879262863},"type":"Feature","geometry":{"type":"Point","coordinates":[-77.277835,38.656267]}},{"properties":{"zip":"19901","city/state/zip":"Dover","store name":"Dover","geo_score":0.61,"column_1":"DELEWARE","id":"183","geo_precision":"range","address":"148 John Hunn Brown Rd","state":"DE","distance":65.1273208841},"type":"Feature","geometry":{"type":"Point","coordinates":[-75.580078,38.657422]}},{"properties":{"zip":"20613","city/state/zip":"Brandywine","store name":"Brandywine","geo_score":0.844,"column_1":"Maryland","id":"319","geo_precision":"range","address":"15922 Crain Hwy SE","state":"MD","distance":476.758449857578},"type":"Feature","geometry":{"type":"Point","coordinates":[-76.876058,38.668887]}},{"properties":{"zip":"20109","city/state/zip":"Manassas","store name":"Manassas","geo_score":0.902,"column_1":"VIRGINIA","id":"284","geo_precision":"range","address":"8340 Sudley Rd","state":"VA","distance":432.887174661914},"type":"Feature","geometry":{"type":"Point","coordinates":[-77.503329,38.775115]}},{"properties":{"zip":"22306","city/state/zip":"Alexandria","store name":"Alexandria Hybla Valley","geo_score":0.902,"column_1":"VIRGINIA","id":"256","geo_precision":"range","address":"6600 Richmond Hwy","state":"VA","distance":461.699994075018},"type":"Feature","geometry":{"type":"Point","coordinates":[-77.08064,38.775459]}},{"properties":{"zip":"22150","city/state/zip":"Springfield","store name":"Springfield","geo_score":0.727,"column_1":"VIRGINIA","id":"298","geo_precision":"street","address":"6600 Springfield Mall","state":"VA","distance":454.615145389947},"type":"Feature","geometry":{"type":"Point","coordinates":[-77.184213,38.778022]}},{"properties":{"zip":"21601","city/state/zip":"Easton","store name":"Easton","geo_score":0.707,"column_1":"Maryland","id":"324","geo_precision":"street","address":"28539 Marlboro Ave","state":"MD","distance":29.472488874133},"type":"Feature","geometry":{"type":"Point","coordinates":[-76.083028,38.781435]}},{"properties":{"zip":"22032","city/state/zip":"Fairfax","store name":"Fairfax","geo_score":0.902,"column_1":"VIRGINIA","id":"270","geo_precision":"range","address":"10301 New Guinea Rd","state":"VA","distance":446.44632015918},"type":"Feature","geometry":{"type":"Point","coordinates":[-77.300715,38.799603]}},{"properties":{"zip":"20155","city/state/zip":"Gainesville","store name":"Gainesville SuperTarget","geo_score":0.493,"column_1":"VIRGINIA","id":"277","geo_precision":"street","address":"13301 Gateway Center Dr","state":"VA","distance":432.935891269432},"type":"Feature","geometry":{"type":"Point","coordinates":[-77.498424,38.802839]}},{"properties":{"zip":"22025","city/state/zip":"Dumfries","store name":"Dumfries","geo_score":0.464,"column_1":"VIRGINIA","id":"268","geo_precision":"street","address":"4310 Fortuna Center Plz","state":"VA","distance":450.302810227187},"type":"Feature","geometry":{"type":"Point","coordinates":[-77.242151,38.81203]}},{"properties":{"zip":"22305","city/state/zip":"Alexandria","store name":"Alexandria","geo_score":0.902,"column_1":"VIRGINIA","id":"255","geo_precision":"range","address":"3101 Jefferson Davis Hwy","state":"VA","distance":463.059215293887},"type":"Feature","geometry":{"type":"Point","coordinates":[-77.051347,38.833162]}},{"properties":{"zip":"22041","city/state/zip":"Falls Church","store name":"Skyline","geo_score":0.902,"column_1":"VIRGINIA","id":"272","geo_precision":"range","address":"5115 Leesburg Pike","state":"VA","distance":458.427700049806},"type":"Feature","geometry":{"type":"Point","coordinates":[-77.117323,38.845774]}},{"properties":{"zip":"20747","city/state/zip":"District Heights","store name":"Forestville","geo_score":0.902,"column_1":"Maryland","id":"323","geo_precision":"range","address":"3101 Donnell Dr","state":"MD","distance":474.188777120177},"type":"Feature","geometry":{"type":"Point","coordinates":[-76.88521,38.84798]}},{"properties":{"zip":"22033","city/state/zip":"Fairfax","store name":"Fair Lakes","geo_score":0.864,"column_1":"VIRGINIA","id":"269","geo_precision":"range","address":"13047 Fair Lakes Shopping Ctr","state":"VA","distance":439.430682336238},"type":"Feature","geometry":{"type":"Point","coordinates":[-77.394688,38.856358]}},{"properties":{"zip":"22044","city/state/zip":"Falls Church","store name":"Falls Church","geo_score":0.708,"column_1":"VIRGINIA","id":"271","geo_precision":"street","address":"6100 Arlington Blvd","state":"VA","distance":455.551185337336},"type":"Feature","geometry":{"type":"Point","coordinates":[-77.155209,38.872073]}},{"properties":{"zip":"20151","city/state/zip":"Chantilly","store name":"Chantilly","geo_score":0.488,"column_1":"VIRGINIA","id":"258","geo_precision":"street","address":"14391 Chantilly Crossing Ln","state":"VA","distance":435.699214076737},"type":"Feature","geometry":{"type":"Point","coordinates":[-77.444415,38.887574]}},{"properties":{"zip":"20774","city/state/zip":"Largo","store name":"Largo","geo_score":0.902,"column_1":"Maryland","id":"335","geo_precision":"range","address":"10500 Campus Way S","state":"MD","distance":477.85374649727},"type":"Feature","geometry":{"type":"Point","coordinates":[-76.822864,38.895886]}},{"properties":{"zip":"20010","city/state/zip":"Washington","store name":"Columbia Heights","geo_score":0.829,"column_1":"D.C.","id":"347","geo_precision":"range","address":"3100 14th St NW","state":"DC","distance":463.213229671733},"type":"Feature","geometry":{"type":"Point","coordinates":[-77.032612,38.928805]}},{"properties":{"zip":"20716","city/state/zip":"Bowie","store name":"Bowie","geo_score":0.902,"column_1":"Maryland","id":"317","geo_precision":"range","address":"4600 Mitchellville Rd","state":"MD","distance":484.109963571291},"type":"Feature","geometry":{"type":"Point","coordinates":[-76.720444,38.951175]}},{"properties":{"zip":"20190","city/state/zip":"Reston","store name":"Reston","geo_score":0.902,"column_1":"VIRGINIA","id":"291","geo_precision":"range","address":"12197 Sunset Hills Rd","state":"VA","distance":440.101200599616},"type":"Feature","geometry":{"type":"Point","coordinates":[-77.368261,38.954996]}},{"properties":{"zip":"20720","city/state/zip":"Bowie","store name":"Lanham","geo_score":0.708,"column_1":"Maryland","id":"318","geo_precision":"street","address":"10401 Martin Luther King Jr Hwy","state":"MD","distance":477.011937491497},"type":"Feature","geometry":{"type":"Point","coordinates":[-76.824266,38.955942]}},{"properties":{"zip":"20109","city/state/zip":"Manassas","store name":"Manassas West SuperTarget","geo_score":0.527,"column_1":"VIRGINIA","id":"285","geo_precision":"range","address":"9900 Sowder Village Sq","state":"VA","distance":441.572011065695},"type":"Feature","geometry":{"type":"Point","coordinates":[-77.343906,38.970389]}},{"properties":{"zip":"21401","city/state/zip":"Annapolis","store name":"Annapolis","geo_score":0.512,"column_1":"Maryland","id":"313","geo_precision":"street","address":"1911 Towne Centre Blvd","state":"MD","distance":496.335138495142},"type":"Feature","geometry":{"type":"Point","coordinates":[-76.535189,38.975594]}},{"properties":{"zip":"22630","city/state/zip":"Front Royal","store name":"Front Royal","geo_score":0.835,"column_1":"VIRGINIA","id":"276","geo_precision":"range","address":"10 Crooked Run Plaza","state":"VA","distance":407.119936924864},"type":"Feature","geometry":{"type":"Point","coordinates":[-78.195154,38.976763]}},{"properties":{"zip":"20770","city/state/zip":"Greenbelt","store name":"Greenbelt","geo_score":0.902,"column_1":"Maryland","id":"331","geo_precision":"range","address":"6100 Greenbelt Rd","state":"MD","distance":470.687751342464},"type":"Feature","geometry":{"type":"Point","coordinates":[-76.909701,38.997637]}},{"properties":{"zip":"20166","city/state/zip":"Sterling","store name":"Sterling West","geo_score":0.902,"column_1":"VIRGINIA","id":"301","geo_precision":"range","address":"45130 Columbia PL","state":"VA","distance":434.686056876231},"type":"Feature","geometry":{"type":"Point","coordinates":[-77.438679,39.007635]}},{"properties":{"zip":"20164","city/state/zip":"Sterling","store name":"Sterling","geo_score":0.902,"column_1":"VIRGINIA","id":"300","geo_precision":"range","address":"46201 Potomac Run Plz","state":"VA","distance":437.009329577947},"type":"Feature","geometry":{"type":"Point","coordinates":[-77.40093,39.027061]}},{"properties":{"zip":"20902","city/state/zip":"Wheaton","store name":"Wheaton","geo_score":0.902,"column_1":"Maryland","id":"346","geo_precision":"range","address":"11160 Veirs Mill Rd","state":"MD","distance":460.302537433349},"type":"Feature","geometry":{"type":"Point","coordinates":[-77.054941,39.039753]}},{"properties":{"zip":"20904","city/state/zip":"Silver Spring","store name":"Silver Spring","geo_score":0.902,"column_1":"Maryland","id":"342","geo_precision":"range","address":"12000 Cherry Hill Rd","state":"MD","distance":466.948705769536},"type":"Feature","geometry":{"type":"Point","coordinates":[-76.953819,39.054893]}},{"properties":{"zip":"20852","city/state/zip":"Rockville","store name":"Rockville","geo_score":0.902,"column_1":"Maryland","id":"340","geo_precision":"range","address":"5700 Bou Ave","state":"MD","distance":455.881122041983},"type":"Feature","geometry":{"type":"Point","coordinates":[-77.116828,39.057373]}},{"properties":{"zip":"20724","city/state/zip":"Laurel","store name":"Laurel","geo_score":0.902,"column_1":"Maryland","id":"336","geo_precision":"range","address":"3343 Corridor Marketplace","state":"MD","distance":476.334403828884},"type":"Feature","geometry":{"type":"Point","coordinates":[-76.80648,39.097063]}},{"properties":{"zip":"26330","city/state/zip":"Bridgeport","store name":"Bridgeport","geo_score":0.356,"column_1":"WEST VIRGINIA","id":"250","geo_precision":"street","address":"2800 Meadowbrook Mall","state":"WV","distance":48.8871509379306},"type":"Feature","geometry":{"type":"Point","coordinates":[-80.474468,39.098425]}},{"properties":{"zip":"20878","city/state/zip":"Gaithersburg","store name":"Gaithersburg","geo_score":0.902,"column_1":"Maryland","id":"327","geo_precision":"range","address":"25 Grand Corner Ave","state":"MD","distance":450.050685087866},"type":"Feature","geometry":{"type":"Point","coordinates":[-77.192357,39.11155]}},{"properties":{"zip":"20176","city/state/zip":"Leesburg","store name":"Leesburg SuperTarget","geo_score":0.768,"column_1":"VIRGINIA","id":"282","geo_precision":"street","address":"1200 Edwards Ferry Rd","state":"VA","distance":426.500097714841},"type":"Feature","geometry":{"type":"Point","coordinates":[-77.539776,39.113673]}},{"properties":{"zip":"21061","city/state/zip":"Glen Burnie","store name":"Glen Burnie","geo_score":0.902,"column_1":"Maryland","id":"329","geo_precision":"range","address":"7951 Nolpark Ct","state":"MD","distance":487.343055200466},"type":"Feature","geometry":{"type":"Point","coordinates":[-76.635488,39.134131]}},{"properties":{"zip":"22601","city/state/zip":"Winchester","store name":"Winchester","geo_score":0.902,"column_1":"VIRGINIA","id":"308","geo_precision":"range","address":"2340 Legge Blvd","state":"VA","distance":401.467070253571},"type":"Feature","geometry":{"type":"Point","coordinates":[-78.17161,39.154024]}},{"properties":{"zip":"22603","city/state/zip":"Winchester","store name":"Winchester North","geo_score":0.482,"column_1":"VIRGINIA","id":"309","geo_precision":"street","address":"191 Market St","state":"VA","distance":399.657610600492},"type":"Feature","geometry":{"type":"Point","coordinates":[-78.147798,39.165276]}},{"properties":{"zip":"21045","city/state/zip":"Columbia","store name":"Columbia","geo_score":0.902,"column_1":"Maryland","id":"322","geo_precision":"range","address":"6111 Dobbin Rd","state":"MD","distance":474.700484131333},"type":"Feature","geometry":{"type":"Point","coordinates":[-76.809589,39.196041]}},{"properties":{"zip":"21061","city/state/zip":"Glen Burnie","store name":"Glen Burnie North","geo_score":0.62,"column_1":"Maryland","id":"330","geo_precision":"street","address":"6717 Ritchie Hwy","state":"MD","distance":486.378337180751},"type":"Feature","geometry":{"type":"Point","coordinates":[-76.635378,39.199398]}},{"properties":{"zip":"20876","city/state/zip":"Germantown","store name":"Germantown","geo_score":0.902,"column_1":"Maryland","id":"328","geo_precision":"range","address":"20908 Frederick Rd","state":"MD","distance":445.25941531391},"type":"Feature","geometry":{"type":"Point","coordinates":[-77.245241,39.200098]}},{"properties":{"zip":"21043","city/state/zip":"Ellicott City","store name":"Ellicott City","geo_score":0.902,"column_1":"Maryland","id":"325","geo_precision":"range","address":"4390 Montgomery Rd","state":"MD","distance":473.70981367496},"type":"Feature","geometry":{"type":"Point","coordinates":[-76.812225,39.250093]}},{"properties":{"zip":"21215","city/state/zip":"Baltimore","store name":"Baltimore West","geo_score":0.78,"column_1":"Maryland","id":"314","geo_precision":"range","address":"3201 Tioga Pkwy","state":"MD","distance":482.969371844422},"type":"Feature","geometry":{"type":"Point","coordinates":[-76.65841,39.318145]}},{"properties":{"zip":"21220","city/state/zip":"Middle River","store name":"Middle River","geo_score":0.902,"column_1":"Maryland","id":"337","geo_precision":"range","address":"1330 Martin Blvd","state":"MD","distance":496.847774633258},"type":"Feature","geometry":{"type":"Point","coordinates":[-76.447466,39.333329]}},{"properties":{"zip":"21236","city/state/zip":"Baltimore","store name":"White Marsh","geo_score":0.902,"column_1":"Maryland","id":"315","geo_precision":"range","address":"5230 Campbell Blvd","state":"MD","distance":495.772115745394},"type":"Feature","geometry":{"type":"Point","coordinates":[-76.454289,39.369939]}},{"properties":{"zip":"21704","city/state/zip":"Frederick","store name":"Frederick","geo_score":0.902,"column_1":"Maryland","id":"326","geo_precision":"range","address":"5437 Urbana Pike","state":"MD","distance":432.214783021162},"type":"Feature","geometry":{"type":"Point","coordinates":[-77.399526,39.380596]}},{"properties":{"zip":"21208","city/state/zip":"Pikesville","store name":"Pikesville","geo_score":0.902,"column_1":"Maryland","id":"339","geo_precision":"range","address":"1737 Reisterstown Rd","state":"MD","distance":476.924396165458},"type":"Feature","geometry":{"type":"Point","coordinates":[-76.73266,39.383488]}},{"properties":{"zip":"21286","city/state/zip":"Towson","store name":"Towson","geo_score":0.902,"column_1":"Maryland","id":"343","geo_precision":"range","address":"1238 Putty Hill Ave","state":"MD","distance":486.592898871468},"type":"Feature","geometry":{"type":"Point","coordinates":[-76.585777,39.392897]}},{"properties":{"zip":"08332","city/state/zip":"Millville","store name":"Millville","geo_score":0.805,"column_1":"NEW JERSEY","id":"164","geo_precision":"range","address":"2100 N 2nd St","state":"NJ","distance":88.5549704188574},"type":"Feature","geometry":{"type":"Point","coordinates":[-75.039294,39.419971]}},{"properties":{"zip":"21117","city/state/zip":"Owings Mills","store name":"Owings Mills","geo_score":0.902,"column_1":"Maryland","id":"338","geo_precision":"range","address":"11200 Reisterstown Rd","state":"MD","distance":471.639588239034},"type":"Feature","geometry":{"type":"Point","coordinates":[-76.798846,39.434661]}},{"properties":{"zip":"21782","city/state/zip":"Hyattsville","store name":"Prince Georges Plaza","geo_score":0.39,"column_1":"Maryland","id":"333","geo_precision":"street","address":"3500 East West Hwy Ste 1200","state":"MD","distance":427.980527079037},"type":"Feature","geometry":{"type":"Point","coordinates":[-77.44686,39.448609]}},{"properties":{"zip":"21030","city/state/zip":"Cockeysville","store name":"Timonium","geo_score":0.902,"column_1":"Maryland","id":"321","geo_precision":"range","address":"9901 York Rd","state":"MD","distance":482.145090611392},"type":"Feature","geometry":{"type":"Point","coordinates":[-76.634875,39.460758]}},{"properties":{"zip":"21009","city/state/zip":"Abingdon","store name":"Abingdon","geo_score":0.902,"column_1":"Maryland","id":"312","geo_precision":"range","address":"403 Constant Friendship Blvd","state":"MD","distance":3.29796661299605},"type":"Feature","geometry":{"type":"Point","coordinates":[-76.317039,39.462074]}},{"properties":{"zip":"08330","city/state/zip":"Mays Landing","store name":"Mays Landing","geo_score":0.585,"column_1":"NEW JERSEY","id":"161","geo_precision":"zip","address":"380 Consumer Sq","state":"NJ","distance":103.405185385325},"type":"Feature","geometry":{"type":"Point","coordinates":[-74.778776,39.515117]}},{"properties":{"zip":"21001","city/state/zip":"Aberdeen","store name":"Aberdeen","geo_score":0.902,"column_1":"Maryland","id":"311","geo_precision":"range","address":"1025 Middleton Rd","state":"MD","distance":11.3236901793326},"type":"Feature","geometry":{"type":"Point","coordinates":[-76.179727,39.520641]}},{"properties":{"zip":"21014","city/state/zip":"Bel Air","store name":"Bel Air","geo_score":0.902,"column_1":"Maryland","id":"316","geo_precision":"range","address":"580 Marketplace Dr","state":"MD","distance":0.00959171617728316},"type":"Feature","geometry":{"type":"Point","coordinates":[-76.348896,39.525529]}},{"properties":{"zip":"21157","city/state/zip":"Westminster","store name":"Westminster","geo_score":0.902,"column_1":"Maryland","id":"345","geo_precision":"range","address":"200 Malcolm Dr","state":"MD","distance":457.721464103514},"type":"Feature","geometry":{"type":"Point","coordinates":[-76.973599,39.565056]}},{"properties":{"zip":"21740","city/state/zip":"Hagerstown","store name":"Hagerstown","geo_score":0.902,"column_1":"Maryland","id":"332","geo_precision":"range","address":"17213 Cole Rd","state":"MD","distance":403.422067553739},"type":"Feature","geometry":{"type":"Point","coordinates":[-77.77192,39.620072]}},{"properties":{"zip":"26501","city/state/zip":"Morgantown","store name":"Morgantown","geo_score":0.457,"column_1":"WEST VIRGINIA","id":"253","geo_precision":"street","address":"5001 University Towne Center Dr","state":"WV","distance":0.591090180480421},"type":"Feature","geometry":{"type":"Point","coordinates":[-79.960736,39.626571]}},{"properties":{"zip":"19702","city/state/zip":"Newark","store name":"Christiana","geo_score":0.629,"column_1":"DELEWARE","id":"184","geo_precision":"street","address":"800 Christiana Mall","state":"DE","distance":41.5874268082136},"type":"Feature","geometry":{"type":"Point","coordinates":[-75.673689,39.67037]}},{"properties":{"zip":"08050","city/state/zip":"Manahawkin","store name":"Stafford Township","geo_score":0.605,"column_1":"NEW JERSEY","id":"159","geo_precision":"street","address":"209 Stafford Park Blvd","state":"NJ","distance":133.160011770593},"type":"Feature","geometry":{"type":"Point","coordinates":[-74.242824,39.694607]}},{"properties":{"zip":"08012","city/state/zip":"Turnersville","store name":"Turnersville","geo_score":0.902,"column_1":"NEW JERSEY","id":"178","geo_precision":"range","address":"4001 Black Horse Pike","state":"NJ","distance":81.0218004781085},"type":"Feature","geometry":{"type":"Point","coordinates":[-75.041852,39.738436]}},{"properties":{"zip":"08081","city/state/zip":"Sicklerville","store name":"Gloucester Township","geo_score":0.708,"column_1":"NEW JERSEY","id":"175","geo_precision":"street","address":"487 Cross Keys Rd","state":"NJ","distance":81.4130670321215},"type":"Feature","geometry":{"type":"Point","coordinates":[-75.034007,39.743027]}},{"properties":{"zip":"08080","city/state/zip":"Sewell","store name":"Mantua","geo_score":0.902,"column_1":"NEW JERSEY","id":"174","geo_precision":"range","address":"675 Woodbury Glassboro Rd","state":"NJ","distance":74.2874175776673},"type":"Feature","geometry":{"type":"Point","coordinates":[-75.134591,39.769296]}},{"properties":{"zip":"19803","city/state/zip":"Wilmington","store name":"Brandywine","geo_score":0.624,"column_1":"DELEWARE","id":"185","geo_precision":"street","address":"1050 Brandywine Pkwy","state":"DE","distance":47.1513983718884},"type":"Feature","geometry":{"type":"Point","coordinates":[-75.540431,39.807183]}},{"properties":{"zip":"17331","city/state/zip":"Hanover","store name":"Hanover","geo_score":0.708,"column_1":"PENNSYLVANIA","id":"204","geo_precision":"street","address":"31 WILSON AVE","state":"PA","distance":451.871853043386},"type":"Feature","geometry":{"type":"Point","coordinates":[-76.988665,39.825354]}},{"properties":{"zip":"26059","city/state/zip":"Triadelphia","store name":"Wheeling","geo_score":0.428,"column_1":"WEST VIRGINIA","id":"254","geo_precision":"street","address":"300 Cabela Dr","state":"WV","distance":30.2783583891645},"type":"Feature","geometry":{"type":"Point","coordinates":[-80.555923,39.827006]}},{"properties":{"zip":"08096","city/state/zip":"Deptford","store name":"Deptford","geo_score":0.902,"column_1":"NEW JERSEY","id":"147","geo_precision":"range","address":"1900 Deptford Center Rd","state":"NJ","distance":75.4940207601196},"type":"Feature","geometry":{"type":"Point","coordinates":[-75.092687,39.828615]}},{"properties":{"zip":"08043","city/state/zip":"Voorhees","store name":"Voorhees","geo_score":0.902,"column_1":"NEW JERSEY","id":"181","geo_precision":"range","address":"1139 White Horse Rd","state":"NJ","distance":81.7737674411304},"type":"Feature","geometry":{"type":"Point","coordinates":[-74.985403,39.851351]}},{"properties":{"zip":"08053","city/state/zip":"Evesham","store name":"Marlton","geo_score":0.727,"column_1":"NEW JERSEY","id":"152","geo_precision":"range","address":"751 Route 73 S","state":"NJ","distance":85.3986456937411},"type":"Feature","geometry":{"type":"Point","coordinates":[-74.921923,39.867474]}},{"properties":{"zip":"15401","city/state/zip":"Uniontown","store name":"South Union Twp","geo_score":0.902,"column_1":"PENNSYLVANIA","id":"241","geo_precision":"range","address":"120 Matthew Dr","state":"PA","distance":478.95070106478},"type":"Feature","geometry":{"type":"Point","coordinates":[-79.754693,39.906678]}},{"properties":{"zip":"19064","city/state/zip":"Springfield","store name":"Springfield West","geo_score":0.902,"column_1":"PENNSYLVANIA","id":"237","geo_precision":"range","address":"1200 Baltimore Pike","state":"PA","distance":56.8688095141155},"type":"Feature","geometry":{"type":"Point","coordinates":[-75.349513,39.913469]}},{"properties":{"zip":"19064","city/state/zip":"Springfield","store name":"Springfield","geo_score":0.902,"column_1":"PENNSYLVANIA","id":"236","geo_precision":"range","address":"857 Baltimore Pike","state":"PA","distance":57.5781752248878},"type":"Feature","geometry":{"type":"Point","coordinates":[-75.337647,39.915526]}},{"properties":{"zip":"19148","city/state/zip":"Philadelphia","store name":"Philadelphia SE","geo_score":0.902,"column_1":"PENNSYLVANIA","id":"223","geo_precision":"range","address":"1 Mifflin St","state":"PA","distance":69.6579946695236},"type":"Feature","geometry":{"type":"Point","coordinates":[-75.145603,39.923693]}},{"properties":{"zip":"19342","city/state/zip":"Glen Mills","store name":"Concord Township","geo_score":0.585,"column_1":"PENNSYLVANIA","id":"202","geo_precision":"zip","address":"600 Hatton Dr","state":"PA","distance":46.3470858667429},"type":"Feature","geometry":{"type":"Point","coordinates":[-75.506869,39.929832]}},{"properties":{"zip":"08002","city/state/zip":"Cherry Hill","store name":"Cherry Hill","geo_score":0.756,"column_1":"NEW JERSEY","id":"143","geo_precision":"range","address":"2137 Route 38","state":"NJ","distance":77.0501110282057},"type":"Feature","geometry":{"type":"Point","coordinates":[-75.023231,39.938947]}},{"properties":{"zip":"17201","city/state/zip":"Chambersburg","store name":"Chambersburg","geo_score":0.709,"column_1":"PENNSYLVANIA","id":"193","geo_precision":"street","address":"913 Norland Ave","state":"PA","distance":406.513714926895},"type":"Feature","geometry":{"type":"Point","coordinates":[-77.639254,39.943681]}},{"properties":{"zip":"08054","city/state/zip":"Mount Laurel","store name":"Mount Laurel","geo_score":0.78,"column_1":"NEW JERSEY","id":"166","geo_precision":"range","address":"4 Centerton Rd","state":"NJ","distance":85.8869777484698},"type":"Feature","geometry":{"type":"Point","coordinates":[-74.873643,39.962714]}},{"properties":{"zip":"17602","city/state/zip":"Lancaster","store name":"Lancaster East","geo_score":0.488,"column_1":"PENNSYLVANIA","id":"208","geo_precision":"street","address":"2385 Covered Bridge Dr","state":"PA","distance":498.613614428214},"type":"Feature","geometry":{"type":"Point","coordinates":[-76.226552,39.978606]}},{"properties":{"zip":"08753","city/state/zip":"Toms River","store name":"Toms River","geo_score":0.902,"column_1":"NEW JERSEY","id":"177","geo_precision":"range","address":"1331 Hooper Ave","state":"NJ","distance":128.604384679372},"type":"Feature","geometry":{"type":"Point","coordinates":[-74.177661,39.987804]}},{"properties":{"zip":"19134","city/state/zip":"Philadelphia","store name":"Phila-Bridesburg","geo_score":0.902,"column_1":"PENNSYLVANIA","id":"220","geo_precision":"range","address":"2701 Castor Ave","state":"PA","distance":71.3815743706422},"type":"Feature","geometry":{"type":"Point","coordinates":[-75.090735,39.990328]}},{"properties":{"zip":"17402","city/state/zip":"York","store name":"York Galleria","geo_score":0.902,"column_1":"PENNSYLVANIA","id":"247","geo_precision":"range","address":"2610 Pleasant Valley Rd","state":"PA","distance":468.99130557327},"type":"Feature","geometry":{"type":"Point","coordinates":[-76.676301,39.990979]}},{"properties":{"zip":"19355","city/state/zip":"Malvern","store name":"Malvern","geo_score":0.585,"column_1":"PENNSYLVANIA","id":"211","geo_precision":"zip","address":"455 Carnegie Blvd","state":"PA","distance":44.5140418756447},"type":"Feature","geometry":{"type":"Point","coordinates":[-75.507982,39.999831]}},{"properties":{"zip":"19131","city/state/zip":"Philadelphia","store name":"Philadelphia West","geo_score":0.902,"column_1":"PENNSYLVANIA","id":"224","geo_precision":"range","address":"4000 Monument Rd","state":"PA","distance":63.1763092085924},"type":"Feature","geometry":{"type":"Point","coordinates":[-75.214948,40.001912]}},{"properties":{"zip":"08075","city/state/zip":"Delran","store name":"Delran","geo_score":0.683,"column_1":"NEW JERSEY","id":"146","geo_precision":"range","address":"4004 Rte 130 N","state":"NJ","distance":78.9819101277841},"type":"Feature","geometry":{"type":"Point","coordinates":[-74.961165,40.012433]}},{"properties":{"zip":"08016","city/state/zip":"Burlington","store name":"Burlington","geo_score":0.735,"column_1":"NEW JERSEY","id":"142","geo_precision":"range","address":"2703 Route 541","state":"NJ","distance":86.8798350746613},"type":"Feature","geometry":{"type":"Point","coordinates":[-74.825394,40.035691]}},{"properties":{"zip":"19341","city/state/zip":"Exton","store name":"Exton","geo_score":0.902,"column_1":"PENNSYLVANIA","id":"199","geo_precision":"range","address":"201 Sunrise Blvd","state":"PA","distance":35.8150773800369},"type":"Feature","geometry":{"type":"Point","coordinates":[-75.628477,40.038122]}},{"properties":{"zip":"19152","city/state/zip":"Philadelphia","store name":"Phila-Cottman","geo_score":0.902,"column_1":"PENNSYLVANIA","id":"221","geo_precision":"range","address":"7400 Bustleton Ave","state":"PA","distance":71.8216816811652},"type":"Feature","geometry":{"type":"Point","coordinates":[-75.058105,40.049866]}},{"properties":{"zip":"19341","city/state/zip":"Exton","store name":"Uwchlan Township","geo_score":0.902,"column_1":"PENNSYLVANIA","id":"200","geo_precision":"range","address":"180 Eagleview Blvd","state":"PA","distance":33.0735183184985},"type":"Feature","geometry":{"type":"Point","coordinates":[-75.664402,40.05536]}},{"properties":{"zip":"08723","city/state/zip":"Brick","store name":"Brick","geo_score":0.756,"column_1":"NEW JERSEY","id":"140","geo_precision":"range","address":"570 Route 70","state":"NJ","distance":128.015909905326},"type":"Feature","geometry":{"type":"Point","coordinates":[-74.151666,40.057082]}},{"properties":{"zip":"19150","city/state/zip":"Philadelphia","store name":"Cheltenham","geo_score":0.585,"column_1":"PENNSYLVANIA","id":"219","geo_precision":"zip","address":"2450 Shoppers Ln","state":"PA","distance":64.0506218207503},"type":"Feature","geometry":{"type":"Point","coordinates":[-75.17122,40.07231]}},{"properties":{"zip":"19116","city/state/zip":"Philadelphia","store name":"Philadelphia NE","geo_score":0.834,"column_1":"PENNSYLVANIA","id":"222","geo_precision":"range","address":"11000 Roosevelt Blvd Ste 3","state":"PA","distance":73.5300486617162},"type":"Feature","geometry":{"type":"Point","coordinates":[-75.008641,40.100211]}},{"properties":{"zip":"19462","city/state/zip":"Plymouth Meeting","store name":"Plymouth Meeting","geo_score":0.711,"column_1":"PENNSYLVANIA","id":"230","geo_precision":"street","address":"2250 Chemical Rd","state":"PA","distance":56.1676090296065},"type":"Feature","geometry":{"type":"Point","coordinates":[-75.281477,40.10528]}},{"properties":{"zip":"19001","city/state/zip":"Abington","store name":"Abington Township","geo_score":0.902,"column_1":"PENNSYLVANIA","id":"186","geo_precision":"range","address":"1495 Old York Rd","state":"PA","distance":66.0066170029403},"type":"Feature","geometry":{"type":"Point","coordinates":[-75.117288,40.124512]}},{"properties":{"zip":"07731","city/state/zip":"Howell","store name":"Howell Township","geo_score":0.902,"column_1":"NEW JERSEY","id":"156","geo_precision":"range","address":"4955 US Highway 9","state":"NJ","distance":121.275528843819},"type":"Feature","geometry":{"type":"Point","coordinates":[-74.223392,40.130643]}},{"properties":{"zip":"17543","city/state/zip":"Lititz","store name":"Warwick Township","geo_score":0.902,"column_1":"PENNSYLVANIA","id":"210","geo_precision":"range","address":"960 Lititz Pike","state":"PA","distance":489.962525138777},"type":"Feature","geometry":{"type":"Point","coordinates":[-76.30415,40.132756]}},{"properties":{"zip":"19020","city/state/zip":"Bensalem","store name":"Neshaminy","geo_score":0.902,"column_1":"PENNSYLVANIA","id":"190","geo_precision":"range","address":"800 Rock Hill Dr","state":"PA","distance":75.731234312784},"type":"Feature","geometry":{"type":"Point","coordinates":[-74.957001,40.136548]}},{"properties":{"zip":"19047","city/state/zip":"Langhorne","store name":"Oxford Valley","geo_score":0.707,"column_1":"PENNSYLVANIA","id":"209","geo_precision":"street","address":"2331 E Lincoln Hwy","state":"PA","distance":78.4301323188224},"type":"Feature","geometry":{"type":"Point","coordinates":[-74.900229,40.165713]}},{"properties":{"zip":"15301","city/state/zip":"Washington","store name":"Washington","geo_score":0.708,"column_1":"PENNSYLVANIA","id":"243","geo_precision":"street","address":"335 Washington Rd","state":"PA","distance":5.36970848404684},"type":"Feature","geometry":{"type":"Point","coordinates":[-80.231028,40.18228]}},{"properties":{"zip":"17013","city/state/zip":"Carlisle","store name":"Carlisle","geo_score":0.709,"column_1":"PENNSYLVANIA","id":"192","geo_precision":"street","address":"246 Westminster Dr","state":"PA","distance":432.902700145972},"type":"Feature","geometry":{"type":"Point","coordinates":[-77.16129,40.190431]}},{"properties":{"zip":"19468","city/state/zip":"Royersford","store name":"Upper Providence N","geo_score":0.902,"column_1":"PENNSYLVANIA","id":"234","geo_precision":"range","address":"1824 E Ridge Pike","state":"PA","distance":39.5296902145577},"type":"Feature","geometry":{"type":"Point","coordinates":[-75.49738,40.213779]}},{"properties":{"zip":"18976","city/state/zip":"Warrington","store name":"Warrington","geo_score":0.902,"column_1":"PENNSYLVANIA","id":"242","geo_precision":"range","address":"401 Easton Rd","state":"PA","distance":61.7529960043398},"type":"Feature","geometry":{"type":"Point","coordinates":[-75.139995,40.223681]}},{"properties":{"zip":"07712","city/state/zip":"Ocean","store name":"Ocean Township","geo_score":0.71,"column_1":"NEW JERSEY","id":"168","geo_precision":"street","address":"2331 State Rte 66","state":"NJ","distance":128.376669385727},"type":"Feature","geometry":{"type":"Point","coordinates":[-74.051886,40.228913]}},{"properties":{"zip":"19456","city/state/zip":"Oaks","store name":"Upper Providence","geo_score":0.393,"column_1":"PENNSYLVANIA","id":"218","geo_precision":"street","address":"PO Box 985","state":"PA","distance":57.6391412527861},"type":"Feature","geometry":{"type":"Point","coordinates":[-75.199013,40.238119]}},{"properties":{"zip":"19454","city/state/zip":"North Wales","store name":"Montgomeryville","geo_score":0.585,"column_1":"PENNSYLVANIA","id":"217","geo_precision":"zip","address":"125 Witchwood Dr","state":"PA","distance":57.8855899832953},"type":"Feature","geometry":{"type":"Point","coordinates":[-75.192118,40.244552]}},{"properties":{"zip":"17050","city/state/zip":"Mechanicsburg","store name":"Mechanicsburg","geo_score":0.902,"column_1":"PENNSYLVANIA","id":"212","geo_precision":"range","address":"6416 Carlisle Pike","state":"PA","distance":441.721594073298},"type":"Feature","geometry":{"type":"Point","coordinates":[-77.006656,40.246679]}},{"properties":{"zip":"19464","city/state/zip":"Pottstown","store name":"West Pottsgrove Twp","geo_score":0.62,"column_1":"PENNSYLVANIA","id":"231","geo_precision":"street","address":"100 Upland Square Dr","state":"PA","distance":28.1642996471901},"type":"Feature","geometry":{"type":"Point","coordinates":[-75.657417,40.258798]}},{"properties":{"zip":"08520","city/state/zip":"East Windsor","store name":"East Windsor","geo_score":0.902,"column_1":"NEW JERSEY","id":"149","geo_precision":"range","address":"70 Princeton Hightstown Rd","state":"NJ","distance":97.103778923346},"type":"Feature","geometry":{"type":"Point","coordinates":[-74.54322,40.275468]}},{"properties":{"zip":"17111","city/state/zip":"Harrisburg","store name":"Harrisburg East","geo_score":0.499,"column_1":"PENNSYLVANIA","id":"205","geo_precision":"street","address":"4600 High Pointe Blvd","state":"PA","distance":454.688105463605},"type":"Feature","geometry":{"type":"Point","coordinates":[-76.794238,40.281928]}},{"properties":{"zip":"07726","city/state/zip":"Manalapan","store name":"Manalapan","geo_score":0.902,"column_1":"NEW JERSEY","id":"160","geo_precision":"range","address":"55 US Hwy 9","state":"NJ","distance":111.368414999357},"type":"Feature","geometry":{"type":"Point","coordinates":[-74.29851,40.293443]}},{"properties":{"zip":"08540","city/state/zip":"Princeton","store name":"Princeton","geo_score":0.902,"column_1":"NEW JERSEY","id":"171","geo_precision":"range","address":"500 Nassau Park Blvd","state":"NJ","distance":87.8645269729964},"type":"Feature","geometry":{"type":"Point","coordinates":[-74.679166,40.304451]}},{"properties":{"zip":"15601","city/state/zip":"Greensburg","store name":"Greensburg","geo_score":0.902,"column_1":"PENNSYLVANIA","id":"203","geo_precision":"range","address":"6206 State Rte 30","state":"PA","distance":475.323189102832},"type":"Feature","geometry":{"type":"Point","coordinates":[-79.587594,40.305024]}},{"properties":{"zip":"19606","city/state/zip":"Reading","store name":"Exeter Township","geo_score":0.902,"column_1":"PENNSYLVANIA","id":"233","geo_precision":"range","address":"4599 Perkiomen Ave","state":"PA","distance":14.0086080511319},"type":"Feature","geometry":{"type":"Point","coordinates":[-75.860395,40.306012]}},{"properties":{"zip":"17112","city/state/zip":"Harrisburg","store name":"Harrisburg North","geo_score":0.799,"column_1":"PENNSYLVANIA","id":"206","geo_precision":"range","address":"5125 Jonestown Rd Ste 331","state":"PA","distance":453.574676076112},"type":"Feature","geometry":{"type":"Point","coordinates":[-76.799947,40.313114]}},{"properties":{"zip":"15642","city/state/zip":"North Huntingdon","store name":"North Huntingdon","geo_score":0.604,"column_1":"PENNSYLVANIA","id":"216","geo_precision":"street","address":"8931 Rte 30","state":"PA","distance":481.333832535223},"type":"Feature","geometry":{"type":"Point","coordinates":[-79.684296,40.319938]}},{"properties":{"zip":"15236","city/state/zip":"West Mifflin","store name":"West Mifflin","geo_score":0.902,"column_1":"PENNSYLVANIA","id":"244","geo_precision":"range","address":"1717 Lebanon Church Rd","state":"PA","distance":497.229233622971},"type":"Feature","geometry":{"type":"Point","coordinates":[-79.950277,40.34794]}},{"properties":{"zip":"19610","city/state/zip":"Wyomissing","store name":"Spring Township","geo_score":0.713,"column_1":"PENNSYLVANIA","id":"246","geo_precision":"street","address":"2769 Papermill Rd","state":"PA","distance":5.09826169730331},"type":"Feature","geometry":{"type":"Point","coordinates":[-75.980687,40.35324]}},{"properties":{"zip":"08852","city/state/zip":"Monmouth Junction","store name":"South Brunswick","geo_score":0.902,"column_1":"NEW JERSEY","id":"165","geo_precision":"range","address":"4196 US Hwy 1","state":"NJ","distance":91.6947256904921},"type":"Feature","geometry":{"type":"Point","coordinates":[-74.574519,40.383371]}},{"properties":{"zip":"19560","city/state/zip":"Temple","store name":"Muhlenberg Township","geo_score":0.767,"column_1":"PENNSYLVANIA","id":"240","geo_precision":"range","address":"4220 N 5th Street Hwy","state":"PA","distance":7.27648962171145},"type":"Feature","geometry":{"type":"Point","coordinates":[-75.927504,40.397283]}},{"properties":{"zip":"15120","city/state/zip":"Homestead","store name":"Waterfront","geo_score":0.61,"column_1":"PENNSYLVANIA","id":"207","geo_precision":"street","address":"360 Waterfront Dr E","state":"PA","distance":496.341944514142},"type":"Feature","geometry":{"type":"Point","coordinates":[-79.88984,40.407491]}},{"properties":{"zip":"07748","city/state/zip":"Middletown","store name":"Middletown","geo_score":0.565,"column_1":"NEW JERSEY","id":"162","geo_precision":"street","address":"2105 Route 35","state":"NJ","distance":117.150264255369},"type":"Feature","geometry":{"type":"Point","coordinates":[-74.134183,40.410692]}},{"properties":{"zip":"18951","city/state/zip":"Quakertown","store name":"Richland Twp","geo_score":0.675,"column_1":"PENNSYLVANIA","id":"232","geo_precision":"street","address":"610 N West End Blvd","state":"PA","distance":42.3353383646096},"type":"Feature","geometry":{"type":"Point","coordinates":[-75.353072,40.432]}},{"properties":{"zip":"15146","city/state/zip":"Monroeville","store name":"Monroeville","geo_score":0.902,"column_1":"PENNSYLVANIA","id":"214","geo_precision":"range","address":"4004 Monroeville Blvd","state":"PA","distance":490.830016990519},"type":"Feature","geometry":{"type":"Point","coordinates":[-79.770605,40.435617]}},{"properties":{"zip":"15275","city/state/zip":"Pittsburgh","store name":"North Fayette","geo_score":0.708,"column_1":"PENNSYLVANIA","id":"228","geo_precision":"street","address":"600 Chauvet Dr","state":"PA","distance":14.2854842600678},"type":"Feature","geometry":{"type":"Point","coordinates":[-80.183342,40.450025]}},{"properties":{"zip":"08850","city/state/zip":"Milltown","store name":"Milltown","geo_score":0.902,"column_1":"NEW JERSEY","id":"163","geo_precision":"range","address":"400 Ryders Ln","state":"NJ","distance":98.3810998305453},"type":"Feature","geometry":{"type":"Point","coordinates":[-74.424511,40.453376]}},{"properties":{"zip":"15206","city/state/zip":"East Liberty","store name":"East Liberty","geo_score":0.902,"column_1":"PENNSYLVANIA","id":"196","geo_precision":"range","address":"6231 PENN AVE","state":"PA","distance":0.318447592440634},"type":"Feature","geometry":{"type":"Point","coordinates":[-79.922188,40.460855]}},{"properties":{"zip":"15237","city/state/zip":"Pittsburgh","store name":"Ross Township","geo_score":0.819,"column_1":"PENNSYLVANIA","id":"229","geo_precision":"range","address":"4801 McKnight Rd Ste 3","state":"PA","distance":6.96248109511248},"type":"Feature","geometry":{"type":"Point","coordinates":[-80.010292,40.503607]}},{"properties":{"zip":"10309","city/state/zip":"Staten Island","store name":"Staten Island","geo_score":0.902,"column_1":null,"id":"55","geo_precision":"range","address":"2900 Veterans Rd W","state":"NY","distance":106.838317366416},"type":"Feature","geometry":{"type":"Point","coordinates":[-74.237898,40.528144]}},{"properties":{"zip":"15238","city/state/zip":"Pittsburgh","store name":"Harmar","geo_score":0.902,"column_1":"PENNSYLVANIA","id":"225","geo_precision":"range","address":"2661 Freeport Rd","state":"PA","distance":498.516614508108},"type":"Feature","geometry":{"type":"Point","coordinates":[-79.834591,40.537869]}},{"properties":{"zip":"08837","city/state/zip":"Edison","store name":"Menlo Park","geo_score":0.902,"column_1":"NEW JERSEY","id":"151","geo_precision":"range","address":"100 Parsonage Rd","state":"NJ","distance":100.278269150367},"type":"Feature","geometry":{"type":"Point","coordinates":[-74.335394,40.550785]}},{"properties":{"zip":"15237","city/state/zip":"Pittsburgh","store name":"Mount Nebo","geo_score":0.441,"column_1":"PENNSYLVANIA","id":"227","geo_precision":"street","address":"288 Mt Nebo Pointe Dr","state":"PA","distance":14.0319370415742},"type":"Feature","geometry":{"type":"Point","coordinates":[-80.102203,40.55166]}},{"properties":{"zip":"07080","city/state/zip":"South Plainfield","store name":"South Plainfield","geo_score":0.777,"column_1":"NEW JERSEY","id":"176","geo_precision":"range","address":"5000 Hadley Center Dr","state":"NJ","distance":94.7143907962642},"type":"Feature","geometry":{"type":"Point","coordinates":[-74.426935,40.554844]}},{"properties":{"zip":"08807","city/state/zip":"Bridgewater","store name":"Bridgewater","geo_score":0.902,"column_1":"NEW JERSEY","id":"141","geo_precision":"range","address":"200 Promenade Blvd","state":"NJ","distance":86.776135271733},"type":"Feature","geometry":{"type":"Point","coordinates":[-74.555553,40.56298]}},{"properties":{"zip":"16601","city/state/zip":"Altoona","store name":"Altoona","geo_score":0.756,"column_1":"PENNSYLVANIA","id":"189","geo_precision":"range","address":"153 Sierra Dr","state":"PA","distance":412.768653363344},"type":"Feature","geometry":{"type":"Point","coordinates":[-78.344647,40.57147]}},{"properties":{"zip":"15237","city/state/zip":"Pittsburgh","store name":"McCandless","geo_score":0.902,"column_1":"PENNSYLVANIA","id":"226","geo_precision":"range","address":"9805 McKnight Rd","state":"PA","distance":11.6207890131743},"type":"Feature","geometry":{"type":"Point","coordinates":[-80.034364,40.585198]}},{"properties":{"zip":"18104","city/state/zip":"Allentown","store name":"Allentown","geo_score":0.883,"column_1":"PENNSYLVANIA","id":"187","geo_precision":"range","address":"1600 N Cedar Crest Blvd","state":"PA","distance":25.7482298564388},"type":"Feature","geometry":{"type":"Point","coordinates":[-75.532739,40.612221]}},{"properties":{"zip":"07036","city/state/zip":"Linden","store name":"Linden","geo_score":0.902,"column_1":"NEW JERSEY","id":"158","geo_precision":"range","address":"621 W Edgar Rd","state":"NJ","distance":102.870596759544},"type":"Feature","geometry":{"type":"Point","coordinates":[-74.248094,40.620997]}},{"properties":{"zip":"18109","city/state/zip":"Allentown","store name":"Hanover Township","geo_score":0.592,"column_1":"PENNSYLVANIA","id":"188","geo_precision":"street","address":"912 Airport Center Dr","state":"PA","distance":30.8843987856506},"type":"Feature","geometry":{"type":"Point","coordinates":[-75.443099,40.624984]}},{"properties":{"zip":"07066","city/state/zip":"Clark","store name":"Clark","geo_score":0.902,"column_1":"NEW JERSEY","id":"144","geo_precision":"range","address":"45 Central Ave","state":"NJ","distance":99.1729986999923},"type":"Feature","geometry":{"type":"Point","coordinates":[-74.306538,40.628627]}},{"properties":{"zip":"11210","city/state/zip":"Brooklyn","store name":"Brooklyn Junction","geo_score":0.902,"column_1":null,"id":"7","geo_precision":"range","address":"1598 Flatbush Ave","state":"NY","distance":119.932402607607},"type":"Feature","geometry":{"type":"Point","coordinates":[-73.946328,40.631566]}},{"properties":{"zip":"07069","city/state/zip":"Watchung","store name":"Watchung","geo_score":0.902,"column_1":"NEW JERSEY","id":"182","geo_precision":"range","address":"1515 US Highway 22","state":"NJ","distance":92.3049670903197},"type":"Feature","geometry":{"type":"Point","coordinates":[-74.415804,40.64112]}},{"properties":{"zip":"15044","city/state/zip":"Gibsonia","store name":"Richland Twp North","geo_score":0.824,"column_1":"PENNSYLVANIA","id":"201","geo_precision":"range","address":"550 Grandview Crossing Dr","state":"PA","distance":8.43755585451902},"type":"Feature","geometry":{"type":"Point","coordinates":[-79.937091,40.642113]}},{"properties":{"zip":"11239","city/state/zip":"Brooklyn","store name":"Gateway","geo_score":0.902,"column_1":null,"id":"8","geo_precision":"range","address":"519 Gateway Dr","state":"NY","distance":123.305484020334},"type":"Feature","geometry":{"type":"Point","coordinates":[-73.874487,40.650329]}},{"properties":{"zip":"11581","city/state/zip":"Valley Stream","store name":"Valley Stream","geo_score":0.902,"column_1":null,"id":"57","geo_precision":"range","address":"500 W Sunrise Hwy","state":"NY","distance":131.554025251256},"type":"Feature","geometry":{"type":"Point","coordinates":[-73.71839,40.664777]}},{"properties":{"zip":"08865","city/state/zip":"Phillipsburg","store name":"Greenwich Township","geo_score":0.708,"column_1":"NEW JERSEY","id":"170","geo_precision":"street","address":"1204 New Brunswick Ave","state":"NJ","distance":47.9060385980383},"type":"Feature","geometry":{"type":"Point","coordinates":[-75.139586,40.673134]}},{"properties":{"zip":"15061","city/state/zip":"Monaca","store name":"Center Township","geo_score":0.902,"column_1":"PENNSYLVANIA","id":"213","geo_precision":"range","address":"87 Wagner Rd","state":"PA","distance":30.4545873047923},"type":"Feature","geometry":{"type":"Point","coordinates":[-80.301965,40.681998]}},{"properties":{"zip":"11217","city/state/zip":"Brooklyn","store name":"Atlantic Terminal","geo_score":0.902,"column_1":null,"id":"6","geo_precision":"range","address":"139 Flatbush Ave","state":"NY","distance":116.094028702548},"type":"Feature","geometry":{"type":"Point","coordinates":[-73.977794,40.684427]}},{"properties":{"zip":"16066","city/state/zip":"Cranberry Twp","store name":"Cranberry","geo_score":0.647,"column_1":"PENNSYLVANIA","id":"194","geo_precision":"range","address":"1717 Route 228","state":"PA","distance":18.639772777905},"type":"Feature","geometry":{"type":"Point","coordinates":[-80.087547,40.685573]}},{"properties":{"zip":"07083","city/state/zip":"Union","store name":"Union","geo_score":0.866,"column_1":"NEW JERSEY","id":"179","geo_precision":"range","address":"2690 US Hwy 22 E","state":"NJ","distance":97.0774289352138},"type":"Feature","geometry":{"type":"Point","coordinates":[-74.304692,40.6887]}},{"properties":{"zip":"11725","city/state/zip":"Copiague","store name":"Copiague","geo_score":0.805,"column_1":null,"id":"18","geo_precision":"range","address":"1149 Sunrise Hwy","state":"NY","distance":147.880230056483},"type":"Feature","geometry":{"type":"Point","coordinates":[-73.40417,40.69048]}},{"properties":{"zip":"18045","city/state/zip":"Easton","store name":"Lower Nazareth","geo_score":0.585,"column_1":"PENNSYLVANIA","id":"197","geo_precision":"zip","address":"3835 Dryland Way","state":"PA","distance":38.2340182109566},"type":"Feature","geometry":{"type":"Point","coordinates":[-75.286528,40.695731]}},{"properties":{"zip":"11354","city/state/zip":"Flushing","store name":"Flushing","geo_score":0.585,"column_1":null,"id":"25","geo_precision":"zip","address":"4024 College Point Blvd","state":"NY","distance":117.966029389173},"type":"Feature","geometry":{"type":"Point","coordinates":[-73.923471,40.715658]}},{"properties":{"zip":"07088","city/state/zip":"Vauxhall","store name":"Union North","geo_score":0.902,"column_1":"NEW JERSEY","id":"180","geo_precision":"range","address":"2235 Springfield Ave","state":"NJ","distance":97.1187964917704},"type":"Feature","geometry":{"type":"Point","coordinates":[-74.285103,40.718269]}},{"properties":{"zip":"11725","city/state/zip":"Commack","store name":"Commack South","geo_score":0.805,"column_1":null,"id":"17","geo_precision":"range","address":"4 Henry St","state":"NY","distance":144.516979651396},"type":"Feature","geometry":{"type":"Point","coordinates":[-73.439815,40.72408]}},{"properties":{"zip":"11756","city/state/zip":"Levittown","store name":"Levittown","geo_score":0.902,"column_1":null,"id":"31","geo_precision":"range","address":"3850 Hempstead Tpke","state":"NY","distance":141.531434394319},"type":"Feature","geometry":{"type":"Point","coordinates":[-73.493336,40.725612]}},{"properties":{"zip":"11706","city/state/zip":"Bay Shore","store name":"Bay Shore","geo_score":0.902,"column_1":null,"id":"3","geo_precision":"range","address":"838 Sunrise Hwy","state":"NY","distance":152.686600194069},"type":"Feature","geometry":{"type":"Point","coordinates":[-73.287028,40.726129]}},{"properties":{"zip":"07310","city/state/zip":"Jersey City","store name":"Jersey City","geo_score":0.805,"column_1":"NEW JERSEY","id":"157","geo_precision":"range","address":"100 14th St","state":"NJ","distance":110.851092884798},"type":"Feature","geometry":{"type":"Point","coordinates":[-74.037835,40.731322]}},{"properties":{"zip":"11373","city/state/zip":"Elmhurst","store name":"Queens Place","geo_score":0.61,"column_1":null,"id":"20","geo_precision":"street","address":"8801 Queens Blvd","state":"NY","distance":119.05572338809},"type":"Feature","geometry":{"type":"Point","coordinates":[-73.888092,40.738721]}},{"properties":{"zip":"11590","city/state/zip":"Westbury","store name":"Westbury","geo_score":0.585,"column_1":null,"id":"63","geo_precision":"zip","address":"999 Corporate Dr","state":"NY","distance":137.031700937125},"type":"Feature","geometry":{"type":"Point","coordinates":[-73.560127,40.745656]}},{"properties":{"zip":"11735","city/state/zip":"Farmingdale","store name":"Farmingdale","geo_score":0.848,"column_1":null,"id":"23","geo_precision":"range","address":"100 Willow Park Ctr","state":"NY","distance":144.294000117778},"type":"Feature","geometry":{"type":"Point","coordinates":[-73.421332,40.75293]}},{"properties":{"zip":"11801","city/state/zip":"Hicksville","store name":"Hicksville","geo_score":0.634,"column_1":null,"id":"26","geo_precision":"street","address":"2003 Broadway Mall","state":"NY","distance":139.372187515921},"type":"Feature","geometry":{"type":"Point","coordinates":[-73.509045,40.756521]}},{"properties":{"zip":"11722","city/state/zip":"Central Islip","store name":"Central Islip","geo_score":0.902,"column_1":null,"id":"10","geo_precision":"range","address":"160 N Research Pl","state":"NY","distance":155.183437444551},"type":"Feature","geometry":{"type":"Point","coordinates":[-73.200758,40.773923]}},{"properties":{"zip":"11356","city/state/zip":"College Point","store name":"College Point","geo_score":0.526,"column_1":null,"id":"14","geo_precision":"street","address":"13505 20th Ave","state":"NY","distance":119.603897683851},"type":"Feature","geometry":{"type":"Point","coordinates":[-73.847763,40.781683]}},{"properties":{"zip":"10035","city/state/zip":"New York","store name":"Harlem","geo_score":0.902,"column_1":null,"id":"39","geo_precision":"range","address":"517 E 117th Street","state":"NY","distance":114.30205456049},"type":"Feature","geometry":{"type":"Point","coordinates":[-73.932333,40.795544]}},{"properties":{"zip":"07047","city/state/zip":"North Bergen","store name":"North Bergen Commons","geo_score":0.902,"column_1":"NEW JERSEY","id":"167","geo_precision":"range","address":"7101 Tonnelle Ave","state":"NJ","distance":109.053811043184},"type":"Feature","geometry":{"type":"Point","coordinates":[-74.02118,40.80148]}},{"properties":{"zip":"17870","city/state/zip":"Selinsgrove","store name":"Selinsgrove","geo_score":0.732,"column_1":"PENNSYLVANIA","id":"235","geo_precision":"range","address":"501 Market Place Blvd","state":"PA","distance":437.137742933155},"type":"Feature","geometry":{"type":"Point","coordinates":[-76.859085,40.805064]}},{"properties":{"zip":"07936","city/state/zip":"East Hanover","store name":"East Hanover","geo_score":0.902,"column_1":"NEW JERSEY","id":"148","geo_precision":"range","address":"130 State Route 10","state":"NJ","distance":88.0016898933701},"type":"Feature","geometry":{"type":"Point","coordinates":[-74.383041,40.810278]}},{"properties":{"zip":"07020","city/state/zip":"Edgewater","store name":"Edgewater","geo_score":0.819,"column_1":"NEW JERSEY","id":"150","geo_precision":"range","address":"543 River Rd","state":"NJ","distance":110.711020512529},"type":"Feature","geometry":{"type":"Point","coordinates":[-73.98136,40.816398]}},{"properties":{"zip":"10451","city/state/zip":"Bronx","store name":"Bronx Terminal","geo_score":0.708,"column_1":null,"id":"4","geo_precision":"street","address":"700 Exterior St","state":"NY","distance":113.506213245992},"type":"Feature","geometry":{"type":"Point","coordinates":[-73.930596,40.817879]}},{"properties":{"zip":"07014","city/state/zip":"Clifton","store name":"Clifton","geo_score":0.902,"column_1":"NEW JERSEY","id":"145","geo_precision":"range","address":"30 Kingsland Rd","state":"NJ","distance":101.720824429483},"type":"Feature","geometry":{"type":"Point","coordinates":[-74.135216,40.82347]}},{"properties":{"zip":"11763","city/state/zip":"Medford","store name":"Medford","geo_score":0.902,"column_1":null,"id":"33","geo_precision":"range","address":"2975 Horseblock Rd","state":"NY","distance":163.814281795662},"type":"Feature","geometry":{"type":"Point","coordinates":[-72.989056,40.826557]}},{"properties":{"zip":"11725","city/state/zip":"Commack","store name":"Commack","geo_score":0.902,"column_1":null,"id":"16","geo_precision":"range","address":"98 Veterans Memorial Hwy","state":"NY","distance":148.019363421912},"type":"Feature","geometry":{"type":"Point","coordinates":[-73.281238,40.839602]}},{"properties":{"zip":"07840","city/state/zip":"Hackettstown","store name":"Washington Twp","geo_score":0.866,"column_1":"NEW JERSEY","id":"155","geo_precision":"range","address":"68 US Hwy 46 W","state":"NJ","distance":61.0239664420143},"type":"Feature","geometry":{"type":"Point","coordinates":[-74.820544,40.848375]}},{"properties":{"zip":"16001","city/state/zip":"Butler","store name":"Butler","geo_score":0.785,"column_1":"PENNSYLVANIA","id":"191","geo_precision":"range","address":"200 Butler Commons","state":"PA","distance":16.2296859770024},"type":"Feature","geometry":{"type":"Point","coordinates":[-79.931986,40.849662]}},{"properties":{"zip":"10463","city/state/zip":"Bronx","store name":"Riverdale","geo_score":0.902,"column_1":null,"id":"5","geo_precision":"range","address":"40 W 225th St","state":"NY","distance":112.512287906289},"type":"Feature","geometry":{"type":"Point","coordinates":[-73.907904,40.873896]}},{"properties":{"zip":"16803","city/state/zip":"State College","store name":"State College","geo_score":0.585,"column_1":"PENNSYLVANIA","id":"238","geo_precision":"zip","address":"315 Colonnade Blvd","state":"PA","distance":386.657573557954},"type":"Feature","geometry":{"type":"Point","coordinates":[-77.757999,40.878721]}},{"properties":{"zip":"11720","city/state/zip":"South Setauket","store name":"South Setauket","geo_score":0.844,"column_1":null,"id":"53","geo_precision":"range","address":"255 Pond Path Rd","state":"NY","distance":155.334311945446},"type":"Feature","geometry":{"type":"Point","coordinates":[-73.102389,40.884334]}},{"properties":{"zip":"07004","city/state/zip":"Fairfield","store name":"Fairfield","geo_score":0.652,"column_1":"NEW JERSEY","id":"153","geo_precision":"range","address":"632 Route 46 E","state":"NJ","distance":91.2968731247693},"type":"Feature","geometry":{"type":"Point","coordinates":[-74.272519,40.890384]}},{"properties":{"zip":"07601","city/state/zip":"Hackensack","store name":"Hackensack","geo_score":0.902,"column_1":"NEW JERSEY","id":"154","geo_precision":"range","address":"630 Main St","state":"NJ","distance":104.080144989133},"type":"Feature","geometry":{"type":"Point","coordinates":[-74.040515,40.899118]}},{"properties":{"zip":"10550","city/state/zip":"Mount Vernon","store name":"Mt Vernon","geo_score":0.902,"column_1":null,"id":"37","geo_precision":"range","address":"500 East Sandford Blvd","state":"NY","distance":116.342712009841},"type":"Feature","geometry":{"type":"Point","coordinates":[-73.817974,40.901986]}},{"properties":{"zip":"07886","city/state/zip":"Rockaway","store name":"Rockaway","geo_score":0.805,"column_1":"NEW JERSEY","id":"173","geo_precision":"range","address":"381 Mount Hope Ave","state":"NJ","distance":74.9026748795642},"type":"Feature","geometry":{"type":"Point","coordinates":[-74.546798,40.906798]}},{"properties":{"zip":"11901","city/state/zip":"Riverhead","store name":"Riverhead","geo_score":0.902,"column_1":null,"id":"47","geo_precision":"range","address":"1150 Old Country Rd","state":"NY","distance":174.203158459448},"type":"Feature","geometry":{"type":"Point","coordinates":[-72.681454,40.929841]}},{"properties":{"zip":"07652","city/state/zip":"Paramus","store name":"Paramus","geo_score":0.507,"column_1":"NEW JERSEY","id":"169","geo_precision":"street","address":"900 Bergen Town Ctr","state":"NJ","distance":99.552342500297},"type":"Feature","geometry":{"type":"Point","coordinates":[-74.071852,40.967943]}},{"properties":{"zip":"18360","city/state/zip":"Stroudsburg","store name":"Stroudsburg","geo_score":0.532,"column_1":"PENNSYLVANIA","id":"239","geo_precision":"street","address":"350 Pocono Commons","state":"PA","distance":32.8515028763244},"type":"Feature","geometry":{"type":"Point","coordinates":[-75.215535,40.983267]}},{"properties":{"zip":"07457","city/state/zip":"Riverdale","store name":"Riverdale","geo_score":0.873,"column_1":"NEW JERSEY","id":"172","geo_precision":"range","address":"94 State Rt 23","state":"NJ","distance":84.7678961609348},"type":"Feature","geometry":{"type":"Point","coordinates":[-74.317747,40.991749]}},{"properties":{"zip":"10601","city/state/zip":"White Plains","store name":"White Plains","geo_score":0.585,"column_1":null,"id":"64","geo_precision":"zip","address":"9 City Pl","state":"NY","distance":113.537968667235},"type":"Feature","geometry":{"type":"Point","coordinates":[-73.769626,41.031397]}},{"properties":{"zip":"06901","city/state/zip":"Stamford","store name":"Stamford","geo_score":0.902,"column_1":"CONNECTICUT","id":"133","geo_precision":"range","address":"21 Broad St","state":"CT","distance":124.604137551764},"type":"Feature","geometry":{"type":"Point","coordinates":[-73.543159,41.055604]}},{"properties":{"zip":"10994","city/state/zip":"West Nyack","store name":"Clarkstown","geo_score":0.902,"column_1":null,"id":"62","geo_precision":"range","address":"4120 Palisades Center Dr","state":"NY","distance":100.760111243815},"type":"Feature","geometry":{"type":"Point","coordinates":[-73.952579,41.098102]}},{"properties":{"zip":"10977","city/state/zip":"Spring Valley","store name":"Spring Valley","geo_score":0.724,"column_1":null,"id":"54","geo_precision":"street","address":"50 Spring Valley Market Pl","state":"NY","distance":96.1951179481341},"type":"Feature","geometry":{"type":"Point","coordinates":[-74.030594,41.105118]}},{"properties":{"zip":"10549","city/state/zip":"Mount Kisco","store name":"Mt Kisco","geo_score":0.697,"column_1":null,"id":"36","geo_precision":"range","address":"195 N Bedford Rd Ste A","state":"NY","distance":108.198136663956},"type":"Feature","geometry":{"type":"Point","coordinates":[-73.720186,41.214682]}},{"properties":{"zip":"18702","city/state/zip":"Wilkes-Barre Township","store name":"Wilkes-Barre","geo_score":0.657,"column_1":"PENNSYLVANIA","id":"245","geo_precision":"street","address":"3400 Wilkes-Barre Township Commons","state":"PA","distance":484.708208686028},"type":"Feature","geometry":{"type":"Point","coordinates":[-75.884746,41.219415]}},{"properties":{"zip":"06611","city/state/zip":"Trumbull","store name":"Trumbull West","geo_score":0.727,"column_1":"CONNECTICUT","id":"136","geo_precision":"range","address":"5065 Main St Ste Target","state":"CT","distance":133.199570850093},"type":"Feature","geometry":{"type":"Point","coordinates":[-73.220014,41.230164]}},{"properties":{"zip":"06611","city/state/zip":"Trumbull","store name":"Trumbull","geo_score":0.902,"column_1":"CONNECTICUT","id":"135","geo_precision":"range","address":"120 Hawley Ln","state":"CT","distance":136.529636947505},"type":"Feature","geometry":{"type":"Point","coordinates":[-73.149711,41.233571]}},{"properties":{"zip":"06460","city/state/zip":"Milford","store name":"Milford","geo_score":0.902,"column_1":"CONNECTICUT","id":"127","geo_precision":"range","address":"1191 Boston Post Rd","state":"CT","distance":141.816044258765},"type":"Feature","geometry":{"type":"Point","coordinates":[-73.039562,41.236063]}},{"properties":{"zip":"17756","city/state/zip":"Muncy","store name":"Williamsport","geo_score":0.902,"column_1":"PENNSYLVANIA","id":"215","geo_precision":"range","address":"170 S Lycoming Mall Rd","state":"PA","distance":426.080694300008},"type":"Feature","geometry":{"type":"Point","coordinates":[-76.832633,41.243505]}},{"properties":{"zip":"06477","city/state/zip":"Orange","store name":"Orange","geo_score":0.902,"column_1":"CONNECTICUT","id":"131","geo_precision":"range","address":"25 Boston Post Rd","state":"CT","distance":142.298496934744},"type":"Feature","geometry":{"type":"Point","coordinates":[-72.985091,41.279881]}},{"properties":{"zip":"06401","city/state/zip":"Ansonia","store name":"Ansonia","geo_score":0.902,"column_1":"CONNECTICUT","id":"120","geo_precision":"range","address":"20 W Main St","state":"CT","distance":134.666823293093},"type":"Feature","geometry":{"type":"Point","coordinates":[-73.079442,41.342409]}},{"properties":{"zip":"06473","city/state/zip":"North Haven","store name":"North Haven","geo_score":0.902,"column_1":"CONNECTICUT","id":"130","geo_precision":"range","address":"200 Universal Dr N","state":"CT","distance":143.864839113716},"type":"Feature","geometry":{"type":"Point","coordinates":[-72.871901,41.355759]}},{"properties":{"zip":"10950","city/state/zip":"Monroe","store name":"Monroe","geo_score":0.516,"column_1":null,"id":"35","geo_precision":"street","address":"128 Bailey Farm Rd","state":"NY","distance":76.313352265149},"type":"Feature","geometry":{"type":"Point","coordinates":[-74.194094,41.364728]}},{"properties":{"zip":"06385","city/state/zip":"Waterford","store name":"Waterford","geo_score":0.902,"column_1":"CONNECTICUT","id":"138","geo_precision":"range","address":"900 Hartford Tpke","state":"CT","distance":180.020666114167},"type":"Feature","geometry":{"type":"Point","coordinates":[-72.150481,41.379816]}},{"properties":{"zip":"06801","city/state/zip":"Bethel","store name":"Bethel","geo_score":0.902,"column_1":"CONNECTICUT","id":"121","geo_precision":"range","address":"7 Stony Hill Rd","state":"CT","distance":115.248514475719},"type":"Feature","geometry":{"type":"Point","coordinates":[-73.402015,41.416428]}},{"properties":{"zip":"10941","city/state/zip":"Middletown","store name":"Middletown","geo_score":0.902,"column_1":null,"id":"34","geo_precision":"range","address":"1 N Galleria Dr","state":"NY","distance":62.8356510245781},"type":"Feature","geometry":{"type":"Point","coordinates":[-74.371509,41.455141]}},{"properties":{"zip":"18519","city/state/zip":"Dickson City","store name":"Dickson City","geo_score":0.708,"column_1":"PENNSYLVANIA","id":"195","geo_precision":"street","address":"1140 Commerce Blvd","state":"PA","distance":490.715122910374},"type":"Feature","geometry":{"type":"Point","coordinates":[-75.637672,41.465794]}},{"properties":{"zip":"12550","city/state/zip":"Newburgh","store name":"Newburgh","geo_score":0.645,"column_1":null,"id":"40","geo_precision":"range","address":"50 Rte 17 K","state":"NY","distance":75.6529279634255},"type":"Feature","geometry":{"type":"Point","coordinates":[-74.089496,41.508633]}},{"properties":{"zip":"06451","city/state/zip":"Meriden","store name":"Meriden","geo_score":0.902,"column_1":"CONNECTICUT","id":"126","geo_precision":"range","address":"474 Chamberlain Hwy","state":"CT","distance":137.170271516552},"type":"Feature","geometry":{"type":"Point","coordinates":[-72.813978,41.550657]}},{"properties":{"zip":"06704","city/state/zip":"Waterbury","store name":"Waterbury","geo_score":0.902,"column_1":"CONNECTICUT","id":"137","geo_precision":"range","address":"300 Chase Ave","state":"CT","distance":124.802990885504},"type":"Feature","geometry":{"type":"Point","coordinates":[-73.034646,41.581488]}},{"properties":{"zip":"06351","city/state/zip":"Lisbon","store name":"Lisbon","geo_score":0.819,"column_1":"CONNECTICUT","id":"124","geo_precision":"range","address":"195 River Rd","state":"CT","distance":181.209580334485},"type":"Feature","geometry":{"type":"Point","coordinates":[-71.997401,41.582052]}},{"properties":{"zip":"06489","city/state/zip":"Southington","store name":"Southington","geo_score":0.688,"column_1":"CONNECTICUT","id":"132","geo_precision":"street","address":"600 Executive Blvd","state":"CT","distance":129.809844866298},"type":"Feature","geometry":{"type":"Point","coordinates":[-72.901538,41.612182]}},{"properties":{"zip":"12601","city/state/zip":"Poughkeepsie","store name":"Poughkeepsie","geo_score":0.54,"column_1":null,"id":"44","geo_precision":"street","address":"2001 South Rd","state":"NY","distance":80.1726408041912},"type":"Feature","geometry":{"type":"Point","coordinates":[-73.913049,41.612604]}},{"properties":{"zip":"02747","city/state/zip":"North Dartmouth","store name":"North Dartmouth","geo_score":0.902,"column_1":"MASSACHUSETTS","id":"100","geo_precision":"range","address":"479 State Rd","state":"MA","distance":240.360671141543},"type":"Feature","geometry":{"type":"Point","coordinates":[-71.007685,41.640857]}},{"properties":{"zip":"06111","city/state/zip":"Newington","store name":"Newington","geo_score":0.902,"column_1":"CONNECTICUT","id":"129","geo_precision":"range","address":"3265 Berlin Turnpike","state":"CT","distance":137.245610306035},"type":"Feature","geometry":{"type":"Point","coordinates":[-72.722946,41.659858]}},{"properties":{"zip":"02886","city/state/zip":"Warwick","store name":"Warwick","geo_score":0.902,"column_1":"RHODE ISLAND","id":"118","geo_precision":"range","address":"1245 Bald Hill Rd","state":"RI","distance":207.866297176203},"type":"Feature","geometry":{"type":"Point","coordinates":[-71.496113,41.700024]}},{"properties":{"zip":"06053","city/state/zip":"New Britain","store name":"New Britain","geo_score":0.902,"column_1":"CONNECTICUT","id":"128","geo_precision":"range","address":"475 Hartford Rd","state":"CT","distance":132.733903748715},"type":"Feature","geometry":{"type":"Point","coordinates":[-72.76553,41.711081]}},{"properties":{"zip":"02886","city/state/zip":"Warwick","store name":"Warwick North","geo_score":0.902,"column_1":"RHODE ISLAND","id":"119","geo_precision":"range","address":"400 Bald Hill Rd","state":"RI","distance":207.942069688503},"type":"Feature","geometry":{"type":"Point","coordinates":[-71.480141,41.727575]}},{"properties":{"zip":"02571","city/state/zip":"Wareham","store name":"Wareham","geo_score":0.707,"column_1":"MASSACHUSETTS","id":"111","geo_precision":"street","address":"2421 Cranberry Hwy Ste 110","state":"MA","distance":255.403068967713},"type":"Feature","geometry":{"type":"Point","coordinates":[-70.739038,41.775158]}},{"properties":{"zip":"02771","city/state/zip":"Seekonk","store name":"Seekonk","geo_score":0.902,"column_1":"MASSACHUSETTS","id":"105","geo_precision":"range","address":"79 Commerce Way","state":"MA","distance":216.459734242377},"type":"Feature","geometry":{"type":"Point","coordinates":[-71.322821,41.795752]}},{"properties":{"zip":"06790","city/state/zip":"Torrington","store name":"Torrington","geo_score":0.902,"column_1":"CONNECTICUT","id":"134","geo_precision":"range","address":"1922 E Main St","state":"CT","distance":111.270152808821},"type":"Feature","geometry":{"type":"Point","coordinates":[-73.077856,41.821049]}},{"properties":{"zip":"06241","city/state/zip":"Dayville","store name":"Killingly","geo_score":0.52,"column_1":"CONNECTICUT","id":"122","geo_precision":"street","address":"2177 Killingly CMNS","state":"CT","distance":176.985128587837},"type":"Feature","geometry":{"type":"Point","coordinates":[-71.924227,41.848881]}},{"properties":{"zip":"02917","city/state/zip":"Smithfield","store name":"Smithfield","geo_score":0.606,"column_1":"RHODE ISLAND","id":"117","geo_precision":"street","address":"371 Putnam Pike Ste A-250","state":"RI","distance":201.763051751207},"type":"Feature","geometry":{"type":"Point","coordinates":[-71.522911,41.870186]}},{"properties":{"zip":"02375","city/state/zip":"South Easton","store name":"Easton","geo_score":0.805,"column_1":"MASSACHUSETTS","id":"107","geo_precision":"range","address":"41 Robert Dr","state":"MA","distance":242.535040820317},"type":"Feature","geometry":{"type":"Point","coordinates":[-70.902315,41.879614]}},{"properties":{"zip":"06095","city/state/zip":"Windsor","store name":"Windsor","geo_score":0.902,"column_1":"CONNECTICUT","id":"139","geo_precision":"range","address":"1075 Kennedy Rd","state":"CT","distance":131.369959984391},"type":"Feature","geometry":{"type":"Point","coordinates":[-72.650217,41.89362]}},{"properties":{"zip":"02865","city/state/zip":"Lincoln","store name":"Lincoln","geo_score":0.902,"column_1":"RHODE ISLAND","id":"116","geo_precision":"range","address":"620 George Washington Hwy","state":"RI","distance":205.444139525722},"type":"Feature","geometry":{"type":"Point","coordinates":[-71.447563,41.934719]}},{"properties":{"zip":"02760","city/state/zip":"North Attleboro","store name":"North Attleborough","geo_score":0.902,"column_1":"MASSACHUSETTS","id":"99","geo_precision":"range","address":"1205 S Washington St","state":"MA","distance":211.815302400289},"type":"Feature","geometry":{"type":"Point","coordinates":[-71.349124,41.941014]}},{"properties":{"zip":"02777","city/state/zip":"Swansea","store name":"Swansea","geo_score":0.464,"column_1":"MASSACHUSETTS","id":"109","geo_precision":"street","address":"579 GAR HWY","state":"MA","distance":221.135681166668},"type":"Feature","geometry":{"type":"Point","coordinates":[-71.199579,41.968481]}},{"properties":{"zip":"12401","city/state/zip":"Kingston","store name":"Kingston","geo_score":0.6,"column_1":null,"id":"29","geo_precision":"street","address":"1300 Ulster Ave","state":"NY","distance":59.5646541409733},"type":"Feature","geometry":{"type":"Point","coordinates":[-73.988692,41.971067]}},{"properties":{"zip":"02364","city/state/zip":"Kingston","store name":"Kingston","geo_score":0.902,"column_1":"MASSACHUSETTS","id":"90","geo_precision":"range","address":"101 Independence Mall Way","state":"MA","distance":253.233697383833},"type":"Feature","geometry":{"type":"Point","coordinates":[-70.711319,41.974887]}},{"properties":{"zip":"06082","city/state/zip":"Enfield","store name":"Enfield","geo_score":0.805,"column_1":"CONNECTICUT","id":"123","geo_precision":"street","address":"90 Elm St","state":"CT","distance":132.005960752538},"type":"Feature","geometry":{"type":"Point","coordinates":[-72.584054,41.997841]}},{"properties":{"zip":"02780","city/state/zip":"Taunton","store name":"Taunton","geo_score":0.582,"column_1":"MASSACHUSETTS","id":"110","geo_precision":"street","address":"81 Taunton Depot Dr","state":"MA","distance":212.666382320142},"type":"Feature","geometry":{"type":"Point","coordinates":[-71.309971,42.027576]}},{"properties":{"zip":"02762","city/state/zip":"Plainville","store name":"Plainville","geo_score":0.805,"column_1":"MASSACHUSETTS","id":"101","geo_precision":"street","address":"91 Taunton St","state":"MA","distance":212.624276224353},"type":"Feature","geometry":{"type":"Point","coordinates":[-71.310251,42.028756]}},{"properties":{"zip":"16509","city/state/zip":"Erie","store name":"Erie","geo_score":0.902,"column_1":"PENNSYLVANIA","id":"198","geo_precision":"range","address":"6700 Peach St","state":"PA","distance":66.9728028322623},"type":"Feature","geometry":{"type":"Point","coordinates":[-80.091698,42.058579]}},{"properties":{"zip":"13850","city/state/zip":"Vestal","store name":"Binghamton Vestal","geo_score":0.902,"column_1":null,"id":"58","geo_precision":"range","address":"3112 Vestal Pkwy E","state":"NY","distance":470.459057155993},"type":"Feature","geometry":{"type":"Point","coordinates":[-76.003841,42.095399]}},{"properties":{"zip":"02351","city/state/zip":"Abington","store name":"Abington","geo_score":0.902,"column_1":"MASSACHUSETTS","id":"80","geo_precision":"range","address":"385 Centre Ave","state":"MA","distance":236.085172698989},"type":"Feature","geometry":{"type":"Point","coordinates":[-70.929709,42.111454]}},{"properties":{"zip":"02339","city/state/zip":"Hanover","store name":"Hanover","geo_score":0.902,"column_1":"MASSACHUSETTS","id":"87","geo_precision":"range","address":"1167 Washington St","state":"MA","distance":241.4545108091},"type":"Feature","geometry":{"type":"Point","coordinates":[-70.841188,42.135091]}},{"properties":{"zip":"14903","city/state/zip":"Elmira","store name":"Big Flats","geo_score":0.785,"column_1":null,"id":"21","geo_precision":"range","address":"930 County Rd 64","state":"NY","distance":474.955889261234},"type":"Feature","geometry":{"type":"Point","coordinates":[-76.875935,42.154086]}},{"properties":{"zip":"02072","city/state/zip":"Stoughton","store name":"Stoughton","geo_score":0.902,"column_1":"MASSACHUSETTS","id":"108","geo_precision":"range","address":"1 Hawes Way","state":"MA","distance":225.786823351854},"type":"Feature","geometry":{"type":"Point","coordinates":[-71.072705,42.154422]}},{"properties":{"zip":"01757","city/state/zip":"Milford","store name":"Milford","geo_score":0.902,"column_1":"MASSACHUSETTS","id":"97","geo_precision":"range","address":"250 Fortune Blvd","state":"MA","distance":197.330304863778},"type":"Feature","geometry":{"type":"Point","coordinates":[-71.502158,42.159998]}},{"properties":{"zip":"01040","city/state/zip":"Holyoke","store name":"Holyoke","geo_score":0.902,"column_1":"MASSACHUSETTS","id":"89","geo_precision":"range","address":"50 Holyoke St","state":"MA","distance":122.896079920306},"type":"Feature","geometry":{"type":"Point","coordinates":[-72.64024,42.172914]}},{"properties":{"zip":"01527","city/state/zip":"Millbury","store name":"Millbury","geo_score":0.902,"column_1":"MASSACHUSETTS","id":"98","geo_precision":"range","address":"70 Worcester Providence Tpke #100","state":"MA","distance":179.405252652682},"type":"Feature","geometry":{"type":"Point","coordinates":[-71.7656,42.186833]}},{"properties":{"zip":"02184","city/state/zip":"Braintree","store name":"Braintree","geo_score":0.902,"column_1":"MASSACHUSETTS","id":"81","geo_precision":"range","address":"250 Granite St","state":"MA","distance":227.358131261954},"type":"Feature","geometry":{"type":"Point","coordinates":[-71.028728,42.220914]}},{"properties":{"zip":"01581","city/state/zip":"Westborough","store name":"Westborough","geo_score":0.615,"column_1":"MASSACHUSETTS","id":"113","geo_precision":"street","address":"330 Turnpike Rd","state":"MA","distance":184.845647686812},"type":"Feature","geometry":{"type":"Point","coordinates":[-71.654102,42.282666]}},{"properties":{"zip":"01605","city/state/zip":"Worcester","store name":"Worcester","geo_score":0.902,"column_1":"MASSACHUSETTS","id":"115","geo_precision":"range","address":"529 Lincoln St","state":"MA","distance":176.653567342771},"type":"Feature","geometry":{"type":"Point","coordinates":[-71.774573,42.294689]}},{"properties":{"zip":"01701","city/state/zip":"Framingham","store name":"Framingham","geo_score":0.902,"column_1":"MASSACHUSETTS","id":"85","geo_precision":"range","address":"400 Cochituate Rd","state":"MA","distance":201.247453483465},"type":"Feature","geometry":{"type":"Point","coordinates":[-71.399128,42.303996]}},{"properties":{"zip":"01752","city/state/zip":"Marlborough","store name":"Marlborough","geo_score":0.357,"column_1":"MASSACHUSETTS","id":"94","geo_precision":"street","address":"423 Donald Lynch Blvd","state":"MA","distance":203.602610283796},"type":"Feature","geometry":{"type":"Point","coordinates":[-71.362535,42.306996]}},{"properties":{"zip":"02125","city/state/zip":"Dorchester","store name":"Boston South Bay","geo_score":0.902,"column_1":"MASSACHUSETTS","id":"83","geo_precision":"range","address":"7 Allstate Rd","state":"MA","distance":223.517958815156},"type":"Feature","geometry":{"type":"Point","coordinates":[-71.06502,42.324741]}},{"properties":{"zip":"01752","city/state/zip":"Marlborough","store name":"Marlborough East","geo_score":0.902,"column_1":"MASSACHUSETTS","id":"95","geo_precision":"range","address":"605 Boston Post Rd E","state":"MA","distance":193.267842147877},"type":"Feature","geometry":{"type":"Point","coordinates":[-71.506293,42.349271]}},{"properties":{"zip":"01035","city/state/zip":"Hadley","store name":"Hadley","geo_score":0.902,"column_1":"MASSACHUSETTS","id":"86","geo_precision":"range","address":"367 Russell St","state":"MA","distance":124.217006475038},"type":"Feature","geometry":{"type":"Point","coordinates":[-72.549753,42.358266]}},{"properties":{"zip":"02472","city/state/zip":"Watertown","store name":"Watertown","geo_score":0.902,"column_1":"MASSACHUSETTS","id":"112","geo_precision":"range","address":"550 Arsenal St","state":"MA","distance":216.972068324807},"type":"Feature","geometry":{"type":"Point","coordinates":[-71.156646,42.362708]}},{"properties":{"zip":"02143","city/state/zip":"Somerville","store name":"Somerville","geo_score":0.902,"column_1":"MASSACHUSETTS","id":"106","geo_precision":"range","address":"180 Somerville Ave","state":"MA","distance":221.47377883658},"type":"Feature","geometry":{"type":"Point","coordinates":[-71.089607,42.377478]}},{"properties":{"zip":"02149","city/state/zip":"Everett","store name":"Everett","geo_score":0.854,"column_1":"MASSACHUSETTS","id":"84","geo_precision":"range","address":"1 Mystic View Rd","state":"MA","distance":222.662282146023},"type":"Feature","geometry":{"type":"Point","coordinates":[-71.06985,42.402272]}},{"properties":{"zip":"02151","city/state/zip":"Revere","store name":"Revere","geo_score":0.585,"column_1":"MASSACHUSETTS","id":"102","geo_precision":"zip","address":"36 Furlong Dr","state":"MA","distance":229.523789313948},"type":"Feature","geometry":{"type":"Point","coordinates":[-70.966161,42.440097]}},{"properties":{"zip":"01906","city/state/zip":"Saugus","store name":"Saugus","geo_score":0.902,"column_1":"MASSACHUSETTS","id":"104","geo_precision":"range","address":"400 Lynn Fells Pkwy","state":"MA","distance":225.336990147707},"type":"Feature","geometry":{"type":"Point","coordinates":[-71.02315,42.480785]}},{"properties":{"zip":"14850","city/state/zip":"Ithaca","store name":"Lansing","geo_score":0.902,"column_1":null,"id":"28","geo_precision":"range","address":"40 Catherwood Rd","state":"NY","distance":498.34583948759},"type":"Feature","geometry":{"type":"Point","coordinates":[-76.489003,42.483816]}},{"properties":{"zip":"01970","city/state/zip":"Salem","store name":"Salem","geo_score":0.902,"column_1":"MASSACHUSETTS","id":"103","geo_precision":"range","address":"227 Highland Ave","state":"MA","distance":232.171046542591},"type":"Feature","geometry":{"type":"Point","coordinates":[-70.92124,42.504608]}},{"properties":{"zip":"01801","city/state/zip":"Woburn","store name":"Woburn","geo_score":0.902,"column_1":"MASSACHUSETTS","id":"114","geo_precision":"range","address":"101 Commerce Way","state":"MA","distance":217.540795747509},"type":"Feature","geometry":{"type":"Point","coordinates":[-71.133707,42.511486]}},{"properties":{"zip":"01237","city/state/zip":"Lanesboro","store name":"Lanesborough","geo_score":0.64,"column_1":"MASSACHUSETTS","id":"91","geo_precision":"street","address":"655 Cheshire Rd","state":"MA","distance":77.1240264038354},"type":"Feature","geometry":{"type":"Point","coordinates":[-73.21547,42.515803]}},{"properties":{"zip":"01453","city/state/zip":"Leominster","store name":"Leominster","geo_score":0.558,"column_1":"MASSACHUSETTS","id":"92","geo_precision":"street","address":"86 Orchard Hill Park Dr","state":"MA","distance":173.714195602978},"type":"Feature","geometry":{"type":"Point","coordinates":[-71.770577,42.528022]}},{"properties":{"zip":"01923","city/state/zip":"Danvers","store name":"Danvers","geo_score":0.902,"column_1":"MASSACHUSETTS","id":"82","geo_precision":"range","address":"240 Independence Way","state":"MA","distance":230.840390047624},"type":"Feature","geometry":{"type":"Point","coordinates":[-70.935762,42.553993]}},{"properties":{"zip":"01852","city/state/zip":"Lowell","store name":"Lowell","geo_score":0.902,"column_1":"MASSACHUSETTS","id":"93","geo_precision":"range","address":"181 Plain St","state":"MA","distance":204.116886604805},"type":"Feature","geometry":{"type":"Point","coordinates":[-71.318128,42.624679]}},{"properties":{"zip":"12144","city/state/zip":"Rensselaer","store name":"East Greenbush","geo_score":0.805,"column_1":null,"id":"46","geo_precision":"range","address":"625 3rd Ave Ext","state":"NY","distance":42.9608151934765},"type":"Feature","geometry":{"type":"Point","coordinates":[-73.702469,42.644166]}},{"properties":{"zip":"03060","city/state/zip":"Nashua","store name":"Nashua","geo_score":0.902,"column_1":"NEW HAMPSHIRE","id":"76","geo_precision":"range","address":"310 Daniel Webster Hwy","state":"NH","distance":195.167353297715},"type":"Feature","geometry":{"type":"Point","coordinates":[-71.440846,42.702508]}},{"properties":{"zip":"12205","city/state/zip":"Colonie","store name":"Colonie Northway","geo_score":0.902,"column_1":null,"id":"15","geo_precision":"range","address":"1440 Central Ave","state":"NY","distance":33.7014529913499},"type":"Feature","geometry":{"type":"Point","coordinates":[-73.820998,42.707201]}},{"properties":{"zip":"01844","city/state/zip":"Methuen","store name":"Methuen","geo_score":0.902,"column_1":"MASSACHUSETTS","id":"96","geo_precision":"range","address":"67 Pleasant Valley St","state":"MA","distance":214.178273448161},"type":"Feature","geometry":{"type":"Point","coordinates":[-71.16001,42.741808]}},{"properties":{"zip":"12110","city/state/zip":"Latham","store name":"Latham","geo_score":0.902,"column_1":null,"id":"30","geo_precision":"range","address":"675 Troy Schenectady Rd","state":"NY","distance":35.5650296879819},"type":"Feature","geometry":{"type":"Point","coordinates":[-73.772645,42.754754]}},{"properties":{"zip":"03079","city/state/zip":"Salem","store name":"Salem","geo_score":0.902,"column_1":"NEW HAMPSHIRE","id":"78","geo_precision":"range","address":"203 S Broadway","state":"NH","distance":210.160403339427},"type":"Feature","geometry":{"type":"Point","coordinates":[-71.21638,42.763793]}},{"properties":{"zip":"12304","city/state/zip":"Schenectady","store name":"Niskayuna","geo_score":0.902,"column_1":null,"id":"52","geo_precision":"range","address":"428 Balltown Rd","state":"NY","distance":27.2286484361412},"type":"Feature","geometry":{"type":"Point","coordinates":[-73.893444,42.772903]}},{"properties":{"zip":"14127","city/state/zip":"Orchard Park","store name":"Orchard Park","geo_score":0.585,"column_1":null,"id":"42","geo_precision":"zip","address":"5622 Amanda Ln","state":"NY","distance":497.326313230993},"type":"Feature","geometry":{"type":"Point","coordinates":[-78.746419,42.783393]}},{"properties":{"zip":"01832","city/state/zip":"Haverhill","store name":"Haverhill","geo_score":0.902,"column_1":"MASSACHUSETTS","id":"88","geo_precision":"range","address":"35 Computer Dr","state":"MA","distance":216.678029489448},"type":"Feature","geometry":{"type":"Point","coordinates":[-71.119197,42.786428]}},{"properties":{"zip":"03063","city/state/zip":"Nashua","store name":"Nashua NW","geo_score":0.902,"column_1":"NEW HAMPSHIRE","id":"77","geo_precision":"range","address":"600 Amherst St","state":"NH","distance":187.950505534104},"type":"Feature","geometry":{"type":"Point","coordinates":[-71.536339,42.80046]}},{"properties":{"zip":"12065","city/state/zip":"Clifton Park","store name":"Clifton Park","geo_score":0.78,"column_1":null,"id":"13","geo_precision":"range","address":"26 Crossing Blvd","state":"NY","distance":34.155917150751},"type":"Feature","geometry":{"type":"Point","coordinates":[-73.771558,42.855038]}},{"properties":{"zip":"14043","city/state/zip":"Depew","store name":"Cheektowaga","geo_score":0.902,"column_1":null,"id":"19","geo_precision":"range","address":"4920 Transit Rd","state":"NY","distance":1.94911080333799},"type":"Feature","geometry":{"type":"Point","coordinates":[-78.696934,42.878222]}},{"properties":{"zip":"03878","city/state/zip":"Somersworth","store name":"Somersworth","geo_score":0.74,"column_1":"NEW HAMPSHIRE","id":"79","geo_precision":"range","address":"11 Andrews Rd","state":"NH","distance":224.707989572447},"type":"Feature","geometry":{"type":"Point","coordinates":[-70.99133,42.915696]}},{"properties":{"zip":"03431","city/state/zip":"Keene","store name":"Keene","geo_score":0.902,"column_1":"NEW HAMPSHIRE","id":"75","geo_precision":"range","address":"46 Ash Brook Rd","state":"NH","distance":134.568462775834},"type":"Feature","geometry":{"type":"Point","coordinates":[-72.305573,42.926083]}},{"properties":{"zip":"03106","city/state/zip":"Hooksett","store name":"Hooksett","geo_score":0.512,"column_1":"NEW HAMPSHIRE","id":"74","geo_precision":"street","address":"100 Quality Dr","state":"NH","distance":189.632754270739},"type":"Feature","geometry":{"type":"Point","coordinates":[-71.504528,42.93799]}},{"properties":{"zip":"03110","city/state/zip":"Bedford","store name":"Bedford","geo_score":0.829,"column_1":"NEW HAMPSHIRE","id":"71","geo_precision":"range","address":"220 S River Rd","state":"NH","distance":191.801732091511},"type":"Feature","geometry":{"type":"Point","coordinates":[-71.473406,42.942836]}},{"properties":{"zip":"14225","city/state/zip":"Cheektowaga","store name":"Walden Galleria","geo_score":0.545,"column_1":null,"id":"11","geo_precision":"street","address":"1750 Walden Ave","state":"NY","distance":4.73934679640843},"type":"Feature","geometry":{"type":"Point","coordinates":[-78.777509,42.944939]}},{"properties":{"zip":"14216","city/state/zip":"Buffalo","store name":"North Buffalo","geo_score":0.902,"column_1":null,"id":"9","geo_precision":"range","address":"2626 Delaware Ave","state":"NY","distance":8.97846502408061},"type":"Feature","geometry":{"type":"Point","coordinates":[-78.869206,42.955305]}},{"properties":{"zip":"12010","city/state/zip":"Amsterdam","store name":"Amsterdam","geo_score":0.622,"column_1":null,"id":"1","geo_precision":"street","address":"100 Amsterdam Commons","state":"NY","distance":14.2305012066023},"type":"Feature","geometry":{"type":"Point","coordinates":[-74.070498,42.973315]}},{"properties":{"zip":"14221","city/state/zip":"Williamsville","store name":"Eastern Hills","geo_score":0.902,"column_1":null,"id":"65","geo_precision":"range","address":"8290 Transit Rd","state":"NY","distance":9.56307997674514},"type":"Feature","geometry":{"type":"Point","coordinates":[-78.69694,42.993583]}},{"properties":{"zip":"14228","city/state/zip":"Amherst","store name":"Boulevard Mall","geo_score":0.902,"column_1":null,"id":"0","geo_precision":"range","address":"1575 Niagara Falls Blvd","state":"NY","distance":8.848272835687},"type":"Feature","geometry":{"type":"Point","coordinates":[-78.822455,42.997308]}},{"properties":{"zip":"14020","city/state/zip":"Batavia","store name":"Batavia","geo_score":0.709,"column_1":null,"id":"2","geo_precision":"street","address":"4300 Veterans Memorial Dr","state":"NY","distance":19.8916821506159},"type":"Feature","geometry":{"type":"Point","coordinates":[-78.209471,43.009921]}},{"properties":{"zip":"13066","city/state/zip":"Fayetteville","store name":"Fayetteville","geo_score":0.902,"column_1":null,"id":"24","geo_precision":"range","address":"340 Towne Dr","state":"NY","distance":35.0855632521975},"type":"Feature","geometry":{"type":"Point","coordinates":[-76.017733,43.033603]}},{"properties":{"zip":"14564","city/state/zip":"Victor","store name":"Victor","geo_score":0.823,"column_1":null,"id":"59","geo_precision":"range","address":"7500 Commons Blvd","state":"NY","distance":31.7407850815068},"type":"Feature","geometry":{"type":"Point","coordinates":[-77.446158,43.034552]}},{"properties":{"zip":"13219","city/state/zip":"Syracuse","store name":"Camillus","geo_score":0.902,"column_1":null,"id":"56","geo_precision":"range","address":"3657 W Genesee St","state":"NY","distance":36.8663571222315},"type":"Feature","geometry":{"type":"Point","coordinates":[-76.236106,43.047406]}},{"properties":{"zip":"03840","city/state/zip":"Greenland","store name":"Greenland","geo_score":0.902,"column_1":"NEW HAMPSHIRE","id":"73","geo_precision":"range","address":"1450 Greenland Rd","state":"NH","distance":237.629352411648},"type":"Feature","geometry":{"type":"Point","coordinates":[-70.816161,43.04849]}},{"properties":{"zip":"14623","city/state/zip":"Rochester","store name":"Henrietta","geo_score":0.902,"column_1":null,"id":"50","geo_precision":"range","address":"2325 Marketplace Dr","state":"NY","distance":32.8015957105391},"type":"Feature","geometry":{"type":"Point","coordinates":[-77.628271,43.078367]}},{"properties":{"zip":"14304","city/state/zip":"Niagara Falls","store name":"Niagara Falls","geo_score":0.902,"column_1":null,"id":"41","geo_precision":"range","address":"7414 Niagara Falls Blvd","state":"NY","distance":20.5141032648564},"type":"Feature","geometry":{"type":"Point","coordinates":[-78.979513,43.087883]}},{"properties":{"zip":"12866","city/state/zip":"Saratoga Springs","store name":"Saratoga Springs","geo_score":0.727,"column_1":null,"id":"51","geo_precision":"range","address":"3031 Route 50","state":"NY","distance":38.1783539586649},"type":"Feature","geometry":{"type":"Point","coordinates":[-73.746298,43.101513]}},{"properties":{"zip":"14624","city/state/zip":"Rochester","store name":"Chili","geo_score":0.902,"column_1":null,"id":"48","geo_precision":"range","address":"3181 Chili Ave","state":"NY","distance":33.1638288302886},"type":"Feature","geometry":{"type":"Point","coordinates":[-77.749469,43.10536]}},{"properties":{"zip":"14450","city/state/zip":"Fairport","store name":"Penfield","geo_score":0.785,"column_1":null,"id":"22","geo_precision":"range","address":"2161 N Nine Mile Point Rd","state":"NY","distance":38.2424066192522},"type":"Feature","geometry":{"type":"Point","coordinates":[-77.441288,43.129068]}},{"properties":{"zip":"13039","city/state/zip":"Cicero","store name":"Cicero","geo_score":0.902,"column_1":null,"id":"12","geo_precision":"range","address":"8061 Brewerton Rd","state":"NY","distance":44.2133090111622},"type":"Feature","geometry":{"type":"Point","coordinates":[-76.120992,43.159577]}},{"properties":{"zip":"13090","city/state/zip":"Liverpool","store name":"Clay","geo_score":0.815,"column_1":null,"id":"32","geo_precision":"range","address":"3857 State Route 31","state":"NY","distance":46.3825225874759},"type":"Feature","geometry":{"type":"Point","coordinates":[-76.243677,43.185187]}},{"properties":{"zip":"14626","city/state/zip":"Rochester","store name":"Greece","geo_score":0.902,"column_1":null,"id":"49","geo_precision":"range","address":"600 Greece Ridge Center Dr","state":"NY","distance":40.5729734557783},"type":"Feature","geometry":{"type":"Point","coordinates":[-77.695314,43.20457]}},{"properties":{"zip":"14580","city/state/zip":"Webster","store name":"Webster","geo_score":0.902,"column_1":null,"id":"61","geo_precision":"range","address":"1050 Ridge Rd","state":"NY","distance":43.6337968567556},"type":"Feature","geometry":{"type":"Point","coordinates":[-77.453158,43.209754]}},{"properties":{"zip":"03301","city/state/zip":"Concord","store name":"Concord","geo_score":0.902,"column_1":"NEW HAMPSHIRE","id":"72","geo_precision":"range","address":"80 Damante Dr","state":"NH","distance":192.713106569674},"type":"Feature","geometry":{"type":"Point","coordinates":[-71.487576,43.221516]}},{"properties":{"zip":"14622","city/state/zip":"Irondequoit","store name":"Irondequoit","geo_score":0.427,"column_1":null,"id":"27","geo_precision":"street","address":"500 Medley Centre Pkwy","state":"NY","distance":45.0278286787125},"type":"Feature","geometry":{"type":"Point","coordinates":[-77.60031,43.253419]}},{"properties":{"zip":"04005","city/state/zip":"Biddeford","store name":"Biddeford","geo_score":0.401,"column_1":"MAINE","id":"68","geo_precision":"street","address":"430 Mariner Way","state":"ME","distance":254.490150849183},"type":"Feature","geometry":{"type":"Point","coordinates":[-70.593344,43.280223]}},{"properties":{"zip":"12804","city/state/zip":"Queensbury","store name":"Queensbury","geo_score":0.611,"column_1":null,"id":"45","geo_precision":"street","address":"578 Aviation Rd Ste 1S","state":"NY","distance":49.6115935565054},"type":"Feature","geometry":{"type":"Point","coordinates":[-73.690868,43.329343]}},{"properties":{"zip":"13413","city/state/zip":"New Hartford","store name":"New Hartford","geo_score":0.409,"column_1":null,"id":"38","geo_precision":"street","address":"1 Sangertown Sq Ste 3","state":"NY","distance":52.1890373987287},"type":"Feature","geometry":{"type":"Point","coordinates":[-75.169186,43.401858]}},{"properties":{"zip":"04106","city/state/zip":"South Portland","store name":"South Portland","geo_score":0.78,"column_1":"MAINE","id":"69","geo_precision":"range","address":"200 Running Hill Rd","state":"ME","distance":274.302752816438},"type":"Feature","geometry":{"type":"Point","coordinates":[-70.339981,43.638445]}},{"properties":{"zip":"04086","city/state/zip":"Topsham","store name":"Topsham","geo_score":0.711,"column_1":"MAINE","id":"70","geo_precision":"street","address":"125 Topsham Fair Mall Rd","state":"ME","distance":303.333287556774},"type":"Feature","geometry":{"type":"Point","coordinates":[-69.982095,43.93606]}},{"properties":{"zip":"13601","city/state/zip":"Watertown","store name":"Watertown","geo_score":0.383,"column_1":null,"id":"60","geo_precision":"street","address":"21800 Towne Center Dr","state":"NY","distance":100.82334636557},"type":"Feature","geometry":{"type":"Point","coordinates":[-75.847411,44.006253]}},{"properties":{"zip":"04330","city/state/zip":"Augusta","store name":"Augusta","geo_score":0.448,"column_1":"MAINE","id":"66","geo_precision":"street","address":"119 Crossing Way","state":"ME","distance":323.110750227219},"type":"Feature","geometry":{"type":"Point","coordinates":[-69.821949,44.395937]}},{"properties":{"zip":"12901","city/state/zip":"Plattsburgh","store name":"Plattsburgh","geo_score":0.902,"column_1":null,"id":"43","geo_precision":"range","address":"60 Smithfield Blvd","state":"NY","distance":135.641584528834},"type":"Feature","geometry":{"type":"Point","coordinates":[-73.494383,44.702068]}},{"properties":{"zip":"04401","city/state/zip":"Bangor","store name":"Bangor","geo_score":0.902,"column_1":"MAINE","id":"67","geo_precision":"range","address":"60 Longview Dr","state":"ME","distance":403.218601678999},"type":"Feature","geometry":{"type":"Point","coordinates":[-68.742951,44.840034]}}],"is_temporal":false,"author":{"url":null,"metadata":null,"contact_name":null,"contact_address":null,"source":null,"contact_phone":null},"source":null,"pagination":{"sort":null,"start":0,"total":344,"limit":1000000},"state":"processing","tags":"","published":"2014-08-14T18:49:20-04:00","id":203013}