{"type":"FeatureCollection","data_type":"Dataset","url_type":null,"permissions":[{"permissions":{"download":true,"view":true},"group_id":"everyone"}],"classification":null,"title":"R Prunty","count":58,"stream_id":20329,"contributor":{"url":"http://geocommons.com/users/10558","name":"Kdelaney263"},"data_attributes":null,"calculation_params":null,"icon_link":null,"link":"http://geocommons.com/overlays/20329.json","extent":[-78.8314,38.25,-76.2485,39.9747],"geometry_types":["point"],"unique_name":null,"name":"R Prunty","feature_count":58,"description":"","next_feature":null,"is_raster":false,"short_classification":"Y","stats":{"aws":{"max":94987.0,"mean":39489.7068965517,"variance":158073459.754688,"stdev":12572.7268225588,"min":19609.0,"median":38328.0}},"features":[{"properties":{"dpsr":"Kratzke","house_code":"2710","region":"PruntyR","aws":29920.0,"short_name":"Laurel","id":"a6rxzdar7ynz"},"type":"Feature","geometry":{"type":"Point","coordinates":[-76.8542,39.0949]}},{"properties":{"dpsr":"Kratzke","house_code":"2735","region":"PruntyR","aws":37226.0,"short_name":"Waldorf","id":"a6rxzdaost8s"},"type":"Feature","geometry":{"type":"Point","coordinates":[-76.9534,38.6276]}},{"properties":{"dpsr":"Kratzke","house_code":"2765","region":"PruntyR","aws":39999.0,"short_name":"Bowie","id":"a6rxzdkexu4b"},"type":"Feature","geometry":{"type":"Point","coordinates":[-76.7199,38.9349]}},{"properties":{"dpsr":"Hernandez","house_code":"2837","region":"PruntyR","aws":46216.0,"short_name":"Leesburg","id":"a6rxzdbziz5n"},"type":"Feature","geometry":{"type":"Point","coordinates":[-77.5373,39.1136]}},{"properties":{"dpsr":"DeMastus","house_code":"2887","region":"PruntyR","aws":36530.0,"short_name":"Bel Air MD","id":"a6rxzddvz6mi"},"type":"Feature","geometry":{"type":"Point","coordinates":[-76.3542,39.5265]}},{"properties":{"dpsr":"Hedrick","house_code":"2925","region":"PruntyR","aws":27319.0,"short_name":"Centreville","id":"a6rxzdlua7m0"},"type":"Feature","geometry":{"type":"Point","coordinates":[-77.4382,38.8379]}},{"properties":{"dpsr":"Kratzke","house_code":"2960","region":"PruntyR","aws":49076.0,"short_name":"Marley Station","id":"a6rxzdiifhrv"},"type":"Feature","geometry":{"type":"Point","coordinates":[-76.603,39.1407]}},{"properties":{"dpsr":"Saltzman","house_code":"2973","region":"PruntyR","aws":40482.0,"short_name":"Frederick","id":"a6rxzdeo3q5t"},"type":"Feature","geometry":{"type":"Point","coordinates":[-77.4541,39.4186]}},{"properties":{"dpsr":"Hedrick","house_code":"3023","region":"PruntyR","aws":35248.0,"short_name":"South Fredericksburg","id":"a6rxzda23p26"},"type":"Feature","geometry":{"type":"Point","coordinates":[-77.4968,38.25]}},{"properties":{"dpsr":"Kratzke","house_code":"3048","region":"PruntyR","aws":29638.0,"short_name":"Prince Frederick","id":"a6rxzdm9nrok"},"type":"Feature","geometry":{"type":"Point","coordinates":[-76.5969,38.5544]}},{"properties":{"dpsr":"Kratzke","house_code":"3126","region":"PruntyR","aws":45614.0,"short_name":"Greenbelt","id":"a6rxzdfg77wx"},"type":"Feature","geometry":{"type":"Point","coordinates":[-76.8552,38.9911]}},{"properties":{"dpsr":"Saltzman","house_code":"3263","region":"PruntyR","aws":39790.0,"short_name":"Winchester","id":"a6rxzd9z1wgn"},"type":"Feature","geometry":{"type":"Point","coordinates":[-78.1642,39.1666]}},{"properties":{"dpsr":"Saltzman","house_code":"3276","region":"PruntyR","aws":46305.0,"short_name":"Martinsburg","id":"a6rxzdhbh7hg"},"type":"Feature","geometry":{"type":"Point","coordinates":[-77.9882,39.456]}},{"properties":{"dpsr":"Hedrick","house_code":"3366","region":"PruntyR","aws":34204.0,"short_name":"Central Park","id":"a6rxzdk8ldw0"},"type":"Feature","geometry":{"type":"Point","coordinates":[-77.5117,38.2972]}},{"properties":{"dpsr":"Kratzke","house_code":"3433","region":"PruntyR","aws":52408.0,"short_name":"California","id":"a6rxzdivqxi0"},"type":"Feature","geometry":{"type":"Point","coordinates":[-76.5124,38.2973]}},{"properties":{"dpsr":"DeMastus","house_code":"3434","region":"PruntyR","aws":35350.0,"short_name":"Hanover","id":"a6rxzd9hwwtq"},"type":"Feature","geometry":{"type":"Point","coordinates":[-76.9918,39.8251]}},{"properties":{"dpsr":"Kratzke","house_code":"3633","region":"PruntyR","aws":28437.0,"short_name":"Annapolis","id":"a6rxzdidlf3c"},"type":"Feature","geometry":{"type":"Point","coordinates":[-76.5367,38.9811]}},{"properties":{"dpsr":"Saltzman","house_code":"3644","region":"PruntyR","aws":35673.0,"short_name":"Lake Forest","id":"a6rxzdewy1le"},"type":"Feature","geometry":{"type":"Point","coordinates":[-77.2059,39.151]}},{"properties":{"dpsr":"Hernandez","house_code":"3653","region":"PruntyR","aws":39204.0,"short_name":"Baileys Cross Roads","id":"a6rxzdhbx61n"},"type":"Feature","geometry":{"type":"Point","coordinates":[-77.1342,38.8531]}},{"properties":{"dpsr":"DeMastus","house_code":"3683","region":"PruntyR","aws":32429.0,"short_name":"White Marsh","id":"a6rxzdlmng03"},"type":"Feature","geometry":{"type":"Point","coordinates":[-76.4738,39.3725]}},{"properties":{"dpsr":"DeMastus","house_code":"3687","region":"PruntyR","aws":55041.0,"short_name":"Rockville","id":"a6rxzdl5wo0d"},"type":"Feature","geometry":{"type":"Point","coordinates":[-77.1203,39.0573]}},{"properties":{"dpsr":"Hedrick","house_code":"3693","region":"PruntyR","aws":24939.0,"short_name":"Aquia","id":"a6rxzd7wqtgj"},"type":"Feature","geometry":{"type":"Point","coordinates":[-77.4064,38.4605]}},{"properties":{"dpsr":"Saltzman","house_code":"3698","region":"PruntyR","aws":44987.0,"short_name":"Hagerstown","id":"a6rxzdmcy90h"},"type":"Feature","geometry":{"type":"Point","coordinates":[-77.7623,39.6307]}},{"properties":{"dpsr":"Saltzman","house_code":"3758","region":"PruntyR","aws":35096.0,"short_name":"Westminster, MD","id":"a6rxzdddlesn"},"type":"Feature","geometry":{"type":"Point","coordinates":[-76.9726,39.5671]}},{"properties":{"dpsr":"DeMastus","house_code":"3969","region":"PruntyR","aws":39009.0,"short_name":"Columbia MD","id":"a6rxzd99jkva"},"type":"Feature","geometry":{"type":"Point","coordinates":[-76.8194,39.1841]}},{"properties":{"dpsr":"Hernandez","house_code":"4144","region":"PruntyR","aws":63248.0,"short_name":"Clinton Crossing","id":"a6rxzd7silxs"},"type":"Feature","geometry":{"type":"Point","coordinates":[-76.8822,38.7629]}},{"properties":{"dpsr":"Hernandez","house_code":"4169","region":"PruntyR","aws":35662.0,"short_name":"South Alexandria","id":"a6rxzdmc8m3s"},"type":"Feature","geometry":{"type":"Point","coordinates":[-77.0832,38.7495]}},{"properties":{"dpsr":"Saltzman","house_code":"4170","region":"PruntyR","aws":57651.0,"short_name":"LaVale","id":"a6rxzdkkl9d1"},"type":"Feature","geometry":{"type":"Point","coordinates":[-78.8314,39.6385]}},{"properties":{"dpsr":"DeMastus","house_code":"4172","region":"PruntyR","aws":23283.0,"short_name":"Johns Hopkins","id":"a6rxzdihv8k4"},"type":"Feature","geometry":{"type":"Point","coordinates":[-76.6172,39.3245]}},{"properties":{"dpsr":"Hernandez","house_code":"4179","region":"PruntyR","aws":66630.0,"short_name":"7th Street","id":"a6rxzdbbdjrn"},"type":"Feature","geometry":{"type":"Point","coordinates":[-77.0219,38.8986]}},{"properties":{"dpsr":"Hernandez","house_code":"4181","region":"PruntyR","aws":32483.0,"short_name":"Rosslyn","id":"a6rxzdlo21ku"},"type":"Feature","geometry":{"type":"Point","coordinates":[-77.0723,38.8949]}},{"properties":{"dpsr":"DeMastus","house_code":"4194","region":"PruntyR","aws":35016.0,"short_name":"South York","id":"a6rxzdmsstsg"},"type":"Feature","geometry":{"type":"Point","coordinates":[-76.694,39.9281]}},{"properties":{"dpsr":"Hernandez","house_code":"4298","region":"PruntyR","aws":24384.0,"short_name":"Wisconsin Ave","id":"a6rxzdgmuxkc"},"type":"Feature","geometry":{"type":"Point","coordinates":[-77.077,38.9431]}},{"properties":{"dpsr":"Hedrick","house_code":"4367","region":"PruntyR","aws":24735.0,"short_name":"Westgate Shopping Center","id":"a6rxzd77wm9s"},"type":"Feature","geometry":{"type":"Point","coordinates":[-77.5113,38.7817]}},{"properties":{"dpsr":"Saltzman","house_code":"4368","region":"PruntyR","aws":39765.0,"short_name":"Towncenter at Germantown","id":"a6rxzdhjn7ld"},"type":"Feature","geometry":{"type":"Point","coordinates":[-77.2685,39.1803]}},{"properties":{"dpsr":"Saltzman","house_code":"4415","region":"PruntyR","aws":35239.0,"short_name":"Charles Town","id":"a6rxzddzac7j"},"type":"Feature","geometry":{"type":"Point","coordinates":[-77.8441,39.2925]}},{"properties":{"dpsr":"Hernandez","house_code":"4480","region":"PruntyR","aws":45895.0,"short_name":"Eisenhower Ave","id":"a6rxzdd6c4n9"},"type":"Feature","geometry":{"type":"Point","coordinates":[-77.0711,38.8028]}},{"properties":{"dpsr":"Hedrick","house_code":"4504","region":"PruntyR","aws":40211.0,"short_name":"Culpeper","id":"a6rxzdenhgeu"},"type":"Feature","geometry":{"type":"Point","coordinates":[-77.9766,38.4814]}},{"properties":{"dpsr":"Hernandez","house_code":"4626","region":"PruntyR","aws":19609.0,"short_name":"Ashburn","id":"a6rxzd78l6cs"},"type":"Feature","geometry":{"type":"Point","coordinates":[-77.4752,39.0435]}},{"properties":{"dpsr":"Hernandez","house_code":"4632","region":"PruntyR","aws":48405.0,"short_name":"Kingstowne","id":"a6rxzdklb4li"},"type":"Feature","geometry":{"type":"Point","coordinates":[-77.1348,38.7753]}},{"properties":{"dpsr":"DeMastus","house_code":"4650","region":"PruntyR","aws":43437.0,"short_name":"Gettysburg","id":"a6rxzddi6qbu"},"type":"Feature","geometry":{"type":"Point","coordinates":[-77.2001,39.8442]}},{"properties":{"dpsr":"Hedrick","house_code":"4667","region":"PruntyR","aws":44574.0,"short_name":"Warrenton","id":"a6rxzdidnbok"},"type":"Feature","geometry":{"type":"Point","coordinates":[-77.7871,38.7258]}},{"properties":{"dpsr":"Kratzke","house_code":"4726","region":"PruntyR","aws":94987.0,"short_name":"Linthicum","id":"a6rxzdk23qji"},"type":"Feature","geometry":{"type":"Point","coordinates":[-76.6781,39.2071]}},{"properties":{"dpsr":"Kratzke","house_code":"4730","region":"PruntyR","aws":57620.0,"short_name":"Inglewood","id":"a6rxzdck4i0a"},"type":"Feature","geometry":{"type":"Point","coordinates":[-76.8401,38.9116]}},{"properties":{"dpsr":"Kratzke","house_code":"4742","region":"PruntyR","aws":34349.0,"short_name":"Loch Raven","id":"a6rxzdlxrnxo"},"type":"Feature","geometry":{"type":"Point","coordinates":[-76.5826,39.3668]}},{"properties":{"dpsr":"Hedrick","house_code":"4744","region":"PruntyR","aws":29994.0,"short_name":"Dumfries","id":"a6rxzd90k7tk"},"type":"Feature","geometry":{"type":"Point","coordinates":[-77.3107,38.5813]}},{"properties":{"dpsr":"DeMastus","house_code":"4758","region":"PruntyR","aws":30240.0,"short_name":"Essex - Water View","id":"a6rxzdcocf42"},"type":"Feature","geometry":{"type":"Point","coordinates":[-76.4493,39.324]}},{"properties":{"dpsr":"Hedrick","house_code":"4798","region":"PruntyR","aws":32897.0,"short_name":"Gainesville","id":"a6rxzdaxs21x"},"type":"Feature","geometry":{"type":"Point","coordinates":[-77.6161,38.7705]}},{"properties":{"dpsr":"DeMastus","house_code":"4811","region":"PruntyR","aws":29215.0,"short_name":"West York","id":"a6rxzd8nfiks"},"type":"Feature","geometry":{"type":"Point","coordinates":[-76.7652,39.9747]}},{"properties":{"dpsr":"DeMastus","house_code":"4848","region":"PruntyR","aws":38328.0,"short_name":"Riverside","id":"a6rxzdmqo2q9"},"type":"Feature","geometry":{"type":"Point","coordinates":[-76.248515,39.481874]}},{"properties":{"dpsr":"DeMastus","house_code":"4856","region":"PruntyR","aws":51507.0,"short_name":"Shrewsbury","id":"a6rxzdcihpg2"},"type":"Feature","geometry":{"type":"Point","coordinates":[-76.665,39.7735]}},{"properties":{"dpsr":"Hernandez","house_code":"4894","region":"PruntyR","aws":38968.0,"short_name":"Wheaton","id":"a6rxzdgor8ic"},"type":"Feature","geometry":{"type":"Point","coordinates":[-77.05407,39.039286]}},{"properties":{"dpsr":"Hedrick","house_code":"4924","region":"PruntyR","aws":24872.0,"short_name":"Doc Stone Commons","id":"a6rxzdjudk4z"},"type":"Feature","geometry":{"type":"Point","coordinates":[-77.4219,38.4757]}},{"properties":{"dpsr":"Saltzman","house_code":"4938","region":"PruntyR","aws":47084.0,"short_name":"Frederick Crossing","id":"a6rxzd8537e1"},"type":"Feature","geometry":{"type":"Point","coordinates":[-77.4138,39.3943]}},{"properties":{"dpsr":"Hedrick","house_code":"4946","region":"PruntyR","aws":44271.0,"short_name":"Prince William Pkwy","id":"a6rxzdnowdn5"},"type":"Feature","geometry":{"type":"Point","coordinates":[-77.352387,38.677939]}},{"properties":{"dpsr":"Saltzman","house_code":"4976","region":"PruntyR","aws":38660.0,"short_name":"Clarksville","id":"a6rxzdjte4ca"},"type":"Feature","geometry":{"type":"Point","coordinates":[-76.937247,39.210682]}},{"properties":{"dpsr":"Hedrick","house_code":"5260","region":"PruntyR","aws":22326.0,"short_name":"Signal Hill","id":"a6rxzdhwuo91"},"type":"Feature","geometry":{"type":"Point","coordinates":[-77.449521,38.74883]}},{"properties":{"dpsr":"Hernandez","house_code":"5320","region":"PruntyR","aws":34718.0,"short_name":"Tivoli Center","id":"a6rxzdafff0i"},"type":"Feature","geometry":{"type":"Point","coordinates":[-77.032699,38.930863]}}],"is_temporal":false,"author":{"url":"","metadata":"","contact_name":"","contact_address":"","source":"","contact_phone":""},"source":"","pagination":{"sort":null,"start":0,"total":58,"limit":1000000},"state":"complete","tags":"","published":"2014-08-10T11:26:30-04:00","id":20329}