{"type":"FeatureCollection","data_type":"Dataset","url_type":null,"permissions":[{"permissions":{"download":true,"view":true},"group_id":"everyone"}],"classification":null,"title":"The Fucking Guide","count":32,"stream_id":203461,"contributor":{"url":"http://geocommons.com/users/26285","name":"thereporta"},"data_attributes":null,"calculation_params":null,"icon_link":null,"link":"http://geocommons.com/overlays/203461.json","extent":[-122.346,37.7591,-122.206,37.9365],"geometry_types":["point"],"unique_name":null,"name":"The Fucking Guide","feature_count":32,"description":"","next_feature":null,"is_raster":false,"short_classification":"Y","stats":{"latitude":{"max":37.93648,"mean":37.83953565625,"variance":0.00195352143307159,"stdev":0.0441986587248028,"min":37.759113,"median":37.831714},"longitude":{"max":-122.205819,"mean":-122.2722488125,"variance":0.000780703125899132,"stdev":0.0279410652248466,"min":-122.346413,"median":-122.267816}},"features":[{"properties":{"city":"Alameda","business":"Passion Parties","latitude":37.759113,"comments":"When you want to bring the party to you, these are the people to call.","type":"Sex Store","link":"http://www.passionparties.com/","telephone":"510-508-3617","longitude":-122.238365,"id":"a62g6clsghnd","address":"2800 Encinal Ave.","state":"CA"},"type":"Feature","geometry":{"type":"Point","coordinates":[-122.238365,37.759113]}},{"properties":{"city":"Berkeley","business":"A LA Folie","latitude":37.869599,"comments":"This schmancy boutique specializes in unfathomably sexy bras, underwear, and other lacy bits you never knew you needed.","type":"Lingerie store","link":null,"telephone":"510-356-4477","longitude":-122.300527,"id":"a62g6cufoj17","address":"1844 Fourth St.","state":"CA"},"type":"Feature","geometry":{"type":"Point","coordinates":[-122.300527,37.869599]}},{"properties":{"city":"Berkeley","business":"Beauty and Attitude","latitude":37.880272,"comments":"With lingerie running the gamut from the totally practical to completely unnecessary, this is one-stop shopping for all your sub-sartorial needs.","type":"Lingerie store","link":null,"telephone":"510-868-1790","longitude":-122.268794,"id":"a62g6cqho2io","address":"2116 Vine St.","state":"CA"},"type":"Feature","geometry":{"type":"Point","coordinates":[-122.268794,37.880272]}},{"properties":{"city":"Berkeley","business":"Berkeley Bowl","latitude":37.85747,"comments":"It's the perfect Berkeley love story: \"Our eyes met across the bulk bin ... \"","type":"Pick-up spot","link":null,"telephone":"510-843-6929","longitude":-122.267816,"id":"a62g6co7h1em","address":"2020 Oregon St.","state":"CA"},"type":"Feature","geometry":{"type":"Point","coordinates":[-122.267816,37.85747]}},{"properties":{"city":"Berkeley","business":"City of Berkeley Public Health Clinic","latitude":37.867968,"comments":"If you got time to kill and no cash to burn, this clinic has drop-in hours for a number of reproductive health needs.","type":"Clinic","link":"http://www.berkeleyfreeclinic.org/pages/services","telephone":"510-981-5350","longitude":-122.297583,"id":"a62g6cma3nfd","address":"830 University Ave.","state":"CA"},"type":"Feature","geometry":{"type":"Point","coordinates":[-122.297583,37.867968]}},{"properties":{"city":"Berkeley","business":"Good Vibrations","latitude":37.860869,"comments":"A veritable emporium of toys and accessories to spice up your sex life.","type":"Sex Store","link":"http://www.goodvibes.com/main.jhtml","telephone":"510-841-8987","longitude":-122.289587,"id":"a62g6ctjtydw","address":"2504 San Pablo Ave.","state":"CA"},"type":"Feature","geometry":{"type":"Point","coordinates":[-122.289587,37.860869]}},{"properties":{"city":"Berkeley","business":"Kip's","latitude":37.867752,"comments":"Once described in these pages by a Daily Californian sex columnist as \"a no-fail fuck zone,\" Kip's is Cal's go-to meat market.","type":"Pick-up spot","link":null,"telephone":"510-848-4340","longitude":-122.259556,"id":"a62g6cqn435i","address":"2439 Durant Ave.","state":"CA"},"type":"Feature","geometry":{"type":"Point","coordinates":[-122.259556,37.867752]}},{"properties":{"city":"Berkeley","business":"Berkeley Marina/Aquatic Park","latitude":37.86933,"comments":"As the East Bay's original — and possibly only — destination for unencumbered cruising, this was better than Grindr, long before Grindr existed.","type":"Pick-up spot","link":null,"telephone":null,"longitude":-122.290804,"id":"a62g6cq20a3j","address":"80 Bolivar Dr.","state":"CA"},"type":"Feature","geometry":{"type":"Point","coordinates":[-122.290804,37.86933]}},{"properties":{"city":"Berkeley","business":"Steamworks","latitude":37.866033,"comments":"Suffice it to say the baths themselves aren't the main attraction at this men-only establishment.","type":"Pick-up spot","link":null,"telephone":"510-845-8992","longitude":-122.299348,"id":"a62g6ct0gdau","address":"2107 Fourth St.","state":"CA"},"type":"Feature","geometry":{"type":"Point","coordinates":[-122.299348,37.866033]}},{"properties":{"city":"Berkeley","business":"Tang Center","latitude":37.871891,"comments":"If you're a U.C. Berkeley student looking for an STI checkup and HIV test, this place is for you.","type":"Clinic","link":"http://uhs.berkeley.edu/","telephone":"510-642-2000","longitude":-122.260041,"id":"a62g6clgm0s6","address":"2222 Bancroft Way","state":"CA"},"type":"Feature","geometry":{"type":"Point","coordinates":[-122.260041,37.871891]}},{"properties":{"city":"Berkeley","business":"White Horse Inn","latitude":37.8614,"comments":"As the nation's longest continuously running gay bar, this place — affectionately/suggestively nicknamed \"The White Ho\" by regulars — boasts a 68-year history of hookup facilitation. You can't argue with that.","type":"Pick-up spot","link":null,"telephone":"510-652-3820","longitude":-122.258949,"id":"a62g6cvtnd9t","address":"6551 Telegraph Ave.","state":"CA"},"type":"Feature","geometry":{"type":"Point","coordinates":[-122.258949,37.8614]}},{"properties":{"city":"El Cerrito","business":"Planned Parenthood","latitude":37.900154,"comments":"The bread and butter of reproductive health services, though now more limited after Oakland clinics closed last year.","type":"Clinic","link":"http://www.plannedparenthood.org/shasta-pacific/","telephone":"510-527-5806","longitude":-122.297326,"id":"a62g6cgf7el8","address":"320 El Cerrito Plaza","state":"CA"},"type":"Feature","geometry":{"type":"Point","coordinates":[-122.297326,37.900154]}},{"properties":{"city":"El Cerrito","business":"Secrets","latitude":37.911364,"comments":"Toys and accessories to spice up your sex life.","type":"Sex Store","link":"http://www.adultmegastores.com/","telephone":"510-528-1569","longitude":-122.308674,"id":"a62g6ctepvig","address":"10601 San Pablo Ave.","state":"CA"},"type":"Feature","geometry":{"type":"Point","coordinates":[-122.308674,37.911364]}},{"properties":{"city":"Oakland","business":"Adult Book Store","latitude":37.802167,"comments":"An oldie but goodie shop to fulfill your needs.","type":"Sex Store","link":null,"telephone":"510- 836-5500","longitude":-122.270092,"id":"a62g6cluxw55","address":"367 12th St.","state":"CA"},"type":"Feature","geometry":{"type":"Point","coordinates":[-122.270092,37.802167]}},{"properties":{"city":"Oakland","business":"AHF Healthcare Center","latitude":37.819026,"comments":"Specializes in services for HIV-positive patients.","type":".","link":"http://www.aidshealth.org/","telephone":"510-628-0949","longitude":-122.264812,"id":"a62g6clu0snx","address":"400 30th St., # 300","state":"CA"},"type":"Feature","geometry":{"type":"Point","coordinates":[-122.264812,37.819026]}},{"properties":{"city":"Oakland","business":"Art Murmur","latitude":37.81732,"comments":"All those bodies pushed up against one another, all those weirdly hot avant-garde art pieces, taco trucks — if that doesn't get you all hot and bothered, what else will?","type":"Pick-up spot","link":null,"telephone":null,"longitude":-122.267619,"id":"a62g6chqmqlg","address":"23rd and Telegraph Streets","state":"CA"},"type":"Feature","geometry":{"type":"Point","coordinates":[-122.267619,37.81732]}},{"properties":{"city":"Oakland","business":"Bench n' Bar","latitude":37.806898,"comments":"Oakland's biggest gay bar by far. The music is of the untz-untz variety, the lighting is low, and your chances are very, very good.","type":"Pick-up spot","link":null,"telephone":"510- 444-2266","longitude":-122.270777,"id":"a62g6chipp6h","address":"510 17th St.","state":"CA"},"type":"Feature","geometry":{"type":"Point","coordinates":[-122.270777,37.806898]}},{"properties":{"city":"Oakland","business":"Feelmore510","latitude":37.806913,"comments":"A double ding of awesomeness here: it's got great sex accessories, and it's locally owned.","type":"Sex Store","link":"http://www.feelmore510.com/#!__about-us","telephone":"510-891-0199","longitude":-122.270252,"id":"a62g6cjidd19","address":"1703 Telegraph Ave.","state":"CA"},"type":"Feature","geometry":{"type":"Point","coordinates":[-122.270252,37.806913]}},{"properties":{"city":"Oakland","business":"Good Vibrations","latitude":37.810545,"comments":"Brand spanking new to Oakland!","type":"Sex Store","link":"http://www.eastbayexpress.com/ebx/good-vibrations-new-store-grand-opening-party-open-now/Event?oid=3089285","telephone":"510-788-2389","longitude":-122.244709,"id":"a62g6ciyqcj7","address":"3219 Lakeshore Ave.","state":"CA"},"type":"Feature","geometry":{"type":"Point","coordinates":[-122.244709,37.810545]}},{"properties":{"city":"Oakland","business":"Heart and Dagger","latitude":37.810583,"comments":"Particularly for the black-leather-clad-set, but open enough to encourage equal-opportunity macking.","type":"Pick-up spot","link":null,"telephone":"510-444-7300","longitude":-122.247352,"id":"a62g6ct1fvoj","address":"504 Lake Park Ave.","state":"CA"},"type":"Feature","geometry":{"type":"Point","coordinates":[-122.247352,37.810583]}},{"properties":{"city":"Oakland","business":"Hollywood Adult Superstore","latitude":37.842783,"comments":"Yes, you can still get porn from your local sex store.","type":"Sex Store","link":null,"telephone":"510-654-1169","longitude":-122.261536,"id":"a62g6cpw0h2x","address":"5686 Telegraph Ave.","state":"CA"},"type":"Feature","geometry":{"type":"Point","coordinates":[-122.261536,37.842783]}},{"properties":{"city":"Oakland","business":"La Clinica de La Raza","latitude":37.780201,"comments":"This clinic offers a wide range of health services with special attentiveness to diverse backgrounds.","type":"Clinic","link":"http://www.laclinica.org/","telephone":"510-535-4200","longitude":-122.225985,"id":"a62g6cvquaxp","address":"3050 E. 16th St.","state":"CA"},"type":"Feature","geometry":{"type":"Point","coordinates":[-122.225985,37.780201]}},{"properties":{"city":"Oakland","business":"Lake Merritt/Splash Pad Park","latitude":37.794155,"comments":"There's a reason East Bay Express readers keep voting it one of the East Bay's best pickup spots year after year.","type":"Pick-up spot","link":null,"telephone":null,"longitude":-122.205819,"id":"a62g6crxbp5c","address":"Between Grand and Lakeshore Avenues, adjacent to 580","state":"CA"},"type":"Feature","geometry":{"type":"Point","coordinates":[-122.205819,37.794155]}},{"properties":{"city":"Oakland","business":"Oakland Public Library (main branch)","latitude":37.801272,"comments":"Hey, at least this way you know they can read!","type":"Pick-up spot","link":null,"telephone":"510-238-3134","longitude":-122.263472,"id":"a62g6chayq9y","address":"125 14th St.","state":"CA"},"type":"Feature","geometry":{"type":"Point","coordinates":[-122.263472,37.801272]}},{"properties":{"city":"Oakland","business":"Remedy","latitude":37.831714,"comments":"The coffee's not the only thing hot here; GET IT??","type":"Pick-up spot","link":null,"telephone":"510-922-8455","longitude":-122.263746,"id":"a62g6cv93w77","address":"4316 Telegraph Ave.","state":"CA"},"type":"Feature","geometry":{"type":"Point","coordinates":[-122.263746,37.831714]}},{"properties":{"city":"Oakland","business":"Secrets","latitude":37.796259,"comments":"Toys and accessories to spice up your sex life.","type":"Sex Store","link":null,"telephone":"510-465-0374","longitude":-122.276223,"id":"a62g6cuzvjz8","address":"201 Broadway","state":"CA"},"type":"Feature","geometry":{"type":"Point","coordinates":[-122.276223,37.796259]}},{"properties":{"city":"Oakland","business":"Secrets","latitude":37.814009,"comments":"Toys and accessories to spice up your sex life.","type":"Sex Store","link":"http://www.adultmegastores.com/","telephone":"510-835-4729","longitude":-122.268442,"id":"a62g6chjktow","address":"2408 Telegraph Ave.","state":"CA"},"type":"Feature","geometry":{"type":"Point","coordinates":[-122.268442,37.814009]}},{"properties":{"city":"Oakland","business":"The Layover","latitude":37.80505,"comments":"With its bumping music, preternaturally attractive clientele, and makeout-perfect couches, this may be Oakland's ultimate, all-inclusive pick-up bar.","type":"Pick-up spot","link":null,"telephone":"510-834-1517","longitude":-122.269223,"id":"a62g6ch854fs","address":"1517 Franklin St.","state":"CA"},"type":"Feature","geometry":{"type":"Point","coordinates":[-122.269223,37.80505]}},{"properties":{"city":"Oakland","business":"The Ruby Room","latitude":37.801347,"comments":"There's a reason they call it \"The Boobie Room.\"","type":"Pick-up spot","link":null,"telephone":"510-444-7224","longitude":-122.263608,"id":"a62g6cjskkz8","address":"132 14th St.","state":"CA"},"type":"Feature","geometry":{"type":"Point","coordinates":[-122.263608,37.801347]}},{"properties":{"city":"Oakland","business":"Whole Foods","latitude":37.812575,"comments":"Pick up a blonde with your organic blueberries. Hey, food's a great conversation-starter, right?","type":"Pick-up spot","link":null,"telephone":"510-834-9800","longitude":-122.261129,"id":"a62g6ciqnn2z","address":"230 Bay Pl.","state":"CA"},"type":"Feature","geometry":{"type":"Point","coordinates":[-122.261129,37.812575]}},{"properties":{"city":"Richmond","business":"Community Clinic Consortium","latitude":37.93648,"comments":"This clinic may be for you if you live in the Richmond area.","type":"Clinic","link":"http://www.clinicconsortium.org/","telephone":"800-495-8895","longitude":-122.333383,"id":"a62g6cr3ixz2","address":"3720 Barrett Ave.","state":"CA"},"type":"Feature","geometry":{"type":"Point","coordinates":[-122.333383,37.93648]}},{"properties":{"city":"Richmond","business":"Planned Parenthood","latitude":37.932629,"comments":"The bread and butter of reproductive health services, though now more limited after Oakland clinics closed last year.","type":"Clinic","link":"http://www.plannedparenthood.org/shasta-pacific/","telephone":"510-232-1520","longitude":-122.346413,"id":"a62g6cjd3inz","address":"101 Broadway","state":"CA"},"type":"Feature","geometry":{"type":"Point","coordinates":[-122.346413,37.932629]}}],"is_temporal":false,"author":{"url":"","metadata":"","contact_name":"","contact_address":"","source":"","contact_phone":""},"source":"","pagination":{"sort":null,"start":0,"total":32,"limit":1000000},"state":"complete","tags":"","published":"2014-08-14T19:15:42-04:00","id":203461}