{"type":"FeatureCollection","data_type":"Dataset","url_type":null,"permissions":[{"permissions":{"download":true,"view":true},"group_id":"everyone"}],"classification":null,"title":"Capital of region","count":14,"stream_id":203531,"contributor":{"url":"http://geocommons.com/users/39661","name":"okkar"},"data_attributes":null,"calculation_params":null,"icon_link":null,"link":"http://geocommons.com/overlays/203531.json","extent":[92.8855,14.0775,98.1964,25.3875],"geometry_types":["point"],"unique_name":null,"name":"Capital of region","feature_count":14,"description":"","next_feature":null,"is_raster":false,"short_classification":"Y","stats":{"Longitude":{"max":98.196364,"mean":96.0800835,"variance":2.59454280198703,"stdev":1.61075845550692,"min":92.885506,"median":96.483893},"Latitude":{"max":25.387488,"mean":19.3678685,"variance":9.57161875298719,"stdev":3.09380328285222,"min":14.077525,"median":20.137266}},"features":[{"properties":{"TS_Pcode":"MMR001001","Longitude":97.390355,"SD_Pcode":"MMR001","Latitude":25.387488,"Town_Pcode":"MMR001001701","D_Pcode":"MMR001D001","Town":"Myitkyina Town","Township":"Myitkyina","District":"Myitkyina","Level":"State Capital","Town_Mya":"jrpfBuD;em;","id":"a6hdpmoy5mgf","State_Divi":"Kachin"},"type":"Feature","geometry":{"type":"Point","coordinates":[97.390355,25.387488]}},{"properties":{"TS_Pcode":"MMR002001","Longitude":97.20993,"SD_Pcode":"MMR002","Latitude":19.67424,"Town_Pcode":"MMR002001701","D_Pcode":"MMR002D001","Town":"Loikaw Town","Township":"Loikaw","District":"Loikaw","Level":"State Capital","Town_Mya":"vGdKifaumf","id":"a6hdpmuikmj9","State_Divi":"Kayah"},"type":"Feature","geometry":{"type":"Point","coordinates":[97.20993,19.67424]}},{"properties":{"TS_Pcode":"MMR003001","Longitude":97.636909,"SD_Pcode":"MMR003","Latitude":16.880764,"Town_Pcode":"MMR003001701","D_Pcode":"MMR003D001","Town":"Hpa-An Town","Township":"Hpa-An","District":"Hpa-An","Level":"State Capital","Town_Mya":"bm;tH","id":"a6hdpmmvme82","State_Divi":"Kayin"},"type":"Feature","geometry":{"type":"Point","coordinates":[97.636909,16.880764]}},{"properties":{"TS_Pcode":"MMR004002","Longitude":93.604834,"SD_Pcode":"MMR004","Latitude":22.640108,"Town_Pcode":"MMR004002701","D_Pcode":"MMR004D001","Town":"Hakha Town","Township":"Hakha","District":"Falam","Level":"State Capital","Town_Mya":"[m;cg;","id":"a6hdpmmyyfme","State_Divi":"Chin"},"type":"Feature","geometry":{"type":"Point","coordinates":[93.604834,22.640108]}},{"properties":{"TS_Pcode":"MMR005012","Longitude":95.139633,"SD_Pcode":"MMR005","Latitude":22.121679,"Town_Pcode":"MMR005012701","D_Pcode":"MMR005D003","Town":"Monywa Town","Township":"Monywa","District":"Monywa","Level":"Township","Town_Mya":"rHk&amp;Gm","id":"a6hdpmpj8s8h","State_Divi":"Sagaing"},"type":"Feature","geometry":{"type":"Point","coordinates":[95.139633,22.121679]}},{"properties":{"TS_Pcode":"MMR006001","Longitude":98.196364,"SD_Pcode":"MMR006","Latitude":14.077525,"Town_Pcode":"MMR006001701","D_Pcode":"MMR006D001","Town":"Dawei Town","Township":"Dawei","District":"Dawei","Level":"State Capital","Town_Mya":"xm;0,f","id":"a6hdpmm71b7a","State_Divi":"Tanintharyi"},"type":"Feature","geometry":{"type":"Point","coordinates":[98.196364,14.077525]}},{"properties":{"TS_Pcode":"MMR007001","Longitude":96.483893,"SD_Pcode":"MMR007","Latitude":17.335828,"Town_Pcode":"MMR007001701","D_Pcode":"MMR007D001","Town":"Bago Town","Township":"Bago","District":"Bago","Level":"State Capital","Town_Mya":"yJcl;","id":"a6hdpmrc5zbk","State_Divi":"Bago East"},"type":"Feature","geometry":{"type":"Point","coordinates":[96.483893,17.335828]}},{"properties":{"TS_Pcode":"MMR009001","Longitude":94.926959,"SD_Pcode":"MMR009","Latitude":20.14027,"Town_Pcode":"MMR009001701","D_Pcode":"MMR009D001","Town":"Magway Town","Township":"Magway","District":"Magway","Level":"State Capital","Town_Mya":"rauG;","id":"a6hdpmqmxaku","State_Divi":"Magway"},"type":"Feature","geometry":{"type":"Point","coordinates":[94.926959,20.14027]}},{"properties":{"TS_Pcode":"MMR010004","Longitude":96.095838,"SD_Pcode":"MMR010","Latitude":21.939404,"Town_Pcode":"MMR010004701","D_Pcode":"MMR010D001","Town":"Chanmyathazi Town","Township":"Chanmyathazi","District":"Mandalay","Level":"Township2","Town_Mya":"csrf;jrompnf","id":"a6hdpmxg7dev","State_Divi":"Mandalay"},"type":"Feature","geometry":{"type":"Point","coordinates":[96.095838,21.939404]}},{"properties":{"TS_Pcode":"MMR011001","Longitude":97.625931,"SD_Pcode":"MMR011","Latitude":16.484591,"Town_Pcode":"MMR011001701","D_Pcode":"MMR011D001","Town":"Mawlamyine Town","Township":"Mawlamyine","District":"Mawlamyine","Level":"State Capital","Town_Mya":"armfvNrdKif","id":"a6hdpmlfftkb","State_Divi":"Mon"},"type":"Feature","geometry":{"type":"Point","coordinates":[97.625931,16.484591]}},{"properties":{"TS_Pcode":"MMR012001","Longitude":92.885506,"SD_Pcode":"MMR012","Latitude":20.137266,"Town_Pcode":"MMR012001701","D_Pcode":"MMR012D001","Town":"Sittwe Town","Township":"Sittwe","District":"Sittwe","Level":"State Capital","Town_Mya":"ppfawG","id":"a6hdpmvf1gef","State_Divi":"Rakhine"},"type":"Feature","geometry":{"type":"Point","coordinates":[92.885506,20.137266]}},{"properties":{"TS_Pcode":"MMR013034","Longitude":96.15601,"SD_Pcode":"MMR013","Latitude":16.776983,"Town_Pcode":"MMR013034701","D_Pcode":"MMR013D004","Town":"Yangon","Township":"Yangon","District":"Yangon (West)","Level":"Township2","Town_Mya":"yef;yJwef;","id":"a6hdpmlqk2uq","State_Divi":"Yangon"},"type":"Feature","geometry":{"type":"Point","coordinates":[96.15601,16.776983]}},{"properties":{"TS_Pcode":"MMR014001","Longitude":97.035979,"SD_Pcode":"MMR014","Latitude":20.774773,"Town_Pcode":"MMR014001701","D_Pcode":"MMR014D001","Town":"Taunggyi Town","Township":"Taunggyi","District":"Taunggyi","Level":"State Capital","Town_Mya":"awmifBuD;","id":"a6hdpms4g2hc","State_Divi":"Shan (South)"},"type":"Feature","geometry":{"type":"Point","coordinates":[97.035979,20.774773]}},{"properties":{"TS_Pcode":"MMR017001","Longitude":94.733028,"SD_Pcode":"MMR017","Latitude":16.77924,"Town_Pcode":"MMR017001701","D_Pcode":"MMR017D001","Town":"Pathein Town","Township":"Pathein","District":"Pathein","Level":"State Capital","Town_Mya":"ykodrf","id":"a6hdpmq0your","State_Divi":"Ayeyarwady"},"type":"Feature","geometry":{"type":"Point","coordinates":[94.733028,16.77924]}}],"is_temporal":false,"author":{"url":"","metadata":"","contact_name":"","contact_address":"","source":"","contact_phone":""},"source":"","pagination":{"sort":null,"start":0,"total":14,"limit":1000000},"state":"complete","tags":"","published":"2014-08-14T19:22:20-04:00","id":203531}