{"type":"FeatureCollection","data_type":"Dataset","url_type":null,"permissions":[{"permissions":{"download":true,"view":true},"group_id":"everyone"}],"classification":null,"title":"Domestic Airports in DRC","count":73,"stream_id":203789,"contributor":{"url":"http://geocommons.com/users/38656","name":"justgio"},"data_attributes":null,"calculation_params":null,"icon_link":null,"link":"http://geocommons.com/overlays/203789.json","extent":[12.188,-10.7663,31.0251,4.71754],"geometry_types":["point"],"unique_name":null,"name":"Domestic Airports in DRC","feature_count":73,"description":"This map presents all domestic airports in DRC.","next_feature":null,"is_raster":false,"short_classification":"Y","stats":{"lon":{"max":31.02508,"mean":23.1130712534246,"variance":25.8131327224446,"stdev":5.08066262631604,"min":12.188,"median":22.92835},"lat":{"max":4.71754,"mean":-3.91782219452055,"variance":19.6131662001072,"stdev":4.42867544533433,"min":-10.766295,"median":-5.30314}},"features":[{"properties":{"lon":29.4757041,"airport name":"Beni Airport","city":"Beni","surface":"Paved","code":"BNC","international":"No","country":"DRC","id":"a6jdw2q61vq5","lat":0.5092644,"state":"Nord-Kivu"},"type":"Feature","geometry":{"type":"Point","coordinates":[29.4757041,0.5092644]}},{"properties":{"lon":13.0637285,"airport name":"Boma Airport","city":"Boma","surface":"Unpaved","code":"BOA","international":"No","country":"DRC","id":"a6jdw2vzkkr5","lat":-5.8540065,"state":"Congo Central"},"type":"Feature","geometry":{"type":"Point","coordinates":[13.0637285,-5.8540065]}},{"properties":{"lon":28.8094252,"airport name":"Kamenbe","city":"Bukavu","surface":"Paved","code":"BKY","international":"No","country":"DRC","id":"a6jdw2t8vhwy","lat":-2.3152705,"state":"Sud-Kivu"},"type":"Feature","geometry":{"type":"Point","coordinates":[28.8094252,-2.3152705]}},{"properties":{"lon":30.2209801,"airport name":"Bunia Airport","city":"Bunia","surface":"Paved","code":"BUX","international":"No","country":"DRC","id":"a6jdw2r7n4m7","lat":1.5672049,"state":"Ituri"},"type":"Feature","geometry":{"type":"Point","coordinates":[30.2209801,1.5672049]}},{"properties":{"lon":20.9758113,"airport name":"Gbadolite Airport","city":"Gbadolite","surface":"Paved","code":"BDT","international":"No","country":"DRC","id":"a6jdw2vly4z2","lat":4.2529659,"state":"Nord-Ubangi"},"type":"Feature","geometry":{"type":"Point","coordinates":[20.9758113,4.2529659]}},{"properties":{"lon":19.77014,"airport name":"Gemena Airport","city":"Gemena","surface":"Paved","code":"GMA","international":"No","country":"DRC","id":"a6jdw2r0szeb","lat":3.235556,"state":"Sub-Ubangi"},"type":"Feature","geometry":{"type":"Point","coordinates":[19.77014,3.235556]}},{"properties":{"lon":22.46985,"airport name":"Kananga Airport","city":"Kananga","surface":"Paved","code":"KGA","international":"No","country":"DRC","id":"a6jdw2qa9iwc","lat":-5.9001832,"state":"Lulua"},"type":"Feature","geometry":{"type":"Point","coordinates":[22.46985,-5.9001832]}},{"properties":{"lon":25.915138,"airport name":"Kindu Airport","city":"Kindu","surface":"Paved","code":"KND","international":"No","country":"DRC","id":"a6jdw2u8q5yy","lat":-2.92075,"state":"Maniema"},"type":"Feature","geometry":{"type":"Point","coordinates":[25.915138,-2.92075]}},{"properties":{"lon":15.3273875,"airport name":"N'Dolo Airport","city":"Kinshasa","surface":"Paved","code":"NLO","international":"No","country":"DRC","id":"a6jdw2oyykbk","lat":-4.3264288,"state":"Kinshasa"},"type":"Feature","geometry":{"type":"Point","coordinates":[15.3273875,-4.3264288]}},{"properties":{"lon":25.507514,"airport name":"Kolwezi Airport","city":"Kolwezi","surface":"Paved","code":"KWZ","international":"No","country":"DRC","id":"a6jdw2wv33ig","lat":-10.766295,"state":"Katanga"},"type":"Feature","geometry":{"type":"Point","coordinates":[25.507514,-10.766295]}},{"properties":{"lon":13.440911,"airport name":"Matadi Airport","city":"Matadi","surface":"Unpaved","code":"MAT","international":"No","country":"DRC","id":"a6jdw31ulyxr","lat":-5.799475,"state":"Congo Central"},"type":"Feature","geometry":{"type":"Point","coordinates":[13.440911,-5.799475]}},{"properties":{"lon":18.2891791,"airport name":"Mbandaka Airport","city":"Mbandaka","surface":"Paved","code":"MDK","international":"No","country":"DRC","id":"a6jdw2xtbajx","lat":0.0225888,"state":"Equateur"},"type":"Feature","geometry":{"type":"Point","coordinates":[18.2891791,0.0225888]}},{"properties":{"lon":23.569029,"airport name":"Mbuji Mayi Airport","city":"Mbuji Mayi","surface":"Paved","code":"MJM","international":"No","country":"DRC","id":"a6jdw30fumha","lat":-6.119994,"state":"Kasai-oriental"},"type":"Feature","geometry":{"type":"Point","coordinates":[23.569029,-6.119994]}},{"properties":{"lon":12.350833,"airport name":"Moanda Airport","city":"Moanda","surface":"Paved","code":"MNB","international":"No","country":"DRC","id":"a6jdw2y8v347","lat":-5.934444,"state":"Congo Central"},"type":"Feature","geometry":{"type":"Point","coordinates":[12.350833,-5.934444]}},{"properties":{"lon":30.25555,"airport name":"Aba","city":"Aba","surface":"Unpaved","code":"FZJF","international":"No","country":"DRC","id":"a6jdw2vgh1g6","lat":3.860267,"state":"Haut-Uele"},"type":"Feature","geometry":{"type":"Point","coordinates":[30.25555,3.860267]}},{"properties":{"lon":17.3823884,"airport name":"Bandundu Airport","city":"Bandundu","surface":"Paved","code":"FDU","international":"No","country":"DRC","id":"a6jdw2pv3sj5","lat":-3.3115485,"state":"Kwango"},"type":"Feature","geometry":{"type":"Point","coordinates":[17.3823884,-3.3115485]}},{"properties":{"lon":20.600909,"airport name":"Beongo","city":"Beongo","surface":"Unpaved","code":"FZEO","international":"No","country":"DRC","id":"a6jdw2pg4obd","lat":1.015205,"state":"Tshuapa"},"type":"Feature","geometry":{"type":"Point","coordinates":[20.600909,1.015205]}},{"properties":{"lon":21.782054,"airport name":"Bosondjo","city":"Bosondjo","surface":"Paved","code":"FZGB","international":"No","country":"DRC","id":"a6jdw2phuh0q","lat":1.866289,"state":"Mongala"},"type":"Feature","geometry":{"type":"Point","coordinates":[21.782054,1.866289]}},{"properties":{"lon":24.7956362,"airport name":"Buta Airport","city":"Buta","surface":"Paved","code":"BZU","international":"No","country":"DRC","id":"a6jdw2yhp3ia","lat":2.8212129,"state":"Bas-Uele"},"type":"Feature","geometry":{"type":"Point","coordinates":[24.7956362,2.8212129]}},{"properties":{"lon":21.24051,"airport name":"Diboko","city":"Diboko","surface":"Unpaved","code":"FZUP","international":"No","country":"DRC","id":"a6jdw2vzlj09","lat":-7.00256,"state":"Kasai"},"type":"Feature","geometry":{"type":"Point","coordinates":[21.24051,-7.00256]}},{"properties":{"lon":29.59111,"airport name":"Doko","city":"Doko","surface":"Unpaved","code":"FZJB","international":"No","country":"DRC","id":"a6jdw2p6fhu3","lat":3.137509,"state":"Haut-Uele"},"type":"Feature","geometry":{"type":"Point","coordinates":[29.59111,3.137509]}},{"properties":{"lon":27.69138,"airport name":"Doruma","city":"Doruma","surface":"Unpaved","code":"FZJD","international":"No","country":"DRC","id":"a6jdw31ymfbd","lat":4.71754,"state":"Haut-Uele"},"type":"Feature","geometry":{"type":"Point","coordinates":[27.69138,4.71754]}},{"properties":{"lon":22.65029,"airport name":"Engengele","city":"Engengele","surface":"Unpaved","code":"FZFC","international":"No","country":"DRC","id":"a6jdw2x4jlft","lat":2.1172,"state":"Mongala"},"type":"Feature","geometry":{"type":"Point","coordinates":[22.65029,2.1172]}},{"properties":{"lon":29.7126456,"airport name":"Faradje","city":"Faradje","surface":"Unpaved","code":"FZJK","international":"No","country":"DRC","id":"a6jdw2vaonsr","lat":3.7121699,"state":"Haut-Uele"},"type":"Feature","geometry":{"type":"Point","coordinates":[29.7126456,3.7121699]}},{"properties":{"lon":19.50529,"airport name":"Idiofa Airport","city":"Idiofa","surface":"Paved","code":"IDF","international":"No","country":"DRC","id":"a6jdw2z0ozgd","lat":-4.98948,"state":"Kwilu"},"type":"Feature","geometry":{"type":"Point","coordinates":[19.50529,-4.98948]}},{"properties":{"lon":21.5526,"airport name":"Idumbe","city":"Idumbe","surface":"Unpaved","code":"FZVU","international":"No","country":"DRC","id":"a6jdw2y8n17o","lat":-3.9366,"state":"Kasai"},"type":"Feature","geometry":{"type":"Point","coordinates":[21.5526,-3.9366]}},{"properties":{"lon":13.57891,"airport name":"Inga","city":"Inga","surface":"Paved","code":"FZAN","international":"No","country":"DRC","id":"a6jdw31z2rtp","lat":-5.53071,"state":"Congo Central"},"type":"Feature","geometry":{"type":"Point","coordinates":[13.57891,-5.53071]}},{"properties":{"lon":18.2859464,"airport name":"Inongo Airport","city":"Inongo","surface":"Unpaved","code":"INO","international":"No","country":"DRC","id":"a6jdw2rj6gm6","lat":-1.9465407,"state":"Kwango"},"type":"Feature","geometry":{"type":"Point","coordinates":[18.2859464,-1.9465407]}},{"properties":{"lon":27.58982,"airport name":"Matari","city":"Isiro","surface":"Paved","code":"IRP","international":"No","country":"DRC","id":"a6jdw2tp81q6","lat":2.82644,"state":"Haut-Uele"},"type":"Feature","geometry":{"type":"Point","coordinates":[27.58982,2.82644]}},{"properties":{"lon":26.916667,"airport name":"Kabalo Airport","city":"Kabalo","surface":"Unpaved","code":"KBO","international":"No","country":"DRC","id":"a6jdw2xsolvu","lat":-6.083333,"state":"Tanganyika"},"type":"Feature","geometry":{"type":"Point","coordinates":[26.916667,-6.083333]}},{"properties":{"lon":18.98961,"airport name":"Kahemba","city":"Kahemba","surface":"Unpaved","code":"FZCF","international":"No","country":"DRC","id":"a6jdw2xytiw2","lat":-7.34103,"state":"Kwango"},"type":"Feature","geometry":{"type":"Point","coordinates":[18.98961,-7.34103]}},{"properties":{"lon":29.245277,"airport name":"Kalemie Airport","city":"Kalemie","surface":"Paved","code":"FMI","international":"No","country":"DRC","id":"a6jdw2m2y3lc","lat":-5.878333,"state":"Tanganyika"},"type":"Feature","geometry":{"type":"Point","coordinates":[29.245277,-5.878333]}},{"properties":{"lon":26.6254,"airport name":"Kamisuku","city":"Kalima","surface":"Unpaved","code":"FZOC","international":"No","country":"DRC","id":"a6jdw2not7bc","lat":-2.5549,"state":"Maniema"},"type":"Feature","geometry":{"type":"Point","coordinates":[26.6254,-2.5549]}},{"properties":{"lon":24.99415,"airport name":"Kamina","city":"Kamina","surface":"Unpaved","code":"FZSB","international":"No","country":"DRC","id":"a6jdw2ndfh5f","lat":-8.7293,"state":"Haut-Lomami"},"type":"Feature","geometry":{"type":"Point","coordinates":[24.99415,-8.7293]}},{"properties":{"lon":22.648778,"airport name":"Kapanga Airport","city":"Kapanga","surface":"Unpaved","code":"KAP","international":"No","country":"DRC","id":"a6jdw2x3kq3z","lat":-8.368333,"state":"Lualaba"},"type":"Feature","geometry":{"type":"Point","coordinates":[22.648778,-8.368333]}},{"properties":{"lon":28.61692,"airport name":"Kasenga Airport","city":"Kasenga","surface":"Unpaved","code":"KEC","international":"No","country":"DRC","id":"a6jdw31u3oya","lat":-10.35634,"state":"Haut Katanga"},"type":"Feature","geometry":{"type":"Point","coordinates":[28.61692,-10.35634]}},{"properties":{"lon":26.6008,"airport name":"Kasonga","city":"Kasonga","surface":"Unpaved","code":"FZUF","international":"No","country":"DRC","id":"a6jdw31dhmm7","lat":-4.524364,"state":"Maniema"},"type":"Feature","geometry":{"type":"Point","coordinates":[26.6008,-4.524364]}},{"properties":{"lon":27.85122,"airport name":"Katwe","city":"Katwe","surface":"Unpaved","code":"FZQH","international":"No","country":"DRC","id":"a6jdw2nz4t2i","lat":-10.56233,"state":"Haut-Katanga"},"type":"Feature","geometry":{"type":"Point","coordinates":[27.85122,-10.56233]}},{"properties":{"lon":17.02962,"airport name":"Kenge","city":"Kenge","surface":"Unpaved","code":"FZCS","international":"No","country":"DRC","id":"a6jdw2ycvs5d","lat":-4.83758,"state":"Kwango"},"type":"Feature","geometry":{"type":"Point","coordinates":[17.02962,-4.83758]}},{"properties":{"lon":18.7844141,"airport name":"Kikwit Airport","city":"Kikwit","surface":"Paved","code":"KKW","international":"No","country":"DRC","id":"a6jdw2xvkhog","lat":-5.038035,"state":"Kwilu"},"type":"Feature","geometry":{"type":"Point","coordinates":[18.7844141,-5.038035]}},{"properties":{"lon":28.32694,"airport name":"Kilwa Airport","city":"Kilwa","surface":"Paved","code":"KIL","international":"No","country":"DRC","id":"a6jdw2o74ssw","lat":-9.28894,"state":"Haut-Katanga"},"type":"Feature","geometry":{"type":"Point","coordinates":[28.32694,-9.28894]}},{"properties":{"lon":23.17469,"airport name":"Kisenge","city":"Kisenge","surface":"Unpaved","code":"FZQP","international":"No","country":"DRC","id":"a6jdw2sdm8q6","lat":-10.66702,"state":"Lualaba"},"type":"Feature","geometry":{"type":"Point","coordinates":[23.17469,-10.66702]}},{"properties":{"lon":12.446139,"airport name":"Kitona Base","city":"Kitona","surface":"Paved","code":"FZAI","international":"No","country":"DRC","id":"a6jdw2ppcnyg","lat":-5.919389,"state":"Congo Central"},"type":"Feature","geometry":{"type":"Point","coordinates":[12.446139,-5.919389]}},{"properties":{"lon":12.188,"airport name":"Konde","city":"Konde","surface":"Paved","code":"FZAU","international":"No","country":"DRC","id":"a6jdw2nc1x52","lat":-5.5934,"state":"Cabinda"},"type":"Feature","geometry":{"type":"Point","coordinates":[12.188,-5.5934]}},{"properties":{"lon":26.99078,"airport name":"Kongolo Airport","city":"Kongolo","surface":"Unpaved","code":"KOO","international":"No","country":"DRC","id":"a6jdw2qfs3o4","lat":-5.39409,"state":"Tanganyika"},"type":"Feature","geometry":{"type":"Point","coordinates":[26.99078,-5.39409]}},{"properties":{"lon":21.6672,"airport name":"Kotakoli","city":"Kotakoli","surface":"Unpaved","code":"FZFP","international":"No","country":"DRC","id":"a6jdw2wwjcu0","lat":4.1581,"state":"Nord-Ubangi"},"type":"Feature","geometry":{"type":"Point","coordinates":[21.6672,4.1581]}},{"properties":{"lon":18.63784,"airport name":"Libenge Airport","city":"Libenge","surface":"Paved","code":"LIE","international":"No","country":"DRC","id":"a6jdw30kucf3","lat":3.62745,"state":"Sud-Ubangi"},"type":"Feature","geometry":{"type":"Point","coordinates":[18.63784,3.62745]}},{"properties":{"lon":29.2432,"airport name":"Lubero","city":"Lubero","surface":"Unpaved","code":"FZNF","international":"No","country":"DRC","id":"a6jdw2zudpkz","lat":-0.1534,"state":"Nord-Kivu"},"type":"Feature","geometry":{"type":"Point","coordinates":[29.2432,-0.1534]}},{"properties":{"lon":25.9705,"airport name":"Lubudi","city":"Lubudi","surface":"Unpaved","code":"FZQU","international":"No","country":"DRC","id":"a6jdw2mjc4tq","lat":-9.91396,"state":"Lualba"},"type":"Feature","geometry":{"type":"Point","coordinates":[25.9705,-9.91396]}},{"properties":{"lon":21.40939,"airport name":"Luebo","city":"Luebo","surface":"Unpaved","code":"FZUN","international":"No","country":"DRC","id":"a6jdw2yvq6e0","lat":-5.30314,"state":"Kasai"},"type":"Feature","geometry":{"type":"Point","coordinates":[21.40939,-5.30314]}},{"properties":{"lon":22.392218,"airport name":"Luiza Airport","city":"Luiza","surface":"Unpaved","code":"LZA","international":"No","country":"DRC","id":"a6jdw2xl50q6","lat":-7.189229,"state":"Lulua"},"type":"Feature","geometry":{"type":"Point","coordinates":[22.392218,-7.189229]}},{"properties":{"lon":23.3786333,"airport name":"Lusambo Airport","city":"Lusambo","surface":"Unpaved","code":"LBO","international":"No","country":"DRC","id":"a6jdw2onjufy","lat":-4.9624504,"state":"Sankuru"},"type":"Feature","geometry":{"type":"Point","coordinates":[23.3786333,-4.9624504]}},{"properties":{"lon":18.7189,"airport name":"Lusanga Airport","city":"Lusanga","surface":"Unpaved","code":"LUS","international":"No","country":"DRC","id":"a6jdw2sej9az","lat":-4.80429,"state":"Kwilu"},"type":"Feature","geometry":{"type":"Point","coordinates":[18.7189,-4.80429]}},{"properties":{"lon":27.19652,"airport name":"Lusinga","city":"Lusinga","surface":"Paved","code":"FZRL","international":"No","country":"DRC","id":"a6jdw2tlh7mb","lat":-8.92672,"state":"Haut-Katanga"},"type":"Feature","geometry":{"type":"Point","coordinates":[27.19652,-8.92672]}},{"properties":{"lon":28.52857,"airport name":"Luvua","city":"Luvua","surface":"Unpaved","code":"FZRO","international":"No","country":"DRC","id":"a6jdw31trern","lat":-7.92916,"state":"Haut-Katanga"},"type":"Feature","geometry":{"type":"Point","coordinates":[28.52857,-7.92916]}},{"properties":{"lon":31.02508,"airport name":"Mahagi","city":"Mahagi","surface":"Unpaved","code":"FZKC","international":"No","country":"DRC","id":"a6jdw2u14tby","lat":2.29279,"state":"Ituri"},"type":"Feature","geometry":{"type":"Point","coordinates":[31.02508,2.29279]}},{"properties":{"lon":26.71311,"airport name":"Malanga","city":"Malanga","surface":"Unpaved","code":"FZDA","international":"No","country":"DRC","id":"a6jdw2nsiv39","lat":-6.51975,"state":"Tanganyika"},"type":"Feature","geometry":{"type":"Point","coordinates":[26.71311,-6.51975]}},{"properties":{"lon":27.3950637,"airport name":"Manono Airport","city":"Manono","surface":"Unpaved","code":"MNO","international":"No","country":"DRC","id":"a6jdw2sfo979","lat":-7.2894946,"state":"Tanganyika"},"type":"Feature","geometry":{"type":"Point","coordinates":[27.3950637,-7.2894946]}},{"properties":{"lon":17.8545,"airport name":"Masi Manimba Airport","city":"Masi Manimba","surface":"Unpaved","code":"MSM","international":"No","country":"DRC","id":"a6jdw2x3g3vt","lat":-4.7825,"state":"Kwilu"},"type":"Feature","geometry":{"type":"Point","coordinates":[17.8545,-4.7825]}},{"properties":{"lon":27.34423,"airport name":"Mitwaba","city":"Mitwaba","surface":"Paved","code":"FZQV","international":"No","country":"DRC","id":"a6jdw2qcuzwl","lat":-8.64434,"state":"Haut-Katanga"},"type":"Feature","geometry":{"type":"Point","coordinates":[27.34423,-8.64434]}},{"properties":{"lon":29.73624,"airport name":"Moba Airport","city":"Moba","surface":"Paved","code":"BDV","international":"No","country":"DRC","id":"a6jdw2ztkpn0","lat":-7.08533,"state":"Tanganyika"},"type":"Feature","geometry":{"type":"Point","coordinates":[29.73624,-7.08533]}},{"properties":{"lon":16.91965,"airport name":"Mongowakenda","city":"Mongowakenda","surface":"Unpaved","code":"FZDN","international":"No","country":"DRC","id":"a6jdw32a9wa1","lat":-6.91659,"state":"Kwango"},"type":"Feature","geometry":{"type":"Point","coordinates":[16.91965,-6.91659]}},{"properties":{"lon":20.6875,"airport name":"Monkoto","city":"Monkoto","surface":"Unpaved","code":"FZGX","international":"No","country":"DRC","id":"a6jdw2oa1mm1","lat":-1.7414,"state":"Tshuapa"},"type":"Feature","geometry":{"type":"Point","coordinates":[20.6875,-1.7414]}},{"properties":{"lon":19.22816,"airport name":"Mpaka","city":"Mpaka","surface":"Unpaved","code":"FZFQ","international":"No","country":"DRC","id":"a6jdw315060k","lat":4.10458,"state":"Sub-Ubangi"},"type":"Feature","geometry":{"type":"Point","coordinates":[19.22816,4.10458]}},{"properties":{"lon":23.0537458,"airport name":"Munkamba","city":"Munkamba","surface":"Unpaved","code":"FZWL","international":"No","country":"DRC","id":"a6jdw2yvwntd","lat":-5.7599329,"state":"Lulua"},"type":"Feature","geometry":{"type":"Point","coordinates":[23.0537458,-5.7599329]}},{"properties":{"lon":20.6758,"airport name":"Mutena","city":"Mutena","surface":"Unpaved","code":"FZDJ","international":"No","country":"DRC","id":"a6jdw2q7f89o","lat":-6.1463,"state":"Kasai"},"type":"Feature","geometry":{"type":"Point","coordinates":[20.6758,-6.1463]}},{"properties":{"lon":21.54299,"airport name":"Mweka Airport","city":"Mweka","surface":"Unpaved","code":"MEW","international":"No","country":"DRC","id":"a6jdw2zy82qk","lat":-4.8553,"state":"Kasai"},"type":"Feature","geometry":{"type":"Point","coordinates":[21.54299,-4.8553]}},{"properties":{"lon":28.044821,"airport name":"Nyunzu","city":"Nyunzu","surface":"Unpaved","code":"FZRN","international":"No","country":"DRC","id":"a6jdw308jdx4","lat":-5.951838,"state":"Tanganyika"},"type":"Feature","geometry":{"type":"Point","coordinates":[28.044821,-5.951838]}},{"properties":{"lon":27.99004,"airport name":"Nzovu","city":"Nzovu","surface":"Unpaved","code":"FZMD","international":"No","country":"DRC","id":"a6jdw2rg25eh","lat":-2.57407,"state":"Sub-Kivu"},"type":"Feature","geometry":{"type":"Point","coordinates":[27.99004,-2.57407]}},{"properties":{"lon":28.8897165,"airport name":"Pweto Airport","city":"Pweto","surface":"Unpaved","code":"PWO","international":"No","country":"DRC","id":"a6jdw2npx9ql","lat":-8.4685786,"state":"Haut-Katanga"},"type":"Feature","geometry":{"type":"Point","coordinates":[28.8897165,-8.4685786]}},{"properties":{"lon":22.92835,"airport name":"Sandoa","city":"Sandoa","surface":"Unpaved","code":"FZSD","international":"No","country":"DRC","id":"a6jdw2wfi127","lat":-9.71755,"state":"Lualaba"},"type":"Feature","geometry":{"type":"Point","coordinates":[22.92835,-9.71755]}},{"properties":{"lon":22.45796,"airport name":"Tshikaji","city":"Tshikaji","surface":"Unpaved","code":"FZUS","international":"No","country":"DRC","id":"a6jdw2r401q2","lat":-5.97889,"state":"Lulua"},"type":"Feature","geometry":{"type":"Point","coordinates":[22.45796,-5.97889]}},{"properties":{"lon":20.7941977,"airport name":"Tshikapa Airport","city":"Tshikapa","surface":"Unpaved","code":"TSH","international":"No","country":"DRC","id":"a6jdw2z1g09l","lat":-6.4401363,"state":"Kasai"},"type":"Feature","geometry":{"type":"Point","coordinates":[20.7941977,-6.4401363]}}],"is_temporal":false,"author":{"url":"","metadata":"","contact_name":"","contact_address":"","source":"","contact_phone":""},"source":"","pagination":{"sort":null,"start":0,"total":73,"limit":1000000},"state":"complete","tags":"","published":"2014-08-14T19:41:24-04:00","id":203789}