{"type":"FeatureCollection","data_type":"Dataset","url_type":null,"permissions":[{"permissions":{"download":true,"view":true},"group_id":"everyone"}],"classification":null,"title":"Oregon Medicaid","count":265,"stream_id":204022,"contributor":{"url":"http://geocommons.com/users/39802","name":"dinoamino"},"data_attributes":null,"calculation_params":null,"icon_link":null,"link":"http://geocommons.com/overlays/204022.json","extent":[-163.238,41.646,-70.3048,62.1172],"geometry_types":["point"],"unique_name":null,"name":"Oregon Medicaid","feature_count":265,"description":"","next_feature":null,"is_raster":false,"short_classification":"Y","stats":{"count":{"max":27,"mean":4.13584905660377,"variance":22.0496569468268,"stdev":4.695706224502,"min":1,"median":2}},"features":[{"properties":{"zipcode":"04260","geo_score":0.714,"count":1,"id":"a62xcc9q3e17","geo_precision":"zip"},"type":"Feature","geometry":{"type":"Point","coordinates":[-70.304776,43.939798]}},{"properties":{"zipcode":"59829","geo_score":0.714,"count":1,"id":"a62xcc4aw4ui","geo_precision":"zip"},"type":"Feature","geometry":{"type":"Point","coordinates":[-114.176841,46.086434]}},{"properties":{"zipcode":"83338","geo_score":0.714,"count":1,"id":"a62xcc17kzra","geo_precision":"zip"},"type":"Feature","geometry":{"type":"Point","coordinates":[-114.377814,42.681298]}},{"properties":{"zipcode":"83619","geo_score":0.714,"count":1,"id":"a62xcc94akzb","geo_precision":"zip"},"type":"Feature","geometry":{"type":"Point","coordinates":[-116.900775,43.974615]}},{"properties":{"zipcode":"83624","geo_score":0.714,"count":1,"id":"a62xccajgwst","geo_precision":"zip"},"type":"Feature","geometry":{"type":"Point","coordinates":[-116.510261,43.300562]}},{"properties":{"zipcode":"83686","geo_score":0.714,"count":1,"id":"a62xccdnfqki","geo_precision":"zip"},"type":"Feature","geometry":{"type":"Point","coordinates":[-116.540959,43.455996]}},{"properties":{"zipcode":"83687","geo_score":0.714,"count":1,"id":"a62xccb2g4z0","geo_precision":"zip"},"type":"Feature","geometry":{"type":"Point","coordinates":[-116.552636,43.602302]}},{"properties":{"zipcode":"83705","geo_score":0.714,"count":1,"id":"a62xccclxfqf","geo_precision":"zip"},"type":"Feature","geometry":{"type":"Point","coordinates":[-116.223203,43.565639]}},{"properties":{"zipcode":"83814","geo_score":0.714,"count":1,"id":"a62xcc3v0hfi","geo_precision":"zip"},"type":"Feature","geometry":{"type":"Point","coordinates":[-116.878518,47.505182]}},{"properties":{"zipcode":"95567","geo_score":0.714,"count":1,"id":"a62xcc24clsn","geo_precision":"zip"},"type":"Feature","geometry":{"type":"Point","coordinates":[-124.159812,41.925977]}},{"properties":{"zipcode":"96097","geo_score":0.714,"count":1,"id":"a62xcc43hm52","geo_precision":"zip"},"type":"Feature","geometry":{"type":"Point","coordinates":[-122.621971,41.760696]}},{"properties":{"zipcode":"96134","geo_score":0.714,"count":1,"id":"a62xcc1hsjzl","geo_precision":"zip"},"type":"Feature","geometry":{"type":"Point","coordinates":[-121.328042,41.645994]}},{"properties":{"zipcode":"97001","geo_score":0.714,"count":1,"id":"a62xccdqtk0t","geo_precision":"zip"},"type":"Feature","geometry":{"type":"Point","coordinates":[-121.981192,45.354286]}},{"properties":{"zipcode":"97002","geo_score":0.714,"count":2,"id":"a62xcc3so1ul","geo_precision":"zip"},"type":"Feature","geometry":{"type":"Point","coordinates":[-122.815929,45.248175]}},{"properties":{"zipcode":"97005","geo_score":0.714,"count":4,"id":"a62xcc5e4a7c","geo_precision":"zip"},"type":"Feature","geometry":{"type":"Point","coordinates":[-122.902324,45.497617]}},{"properties":{"zipcode":"97006","geo_score":0.714,"count":10,"id":"a62xcc3xaz8z","geo_precision":"zip"},"type":"Feature","geometry":{"type":"Point","coordinates":[-122.860376,45.52013]}},{"properties":{"zipcode":"97007","geo_score":0.714,"count":9,"id":"a62xcc978gge","geo_precision":"zip"},"type":"Feature","geometry":{"type":"Point","coordinates":[-122.867045,45.494284]}},{"properties":{"zipcode":"97008","geo_score":0.714,"count":5,"id":"a62xcc1gz3kc","geo_precision":"zip"},"type":"Feature","geometry":{"type":"Point","coordinates":[-122.799559,45.45602]}},{"properties":{"zipcode":"97009","geo_score":0.714,"count":1,"id":"a62xcc4wkky1","geo_precision":"zip"},"type":"Feature","geometry":{"type":"Point","coordinates":[-122.308144,45.418454]}},{"properties":{"zipcode":"97013","geo_score":0.714,"count":13,"id":"a62xcc902scq","geo_precision":"zip"},"type":"Feature","geometry":{"type":"Point","coordinates":[-122.661758,45.270677]}},{"properties":{"zipcode":"97015","geo_score":0.714,"count":2,"id":"a62xcc5dapoy","geo_precision":"zip"},"type":"Feature","geometry":{"type":"Point","coordinates":[-122.527591,45.426787]}},{"properties":{"zipcode":"97016","geo_score":0.714,"count":4,"id":"a62xcc4az0v1","geo_precision":"zip"},"type":"Feature","geometry":{"type":"Point","coordinates":[-123.324291,46.114555]}},{"properties":{"zipcode":"97020","geo_score":0.714,"count":1,"id":"a62xcbzz94yd","geo_precision":"zip"},"type":"Feature","geometry":{"type":"Point","coordinates":[-122.840536,45.219924]}},{"properties":{"zipcode":"97022","geo_score":0.714,"count":1,"id":"a62xccb5vg3n","geo_precision":"zip"},"type":"Feature","geometry":{"type":"Point","coordinates":[-122.228974,45.331231]}},{"properties":{"zipcode":"97024","geo_score":0.714,"count":3,"id":"a62xccd10z3l","geo_precision":"zip"},"type":"Feature","geometry":{"type":"Point","coordinates":[-122.53636,45.544407]}},{"properties":{"zipcode":"97026","geo_score":0.714,"count":3,"id":"a62xcc6fn8v3","geo_precision":"zip"},"type":"Feature","geometry":{"type":"Point","coordinates":[-122.942319,45.122619]}},{"properties":{"zipcode":"97027","geo_score":0.714,"count":4,"id":"a62xcc4lutvy","geo_precision":"zip"},"type":"Feature","geometry":{"type":"Point","coordinates":[-122.59322,45.390442]}},{"properties":{"zipcode":"97030","geo_score":0.714,"count":19,"id":"a62xcceqmoua","geo_precision":"zip"},"type":"Feature","geometry":{"type":"Point","coordinates":[-122.393424,45.486509]}},{"properties":{"zipcode":"97031","geo_score":0.714,"count":3,"id":"a62xcce6v777","geo_precision":"zip"},"type":"Feature","geometry":{"type":"Point","coordinates":[-121.544518,45.679007]}},{"properties":{"zipcode":"97032","geo_score":0.714,"count":1,"id":"a62xcc9on6le","geo_precision":"zip"},"type":"Feature","geometry":{"type":"Point","coordinates":[-122.681757,45.138177]}},{"properties":{"zipcode":"97034","geo_score":0.714,"count":1,"id":"a62xccdgpkf1","geo_precision":"zip"},"type":"Feature","geometry":{"type":"Point","coordinates":[-122.660372,45.424286]}},{"properties":{"zipcode":"97035","geo_score":0.714,"count":2,"id":"a62xcc2u4g3s","geo_precision":"zip"},"type":"Feature","geometry":{"type":"Point","coordinates":[-122.723058,45.408077]}},{"properties":{"zipcode":"97037","geo_score":0.714,"count":1,"id":"a62xcc1l42ha","geo_precision":"zip"},"type":"Feature","geometry":{"type":"Point","coordinates":[-121.363676,45.108728]}},{"properties":{"zipcode":"97038","geo_score":0.714,"count":1,"id":"a62xcc4nw1bv","geo_precision":"zip"},"type":"Feature","geometry":{"type":"Point","coordinates":[-122.538976,45.143178]}},{"properties":{"zipcode":"97039","geo_score":0.714,"count":1,"id":"a62xcbyxegs7","geo_precision":"zip"},"type":"Feature","geometry":{"type":"Point","coordinates":[-120.684499,45.502564]}},{"properties":{"zipcode":"97040","geo_score":0.714,"count":1,"id":"a62xcc0pdm35","geo_precision":"zip"},"type":"Feature","geometry":{"type":"Point","coordinates":[-121.37902,45.65079]}},{"properties":{"zipcode":"97044","geo_score":0.714,"count":1,"id":"a62xcc5sn0hq","geo_precision":"zip"},"type":"Feature","geometry":{"type":"Point","coordinates":[-121.536658,45.643738]}},{"properties":{"zipcode":"97045","geo_score":0.714,"count":11,"id":"a62xcc0cllem","geo_precision":"zip"},"type":"Feature","geometry":{"type":"Point","coordinates":[-122.492866,45.343455]}},{"properties":{"zipcode":"97048","geo_score":0.714,"count":2,"id":"a62xcc113ex3","geo_precision":"zip"},"type":"Feature","geometry":{"type":"Point","coordinates":[-122.960389,46.093168]}},{"properties":{"zipcode":"97051","geo_score":0.714,"count":6,"id":"a62xcc394qkv","geo_precision":"zip"},"type":"Feature","geometry":{"type":"Point","coordinates":[-122.886772,45.866781]}},{"properties":{"zipcode":"97055","geo_score":0.714,"count":1,"id":"a62xcc457rjj","geo_precision":"zip"},"type":"Feature","geometry":{"type":"Point","coordinates":[-122.11564,45.396509]}},{"properties":{"zipcode":"97056","geo_score":0.714,"count":6,"id":"a62xcc4tc69q","geo_precision":"zip"},"type":"Feature","geometry":{"type":"Point","coordinates":[-122.879548,45.742892]}},{"properties":{"zipcode":"97058","geo_score":0.714,"count":11,"id":"a62xcc7b3lvr","geo_precision":"zip"},"type":"Feature","geometry":{"type":"Point","coordinates":[-121.268406,45.672343]}},{"properties":{"zipcode":"97060","geo_score":0.714,"count":3,"id":"a62xccam8ngi","geo_precision":"zip"},"type":"Feature","geometry":{"type":"Point","coordinates":[-122.418702,45.534286]}},{"properties":{"zipcode":"97062","geo_score":0.714,"count":3,"id":"a62xcccz4enw","geo_precision":"zip"},"type":"Feature","geometry":{"type":"Point","coordinates":[-122.753984,45.359286]}},{"properties":{"zipcode":"97068","geo_score":0.714,"count":3,"id":"a62xccd3vu75","geo_precision":"zip"},"type":"Feature","geometry":{"type":"Point","coordinates":[-122.667037,45.344287]}},{"properties":{"zipcode":"97071","geo_score":0.714,"count":13,"id":"a62xcc89n9rh","geo_precision":"zip"},"type":"Feature","geometry":{"type":"Point","coordinates":[-122.895929,45.154842]}},{"properties":{"zipcode":"97080","geo_score":0.714,"count":7,"id":"a62xcc9vgdw9","geo_precision":"zip"},"type":"Feature","geometry":{"type":"Point","coordinates":[-122.38675,45.481252]}},{"properties":{"zipcode":"97086","geo_score":0.0,"count":1,"id":"a62xccebs1wf","geo_precision":"unmatched"},"type":"Feature","geometry":null},{"properties":{"zipcode":"97101","geo_score":0.714,"count":2,"id":"a62xccavx6ky","geo_precision":"zip"},"type":"Feature","geometry":{"type":"Point","coordinates":[-123.161491,45.09734]}},{"properties":{"zipcode":"97103","geo_score":0.714,"count":6,"id":"a62xcc4wwfry","geo_precision":"zip"},"type":"Feature","geometry":{"type":"Point","coordinates":[-123.765974,46.205107]}},{"properties":{"zipcode":"97106","geo_score":0.714,"count":1,"id":"a62xcc3w44xv","geo_precision":"zip"},"type":"Feature","geometry":{"type":"Point","coordinates":[-123.08233,45.594559]}},{"properties":{"zipcode":"97109","geo_score":0.714,"count":1,"id":"a62xcc67ghd9","geo_precision":"zip"},"type":"Feature","geometry":{"type":"Point","coordinates":[-123.196224,45.752056]}},{"properties":{"zipcode":"97110","geo_score":0.714,"count":2,"id":"a62xcccjw9zw","geo_precision":"zip"},"type":"Feature","geometry":{"type":"Point","coordinates":[-123.931458,45.946617]}},{"properties":{"zipcode":"97112","geo_score":0.714,"count":1,"id":"a62xccdaxp2b","geo_precision":"zip"},"type":"Feature","geometry":{"type":"Point","coordinates":[-123.954839,45.213993]}},{"properties":{"zipcode":"97113","geo_score":0.714,"count":9,"id":"a62xcc61bttq","geo_precision":"zip"},"type":"Feature","geometry":{"type":"Point","coordinates":[-123.047329,45.570393]}},{"properties":{"zipcode":"97114","geo_score":0.714,"count":1,"id":"a62xcc67ejqq","geo_precision":"zip"},"type":"Feature","geometry":{"type":"Point","coordinates":[-123.060656,45.143174]}},{"properties":{"zipcode":"97116","geo_score":0.714,"count":6,"id":"a62xccawmbjt","geo_precision":"zip"},"type":"Feature","geometry":{"type":"Point","coordinates":[-123.086774,45.549559]}},{"properties":{"zipcode":"97118","geo_score":0.714,"count":1,"id":"a62xcc5g2cal","geo_precision":"zip"},"type":"Feature","geometry":{"type":"Point","coordinates":[-123.900072,45.562572]}},{"properties":{"zipcode":"97123","geo_score":0.714,"count":13,"id":"a62xcc96jax8","geo_precision":"zip"},"type":"Feature","geometry":{"type":"Point","coordinates":[-122.931214,45.500395]}},{"properties":{"zipcode":"97124","geo_score":0.714,"count":12,"id":"a62xcbyv45sz","geo_precision":"zip"},"type":"Feature","geometry":{"type":"Point","coordinates":[-122.953316,45.62337]}},{"properties":{"zipcode":"97128","geo_score":0.714,"count":16,"id":"a62xccd28ljx","geo_precision":"zip"},"type":"Feature","geometry":{"type":"Point","coordinates":[-123.144827,45.238172]}},{"properties":{"zipcode":"97131","geo_score":0.714,"count":3,"id":"a62xcc8y4zik","geo_precision":"zip"},"type":"Feature","geometry":{"type":"Point","coordinates":[-123.86291,45.70733]}},{"properties":{"zipcode":"97132","geo_score":0.714,"count":4,"id":"a62xccar3cud","geo_precision":"zip"},"type":"Feature","geometry":{"type":"Point","coordinates":[-123.01788,45.301784]}},{"properties":{"zipcode":"97133","geo_score":0.714,"count":3,"id":"a62xcc2fvgnh","geo_precision":"zip"},"type":"Feature","geometry":{"type":"Point","coordinates":[-123.028124,45.668573]}},{"properties":{"zipcode":"97136","geo_score":0.714,"count":2,"id":"a62xcc8ncwxv","geo_precision":"zip"},"type":"Feature","geometry":{"type":"Point","coordinates":[-123.947911,45.586215]}},{"properties":{"zipcode":"97138","geo_score":0.714,"count":1,"id":"a62xcc92eibd","geo_precision":"zip"},"type":"Feature","geometry":{"type":"Point","coordinates":[-123.544292,45.888445]}},{"properties":{"zipcode":"97140","geo_score":0.714,"count":3,"id":"a62xcc4mdqux","geo_precision":"zip"},"type":"Feature","geometry":{"type":"Point","coordinates":[-122.847043,45.367618]}},{"properties":{"zipcode":"97141","geo_score":0.714,"count":6,"id":"a62xcc3k8w7c","geo_precision":"zip"},"type":"Feature","geometry":{"type":"Point","coordinates":[-123.804009,45.365384]}},{"properties":{"zipcode":"97146","geo_score":0.714,"count":1,"id":"a62xcc0xpmb4","geo_precision":"zip"},"type":"Feature","geometry":{"type":"Point","coordinates":[-123.913752,46.076496]}},{"properties":{"zipcode":"97201","geo_score":0.714,"count":4,"id":"a62xcc8lkkmx","geo_precision":"zip"},"type":"Feature","geometry":{"type":"Point","coordinates":[-122.693157,45.498931]}},{"properties":{"zipcode":"97202","geo_score":0.714,"count":10,"id":"a62xcbywcw6e","geo_precision":"zip"},"type":"Feature","geometry":{"type":"Point","coordinates":[-122.637331,45.48169]}},{"properties":{"zipcode":"97203","geo_score":0.714,"count":10,"id":"a62xccdwo1da","geo_precision":"zip"},"type":"Feature","geometry":{"type":"Point","coordinates":[-122.728709,45.576228]}},{"properties":{"zipcode":"97204","geo_score":0.714,"count":1,"id":"a62xcc44kam3","geo_precision":"zip"},"type":"Feature","geometry":{"type":"Point","coordinates":[-122.675106,45.51809]}},{"properties":{"zipcode":"97205","geo_score":0.714,"count":4,"id":"a62xcc544kh5","geo_precision":"zip"},"type":"Feature","geometry":{"type":"Point","coordinates":[-122.690157,45.51949]}},{"properties":{"zipcode":"97206","geo_score":0.714,"count":15,"id":"a62xccanukm0","geo_precision":"zip"},"type":"Feature","geometry":{"type":"Point","coordinates":[-122.578981,45.464286]}},{"properties":{"zipcode":"97207","geo_score":0.714,"count":1,"id":"a62xccbkqczr","geo_precision":"zip"},"type":"Feature","geometry":{"type":"Point","coordinates":[-122.711117,45.480324]}},{"properties":{"zipcode":"97208","geo_score":0.714,"count":1,"id":"a62xccd7brie","geo_precision":"zip"},"type":"Feature","geometry":{"type":"Point","coordinates":[-122.564824,45.532165]}},{"properties":{"zipcode":"97209","geo_score":0.714,"count":11,"id":"a62xccbs8yh6","geo_precision":"zip"},"type":"Feature","geometry":{"type":"Point","coordinates":[-122.683826,45.53199]}},{"properties":{"zipcode":"97210","geo_score":0.714,"count":2,"id":"a62xcc2ecfqy","geo_precision":"zip"},"type":"Feature","geometry":{"type":"Point","coordinates":[-122.732358,45.547339]}},{"properties":{"zipcode":"97211","geo_score":0.714,"count":2,"id":"a62xcbzx87dp","geo_precision":"zip"},"type":"Feature","geometry":{"type":"Point","coordinates":[-122.668152,45.565118]}},{"properties":{"zipcode":"97212","geo_score":0.714,"count":2,"id":"a62xcccah3n1","geo_precision":"zip"},"type":"Feature","geometry":{"type":"Point","coordinates":[-122.643106,45.54374]}},{"properties":{"zipcode":"97213","geo_score":0.714,"count":3,"id":"a62xccbvsvny","geo_precision":"zip"},"type":"Feature","geometry":{"type":"Point","coordinates":[-122.599751,45.53909]}},{"properties":{"zipcode":"97214","geo_score":0.714,"count":2,"id":"a62xcc9jrgph","geo_precision":"zip"},"type":"Feature","geometry":{"type":"Point","coordinates":[-122.660373,45.515396]}},{"properties":{"zipcode":"97215","geo_score":0.714,"count":7,"id":"a62xcccqliqd","geo_precision":"zip"},"type":"Feature","geometry":{"type":"Point","coordinates":[-122.599104,45.51894]}},{"properties":{"zipcode":"97216","geo_score":0.714,"count":7,"id":"a62xcc7vdkpf","geo_precision":"zip"},"type":"Feature","geometry":{"type":"Point","coordinates":[-122.557871,45.519008]}},{"properties":{"zipcode":"97217","geo_score":0.714,"count":5,"id":"a62xcc95yeu0","geo_precision":"zip"},"type":"Feature","geometry":{"type":"Point","coordinates":[-122.681486,45.581784]}},{"properties":{"zipcode":"97218","geo_score":0.714,"count":1,"id":"a62xcc0edm7o","geo_precision":"zip"},"type":"Feature","geometry":{"type":"Point","coordinates":[-122.605205,45.575689]}},{"properties":{"zipcode":"97219","geo_score":0.714,"count":7,"id":"a62xccdgjs0b","geo_precision":"zip"},"type":"Feature","geometry":{"type":"Point","coordinates":[-122.730097,45.469841]}},{"properties":{"zipcode":"97220","geo_score":0.714,"count":9,"id":"a62xcc5411k4","geo_precision":"zip"},"type":"Feature","geometry":{"type":"Point","coordinates":[-122.560371,45.552897]}},{"properties":{"zipcode":"97221","geo_score":0.714,"count":2,"id":"a62xcccc95f6","geo_precision":"zip"},"type":"Feature","geometry":{"type":"Point","coordinates":[-122.733888,45.50655]}},{"properties":{"zipcode":"97222","geo_score":0.714,"count":11,"id":"a62xcc4g4g7r","geo_precision":"zip"},"type":"Feature","geometry":{"type":"Point","coordinates":[-122.635927,45.458175]}},{"properties":{"zipcode":"97223","geo_score":0.714,"count":5,"id":"a62xccan09p9","geo_precision":"zip"},"type":"Feature","geometry":{"type":"Point","coordinates":[-122.753431,45.465951]}},{"properties":{"zipcode":"97224","geo_score":0.714,"count":6,"id":"a62xcc1ty61k","geo_precision":"zip"},"type":"Feature","geometry":{"type":"Point","coordinates":[-122.758986,45.446507]}},{"properties":{"zipcode":"97225","geo_score":0.714,"count":1,"id":"a62xcc136z4s","geo_precision":"zip"},"type":"Feature","geometry":{"type":"Point","coordinates":[-122.764543,45.498729]}},{"properties":{"zipcode":"97227","geo_score":0.714,"count":1,"id":"a62xccblevq8","geo_precision":"zip"},"type":"Feature","geometry":{"type":"Point","coordinates":[-122.680007,45.545039]}},{"properties":{"zipcode":"97229","geo_score":0.714,"count":3,"id":"a62xcbzd516s","geo_precision":"zip"},"type":"Feature","geometry":{"type":"Point","coordinates":[-122.769543,45.517618]}},{"properties":{"zipcode":"97230","geo_score":0.714,"count":16,"id":"a62xcc9zslph","geo_precision":"zip"},"type":"Feature","geometry":{"type":"Point","coordinates":[-122.523981,45.516509]}},{"properties":{"zipcode":"97233","geo_score":0.714,"count":27,"id":"a62xcc5a3fdp","geo_precision":"zip"},"type":"Feature","geometry":{"type":"Point","coordinates":[-122.477036,45.519009]}},{"properties":{"zipcode":"97236","geo_score":0.714,"count":26,"id":"a62xcccran2n","geo_precision":"zip"},"type":"Feature","geometry":{"type":"Point","coordinates":[-122.537592,45.504009]}},{"properties":{"zipcode":"97239","geo_score":0.714,"count":6,"id":"a62xccetixfq","geo_precision":"zip"},"type":"Feature","geometry":{"type":"Point","coordinates":[-122.691267,45.488178]}},{"properties":{"zipcode":"97266","geo_score":0.714,"count":18,"id":"a62xcbyl9o5r","geo_precision":"zip"},"type":"Feature","geometry":{"type":"Point","coordinates":[-122.557502,45.482949]}},{"properties":{"zipcode":"97267","geo_score":0.714,"count":10,"id":"a62xccco4vnc","geo_precision":"zip"},"type":"Feature","geometry":{"type":"Point","coordinates":[-122.578981,45.404565]}},{"properties":{"zipcode":"97292","geo_score":0.714,"count":1,"id":"a62xccd7y0tw","geo_precision":"zip"},"type":"Feature","geometry":{"type":"Point","coordinates":[-122.374776,45.580557]}},{"properties":{"zipcode":"97301","geo_score":0.714,"count":24,"id":"a62xcc2vpuaf","geo_precision":"zip"},"type":"Feature","geometry":{"type":"Point","coordinates":[-122.887314,44.907899]}},{"properties":{"zipcode":"97302","geo_score":0.714,"count":3,"id":"a62xcc8jukdc","geo_precision":"zip"},"type":"Feature","geometry":{"type":"Point","coordinates":[-123.100375,44.902064]}},{"properties":{"zipcode":"97303","geo_score":0.714,"count":11,"id":"a62xccebhnn3","geo_precision":"zip"},"type":"Feature","geometry":{"type":"Point","coordinates":[-123.050099,45.092619]}},{"properties":{"zipcode":"97304","geo_score":0.714,"count":5,"id":"a62xcc4iak4c","geo_precision":"zip"},"type":"Feature","geometry":{"type":"Point","coordinates":[-123.06093,44.939009]}},{"properties":{"zipcode":"97305","geo_score":0.714,"count":19,"id":"a62xcc5n4bb5","geo_precision":"zip"},"type":"Feature","geometry":{"type":"Point","coordinates":[-123.000097,45.035119]}},{"properties":{"zipcode":"97306","geo_score":0.714,"count":8,"id":"a62xccd6lhsi","geo_precision":"zip"},"type":"Feature","geometry":{"type":"Point","coordinates":[-123.061485,44.854565]}},{"properties":{"zipcode":"97317","geo_score":0.0,"count":6,"id":"a62xcc0u6j22","geo_precision":"unmatched"},"type":"Feature","geometry":null},{"properties":{"zipcode":"97321","geo_score":0.714,"count":8,"id":"a62xccakp6rr","geo_precision":"zip"},"type":"Feature","geometry":{"type":"Point","coordinates":[-123.157596,44.606788]}},{"properties":{"zipcode":"97322","geo_score":0.714,"count":16,"id":"a62xcc5atngt","geo_precision":"zip"},"type":"Feature","geometry":{"type":"Point","coordinates":[-123.097041,44.627255]}},{"properties":{"zipcode":"97324","geo_score":0.714,"count":1,"id":"a62xccbb0659","geo_precision":"zip"},"type":"Feature","geometry":{"type":"Point","coordinates":[-123.588271,44.377113]}},{"properties":{"zipcode":"97325","geo_score":0.714,"count":2,"id":"a62xccbhxzgr","geo_precision":"zip"},"type":"Feature","geometry":{"type":"Point","coordinates":[-122.872036,44.872899]}},{"properties":{"zipcode":"97327","geo_score":0.714,"count":1,"id":"a62xcbz7c3du","geo_precision":"zip"},"type":"Feature","geometry":{"type":"Point","coordinates":[-122.985643,44.348457]}},{"properties":{"zipcode":"97330","geo_score":0.714,"count":3,"id":"a62xcbzdoiiq","geo_precision":"zip"},"type":"Feature","geometry":{"type":"Point","coordinates":[-123.241488,44.62901]}},{"properties":{"zipcode":"97335","geo_score":0.714,"count":1,"id":"a62xcc5s0zd7","geo_precision":"zip"},"type":"Feature","geometry":{"type":"Point","coordinates":[-122.893292,44.634439]}},{"properties":{"zipcode":"97338","geo_score":0.714,"count":10,"id":"a62xccaenzkb","geo_precision":"zip"},"type":"Feature","geometry":{"type":"Point","coordinates":[-123.264269,44.983451]}},{"properties":{"zipcode":"97344","geo_score":0.714,"count":1,"id":"a62xcc8orgrx","geo_precision":"zip"},"type":"Feature","geometry":{"type":"Point","coordinates":[-123.473276,44.870977]}},{"properties":{"zipcode":"97345","geo_score":0.714,"count":2,"id":"a62xcccxgd5x","geo_precision":"zip"},"type":"Feature","geometry":{"type":"Point","coordinates":[-122.400143,44.430866]}},{"properties":{"zipcode":"97350","geo_score":0.714,"count":1,"id":"a62xcc8pytx9","geo_precision":"zip"},"type":"Feature","geometry":{"type":"Point","coordinates":[-122.073963,44.697622]}},{"properties":{"zipcode":"97351","geo_score":0.714,"count":3,"id":"a62xcccvx7qb","geo_precision":"zip"},"type":"Feature","geometry":{"type":"Point","coordinates":[-123.20732,44.742898]}},{"properties":{"zipcode":"97352","geo_score":0.714,"count":1,"id":"a62xcc97eznh","geo_precision":"zip"},"type":"Feature","geometry":{"type":"Point","coordinates":[-123.096207,44.760954]}},{"properties":{"zipcode":"97355","geo_score":0.714,"count":12,"id":"a62xccaarwf5","geo_precision":"zip"},"type":"Feature","geometry":{"type":"Point","coordinates":[-122.825366,44.494012]}},{"properties":{"zipcode":"97360","geo_score":0.714,"count":1,"id":"a62xcc7rwkt6","geo_precision":"zip"},"type":"Feature","geometry":{"type":"Point","coordinates":[-122.5785,44.621679]}},{"properties":{"zipcode":"97361","geo_score":0.714,"count":3,"id":"a62xcc9ij6xe","geo_precision":"zip"},"type":"Feature","geometry":{"type":"Point","coordinates":[-123.413992,44.753452]}},{"properties":{"zipcode":"97362","geo_score":0.714,"count":1,"id":"a62xcc66xk0f","geo_precision":"zip"},"type":"Feature","geometry":{"type":"Point","coordinates":[-122.655118,44.934698]}},{"properties":{"zipcode":"97365","geo_score":0.714,"count":4,"id":"a62xcc7e030x","geo_precision":"zip"},"type":"Feature","geometry":{"type":"Point","coordinates":[-124.008728,44.602062]}},{"properties":{"zipcode":"97366","geo_score":0.714,"count":1,"id":"a62xcc6nl3d7","geo_precision":"zip"},"type":"Feature","geometry":{"type":"Point","coordinates":[-124.067897,44.552618]}},{"properties":{"zipcode":"97367","geo_score":0.714,"count":5,"id":"a62xcc31kvcy","geo_precision":"zip"},"type":"Feature","geometry":{"type":"Point","coordinates":[-124.007613,44.988719]}},{"properties":{"zipcode":"97368","geo_score":0.714,"count":4,"id":"a62xccbi8syt","geo_precision":"zip"},"type":"Feature","geometry":{"type":"Point","coordinates":[-123.999281,45.044551]}},{"properties":{"zipcode":"97370","geo_score":0.714,"count":1,"id":"a62xcca6g3al","geo_precision":"zip"},"type":"Feature","geometry":{"type":"Point","coordinates":[-123.428436,44.58762]}},{"properties":{"zipcode":"97374","geo_score":0.714,"count":1,"id":"a62xccaq8z7q","geo_precision":"zip"},"type":"Feature","geometry":{"type":"Point","coordinates":[-122.882868,44.710956]}},{"properties":{"zipcode":"97378","geo_score":0.714,"count":5,"id":"a62xcc7p2emn","geo_precision":"zip"},"type":"Feature","geometry":{"type":"Point","coordinates":[-123.41844,45.016227]}},{"properties":{"zipcode":"97380","geo_score":0.714,"count":1,"id":"a62xcbz0485e","geo_precision":"zip"},"type":"Feature","geometry":{"type":"Point","coordinates":[-123.84463,44.746459]}},{"properties":{"zipcode":"97381","geo_score":0.714,"count":1,"id":"a62xcc1w6hc0","geo_precision":"zip"},"type":"Feature","geometry":{"type":"Point","coordinates":[-122.873426,45.031232]}},{"properties":{"zipcode":"97383","geo_score":0.714,"count":4,"id":"a62xcc6nviiw","geo_precision":"zip"},"type":"Feature","geometry":{"type":"Point","coordinates":[-122.774255,44.783733]}},{"properties":{"zipcode":"97386","geo_score":0.714,"count":4,"id":"a62xcc1ofxya","geo_precision":"zip"},"type":"Feature","geometry":{"type":"Point","coordinates":[-122.791475,44.43318]}},{"properties":{"zipcode":"97391","geo_score":0.714,"count":4,"id":"a62xccelvzwb","geo_precision":"zip"},"type":"Feature","geometry":{"type":"Point","coordinates":[-123.879558,44.619563]}},{"properties":{"zipcode":"97392","geo_score":0.714,"count":2,"id":"a62xcc2nyt7j","geo_precision":"zip"},"type":"Feature","geometry":{"type":"Point","coordinates":[-122.94221,44.7952]}},{"properties":{"zipcode":"97394","geo_score":0.714,"count":4,"id":"a62xcbyyjsf9","geo_precision":"zip"},"type":"Feature","geometry":{"type":"Point","coordinates":[-124.088731,44.387897]}},{"properties":{"zipcode":"97396","geo_score":0.714,"count":3,"id":"a62xcc9pzpph","geo_precision":"zip"},"type":"Feature","geometry":{"type":"Point","coordinates":[-123.572054,45.062058]}},{"properties":{"zipcode":"97401","geo_score":0.714,"count":4,"id":"a62xcbygcnkp","geo_precision":"zip"},"type":"Feature","geometry":{"type":"Point","coordinates":[-123.16509,44.113457]}},{"properties":{"zipcode":"97402","geo_score":0.714,"count":19,"id":"a62xcccipi6v","geo_precision":"zip"},"type":"Feature","geometry":{"type":"Point","coordinates":[-123.073186,44.033642]}},{"properties":{"zipcode":"97404","geo_score":0.714,"count":5,"id":"a62xcc5fsc55","geo_precision":"zip"},"type":"Feature","geometry":{"type":"Point","coordinates":[-123.1312,44.103458]}},{"properties":{"zipcode":"97405","geo_score":0.714,"count":3,"id":"a62xcc4rnf71","geo_precision":"zip"},"type":"Feature","geometry":{"type":"Point","coordinates":[-123.011472,43.995403]}},{"properties":{"zipcode":"97408","geo_score":0.714,"count":1,"id":"a62xcc2dckq5","geo_precision":"zip"},"type":"Feature","geometry":{"type":"Point","coordinates":[-123.125468,44.141548]}},{"properties":{"zipcode":"97411","geo_score":0.714,"count":4,"id":"a62xcccmwss1","geo_precision":"zip"},"type":"Feature","geometry":{"type":"Point","coordinates":[-124.368725,43.124554]}},{"properties":{"zipcode":"97415","geo_score":0.714,"count":5,"id":"a62xccbd7aja","geo_precision":"zip"},"type":"Feature","geometry":{"type":"Point","coordinates":[-124.339546,42.220111]}},{"properties":{"zipcode":"97417","geo_score":0.714,"count":1,"id":"a62xcc3v7e1e","geo_precision":"zip"},"type":"Feature","geometry":{"type":"Point","coordinates":[-123.258975,42.95096]}},{"properties":{"zipcode":"97420","geo_score":0.714,"count":11,"id":"a62xcc3j2em4","geo_precision":"zip"},"type":"Feature","geometry":{"type":"Point","coordinates":[-124.150941,43.281778]}},{"properties":{"zipcode":"97423","geo_score":0.714,"count":2,"id":"a62xcc80v70u","geo_precision":"zip"},"type":"Feature","geometry":{"type":"Point","coordinates":[-124.274555,43.157332]}},{"properties":{"zipcode":"97424","geo_score":0.714,"count":2,"id":"a62xcc8e4hx3","geo_precision":"zip"},"type":"Feature","geometry":{"type":"Point","coordinates":[-123.005355,43.776234]}},{"properties":{"zipcode":"97426","geo_score":0.714,"count":1,"id":"a62xcc56hl2v","geo_precision":"zip"},"type":"Feature","geometry":{"type":"Point","coordinates":[-123.039803,43.854013]}},{"properties":{"zipcode":"97435","geo_score":0.714,"count":1,"id":"a62xcc2yv6mg","geo_precision":"zip"},"type":"Feature","geometry":{"type":"Point","coordinates":[-123.223697,43.710954]}},{"properties":{"zipcode":"97439","geo_score":0.714,"count":3,"id":"a62xcc11egu8","geo_precision":"zip"},"type":"Feature","geometry":{"type":"Point","coordinates":[-124.110117,43.893453]}},{"properties":{"zipcode":"97442","geo_score":0.714,"count":2,"id":"a62xcc3f4sum","geo_precision":"zip"},"type":"Feature","geometry":{"type":"Point","coordinates":[-123.271729,42.779009]}},{"properties":{"zipcode":"97443","geo_score":0.714,"count":2,"id":"a62xcc6bi4w3","geo_precision":"zip"},"type":"Feature","geometry":{"type":"Point","coordinates":[-123.033116,43.258729]}},{"properties":{"zipcode":"97444","geo_score":0.714,"count":2,"id":"a62xcc58v7he","geo_precision":"zip"},"type":"Feature","geometry":{"type":"Point","coordinates":[-124.413438,42.506221]}},{"properties":{"zipcode":"97448","geo_score":0.714,"count":5,"id":"a62xcc2koffd","geo_precision":"zip"},"type":"Feature","geometry":{"type":"Point","coordinates":[-123.163702,44.185957]}},{"properties":{"zipcode":"97457","geo_score":0.714,"count":3,"id":"a62xcbypnpfa","geo_precision":"zip"},"type":"Feature","geometry":{"type":"Point","coordinates":[-123.311732,42.984562]}},{"properties":{"zipcode":"97458","geo_score":0.714,"count":1,"id":"a62xcc7y2vdc","geo_precision":"zip"},"type":"Feature","geometry":{"type":"Point","coordinates":[-123.861203,43.148168]}},{"properties":{"zipcode":"97459","geo_score":0.714,"count":5,"id":"a62xccc2nyc5","geo_precision":"zip"},"type":"Feature","geometry":{"type":"Point","coordinates":[-124.21817,43.454002]}},{"properties":{"zipcode":"97465","geo_score":0.714,"count":2,"id":"a62xcc2khvtm","geo_precision":"zip"},"type":"Feature","geometry":{"type":"Point","coordinates":[-124.45094,42.703155]}},{"properties":{"zipcode":"97466","geo_score":0.714,"count":1,"id":"a62xcc78jadt","geo_precision":"zip"},"type":"Feature","geometry":{"type":"Point","coordinates":[-124.070945,42.879975]}},{"properties":{"zipcode":"97467","geo_score":0.714,"count":2,"id":"a62xccblhcw2","geo_precision":"zip"},"type":"Feature","geometry":{"type":"Point","coordinates":[-124.082333,43.719839]}},{"properties":{"zipcode":"97470","geo_score":0.714,"count":12,"id":"a62xccb30dcc","geo_precision":"zip"},"type":"Feature","geometry":{"type":"Point","coordinates":[-123.458968,43.247615]}},{"properties":{"zipcode":"97471","geo_score":0.0,"count":5,"id":"a62xcc5n29sh","geo_precision":"unmatched"},"type":"Feature","geometry":null},{"properties":{"zipcode":"97477","geo_score":0.714,"count":9,"id":"a62xcc00p95i","geo_precision":"zip"},"type":"Feature","geometry":{"type":"Point","coordinates":[-122.98675,44.040959]}},{"properties":{"zipcode":"97478","geo_score":0.714,"count":10,"id":"a62xcc7mws2a","geo_precision":"zip"},"type":"Feature","geometry":{"type":"Point","coordinates":[-123.440898,42.63845]}},{"properties":{"zipcode":"97479","geo_score":0.714,"count":6,"id":"a62xcc1zion9","geo_precision":"zip"},"type":"Feature","geometry":{"type":"Point","coordinates":[-123.168126,43.407619]}},{"properties":{"zipcode":"97487","geo_score":0.714,"count":2,"id":"a62xcca7zitu","geo_precision":"zip"},"type":"Feature","geometry":{"type":"Point","coordinates":[-123.437043,44.023734]}},{"properties":{"zipcode":"97488","geo_score":0.714,"count":1,"id":"a62xcc5qy5lo","geo_precision":"zip"},"type":"Feature","geometry":{"type":"Point","coordinates":[-122.38284,44.129015]}},{"properties":{"zipcode":"97496","geo_score":0.714,"count":4,"id":"a62xccerlw3y","geo_precision":"zip"},"type":"Feature","geometry":{"type":"Point","coordinates":[-123.455352,43.109005]}},{"properties":{"zipcode":"97497","geo_score":0.714,"count":2,"id":"a62xcc9l24gc","geo_precision":"zip"},"type":"Feature","geometry":{"type":"Point","coordinates":[-123.375619,42.639007]}},{"properties":{"zipcode":"97501","geo_score":0.714,"count":22,"id":"a62xcbzbb752","geo_precision":"zip"},"type":"Feature","geometry":{"type":"Point","coordinates":[-122.912821,42.451236]}},{"properties":{"zipcode":"97502","geo_score":0.714,"count":3,"id":"a62xcc17g0sj","geo_precision":"zip"},"type":"Feature","geometry":{"type":"Point","coordinates":[-122.885319,42.38957]}},{"properties":{"zipcode":"97503","geo_score":0.714,"count":6,"id":"a62xcceggw73","geo_precision":"zip"},"type":"Feature","geometry":{"type":"Point","coordinates":[-122.883923,42.537028]}},{"properties":{"zipcode":"97504","geo_score":0.714,"count":5,"id":"a62xcc6l4gvy","geo_precision":"zip"},"type":"Feature","geometry":{"type":"Point","coordinates":[-122.793659,42.322392]}},{"properties":{"zipcode":"97520","geo_score":0.714,"count":3,"id":"a62xcc09zm9r","geo_precision":"zip"},"type":"Feature","geometry":{"type":"Point","coordinates":[-122.384188,42.112083]}},{"properties":{"zipcode":"97523","geo_score":0.714,"count":3,"id":"a62xccdskjzl","geo_precision":"zip"},"type":"Feature","geometry":{"type":"Point","coordinates":[-123.619511,42.051504]}},{"properties":{"zipcode":"97524","geo_score":0.714,"count":3,"id":"a62xcbz6lye0","geo_precision":"zip"},"type":"Feature","geometry":{"type":"Point","coordinates":[-122.622778,42.420833]}},{"properties":{"zipcode":"97526","geo_score":0.714,"count":6,"id":"a62xccd5wuj6","geo_precision":"zip"},"type":"Feature","geometry":{"type":"Point","coordinates":[-123.398674,42.565673]}},{"properties":{"zipcode":"97527","geo_score":0.714,"count":10,"id":"a62xcc2tmpdp","geo_precision":"zip"},"type":"Feature","geometry":{"type":"Point","coordinates":[-123.440456,42.345125]}},{"properties":{"zipcode":"97528","geo_score":0.714,"count":1,"id":"a62xcc21jyxu","geo_precision":"zip"},"type":"Feature","geometry":{"type":"Point","coordinates":[-123.535027,42.396421]}},{"properties":{"zipcode":"97532","geo_score":0.714,"count":2,"id":"a62xcbzmyqe8","geo_precision":"zip"},"type":"Feature","geometry":{"type":"Point","coordinates":[-123.385896,42.557062]}},{"properties":{"zipcode":"97534","geo_score":0.714,"count":1,"id":"a62xcc1r5d2f","geo_precision":"zip"},"type":"Feature","geometry":{"type":"Point","coordinates":[-123.688998,42.087941]}},{"properties":{"zipcode":"97535","geo_score":0.714,"count":4,"id":"a62xcbywf57x","geo_precision":"zip"},"type":"Feature","geometry":{"type":"Point","coordinates":[-122.81464,42.262556]}},{"properties":{"zipcode":"97536","geo_score":0.714,"count":1,"id":"a62xcc96th5m","geo_precision":"zip"},"type":"Feature","geometry":{"type":"Point","coordinates":[-122.445593,42.90707]}},{"properties":{"zipcode":"97537","geo_score":0.714,"count":3,"id":"a62xccbrosvg","geo_precision":"zip"},"type":"Feature","geometry":{"type":"Point","coordinates":[-123.148943,42.538732]}},{"properties":{"zipcode":"97538","geo_score":0.714,"count":2,"id":"a62xccdx2bw4","geo_precision":"zip"},"type":"Feature","geometry":{"type":"Point","coordinates":[-123.551451,42.265435]}},{"properties":{"zipcode":"97539","geo_score":0.714,"count":1,"id":"a62xcc1lcyac","geo_precision":"zip"},"type":"Feature","geometry":{"type":"Point","coordinates":[-122.756141,42.621218]}},{"properties":{"zipcode":"97540","geo_score":0.714,"count":1,"id":"a62xcc51m6kd","geo_precision":"zip"},"type":"Feature","geometry":{"type":"Point","coordinates":[-122.770093,42.221879]}},{"properties":{"zipcode":"97601","geo_score":0.714,"count":7,"id":"a62xcc0dcywu","geo_precision":"zip"},"type":"Feature","geometry":{"type":"Point","coordinates":[-121.866392,42.045425]}},{"properties":{"zipcode":"97603","geo_score":0.714,"count":9,"id":"a62xcc3693vo","geo_precision":"zip"},"type":"Feature","geometry":{"type":"Point","coordinates":[-122.212243,42.378747]}},{"properties":{"zipcode":"97623","geo_score":0.714,"count":1,"id":"a62xcc6uebtw","geo_precision":"zip"},"type":"Feature","geometry":{"type":"Point","coordinates":[-121.467499,42.267925]}},{"properties":{"zipcode":"97624","geo_score":0.714,"count":1,"id":"a62xcc6c07rl","geo_precision":"zip"},"type":"Feature","geometry":{"type":"Point","coordinates":[-121.861682,42.594025]}},{"properties":{"zipcode":"97701","geo_score":0.714,"count":15,"id":"a62xcc44w5mq","geo_precision":"zip"},"type":"Feature","geometry":{"type":"Point","coordinates":[-121.330868,44.14984]}},{"properties":{"zipcode":"97702","geo_score":0.714,"count":2,"id":"a62xccbtsilj","geo_precision":"zip"},"type":"Feature","geometry":{"type":"Point","coordinates":[-121.260298,43.998448]}},{"properties":{"zipcode":"97707","geo_score":0.714,"count":1,"id":"a62xcc13qcys","geo_precision":"zip"},"type":"Feature","geometry":{"type":"Point","coordinates":[-121.43864,43.884007]}},{"properties":{"zipcode":"97708","geo_score":0.714,"count":2,"id":"a62xcc41jhpn","geo_precision":"zip"},"type":"Feature","geometry":{"type":"Point","coordinates":[-120.94952,44.001834]}},{"properties":{"zipcode":"97737","geo_score":0.714,"count":1,"id":"a62xcc46rydy","geo_precision":"zip"},"type":"Feature","geometry":{"type":"Point","coordinates":[-121.658336,43.372529]}},{"properties":{"zipcode":"97741","geo_score":0.714,"count":8,"id":"a62xcc16tq3y","geo_precision":"zip"},"type":"Feature","geometry":{"type":"Point","coordinates":[-120.943098,44.805402]}},{"properties":{"zipcode":"97753","geo_score":0.714,"count":1,"id":"a62xcc6fu7ew","geo_precision":"zip"},"type":"Feature","geometry":{"type":"Point","coordinates":[-121.008489,44.232525]}},{"properties":{"zipcode":"97754","geo_score":0.714,"count":3,"id":"a62xcccg4gc2","geo_precision":"zip"},"type":"Feature","geometry":{"type":"Point","coordinates":[-120.660334,44.16805]}},{"properties":{"zipcode":"97756","geo_score":0.714,"count":10,"id":"a62xcc272do9","geo_precision":"zip"},"type":"Feature","geometry":{"type":"Point","coordinates":[-121.45282,44.291227]}},{"properties":{"zipcode":"97761","geo_score":0.714,"count":4,"id":"a62xcbztirto","geo_precision":"zip"},"type":"Feature","geometry":{"type":"Point","coordinates":[-121.350061,44.972894]}},{"properties":{"zipcode":"97801","geo_score":0.714,"count":9,"id":"a62xcc7gk9fq","geo_precision":"zip"},"type":"Feature","geometry":{"type":"Point","coordinates":[-118.87138,45.660964]}},{"properties":{"zipcode":"97810","geo_score":0.714,"count":1,"id":"a62xcc875tpm","geo_precision":"zip"},"type":"Feature","geometry":{"type":"Point","coordinates":[-118.459966,45.683742]}},{"properties":{"zipcode":"97814","geo_score":0.714,"count":1,"id":"a62xcccjp176","geo_precision":"zip"},"type":"Feature","geometry":{"type":"Point","coordinates":[-117.921607,44.839593]}},{"properties":{"zipcode":"97818","geo_score":0.714,"count":1,"id":"a62xcc8v1wsn","geo_precision":"zip"},"type":"Feature","geometry":{"type":"Point","coordinates":[-119.6575,45.419841]}},{"properties":{"zipcode":"97824","geo_score":0.714,"count":1,"id":"a62xcc4qu2dg","geo_precision":"zip"},"type":"Feature","geometry":{"type":"Point","coordinates":[-117.979937,45.404303]}},{"properties":{"zipcode":"97826","geo_score":0.714,"count":2,"id":"a62xccducxn1","geo_precision":"zip"},"type":"Feature","geometry":{"type":"Point","coordinates":[-119.198798,45.692754]}},{"properties":{"zipcode":"97828","geo_score":0.714,"count":2,"id":"a62xccc9cjbb","geo_precision":"zip"},"type":"Feature","geometry":{"type":"Point","coordinates":[-117.309888,45.900148]}},{"properties":{"zipcode":"97830","geo_score":0.714,"count":1,"id":"a62xcccphhch","geo_precision":"zip"},"type":"Feature","geometry":{"type":"Point","coordinates":[-119.892793,44.987082]}},{"properties":{"zipcode":"97838","geo_score":0.714,"count":11,"id":"a62xcceqsckh","geo_precision":"zip"},"type":"Feature","geometry":{"type":"Point","coordinates":[-119.297516,45.888744]}},{"properties":{"zipcode":"97846","geo_score":0.714,"count":1,"id":"a62xcccfi3zm","geo_precision":"zip"},"type":"Feature","geometry":{"type":"Point","coordinates":[-117.073337,45.406071]}},{"properties":{"zipcode":"97850","geo_score":0.714,"count":3,"id":"a62xcbzyptlj","geo_precision":"zip"},"type":"Feature","geometry":{"type":"Point","coordinates":[-118.166611,45.348465]}},{"properties":{"zipcode":"97862","geo_score":0.714,"count":3,"id":"a62xcc0mscjc","geo_precision":"zip"},"type":"Feature","geometry":{"type":"Point","coordinates":[-118.402189,45.962357]}},{"properties":{"zipcode":"97865","geo_score":0.714,"count":2,"id":"a62xcc3zskia","geo_precision":"zip"},"type":"Feature","geometry":{"type":"Point","coordinates":[-119.09743,44.446986]}},{"properties":{"zipcode":"97880","geo_score":0.714,"count":1,"id":"a62xccebhhfi","geo_precision":"zip"},"type":"Feature","geometry":{"type":"Point","coordinates":[-118.66191,45.152913]}},{"properties":{"zipcode":"97882","geo_score":0.714,"count":3,"id":"a62xcc0dr7ge","geo_precision":"zip"},"type":"Feature","geometry":{"type":"Point","coordinates":[-119.289183,45.919299]}},{"properties":{"zipcode":"97907","geo_score":0.714,"count":1,"id":"a62xcbzn8iqd","geo_precision":"zip"},"type":"Feature","geometry":{"type":"Point","coordinates":[-117.477417,44.463772]}},{"properties":{"zipcode":"97913","geo_score":0.714,"count":1,"id":"a62xccehjaxe","geo_precision":"zip"},"type":"Feature","geometry":{"type":"Point","coordinates":[-116.985437,43.924329]}},{"properties":{"zipcode":"97914","geo_score":0.714,"count":1,"id":"a62xcc657rw7","geo_precision":"zip"},"type":"Feature","geometry":{"type":"Point","coordinates":[-117.009051,43.995997]}},{"properties":{"zipcode":"97918","geo_score":0.714,"count":1,"id":"a62xccbwb2mw","geo_precision":"zip"},"type":"Feature","geometry":{"type":"Point","coordinates":[-117.364349,44.114605]}},{"properties":{"zipcode":"98503","geo_score":0.714,"count":1,"id":"a62xcc1ugj21","geo_precision":"zip"},"type":"Feature","geometry":{"type":"Point","coordinates":[-122.796695,47.026418]}},{"properties":{"zipcode":"98550","geo_score":0.714,"count":1,"id":"a62xcc31qdp2","geo_precision":"zip"},"type":"Feature","geometry":{"type":"Point","coordinates":[-123.881001,47.000647]}},{"properties":{"zipcode":"98604","geo_score":0.714,"count":4,"id":"a62xcc4cm55e","geo_precision":"zip"},"type":"Feature","geometry":{"type":"Point","coordinates":[-122.42454,45.773727]}},{"properties":{"zipcode":"98606","geo_score":0.714,"count":1,"id":"a62xcc3up1mf","geo_precision":"zip"},"type":"Feature","geometry":{"type":"Point","coordinates":[-122.48704,45.737895]}},{"properties":{"zipcode":"98607","geo_score":0.714,"count":2,"id":"a62xcbz6o910","geo_precision":"zip"},"type":"Feature","geometry":{"type":"Point","coordinates":[-122.388425,45.582063]}},{"properties":{"zipcode":"98610","geo_score":0.714,"count":1,"id":"a62xcc5epoa0","geo_precision":"zip"},"type":"Feature","geometry":{"type":"Point","coordinates":[-121.841736,45.784205]}},{"properties":{"zipcode":"98611","geo_score":0.714,"count":1,"id":"a62xcc2wfb5u","geo_precision":"zip"},"type":"Feature","geometry":{"type":"Point","coordinates":[-122.673021,46.220778]}},{"properties":{"zipcode":"98620","geo_score":0.714,"count":1,"id":"a62xcc1p4zy8","geo_precision":"zip"},"type":"Feature","geometry":{"type":"Point","coordinates":[-120.813674,45.687068]}},{"properties":{"zipcode":"98625","geo_score":0.714,"count":1,"id":"a62xcbzfh0qw","geo_precision":"zip"},"type":"Feature","geometry":{"type":"Point","coordinates":[-122.72175,46.002114]}},{"properties":{"zipcode":"98626","geo_score":0.714,"count":4,"id":"a62xcc07zfn9","geo_precision":"zip"},"type":"Feature","geometry":{"type":"Point","coordinates":[-122.867331,46.087335]}},{"properties":{"zipcode":"98628","geo_score":0.714,"count":2,"id":"a62xcc5yu7q7","geo_precision":"zip"},"type":"Feature","geometry":{"type":"Point","coordinates":[-121.044345,45.856217]}},{"properties":{"zipcode":"98632","geo_score":0.714,"count":12,"id":"a62xcc7no545","geo_precision":"zip"},"type":"Feature","geometry":{"type":"Point","coordinates":[-122.91715,46.183995]}},{"properties":{"zipcode":"98635","geo_score":0.714,"count":1,"id":"a62xcc9fjxnq","geo_precision":"zip"},"type":"Feature","geometry":{"type":"Point","coordinates":[-121.213705,45.822789]}},{"properties":{"zipcode":"98638","geo_score":0.714,"count":1,"id":"a62xccb6ux3a","geo_precision":"zip"},"type":"Feature","geometry":{"type":"Point","coordinates":[-123.802552,46.342219]}},{"properties":{"zipcode":"98640","geo_score":0.714,"count":1,"id":"a62xcc1cxqcg","geo_precision":"zip"},"type":"Feature","geometry":{"type":"Point","coordinates":[-124.05294,46.466488]}},{"properties":{"zipcode":"98642","geo_score":0.714,"count":1,"id":"a62xcc01piyk","geo_precision":"zip"},"type":"Feature","geometry":{"type":"Point","coordinates":[-122.713155,45.751504]}},{"properties":{"zipcode":"98644","geo_score":0.714,"count":1,"id":"a62xcc5rxm1m","geo_precision":"zip"},"type":"Feature","geometry":{"type":"Point","coordinates":[-124.054878,46.326489]}},{"properties":{"zipcode":"98660","geo_score":0.714,"count":2,"id":"a62xcccjtxqe","geo_precision":"zip"},"type":"Feature","geometry":{"type":"Point","coordinates":[-122.713366,45.74327]}},{"properties":{"zipcode":"98661","geo_score":0.714,"count":5,"id":"a62xcc6qhlu5","geo_precision":"zip"},"type":"Feature","geometry":{"type":"Point","coordinates":[-122.648708,45.659006]}},{"properties":{"zipcode":"98662","geo_score":0.714,"count":6,"id":"a62xcbz7w5wb","geo_precision":"zip"},"type":"Feature","geometry":{"type":"Point","coordinates":[-122.598985,45.667895]}},{"properties":{"zipcode":"98663","geo_score":0.714,"count":3,"id":"a62xcc4z3e0y","geo_precision":"zip"},"type":"Feature","geometry":{"type":"Point","coordinates":[-122.663608,45.650488]}},{"properties":{"zipcode":"98665","geo_score":0.714,"count":3,"id":"a62xcc2dnwa4","geo_precision":"zip"},"type":"Feature","geometry":{"type":"Point","coordinates":[-122.690932,45.690672]}},{"properties":{"zipcode":"98666","geo_score":0.714,"count":1,"id":"a62xcc4z620d","geo_precision":"zip"},"type":"Feature","geometry":{"type":"Point","coordinates":[-122.520347,45.801586]}},{"properties":{"zipcode":"98671","geo_score":0.714,"count":1,"id":"a62xccc1tfdj","geo_precision":"zip"},"type":"Feature","geometry":{"type":"Point","coordinates":[-122.315559,45.611697]}},{"properties":{"zipcode":"98672","geo_score":0.714,"count":1,"id":"a62xcbz2gfbj","geo_precision":"zip"},"type":"Feature","geometry":{"type":"Point","coordinates":[-121.405863,45.828588]}},{"properties":{"zipcode":"98682","geo_score":0.714,"count":5,"id":"a62xcc63igdf","geo_precision":"zip"},"type":"Feature","geometry":{"type":"Point","coordinates":[-122.478845,45.678782]}},{"properties":{"zipcode":"98683","geo_score":0.714,"count":1,"id":"a62xcccce8dh","geo_precision":"zip"},"type":"Feature","geometry":{"type":"Point","coordinates":[-122.513318,45.603216]}},{"properties":{"zipcode":"98684","geo_score":0.714,"count":1,"id":"a62xcc0sci94","geo_precision":"zip"},"type":"Feature","geometry":{"type":"Point","coordinates":[-122.515538,45.6359]}},{"properties":{"zipcode":"98685","geo_score":0.714,"count":1,"id":"a62xcc5gd3ox","geo_precision":"zip"},"type":"Feature","geometry":{"type":"Point","coordinates":[-122.707321,45.70956]}},{"properties":{"zipcode":"98686","geo_score":0.714,"count":1,"id":"a62xcc0y0qxb","geo_precision":"zip"},"type":"Feature","geometry":{"type":"Point","coordinates":[-122.648987,45.710672]}},{"properties":{"zipcode":"99301","geo_score":0.714,"count":1,"id":"a62xcc2k78bo","geo_precision":"zip"},"type":"Feature","geometry":{"type":"Point","coordinates":[-119.141401,46.234857]}},{"properties":{"zipcode":"99336","geo_score":0.714,"count":2,"id":"a62xccd04j3w","geo_precision":"zip"},"type":"Feature","geometry":{"type":"Point","coordinates":[-119.223349,46.239302]}},{"properties":{"zipcode":"99508","geo_score":0.714,"count":1,"id":"a62xcc3e7eck","geo_precision":"zip"},"type":"Feature","geometry":{"type":"Point","coordinates":[-149.804167,61.226389]}},{"properties":{"zipcode":"99554","geo_score":0.714,"count":1,"id":"a62xcbzs64pr","geo_precision":"zip"},"type":"Feature","geometry":{"type":"Point","coordinates":[-163.237636,62.117231]}},{"properties":{"zipcode":"99559","geo_score":0.714,"count":2,"id":"a62xcc3jav8q","geo_precision":"zip"},"type":"Feature","geometry":{"type":"Point","coordinates":[-161.77,60.722778]}},{"properties":{"zipcode":"99620","geo_score":0.714,"count":2,"id":"a62xcccno0t8","geo_precision":"zip"},"type":"Feature","geometry":{"type":"Point","coordinates":[-163.237636,62.117231]}},{"properties":{"zipcode":"99645","geo_score":0.714,"count":1,"id":"a62xccbgrwfn","geo_precision":"zip"},"type":"Feature","geometry":{"type":"Point","coordinates":[-146.538333,62.049444]}},{"properties":{"zipcode":"99999","geo_score":0.0,"count":2,"id":"a62xcc15x6om","geo_precision":"unmatched"},"type":"Feature","geometry":null}],"is_temporal":false,"author":{"url":"","metadata":"","contact_name":"","contact_address":"","source":"","contact_phone":""},"source":"","pagination":{"sort":null,"start":0,"total":265,"limit":1000000},"state":"complete","tags":"","published":"2014-08-14T19:56:05-04:00","id":204022}