{"type":"FeatureCollection","data_type":"Dataset","url_type":null,"permissions":[{"permissions":{"download":true,"view":true},"group_id":"everyone"}],"classification":null,"title":"Steiner Group Addresses","count":12,"stream_id":204171,"contributor":{"url":"http://geocommons.com/users/39847","name":"kknopster"},"data_attributes":null,"calculation_params":null,"icon_link":null,"link":"http://geocommons.com/overlays/204171.json","extent":[-97.9045,30.2106,-97.7399,30.3828],"geometry_types":["point"],"unique_name":null,"name":"Steiner Group Addresses","feature_count":12,"description":"","next_feature":null,"is_raster":false,"short_classification":"Y","stats":{},"features":[{"properties":{"city":"Austin","postal_code":"78732-2146","person_name":"Buchner, Suzanne","geo_score":0.805,"id":"a6jkkhmsuc72","geo_precision":"range","address":"3521 Cowden Dr","state":"TX"},"type":"Feature","geometry":{"type":"Point","coordinates":[-97.897945,30.376961]}},{"properties":{"city":"Austin","postal_code":"78732-2442","person_name":"Carpenter, Curtis","geo_score":0.502,"id":"a6jkkhwqd825","geo_precision":"street","address":"1808 University Club Dr","state":"TX"},"type":"Feature","geometry":{"type":"Point","coordinates":[-97.739907,30.281176]}},{"properties":{"city":"Austin","postal_code":"78732-2389","person_name":"Chatterton, David","geo_score":0.477,"id":"a6jkkhonbr1q","geo_precision":"street","address":"12801 Arbor Lake Cv","state":"TX"},"type":"Feature","geometry":{"type":"Point","coordinates":[-97.779756,30.210572]}},{"properties":{"city":"Austin","postal_code":"78732-2179","person_name":"Clifton, Brian","geo_score":0.805,"id":"a6jkkhtnaoyr","geo_precision":"range","address":"3929 Canyon Glen Cir","state":"TX"},"type":"Feature","geometry":{"type":"Point","coordinates":[-97.888878,30.382831]}},{"properties":{"city":"Austin","postal_code":"78732-1958","person_name":"Esler, Scott","geo_score":0.512,"id":"a6jkkhm0kdp6","geo_precision":"street","address":"2009 Rio Mesa Dr","state":"TX"},"type":"Feature","geometry":{"type":"Point","coordinates":[-97.7696,30.341383]}},{"properties":{"city":"Austin","postal_code":"78732-2167","person_name":"Hurta, Kaye","geo_score":0.805,"id":"a6jkkhm6b1wh","geo_precision":"range","address":"13009 Halsell Dr","state":"TX"},"type":"Feature","geometry":{"type":"Point","coordinates":[-97.898152,30.378462]}},{"properties":{"city":"Austin","postal_code":"78732-1964","person_name":"Hyde, Greg","geo_score":0.512,"id":"a6jkkhnvxybk","geo_precision":"street","address":"2412 Rio Mesa Dr","state":"TX"},"type":"Feature","geometry":{"type":"Point","coordinates":[-97.7696,30.341383]}},{"properties":{"city":"Austin","postal_code":"78732-1905","person_name":"King, Debbie","geo_score":0.805,"id":"a6jkkhlnknxi","geo_precision":"range","address":"3305 Summer Canyon Dr","state":"TX"},"type":"Feature","geometry":{"type":"Point","coordinates":[-97.904506,30.379575]}},{"properties":{"city":"Austin","postal_code":"78732-2213","person_name":"Leafblad, Brandon","geo_score":0.585,"id":"a6jkkhwqhvjf","geo_precision":"city","address":"12313 Capella Trl","state":"TX"},"type":"Feature","geometry":{"type":"Point","coordinates":[-97.743061,30.267153]}},{"properties":{"city":"Austin","postal_code":"78732-2141","person_name":"MacLaren, John","geo_score":0.805,"id":"a6jkkhszwc6x","geo_precision":"range","address":"3429 Grimes Ranch Rd","state":"TX"},"type":"Feature","geometry":{"type":"Point","coordinates":[-97.894546,30.376065]}},{"properties":{"city":"Austin","postal_code":"78732-2144","person_name":"McNally, DeWayne","geo_score":0.805,"id":"a6jkkhl6sly7","geo_precision":"range","address":"3427 Cowden Dr","state":"TX"},"type":"Feature","geometry":{"type":"Point","coordinates":[-97.895866,30.377306]}},{"properties":{"city":"Austin","postal_code":"78732-2395","person_name":"Van Stavern, Heather","geo_score":0.805,"id":"a6jkkhxvhynb","geo_precision":"range","address":"12919 Brigham Dr","state":"TX"},"type":"Feature","geometry":{"type":"Point","coordinates":[-97.898842,30.374868]}}],"is_temporal":false,"author":{"url":"","metadata":"","contact_name":"","contact_address":"","source":"","contact_phone":""},"source":"","pagination":{"sort":null,"start":0,"total":12,"limit":1000000},"state":"complete","tags":"","published":"2014-08-14T20:07:21-04:00","id":204171}