{"type":"FeatureCollection","data_type":"Dataset","url_type":null,"permissions":[{"permissions":{"download":true,"view":true},"group_id":"everyone"}],"classification":null,"title":"Lvl5","count":2,"stream_id":204452,"contributor":{"url":"http://geocommons.com/users/39895","name":"DDFox11"},"data_attributes":null,"calculation_params":null,"icon_link":null,"link":"http://geocommons.com/overlays/204452.json","extent":[-97.5358,35.4666,-97.5192,35.4673],"geometry_types":["point"],"unique_name":null,"name":"Lvl5","feature_count":2,"description":"","next_feature":null,"is_raster":false,"short_classification":"Y","stats":{"pounds":{"max":2201694.04,"mean":1622165.165,"variance":671707433917.531,"stdev":819577.594811822,"min":1042636.29,"median":2201694.04},"program no":{"max":397,"mean":272.5,"variance":31000.5,"stdev":176.06958851545,"min":148,"median":397},"latitude":{"max":35.46731482,"mean":35.466942635,"variance":2.77043348449706e-07,"stdev":0.000526349074711551,"min":35.46657045,"median":35.46731482},"id":{"max":2,"mean":1.5,"variance":0.5,"stdev":0.707106781186548,"min":1,"median":2},"longitude":{"max":-97.51915993,"mean":-97.52748512,"variance":0.000138617577072225,"stdev":0.0117735966073339,"min":-97.53581031,"median":-97.51915993}},"features":[{"properties":{"pounds":2201694.04,"city":"Oklahoma City","program no":148,"latitude":35.46657045,"zip":"73106","activity status":"ACTIVE","county":"Oklahoma","id":"a6m9v4kvdyay","range":"1.000.000","program name":"Jesus House","longitude":-97.53581031,"streetaddress":"1335 W Sheridan Avenue","state":"OKLAHOMA"},"type":"Feature","geometry":{"type":"Point","coordinates":[-97.53581031,35.46657045]}},{"properties":{"pounds":1042636.29,"city":"Oklahoma City","program no":397,"latitude":35.46731482,"zip":"73101","activity status":"ACTIVE","county":"Oklahoma","id":"a6m9v4llsnt5","range":null,"program name":"Salvation Army Social Services","longitude":-97.51915993,"streetaddress":"PO Box 2095","state":"OKLAHOMA"},"type":"Feature","geometry":{"type":"Point","coordinates":[-97.51915993,35.46731482]}}],"is_temporal":false,"author":{"url":"","metadata":null,"contact_name":null,"contact_address":null,"source":null,"contact_phone":null},"source":"","pagination":{"sort":null,"start":0,"total":2,"limit":1000000},"state":"complete","tags":"","published":"2014-08-14T20:35:43-04:00","id":204452}