{"type":"FeatureCollection","data_type":"Dataset","url_type":null,"permissions":[{"permissions":{"download":true,"view":true},"group_id":"everyone"}],"classification":null,"title":"Lvl1","count":42,"stream_id":204453,"contributor":{"url":"http://geocommons.com/users/39895","name":"DDFox11"},"data_attributes":null,"calculation_params":null,"icon_link":null,"link":"http://geocommons.com/overlays/204453.json","extent":[-97.6637,35.3449,-97.1798,35.6186],"geometry_types":["point"],"unique_name":null,"name":"Lvl1","feature_count":42,"description":"","next_feature":null,"is_raster":false,"short_classification":"Y","stats":{"pounds":{"max":989.4,"mean":567.714784159524,"variance":62487.6951437058,"stdev":249.975389076016,"min":1.0,"median":591.5},"latitude":{"max":35.61855162,"mean":35.4746099421428,"variance":0.00275688735817311,"stdev":0.0525060697269669,"min":35.34489194,"median":35.47481034},"id":{"max":42,"mean":21.5,"variance":150.5,"stdev":12.2678441463853,"min":1,"median":22},"longitude":{"max":-97.17975943,"mean":-97.5169840397619,"variance":0.00584654226240979,"stdev":0.0764626854250476,"min":-97.66367739,"median":-97.51934318}},"features":[{"properties":{"pounds":989.4,"city":"Oklahoma City","program no":"7130A","latitude":35.51828818,"zip":"73118","activity status":"ACTIVE","county":"Oklahoma","id":"a6m9vc2xjc8k","range":"1.-99","program name":"After School - Boys &amp; Girls","longitude":-97.52945685,"streetaddress":null,"state":"OKLAHOMA"},"type":"Feature","geometry":{"type":"Point","coordinates":[-97.52945685,35.51828818]}},{"properties":{"pounds":930.2,"city":"Midwest City","program no":"7236A","latitude":35.47856004,"zip":"73110","activity status":"ACTIVE","county":"Oklahoma","id":"a6m9vbuyyghu","range":null,"program name":"Kids Cafe - Divine Wisdom","longitude":-97.38186305,"streetaddress":"8320 NE 10th","state":"OKLAHOMA"},"type":"Feature","geometry":{"type":"Point","coordinates":[-97.38186305,35.47856004]}},{"properties":{"pounds":902.0232286,"city":"Oklahoma City","program no":"4135","latitude":35.485844,"zip":"73117","activity status":"ACTIVE","county":"Oklahoma","id":"a6m9vc430fbc","range":null,"program name":"Community Action Agency","longitude":-97.45375635,"streetaddress":"3401 NE 16th Street","state":"OKLAHOMA"},"type":"Feature","geometry":{"type":"Point","coordinates":[-97.45375635,35.485844]}},{"properties":{"pounds":894.5,"city":"Oklahoma City","program no":"1121","latitude":35.49325618,"zip":"73103","activity status":"ACTIVE","county":"Oklahoma","id":"a6m9vc71z5tw","range":null,"program name":"CarePoint, Inc. RAIN OK","longitude":-97.52273308,"streetaddress":"600 NW 23rd Street, Suite 101","state":"OKLAHOMA"},"type":"Feature","geometry":{"type":"Point","coordinates":[-97.52273308,35.49325618]}},{"properties":{"pounds":890.2,"city":"Oklahoma City","program no":"8101","latitude":35.49308562,"zip":"73127","activity status":"ACTIVE","county":"Oklahoma","id":"a6m9vc1bzd02","range":null,"program name":"Putnam City West High School","longitude":-97.66367739,"streetaddress":"8500 N. W. 23rd St.","state":"OKLAHOMA"},"type":"Feature","geometry":{"type":"Point","coordinates":[-97.66367739,35.49308562]}},{"properties":{"pounds":861.4,"city":"Oklahoma City","program no":"4031","latitude":35.38513948,"zip":"73139","activity status":"ACTIVE","county":"Oklahoma","id":"a6m9vbyl31si","range":null,"program name":"Summer-Taylor Com Ctr &amp; Park","longitude":-97.52570075,"streetaddress":"115 SW 70th Street","state":"OKLAHOMA"},"type":"Feature","geometry":{"type":"Point","coordinates":[-97.52570075,35.38513948]}},{"properties":{"pounds":836.2,"city":"Oklahoma City","program no":"881","latitude":35.40389285,"zip":"73139","activity status":"ACTIVE","county":"Oklahoma","id":"a6m9vc5g3gwi","range":null,"program name":"Whiz Kids - South Lee UMC","longitude":-97.51608864,"streetaddress":"6324 S Robinson Avenue","state":"OKLAHOMA"},"type":"Feature","geometry":{"type":"Point","coordinates":[-97.51608864,35.40389285]}},{"properties":{"pounds":811.0,"city":"Oklahoma City","program no":"4155","latitude":35.59554268,"zip":"73120","activity status":"ACTIVE","county":"Oklahoma","id":"a6m9vbtr9xwe","range":null,"program name":"John Marshall High School","longitude":-97.58531643,"streetaddress":"12201 N Portland","state":"OKLAHOMA"},"type":"Feature","geometry":{"type":"Point","coordinates":[-97.58531643,35.59554268]}},{"properties":{"pounds":806.7734843,"city":"Oklahoma City","program no":"3002","latitude":35.48968193,"zip":"73107","activity status":"ACTIVE","county":"Oklahoma","id":"a6m9vbt8hzlv","range":null,"program name":"Senior-Calvin Presbyterian","longitude":-97.60121813,"streetaddress":"2001 N Meridian Ave","state":"OKLAHOMA"},"type":"Feature","geometry":{"type":"Point","coordinates":[-97.60121813,35.48968193]}},{"properties":{"pounds":793.0,"city":"Oklahoma City","program no":"821","latitude":35.47113759,"zip":"73102","activity status":"ACTIVE","county":"Oklahoma","id":"a6m9vc10q4rl","range":null,"program name":"Whiz Kids/City Care","longitude":-97.51641603,"streetaddress":"423 N Robinson Suite 320","state":"OKLAHOMA"},"type":"Feature","geometry":{"type":"Point","coordinates":[-97.51641603,35.47113759]}},{"properties":{"pounds":776.7022358,"city":"Spencer","program no":"3017","latitude":35.46082227,"zip":"73110","activity status":"ACTIVE","county":"Oklahoma","id":"a6m9vc2o8taq","range":null,"program name":"Senior-OCSNP Spencer","longitude":-97.39720318,"streetaddress":"8306 NE 36th","state":"OKLAHOMA"},"type":"Feature","geometry":{"type":"Point","coordinates":[-97.39720318,35.46082227]}},{"properties":{"pounds":752.2481507,"city":"Oklahoma City","program no":"3026","latitude":35.51829472,"zip":"73111","activity status":"ACTIVE","county":"Oklahoma","id":"a6m9vbu56mh9","range":null,"program name":"Senior-OCSNP Northeast YMCA","longitude":-97.47657254,"streetaddress":"4712 MLKing","state":"OKLAHOMA"},"type":"Feature","geometry":{"type":"Point","coordinates":[-97.47657254,35.51829472]}},{"properties":{"pounds":743.4,"city":"Oklahoma City","program no":"4005","latitude":35.48769001,"zip":"73111","activity status":"ACTIVE","county":"Oklahoma","id":"a6m9vbt9rd2z","range":null,"program name":"Summer-Pitts Community Center","longitude":-97.48775931,"streetaddress":"1920 N Kate Avenue","state":"OKLAHOMA"},"type":"Feature","geometry":{"type":"Point","coordinates":[-97.48775931,35.48769001]}},{"properties":{"pounds":742.2,"city":"Oklahoma City","program no":"7233A","latitude":35.5185573,"zip":"73111","activity status":"ACTIVE","county":"Oklahoma","id":"a6m9vc0t279c","range":null,"program name":"After School - Quayle UMC","longitude":-97.47750949,"streetaddress":"55501 N. Everest","state":"OKLAHOMA"},"type":"Feature","geometry":{"type":"Point","coordinates":[-97.47750949,35.5185573]}},{"properties":{"pounds":664.9336353,"city":"Oklahoma City","program no":"3018","latitude":35.4548819,"zip":"73109","activity status":"ACTIVE","county":"Oklahoma","id":"a6m9vbxoejmp","range":null,"program name":"Senior-OCSNP La Puerta","longitude":-97.51987708,"streetaddress":"420 SW 10th St","state":"OKLAHOMA"},"type":"Feature","geometry":{"type":"Point","coordinates":[-97.51987708,35.4548819]}},{"properties":{"pounds":629.0905051,"city":"OKC","program no":"3021","latitude":35.37723357,"zip":"73139","activity status":"ACTIVE","county":"Oklahoma","id":"a6m9vbrug3fp","range":null,"program name":"Senior-Oakcrest COC","longitude":-97.53498071,"streetaddress":"1111 SW 89th St","state":"OKLAHOMA"},"type":"Feature","geometry":{"type":"Point","coordinates":[-97.53498071,35.37723357]}},{"properties":{"pounds":613.6,"city":"Oklahoma City","program no":"4113","latitude":35.50761434,"zip":"73111","activity status":"ACTIVE","county":"Oklahoma","id":"a6m9vbrx1lr0","range":null,"program name":"Summer-Housing: Sooner Haven","longitude":-97.48606319,"streetaddress":"1444 NE 36th St","state":"OKLAHOMA"},"type":"Feature","geometry":{"type":"Point","coordinates":[-97.48606319,35.50761434]}},{"properties":{"pounds":608.7277899,"city":"Oklahoma City","program no":"85006","latitude":35.49329328,"zip":"73126","activity status":"ACTIVE","county":"Oklahoma","id":"a6m9vbwl7gwt","range":null,"program name":"RFB-DHS OK County F","longitude":-97.49458427,"streetaddress":"2409 N Kelley Ave","state":"OKLAHOMA"},"type":"Feature","geometry":{"type":"Point","coordinates":[-97.49458427,35.49329328]}},{"properties":{"pounds":602.8080724,"city":"Oklahoma City","program no":"3006","latitude":35.34489194,"zip":"73170","activity status":"ACTIVE","county":"Oklahoma","id":"a6m9vbshm1mq","range":null,"program name":"Senior-Trinity Nazarene","longitude":-97.52581372,"streetaddress":"12324 Greenlea Chase East","state":"OKLAHOMA"},"type":"Feature","geometry":{"type":"Point","coordinates":[-97.52581372,35.34489194]}},{"properties":{"pounds":594.0,"city":"Oklahoma City","program no":"4081","latitude":35.41378861,"zip":"73119","activity status":"ACTIVE","county":"Oklahoma","id":"a6m9vc5zxrne","range":null,"program name":"Summer - Coolidge School","longitude":-97.55673387,"streetaddress":"5212 S Villa","state":"OKLAHOMA"},"type":"Feature","geometry":{"type":"Point","coordinates":[-97.55673387,35.41378861]}},{"properties":{"pounds":591.5,"city":"Oklahoma City","program no":"1179","latitude":35.58370975,"zip":"73120","activity status":"ACTIVE","county":"Oklahoma","id":"a6m9vbtm395e","range":null,"program name":"Whiz Kids-Wildewood Christian","longitude":-97.56864763,"streetaddress":"2224 NW 119th","state":"OKLAHOMA"},"type":"Feature","geometry":{"type":"Point","coordinates":[-97.56864763,35.58370975]}},{"properties":{"pounds":562.0,"city":"Oklahoma City","program no":"7000","latitude":35.46731482,"zip":"73137","activity status":"ACTIVE","county":"Oklahoma","id":"a6m9vc1tb53j","range":null,"program name":"Programs Special Distributions","longitude":-97.51915993,"streetaddress":"PO Box 270968","state":"OKLAHOMA"},"type":"Feature","geometry":{"type":"Point","coordinates":[-97.51915993,35.46731482]}},{"properties":{"pounds":558.2433704,"city":"Oklahoma City","program no":"3016","latitude":35.48088589,"zip":"73107","activity status":"ACTIVE","county":"Oklahoma","id":"a6m9vbs1wx4u","range":null,"program name":"Senior-OCSNP Penn Ave","longitude":-97.57626604,"streetaddress":"1320 N Penn Ave","state":"OKLAHOMA"},"type":"Feature","geometry":{"type":"Point","coordinates":[-97.57626604,35.48088589]}},{"properties":{"pounds":544.0,"city":"Oklahoma City","program no":"369","latitude":35.44970294,"zip":"73129","activity status":"ACTIVE","county":"Oklahoma","id":"a6m9vc1w98yf","range":null,"program name":"Skyline-McKee Center","longitude":-97.50356854,"streetaddress":"500 SE 15th Street","state":"OKLAHOMA"},"type":"Feature","geometry":{"type":"Point","coordinates":[-97.50356854,35.44970294]}},{"properties":{"pounds":543.2,"city":"Oklahoma City","program no":"64","latitude":35.49387055,"zip":"73107","activity status":"ACTIVE","county":"Oklahoma","id":"a6m9vbrlqnum","range":null,"program name":"Dale Rogers Training","longitude":-97.59390817,"streetaddress":"2501 N Utah","state":"OKLAHOMA"},"type":"Feature","geometry":{"type":"Point","coordinates":[-97.59390817,35.49387055]}},{"properties":{"pounds":541.0,"city":"Oklahoma City","program no":"4156","latitude":35.41574155,"zip":"73119","activity status":"ACTIVE","county":"Oklahoma","id":"a6m9vc3ahig9","range":null,"program name":"US Grant High School","longitude":-97.54784587,"streetaddress":"5016 S Pennsylvania","state":"OKLAHOMA"},"type":"Feature","geometry":{"type":"Point","coordinates":[-97.54784587,35.41574155]}},{"properties":{"pounds":536.6,"city":"Oklahoma City","program no":"4036","latitude":35.47481034,"zip":"73117","activity status":"ACTIVE","county":"Oklahoma","id":"a6m9vbzvl42n","range":null,"program name":"Summer - Douglass Community","longitude":-97.45952476,"streetaddress":"900 Frederick Douglass Blvd.","state":"OKLAHOMA"},"type":"Feature","geometry":{"type":"Point","coordinates":[-97.45952476,35.47481034]}},{"properties":{"pounds":534.6,"city":"Oklahoma City","program no":"7030A","latitude":35.46731482,"zip":"73137","activity status":"ACTIVE","county":"Oklahoma","id":"a6m9vbzn5g8u","range":null,"program name":"After School - Urban Mission","longitude":-97.51915993,"streetaddress":null,"state":"OKLAHOMA"},"type":"Feature","geometry":{"type":"Point","coordinates":[-97.51915993,35.46731482]}},{"properties":{"pounds":517.0638099,"city":"Oklahoma City","program no":"3031","latitude":35.4893377,"zip":"73127","activity status":"ACTIVE","county":"Oklahoma","id":"a6m9vbuu4fzx","range":null,"program name":"Senior-OCSNP Memorial","longitude":-97.60121669,"streetaddress":"1915 N Meridian","state":"OKLAHOMA"},"type":"Feature","geometry":{"type":"Point","coordinates":[-97.60121669,35.4893377]}},{"properties":{"pounds":500.3420406,"city":"Oklahoma City","program no":"4152","latitude":35.43825952,"zip":"73108","activity status":"ACTIVE","county":"Oklahoma","id":"a6m9vbx7ahkb","range":null,"program name":"Community Outreach Enhancement","longitude":-97.5547099,"streetaddress":"2705 SW Agnew Ave","state":"OKLAHOMA"},"type":"Feature","geometry":{"type":"Point","coordinates":[-97.5547099,35.43825952]}},{"properties":{"pounds":482.1880725,"city":"Harrah","program no":"3030","latitude":35.49591646,"zip":"73045","activity status":"ACTIVE","county":"Oklahoma","id":"a6m9vbwhhv67","range":null,"program name":"Senior-OCSNP Harrah","longitude":-97.17975943,"streetaddress":"19791 Summers Avenue","state":"OKLAHOMA"},"type":"Feature","geometry":{"type":"Point","coordinates":[-97.17975943,35.49591646]}},{"properties":{"pounds":407.6,"city":"Oklahoma City","program no":"7103A","latitude":35.46825275,"zip":"73107","activity status":"ACTIVE","county":"Oklahoma","id":"a6m9vc6yrdoy","range":null,"program name":"After School - Mark Twain","longitude":-97.55574402,"streetaddress":"2451 W Main St","state":"OKLAHOMA"},"type":"Feature","geometry":{"type":"Point","coordinates":[-97.55574402,35.46825275]}},{"properties":{"pounds":360.5604016,"city":"Del City","program no":"3028","latitude":35.43935324,"zip":"73115","activity status":"ACTIVE","county":"Oklahoma","id":"a6m9vbtnjd5i","range":null,"program name":"Senior-St Christophers","longitude":-97.4562089,"streetaddress":"3300 SE 24th St","state":"OKLAHOMA"},"type":"Feature","geometry":{"type":"Point","coordinates":[-97.4562089,35.43935324]}},{"properties":{"pounds":334.2161376,"city":"Oklahoma City","program no":"4114","latitude":35.44980705,"zip":"73138","activity status":"ACTIVE","county":"Oklahoma","id":"a6m9vbxdfjva","range":null,"program name":"Will Rogers Housing","longitude":-97.54256313,"streetaddress":"1635 SW 15th St","state":"OKLAHOMA"},"type":"Feature","geometry":{"type":"Point","coordinates":[-97.54256313,35.44980705]}},{"properties":{"pounds":275.0,"city":"Oklahoma City","program no":"928","latitude":35.50055604,"zip":"73112","activity status":"ACTIVE","county":"Oklahoma","id":"a6m9vc4109t5","range":null,"program name":"Whiz Kids - Baptist Temple","longitude":-97.55510558,"streetaddress":"2433 NW 30th Street","state":"OKLAHOMA"},"type":"Feature","geometry":{"type":"Point","coordinates":[-97.55510558,35.50055604]}},{"properties":{"pounds":230.6,"city":"Oklahoma City","program no":"7210A","latitude":35.47097465,"zip":"73102","activity status":"ACTIVE","county":"Oklahoma","id":"a6m9vbxbk3eh","range":null,"program name":"After School - Lambuth","longitude":-97.51934318,"streetaddress":null,"state":"OKLAHOMA"},"type":"Feature","geometry":{"type":"Point","coordinates":[-97.51934318,35.47097465]}},{"properties":{"pounds":228.0,"city":"Oklahoma City","program no":"7225A","latitude":35.5185573,"zip":"73111","activity status":"ACTIVE","county":"Oklahoma","id":"a6m9vbwfni97","range":null,"program name":"After School - Evangelistic","longitude":-97.47750949,"streetaddress":null,"state":"OKLAHOMA"},"type":"Feature","geometry":{"type":"Point","coordinates":[-97.47750949,35.5185573]}},{"properties":{"pounds":223.0,"city":"Oklahoma City","program no":"3000","latitude":35.43015515,"zip":"73137","activity status":"ACTIVE","county":"Oklahoma","id":"a6m9vc7xoe0a","range":null,"program name":"Senior-OK County Ordering Tick","longitude":-97.61374209,"streetaddress":"3355 S. Purdue","state":"OKLAHOMA"},"type":"Feature","geometry":{"type":"Point","coordinates":[-97.61374209,35.43015515]}},{"properties":{"pounds":216.6,"city":"Oklahoma City","program no":"1212","latitude":35.61855162,"zip":"73134","activity status":"ACTIVE","county":"Oklahoma","id":"a6m9vbz0syn6","range":null,"program name":"Whiz Kids - Crossings Com Chur","longitude":-97.58506778,"streetaddress":"14600 N Portland Avenue","state":"OKLAHOMA"},"type":"Feature","geometry":{"type":"Point","coordinates":[-97.58506778,35.61855162]}},{"properties":{"pounds":142.3,"city":"Oklahoma City","program no":"4110","latitude":35.44975793,"zip":"73129","activity status":"ACTIVE","county":"Oklahoma","id":"a6m9vbutbhsz","range":null,"program name":"Summer-Housing Ambassador Ct","longitude":-97.49684202,"streetaddress":"800 SE 15th St","state":"OKLAHOMA"},"type":"Feature","geometry":{"type":"Point","coordinates":[-97.49684202,35.44975793]}},{"properties":{"pounds":72.0,"city":"Oklahoma City","program no":"7010","latitude":35.46731482,"zip":"73137","activity status":"ACTIVE","county":"Oklahoma","id":"a6m9vbtzfikk","range":null,"program name":"Kids Cafe-Food Bank","longitude":-97.51915993,"streetaddress":"PO Box 270968","state":"OKLAHOMA"},"type":"Feature","geometry":{"type":"Point","coordinates":[-97.51915993,35.46731482]}},{"properties":{"pounds":1.0,"city":"Oklahoma City","program no":"1263","latitude":35.47197619,"zip":"73102","activity status":"ACTIVE","county":"Oklahoma","id":"a6m9vc4klm8r","range":null,"program name":"Whiz Kids - First Church","longitude":-97.5149526,"streetaddress":"131 NW 4th Street","state":"OKLAHOMA"},"type":"Feature","geometry":{"type":"Point","coordinates":[-97.5149526,35.47197619]}}],"is_temporal":false,"author":{"url":"","metadata":null,"contact_name":null,"contact_address":null,"source":null,"contact_phone":null},"source":"","pagination":{"sort":null,"start":0,"total":42,"limit":1000000},"state":"complete","tags":"","published":"2014-08-14T20:35:43-04:00","id":204453}