{"type":"FeatureCollection","data_type":"Dataset","url_type":null,"permissions":[{"permissions":{"download":true,"view":true},"group_id":"everyone"}],"classification":null,"title":"kathy's test 4","count":56,"stream_id":20598,"contributor":{"url":"http://geocommons.com/users/10178","name":"hoekstra"},"data_attributes":null,"calculation_params":null,"icon_link":null,"link":"http://geocommons.com/overlays/20598.json","extent":[-122.869,26.1512,-68.7706,45.78],"geometry_types":["point"],"unique_name":null,"name":"kathy's test 4","feature_count":56,"description":"","next_feature":null,"is_raster":false,"short_classification":"Y","stats":{"count":{"max":2.0,"mean":1.01785714285714,"variance":0.0178571428571429,"stdev":0.133630620956212,"min":1.0,"median":1.0}},"features":[{"properties":{"city":"Albany","zip":"12207","count":1.0,"id":"a6iu9nyckvac","comment":null,"address":"1 CLINTON AVE, ALBANY NY 12207","state":"NY"},"type":"Feature","geometry":{"type":"Point","coordinates":[-73.750031,42.654244]}},{"properties":{"city":"Elkton","zip":"21921","count":1.0,"id":"a6iu9o07lui2","comment":"find nearest corner","address":"101 CHESAPEAKE BLVD, ELKTON MD 21921","state":"MD"},"type":"Feature","geometry":{"type":"Point","coordinates":[-75.787244,39.605795]}},{"properties":{"city":"New York","zip":"10023","count":1.0,"id":"a6iu9o6an109","comment":"predir is TIGER artifact","address":"101 West End Avenue, New York NY 10023","state":"NY"},"type":"Feature","geometry":{"type":"Point","coordinates":[-73.989994,40.772242]}},{"properties":{"city":"Sanford","zip":"27330","count":1.0,"id":"a6iu9o61zodz","comment":null,"address":"1013 SPRING LANE, SANFORD NC 27330","state":"NC"},"type":"Feature","geometry":{"type":"Point","coordinates":[-79.190069,35.485977]}},{"properties":{"city":"Wayne","zip":"19087","count":1.0,"id":"a6iu9odxhiep","comment":null,"address":"105 Amity Way, Wayne PA 19087","state":"PA"},"type":"Feature","geometry":{"type":"Point","coordinates":[-75.455396,40.077345]}},{"properties":{"city":"Clarksville","zip":"37040","count":1.0,"id":"a6iu9oakicne","comment":null,"address":"108 CENTER POINTE DR, CLARKSVILLE TN 37040","state":"TN"},"type":"Feature","geometry":{"type":"Point","coordinates":[-87.305051,36.568654]}},{"properties":{"city":"Edgewater","zip":"7020","count":1.0,"id":"a6iu9o1zjqq5","comment":"FIXME: parsing","address":"1111 River Rd Apt A17, Edgewater NJ 07020","state":"NJ"},"type":"Feature","geometry":{"type":"Point","coordinates":[-73.99025,40.807705]}},{"properties":{"city":"Greenwood","zip":"29649","count":1.0,"id":"a6iu9o70zwe4","comment":null,"address":"115 ENTERPRISE COURT, GREENWOOD SC 29649","state":"SC"},"type":"Feature","geometry":{"type":"Point","coordinates":[-82.165528,34.218031]}},{"properties":{"city":"Grand Island","zip":"68803","count":1.0,"id":"a6iu9o4efw6i","comment":null,"address":"115 N WEBB RD, GRAND ISLAND NE 68803","state":"NE"},"type":"Feature","geometry":{"type":"Point","coordinates":[-98.378437,40.917806]}},{"properties":{"city":"Roanoke","zip":"24016","count":1.0,"id":"a6iu9o6al8ox","comment":null,"address":"116 N JEFFERSON STREET, ROANOKE VA 24016","state":"VA"},"type":"Feature","geometry":{"type":"Point","coordinates":[-79.940502,37.273557]}},{"properties":{"city":"Fairfax","zip":"22030","count":1.0,"id":"a6iu9ob53ls5","comment":null,"address":"11839 Federalist Way, Fairfax VA 22030","state":"VA"},"type":"Feature","geometry":{"type":"Point","coordinates":[-77.354362,38.850552]}},{"properties":{"city":"Effingham","zip":"62401","count":1.0,"id":"a6iu9o246llc","comment":null,"address":"1207 NETWORK CENTRE DR, EFFINGHAM IL 62401","state":"IL"},"type":"Feature","geometry":{"type":"Point","coordinates":[-88.524712,39.146093]}},{"properties":{"city":"Greensburg","zip":"15601","count":1.0,"id":"a6iu9o32413d","comment":null,"address":"122 W 3RD STREET, GREENSBURG PA 15601","state":"PA"},"type":"Feature","geometry":{"type":"Point","coordinates":[-79.54354,40.300309]}},{"properties":{"city":"Gilbert","zip":"85295","count":1.0,"id":"a6iu9o1n02ct","comment":"street","address":"129 E Williams Field Rd, Gilbert AZ 85295","state":"AZ"},"type":"Feature","geometry":{"type":"Point","coordinates":[-111.734009,33.306846]}},{"properties":{"city":"Marietta","zip":"45750","count":1.0,"id":"a6iu9o8x1uhz","comment":null,"address":"1301 GREENE STREET, MARIETTA OH 45750","state":"OH"},"type":"Feature","geometry":{"type":"Point","coordinates":[-81.452073,39.410722]}},{"properties":{"city":"New Bern","zip":"28562","count":1.0,"id":"a6iu9o918e2x","comment":null,"address":"1420 MCCARTHY BLVD, NEW BERN NC 28562","state":"NC"},"type":"Feature","geometry":{"type":"Point","coordinates":[-77.097976,35.108066]}},{"properties":{"city":"Fayetteville","zip":"28301","count":1.0,"id":"a6iu9nzir7nj","comment":null,"address":"145 ROWAN STREET, FAYETTEVILLE NC 28301","state":"NC"},"type":"Feature","geometry":{"type":"Point","coordinates":[-78.877901,35.057592]}},{"properties":{"city":"Williamson","zip":"25661","count":1.0,"id":"a6iu9nzqthsw","comment":"find nearest corner","address":"146 EAST FIRST AVE, WILLIAMSON WV 25661","state":"WV"},"type":"Feature","geometry":{"type":"Point","coordinates":[-82.277028,37.670255]}},{"properties":{"city":"Wytheville","zip":"24382","count":1.0,"id":"a6iu9nz0vzn3","comment":"nearby address; TIGER omission","address":"1480 EAST MAIN STREET, WYTHEVILLE VA 24382","state":"VA"},"type":"Feature","geometry":{"type":"Point","coordinates":[-81.069447,36.951293]}},{"properties":{"city":"Joliet","zip":"60432","count":1.0,"id":"a6iu9o71i2jv","comment":null,"address":"158 N SCOTT STREET, JOLIET IL 60432","state":"IL"},"type":"Feature","geometry":{"type":"Point","coordinates":[-88.080097,41.525014]}},{"properties":{"city":"Littleton","zip":"3561","count":1.0,"id":"a6iu9o3zif2z","comment":"range","address":"177 MAIN STREET, LITTLETON NH 03561","state":"NH"},"type":"Feature","geometry":{"type":"Point","coordinates":[-71.770304,44.306095]}},{"properties":{"city":"Union City","zip":"38261","count":1.0,"id":"a6iu9o0r4lfc","comment":null,"address":"1800 OLD TROY RD, UNION CITY TN 38261","state":"TN"},"type":"Feature","geometry":{"type":"Point","coordinates":[-89.072108,36.41534]}},{"properties":{"city":"Albemarle","zip":"28001","count":1.0,"id":"a6iu9o1lvbnt","comment":null,"address":"1925 E MAIN ST, ALBEMARLE NC 28001","state":"NC"},"type":"Feature","geometry":{"type":"Point","coordinates":[-80.19636,35.350285]}},{"properties":{"city":"Bangor","zip":"4401","count":1.0,"id":"a6iu9o8myrtm","comment":null,"address":"202 HARLOW ST, BANGOR ME 04401","state":"ME"},"type":"Feature","geometry":{"type":"Point","coordinates":[-68.770643,44.803425]}},{"properties":{"city":"Florence","zip":"35630","count":1.0,"id":"a6iu9o535a0w","comment":null,"address":"203 SOUTH WALNUT ST, FLORENCE AL 35630","state":"AL"},"type":"Feature","geometry":{"type":"Point","coordinates":[-87.67197,34.80184]}},{"properties":{"city":"Hackensack","zip":"7601","count":1.0,"id":"a6iu9oa6p635","comment":null,"address":"22 SUSSEX ST, HACKENSACK NJ 07601","state":"NJ"},"type":"Feature","geometry":{"type":"Point","coordinates":[-74.048532,40.880333]}},{"properties":{"city":"Pottsville","zip":"17901","count":1.0,"id":"a6iu9oebl7ks","comment":null,"address":"2221 W. MARKET STREET, POTTSVILLE PA 17901","state":"PA"},"type":"Feature","geometry":{"type":"Point","coordinates":[-76.196533,40.685389]}},{"properties":{"city":"Fort Lauderdale","zip":"33305","count":1.0,"id":"a6iu9o98xijg","comment":"canonical place","address":"2276 WILTON DR, WILTON MANORS FL 33305","state":"FL"},"type":"Feature","geometry":{"type":"Point","coordinates":[-80.140832,26.15118]}},{"properties":{"city":"Williamsport","zip":"17701","count":1.0,"id":"a6iu9o7y82vj","comment":null,"address":"240 W 3RD ST, WILLIAMSPORT PA 17701","state":"PA"},"type":"Feature","geometry":{"type":"Point","coordinates":[-77.001008,41.241139]}},{"properties":{"city":"Medford","zip":"97501","count":1.0,"id":"a6iu9o3nx06w","comment":"street","address":"2518 S Pacific Hwy, Medford OR","state":"OR"},"type":"Feature","geometry":{"type":"Point","coordinates":[-122.868529,42.324483]}},{"properties":{"city":"Virginia Beach","zip":"23452","count":1.0,"id":"a6iu9odgkodk","comment":"find nearest corner","address":"2875 SABRE ST, VIRGINIA BEACH VA 23452","state":"VA"},"type":"Feature","geometry":{"type":"Point","coordinates":[-76.067123,36.823032]}},{"properties":{"city":"Billings","zip":"59101","count":2.0,"id":"a6iu9o2irrg6","comment":"returns 2 results","address":"2900 4TH AVE, BILLINGS MT 59101","state":"MT"},"type":"Feature","geometry":{"type":"Point","coordinates":[-108.494641,45.779973]}},{"properties":{"city":"North Platte","zip":"69101","count":1.0,"id":"a6iu9nzlezt2","comment":null,"address":"300 E 3RD ST, NORTH PLATTE NE 69101","state":"NE"},"type":"Feature","geometry":{"type":"Point","coordinates":[-100.762266,41.135397]}},{"properties":{"city":"New York","zip":"10036","count":1.0,"id":"a6iu9nz3kagi","comment":null,"address":"305 W 45th St, New York NY 10036","state":"NY"},"type":"Feature","geometry":{"type":"Point","coordinates":[-73.982711,40.756771]}},{"properties":{"city":"Kalamazoo","zip":"49009","count":1.0,"id":"a6iu9oe61zc5","comment":null,"address":"317 SOUTH DRAKE ROAD, KALAMAZOO MI 49009","state":"MI"},"type":"Feature","geometry":{"type":"Point","coordinates":[-85.64819,42.292072]}},{"properties":{"city":"Clarksville","zip":"23927","count":1.0,"id":"a6iu9nywyho0","comment":"nearby address; might be TIGER omission","address":"324 COMMERCE ROAD, FARMVILLE VA 23901","state":"VA"},"type":"Feature","geometry":{"type":"Point","coordinates":[-78.552234,36.622389]}},{"properties":{"city":"Hyattsville","zip":"20785","count":1.0,"id":"a6iu9oe75mpe","comment":"canonical place","address":"337 BRIGHTSEAT ROAD, LANDOVER MD 20785","state":"MD"},"type":"Feature","geometry":{"type":"Point","coordinates":[-76.851107,38.892722]}},{"properties":{"city":"Sioux City","zip":"51106","count":1.0,"id":"a6iu9o4x89w8","comment":null,"address":"3555 SOUTHERN HILLS DR, SIOUX CITY IA 51106","state":"IA"},"type":"Feature","geometry":{"type":"Point","coordinates":[-96.353014,42.449259]}},{"properties":{"city":"Providence","zip":"2903","count":1.0,"id":"a6iu9oc7um6f","comment":null,"address":"380 WESTMINSTER ST, PROVIDENCE RI 02903","state":"RI"},"type":"Feature","geometry":{"type":"Point","coordinates":[-71.408943,41.825291]}},{"properties":{"city":"Hoboken","zip":"7030","count":1.0,"id":"a6iu9oannwml","comment":null,"address":"400 Monroe St, Hoboken, NJ 07030","state":"NJ"},"type":"Feature","geometry":{"type":"Point","coordinates":[-74.040689,40.737221]}},{"properties":{"city":"Nampa","zip":"83687","count":1.0,"id":"a6iu9o085bjo","comment":"street","address":"4018 W Ustick Rd, Meridian ID","state":"ID"},"type":"Feature","geometry":{"type":"Point","coordinates":[-116.474219,43.634109]}},{"properties":{"city":"Allentown","zip":"18102","count":1.0,"id":"a6iu9o5nlfxb","comment":null,"address":"41 N 4TH ST, ALLENTOWN PA 18102","state":"PA"},"type":"Feature","geometry":{"type":"Point","coordinates":[-75.465764,40.604642]}},{"properties":{"city":"Scotts Bluff","zip":"69361","count":1.0,"id":"a6iu9obdvwg8","comment":"find nearest corner","address":"415 VALLEY VIEW DR, SCOTTSBLUFF NE 69361","state":"NE"},"type":"Feature","geometry":{"type":"Point","coordinates":[-103.651865,41.877553]}},{"properties":{"city":"Waterville","zip":"4901","count":1.0,"id":"a6iu9o82qj95","comment":null,"address":"46 FRONT STREET, WATERVILLE, ME 04901","state":"ME"},"type":"Feature","geometry":{"type":"Point","coordinates":[-69.628663,44.549357]}},{"properties":{"city":"Amherst","zip":"1002","count":1.0,"id":"a6iu9o8bsxeo","comment":"address is all abbreviations","address":"460 West St, Amherst MA 01002-2964","state":"MA"},"type":"Feature","geometry":{"type":"Point","coordinates":[-72.520792,42.355298]}},{"properties":{"city":"Welch","zip":"24801","count":1.0,"id":"a6iu9obj0etm","comment":null,"address":"50 MCDOWELL STREET, WELCH WV 24801","state":"WV"},"type":"Feature","geometry":{"type":"Point","coordinates":[-81.585484,37.430901]}},{"properties":{"city":"Richmond","zip":"47374","count":1.0,"id":"a6iu9ocf4577","comment":null,"address":"500 NORTH A STREET, RICHMOND IN 47374","state":"IN"},"type":"Feature","geometry":{"type":"Point","coordinates":[-84.893962,39.830603]}},{"properties":{"city":"McKeesport","zip":"15132","count":1.0,"id":"a6iu9o99k51k","comment":null,"address":"520 5TH AVE, MCKEESPORT PA 15132","state":"PA"},"type":"Feature","geometry":{"type":"Point","coordinates":[-79.868864,40.35047]}},{"properties":{"city":"South Bend","zip":"46601","count":1.0,"id":"a6iu9o0l2gmm","comment":null,"address":"602 SOUTH MICHIGAN ST, SOUTH BEND IN 46601","state":"IN"},"type":"Feature","geometry":{"type":"Point","coordinates":[-86.250361,41.676373]}},{"properties":{"city":"Plattsburgh","zip":"12901","count":1.0,"id":"a6iu9nz5nidh","comment":null,"address":"7242 ROUTE 9, PLATTSBURGH NY 12901","state":"NY"},"type":"Feature","geometry":{"type":"Point","coordinates":[-73.452205,44.697714]}},{"properties":{"city":"Tifton","zip":"31793","count":1.0,"id":"a6iu9nz7g1ek","comment":"ZIP is wrong","address":"732 W 2ND ST, TIFTON GA 31794","state":"GA"},"type":"Feature","geometry":{"type":"Point","coordinates":[-83.528009,31.457953]}},{"properties":{"city":"Patchogue","zip":"11772","count":1.0,"id":"a6iu9o0pjuv7","comment":null,"address":"75 OAK STREET, PATCHOGUE NY 11772","state":"NY"},"type":"Feature","geometry":{"type":"Point","coordinates":[-73.015086,40.766418]}},{"properties":{"city":"State College","zip":"16801","count":1.0,"id":"a6iu9o6l4t6b","comment":null,"address":"901 UNIVERSITY DR, STATE COLLEGE PA 16801","state":"PA"},"type":"Feature","geometry":{"type":"Point","coordinates":[-77.853645,40.80614]}},{"properties":{"city":"Brooklyn","zip":"11211","count":1.0,"id":"a6iu9nydj9gj","comment":null,"address":"93 NORTH 9TH STREET, BROOKLYN NY 11211","state":"NY"},"type":"Feature","geometry":{"type":"Point","coordinates":[-73.959244,40.720627]}},{"properties":{"city":"McMinnville","zip":"37110","count":1.0,"id":"a6iu9nzlfct5","comment":null,"address":"931 OLD SMITHVILLE HWY, MCMINNVILLE TN 37110","state":"TN"},"type":"Feature","geometry":{"type":"Point","coordinates":[-85.788226,35.701451]}},{"properties":{"city":"Panama City","zip":"32401","count":1.0,"id":"a6iu9nyr7dnu","comment":null,"address":"97 WEST OAK AVE, PANAMA CITY FL 32401","state":"FL"},"type":"Feature","geometry":{"type":"Point","coordinates":[-85.661436,30.154306]}}],"is_temporal":false,"author":{"url":"","metadata":"","contact_name":"","contact_address":"","source":"","contact_phone":""},"source":"","pagination":{"sort":null,"start":0,"total":56,"limit":1000000},"state":"complete","tags":"test","published":"2010-01-19T19:18:43Z","id":20598}