{"type":"FeatureCollection","data_type":"Dataset","url_type":null,"permissions":[{"permissions":{"download":true,"view":true},"group_id":"everyone"}],"classification":null,"title":"SCHOOL_FACILITIES","count":211,"stream_id":207249,"contributor":{"url":"http://geocommons.com/users/19676","name":"mjwarrell"},"data_attributes":null,"calculation_params":null,"icon_link":null,"link":"http://geocommons.com/overlays/207249.json","extent":[-77.4855,38.6846,-77.0561,39.0014],"geometry_types":["point"],"unique_name":null,"name":"SCHOOL_FACILITIES","feature_count":211,"description":"Public schools in Fairfax County, Virginia","next_feature":null,"is_raster":false,"short_classification":"Y","stats":{"SCHID_3":{"max":610.0,"mean":224.85308056872,"variance":17096.0306928459,"stdev":130.751790400154,"min":17.0,"median":206.0},"CLUSTER_NU":{"max":8,"mean":4.37440758293839,"variance":5.15915143308508,"stdev":2.2713765502631,"min":1,"median":4},"SCHID_4":{"max":8431.0,"mean":2480.77725118483,"variance":2225572.04062288,"stdev":1491.83512514717,"min":72.0,"median":2264.0},"SCHOOL_NUM":{"max":8431,"mean":2480.77725118483,"variance":2225572.04062288,"stdev":1491.83512514717,"min":72,"median":2264},"STREET_NUM":{"max":15450,"mean":6272.48275862069,"variance":11781568.8350973,"stdev":3432.42899927985,"min":101,"median":6301}},"features":[{"properties":{"SCHOOL_TYP":"ES","SCHID_3":348.0,"CITY":"Lorton","CLUSTER_NU":4,"SCHID_4":1348.0,"ZIP":"22306","WEB_ADDRES":"www.fcps.edu/GunstonES","SCHOOL_NAM":"GUNSTON","SCHOOL_NUM":1348,"PYRAMID":"Hayfield","NAME_FINAL":"Y","STATE":"VA","STREET_NAM":"GUNSTON RD","id":"a67pbj4pkapp","ADDRESS":"10100 Gunston RD","STREET_NUM":10100},"type":"Feature","geometry":{"type":"Point","coordinates":[-77.2099602386903,38.6845651175724]}},{"properties":{"SCHOOL_TYP":"ES","SCHID_3":222.0,"CITY":"Alexandria","CLUSTER_NU":4,"SCHID_4":1222.0,"ZIP":"22309","WEB_ADDRES":"www.fcps.edu/WashingtonMillES","SCHOOL_NAM":"WASHINGTON MILL","SCHOOL_NUM":1222,"PYRAMID":"Mount Vernon","NAME_FINAL":"Y","STATE":"VA","STREET_NAM":"CHERRY TREE DR","id":"a67pbjijj2px","ADDRESS":"9100 Cherrytree DR","STREET_NUM":9100},"type":"Feature","geometry":{"type":"Point","coordinates":[-77.1046283230627,38.7102625599301]}},{"properties":{"SCHOOL_TYP":"ES","SCHID_3":356.0,"CITY":"Fairfax Station","CLUSTER_NU":5,"SCHID_4":1356.0,"ZIP":"22039","WEB_ADDRES":"www.fcps.edu/HalleyES","SCHOOL_NAM":"HALLEY","SCHOOL_NUM":1356,"PYRAMID":"South County","NAME_FINAL":"Y","STATE":"VA","STREET_NAM":"CROSS CHASE CI","id":"a67pbj46d0hr","ADDRESS":"8850 Cross Chase CI","STREET_NUM":8850},"type":"Feature","geometry":{"type":"Point","coordinates":[-77.2598548816836,38.7179203331948]}},{"properties":{"SCHOOL_TYP":"ES","SCHID_3":217.0,"CITY":"Alexandria","CLUSTER_NU":4,"SCHID_4":1217.0,"ZIP":"22308","WEB_ADDRES":"www.fcps.edu/FortHuntES","SCHOOL_NAM":"FORT HUNT","SCHOOL_NUM":1217,"PYRAMID":"West Potomac","NAME_FINAL":"Y","STATE":"VA","STREET_NAM":"LINTON LA","id":"a67pbj4e7gge","ADDRESS":"8832 Linton LA","STREET_NUM":8832},"type":"Feature","geometry":{"type":"Point","coordinates":[-77.0663057893157,38.7187257467044]}},{"properties":{"SCHOOL_TYP":"ES","SCHID_3":127.0,"CITY":"Alexandria","CLUSTER_NU":4,"SCHID_4":1127.0,"ZIP":"22315","WEB_ADDRES":"www.fcps.edu/LaneES","SCHOOL_NAM":"LANE","SCHOOL_NUM":1127,"PYRAMID":"Hayfield","NAME_FINAL":"Y","STATE":"VA","STREET_NAM":"BEULAH ST","id":"a67pbjaqqlfb","ADDRESS":"7137 Beulah ST","STREET_NUM":7137},"type":"Feature","geometry":{"type":"Point","coordinates":[-77.15733199656,38.7610728390109]}},{"properties":{"SCHOOL_TYP":"ES","SCHID_3":343.0,"CITY":"Lorton","CLUSTER_NU":4,"SCHID_4":1343.0,"ZIP":"22079","WEB_ADDRES":"www.fcps.edu/lortonstationes","SCHOOL_NAM":"LORTON STATION","SCHOOL_NUM":1343,"PYRAMID":"Hayfield","NAME_FINAL":"Y","STATE":"VA","STREET_NAM":"LEWIS CHAPEL RD","id":"a67pbjc6yupt","ADDRESS":"9298 Lewis Chapel RD","STREET_NUM":9298},"type":"Feature","geometry":{"type":"Point","coordinates":[-77.218042621469,38.7063115367981]}},{"properties":{"SCHOOL_TYP":"MS","SCHID_3":411.0,"CITY":"Clifton","CLUSTER_NU":7,"SCHID_4":8411.0,"ZIP":"20124","WEB_ADDRES":"www.fcps.edu/LibertyMS","SCHOOL_NAM":"LIBERTY","SCHOOL_NUM":8411,"PYRAMID":"Centreville","NAME_FINAL":"Y","STATE":"VA","STREET_NAM":"UNION MILL RD","id":"a67pbj41kenn","ADDRESS":"6801 Union Mill RD","STREET_NUM":6801},"type":"Feature","geometry":{"type":"Point","coordinates":[-77.4185616536371,38.8056024980486]}},{"properties":{"SCHOOL_TYP":"ES","SCHID_3":437.0,"CITY":"Centreville","CLUSTER_NU":7,"SCHID_4":2437.0,"ZIP":"20121","WEB_ADDRES":"www.fcps.edu/BullRunES","SCHOOL_NAM":"BULL RUN","SCHOOL_NUM":2437,"PYRAMID":"Centreville","NAME_FINAL":"Y","STATE":"VA","STREET_NAM":"LEE HY","id":"a67pbjgfg1uy","ADDRESS":"15301 Lee Hwy.","STREET_NUM":15301},"type":"Feature","geometry":{"type":"Point","coordinates":[-77.4755256773837,38.8286550922873]}},{"properties":{"SCHOOL_TYP":"ES","SCHID_3":287.0,"CITY":"Herndon","CLUSTER_NU":1,"SCHID_4":3287.0,"ZIP":"20170","WEB_ADDRES":"www.fcps.edu/HutchisonES","SCHOOL_NAM":"HUTCHISON","SCHOOL_NUM":3287,"PYRAMID":"Herndon","NAME_FINAL":"Y","STATE":"VA","STREET_NAM":"PARCHER AV","id":"a67pbjaglx7z","ADDRESS":"13209 Parcher Ave.","STREET_NUM":13209},"type":"Feature","geometry":{"type":"Point","coordinates":[-77.406911354658,38.9612798167445]}},{"properties":{"SCHOOL_TYP":"ES","SCHID_3":229.0,"CITY":"Alexandria","CLUSTER_NU":4,"SCHID_4":1229.0,"ZIP":"22309","WEB_ADDRES":"www.fcps.edu/WoodleyHillsES","SCHOOL_NAM":"WOODLEY HILLS","SCHOOL_NUM":1229,"PYRAMID":"Mount Vernon","NAME_FINAL":"Y","STATE":"VA","STREET_NAM":"OLD MOUNT VERNON RD","id":"a67pbj3rq4ki","ADDRESS":"8718 Old Mt. Vernon RD","STREET_NUM":8718},"type":"Feature","geometry":{"type":"Point","coordinates":[-77.0971591107384,38.7203642809178]}},{"properties":{"SCHOOL_TYP":"MS","SCHID_3":422.0,"CITY":"Lorton","CLUSTER_NU":5,"SCHID_4":8422.0,"ZIP":"22079","WEB_ADDRES":"www.fcps.edu/southcountyss","SCHOOL_NAM":"SOUTH COUNTY","SCHOOL_NUM":8422,"PYRAMID":"South County","NAME_FINAL":"Y","STATE":"VA","STREET_NAM":"SILVERBROOK RD","id":"a67pbjbksrre","ADDRESS":"8501 Silverbrook Rd.","STREET_NUM":8501},"type":"Feature","geometry":{"type":"Point","coordinates":[-77.2393659724643,38.7180919555793]}},{"properties":{"SCHOOL_TYP":"ES","SCHID_3":213.0,"CITY":"Alexandria","CLUSTER_NU":4,"SCHID_4":1213.0,"ZIP":"22308","WEB_ADDRES":"www.fcps.edu/WaynewoodES","SCHOOL_NAM":"WAYNEWOOD","SCHOOL_NUM":1213,"PYRAMID":"West Potomac","NAME_FINAL":"Y","STATE":"VA","STREET_NAM":"WAYNEWOOD BV","id":"a67pbj73oa1z","ADDRESS":"1205 Waynewood BV","STREET_NUM":1205},"type":"Feature","geometry":{"type":"Point","coordinates":[-77.0561413378214,38.7244442111205]}},{"properties":{"SCHOOL_TYP":"ES","SCHID_3":354.0,"CITY":"Springfield","CLUSTER_NU":5,"SCHID_4":1354.0,"ZIP":"22153","WEB_ADDRES":"www.fcps.edu/SaratogaES","SCHOOL_NAM":"SARATOGA","SCHOOL_NUM":1354,"PYRAMID":"Lee","NAME_FINAL":"Y","STATE":"VA","STREET_NAM":"NORTHUMBERLAND RD","id":"a67pbjfqol1q","ADDRESS":"8111 Northumberland RD","STREET_NUM":8111},"type":"Feature","geometry":{"type":"Point","coordinates":[-77.2137305419514,38.7357550701299]}},{"properties":{"SCHOOL_TYP":"ES","SCHID_3":352.0,"CITY":"Springfield","CLUSTER_NU":5,"SCHID_4":1352.0,"ZIP":"22153","WEB_ADDRES":"www.fcps.edu/NewingtonForestES","SCHOOL_NAM":"NEWINGTON FOREST","SCHOOL_NUM":1352,"PYRAMID":"South County","NAME_FINAL":"Y","STATE":"VA","STREET_NAM":"NEWINGTON FOREST RD","id":"a67pbjd1zr6t","ADDRESS":"8001 Newington Forest AV","STREET_NUM":8001},"type":"Feature","geometry":{"type":"Point","coordinates":[-77.2400996663227,38.7389429848436]}},{"properties":{"SCHOOL_TYP":"ES","SCHID_3":455.0,"CITY":"Annandale","CLUSTER_NU":3,"SCHID_4":2455.0,"ZIP":"22003","WEB_ADDRES":"www.fcps.edu/ColumbiaES","SCHOOL_NAM":"COLUMBIA","SCHOOL_NUM":2455,"PYRAMID":"Annandale","NAME_FINAL":"Y","STATE":"VA","STREET_NAM":"ALPINE DR","id":"a67pbj9fs3g9","ADDRESS":"6720 Alpine DR","STREET_NUM":6720},"type":"Feature","geometry":{"type":"Point","coordinates":[-77.1759433727931,38.8291391086372]}},{"properties":{"SCHOOL_TYP":"ES","SCHID_3":192.0,"CITY":"Alexandria","CLUSTER_NU":5,"SCHID_4":1192.0,"ZIP":"22303","WEB_ADDRES":"www.fcps.edu/CameronES","SCHOOL_NAM":"CAMERON","SCHOOL_NUM":1192,"PYRAMID":"Edison","NAME_FINAL":"Y","STATE":"VA","STREET_NAM":"CAMPBELL DR","id":"a67pbj6bjm3g","ADDRESS":"3434 Campbell DR","STREET_NUM":3434},"type":"Feature","geometry":{"type":"Point","coordinates":[-77.0913469407155,38.8005163208404]}},{"properties":{"SCHOOL_TYP":"ES","SCHID_3":142.0,"CITY":"Springfield","CLUSTER_NU":3,"SCHID_4":2142.0,"ZIP":"22151","WEB_ADDRES":"www.fcps.edu/NorthSpringfieldES","SCHOOL_NAM":"NORTH SPRINGFIELD","SCHOOL_NUM":2142,"PYRAMID":"Annandale","NAME_FINAL":"Y","STATE":"VA","STREET_NAM":"HEMING CT","id":"a67pbjenwrkl","ADDRESS":"7602 Heming CT","STREET_NUM":7602},"type":"Feature","geometry":{"type":"Point","coordinates":[-77.2071598754224,38.8015594540904]}},{"properties":{"SCHOOL_TYP":"ES","SCHID_3":395.0,"CITY":"Fairfax","CLUSTER_NU":6,"SCHID_4":2395.0,"ZIP":"22032","WEB_ADDRES":"www.fcps.edu/BonnieBraeES","SCHOOL_NAM":"BONNIE BRAE","SCHOOL_NUM":2395,"PYRAMID":"Robinson","NAME_FINAL":"Y","STATE":"VA","STREET_NAM":"SIDEBURN RD","id":"a67pbjd4hhot","ADDRESS":"5420 Sideburn Rd.","STREET_NUM":5420},"type":"Feature","geometry":{"type":"Point","coordinates":[-77.3097494407661,38.8040680074423]}},{"properties":{"SCHOOL_TYP":"ES","SCHID_3":456.0,"CITY":"Falls Church","CLUSTER_NU":3,"SCHID_4":2456.0,"ZIP":"22041","WEB_ADDRES":"www.fcps.edu/BelvedereES","SCHOOL_NAM":"BELVEDERE","SCHOOL_NUM":2456,"PYRAMID":"Stuart","NAME_FINAL":"Y","STATE":"VA","STREET_NAM":"COLUMBIA PI","id":"a67pbj7hten2","ADDRESS":"6540 Columbia Pike","STREET_NUM":6540},"type":"Feature","geometry":{"type":"Point","coordinates":[-77.1687895796345,38.8386595581349]}},{"properties":{"SCHOOL_TYP":"ES","SCHID_3":184.0,"CITY":"Alexandria","CLUSTER_NU":4,"SCHID_4":1184.0,"ZIP":"22315","WEB_ADDRES":"www.fcps.edu/HayfieldES","SCHOOL_NAM":"HAYFIELD","SCHOOL_NUM":1184,"PYRAMID":"Hayfield","NAME_FINAL":"Y","STATE":"VA","STREET_NAM":"TELEGRAPH RD","id":"a67pbjhe3na7","ADDRESS":"7633 Telegraph RD","STREET_NUM":7633},"type":"Feature","geometry":{"type":"Point","coordinates":[-77.1402443878994,38.7489565730958]}},{"properties":{"SCHOOL_TYP":"MS","SCHID_3":221.0,"CITY":"Alexandria","CLUSTER_NU":4,"SCHID_4":1221.0,"ZIP":"22306","WEB_ADDRES":"www.fcps.edu/WhitmanMS","SCHOOL_NAM":"WHITMAN","SCHOOL_NUM":1221,"PYRAMID":"Mount Vernon","NAME_FINAL":"Y","STATE":"VA","STREET_NAM":"PARKER'S LA","id":"a67pbj5zzw65","ADDRESS":"2500 Parkers LA","STREET_NUM":2500},"type":"Feature","geometry":{"type":"Point","coordinates":[-77.074267478415,38.7414780797674]}},{"properties":{"SCHOOL_TYP":"ES","SCHID_3":223.0,"CITY":"Alexandria","CLUSTER_NU":4,"SCHID_4":1223.0,"ZIP":"22309","WEB_ADDRES":"www.fcps.edu/MtVernonWoodsES","SCHOOL_NAM":"MOUNT VERNON WOODS","SCHOOL_NUM":1223,"PYRAMID":"Mount Vernon","NAME_FINAL":"Y","STATE":"VA","STREET_NAM":"FIELDING ST","id":"a67pbj9yiz1t","ADDRESS":"4015 Fielding ST","STREET_NUM":4015},"type":"Feature","geometry":{"type":"Point","coordinates":[-77.0999785563704,38.7423595822741]}},{"properties":{"SCHOOL_TYP":"ES","SCHID_3":93.0,"CITY":"Falls Church","CLUSTER_NU":2,"SCHID_4":3093.0,"ZIP":"22042","WEB_ADDRES":"www.fcps.edu/GrahamRoadES","SCHOOL_NAM":"GRAHAM ROAD","SCHOOL_NUM":3093,"PYRAMID":"Falls Church","NAME_FINAL":"Y","STATE":"VA","STREET_NAM":"GRAHAM RD","id":"a67pbj7js6nj","ADDRESS":"3036 Graham RD","STREET_NUM":3036},"type":"Feature","geometry":{"type":"Point","coordinates":[-77.195639485832,38.8678456699351]}},{"properties":{"SCHOOL_TYP":"MS","SCHID_3":81.0,"CITY":"Falls Church","CLUSTER_NU":2,"SCHID_4":3081.0,"ZIP":"22042","WEB_ADDRES":"www.fcps.edu/LutherJacksonMS","SCHOOL_NAM":"JACKSON","SCHOOL_NUM":3081,"PYRAMID":"Falls Church","NAME_FINAL":"Y","STATE":"VA","STREET_NAM":"GALLOWS RD","id":"a67pbjeai17c","ADDRESS":"3020 Gallows RD","STREET_NUM":3020},"type":"Feature","geometry":{"type":"Point","coordinates":[-77.2299960340113,38.8680590864223]}},{"properties":{"SCHOOL_TYP":"ES","SCHID_3":65.0,"CITY":"Vienna","CLUSTER_NU":2,"SCHID_4":3065.0,"ZIP":"22180","WEB_ADDRES":"www.fcps.edu/StenwoodES","SCHOOL_NAM":"STENWOOD","SCHOOL_NUM":3065,"PYRAMID":"Marshall","NAME_FINAL":"Y","STATE":"VA","STREET_NAM":"GALLOWS RD","id":"a67pbjilukk0","ADDRESS":"8484 Riverside RD","STREET_NUM":2620},"type":"Feature","geometry":{"type":"Point","coordinates":[-77.2299226774399,38.8840015927569]}},{"properties":{"SCHOOL_TYP":"ES","SCHID_3":214.0,"CITY":"Alexandria","CLUSTER_NU":4,"SCHID_4":1214.0,"ZIP":"22306","WEB_ADDRES":"www.fcps.edu/HollinMeadowsES","SCHOOL_NAM":"HOLLIN MEADOWS","SCHOOL_NUM":1214,"PYRAMID":"West Potomac","NAME_FINAL":"Y","STATE":"VA","STREET_NAM":"NORDOK PL","id":"a67pbjdd6so5","ADDRESS":"2310 Nordok PI","STREET_NUM":2310},"type":"Feature","geometry":{"type":"Point","coordinates":[-77.0716900883735,38.7504736399865]}},{"properties":{"SCHOOL_TYP":"MS","SCHID_3":181.0,"CITY":"Alexandria","CLUSTER_NU":4,"SCHID_4":1181.0,"ZIP":"22135","WEB_ADDRES":"www.fcps.edu/DEA/schoolprof/middle/HayfieldMS.html","SCHOOL_NAM":"HAYFIELD","SCHOOL_NUM":1181,"PYRAMID":"Hayfield","NAME_FINAL":"Y","STATE":"VA","STREET_NAM":"TELEGRAPH RD","id":"a67pbjddfqxd","ADDRESS":"7630 Telegraph RD","STREET_NUM":7606},"type":"Feature","geometry":{"type":"Point","coordinates":[-77.1442266469982,38.7495590490868]}},{"properties":{"SCHOOL_TYP":"HS","SCHID_3":180.0,"CITY":"Alexandria","CLUSTER_NU":4,"SCHID_4":1180.0,"ZIP":"22135","WEB_ADDRES":"www.fcps.edu/DEA/schoolprof/high/HayfieldHS.html","SCHOOL_NAM":"HAYFIELD","SCHOOL_NUM":1180,"PYRAMID":"Hayfield","NAME_FINAL":"Y","STATE":"VA","STREET_NAM":"TELEGRAPH RD","id":"a67pbjdwlbo0","ADDRESS":"7630 Telegraph RD","STREET_NUM":7606},"type":"Feature","geometry":{"type":"Point","coordinates":[-77.1439586093448,38.7508065730966]}},{"properties":{"SCHOOL_TYP":"ES","SCHID_3":377.0,"CITY":"Springfield","CLUSTER_NU":6,"SCHID_4":1377.0,"ZIP":"22153","WEB_ADDRES":"www.fcps.edu/SangsterES","SCHOOL_NAM":"SANGSTER","SCHOOL_NUM":1377,"PYRAMID":"Lake Braddock","NAME_FINAL":"Y","STATE":"VA","STREET_NAM":"RESERVATION DR","id":"a67pbj5mkc9t","ADDRESS":"7420 Reservation DR","STREET_NUM":7420},"type":"Feature","geometry":{"type":"Point","coordinates":[-77.272144482685,38.7556103430917]}},{"properties":{"SCHOOL_TYP":"ES","SCHID_3":206.0,"CITY":"Alexandria","CLUSTER_NU":4,"SCHID_4":1206.0,"ZIP":"22306","WEB_ADDRES":"www.fcps.edu/HyblaValleyES","SCHOOL_NAM":"HYBLA VALLEY","SCHOOL_NUM":1206,"PYRAMID":"West Potomac","NAME_FINAL":"Y","STATE":"VA","STREET_NAM":"LOCKHEED BV","id":"a67pbjahyj7d","ADDRESS":"3415 Lockheed BV","STREET_NUM":3415},"type":"Feature","geometry":{"type":"Point","coordinates":[-77.0898047996548,38.7585601985188]}},{"properties":{"SCHOOL_TYP":"ES","SCHID_3":374.0,"CITY":"Springfield","CLUSTER_NU":6,"SCHID_4":1374.0,"ZIP":"22152","WEB_ADDRES":"www.fcps.edu/OrangeHuntES","SCHOOL_NAM":"ORANGE HUNT","SCHOOL_NUM":1374,"PYRAMID":"West Springfield","NAME_FINAL":"Y","STATE":"VA","STREET_NAM":"SYDENSTRICKER RD","id":"a67pbjfyh5jj","ADDRESS":"6820 Sydenstricker RD","STREET_NUM":6820},"type":"Feature","geometry":{"type":"Point","coordinates":[-77.2557400390434,38.7654828453747]}},{"properties":{"SCHOOL_TYP":"ES","SCHID_3":372.0,"CITY":"Burke","CLUSTER_NU":6,"SCHID_4":1372.0,"ZIP":"22015","WEB_ADDRES":"www.fcps.edu/CherryRunES","SCHOOL_NAM":"CHERRY RUN","SCHOOL_NUM":1372,"PYRAMID":"Lake Braddock","NAME_FINAL":"Y","STATE":"VA","STREET_NAM":"IRONMASTER DR","id":"a67pbjenae49","ADDRESS":"9732 Ironmaster DR","STREET_NUM":9232},"type":"Feature","geometry":{"type":"Point","coordinates":[-77.2839237099109,38.7682015788308]}},{"properties":{"SCHOOL_TYP":"ES","SCHID_3":156.0,"CITY":"Springfield","CLUSTER_NU":6,"SCHID_4":1156.0,"ZIP":"22152","WEB_ADDRES":"www.fcps.edu/RollingValleyES","SCHOOL_NAM":"ROLLING VALLEY","SCHOOL_NUM":1156,"PYRAMID":"West Springfield","NAME_FINAL":"Y","STATE":"VA","STREET_NAM":"BARNACK DR","id":"a67pbjbqok9p","ADDRESS":"6703 Barnack DR","STREET_NUM":6703},"type":"Feature","geometry":{"type":"Point","coordinates":[-77.2310053897314,38.7687493301139]}},{"properties":{"SCHOOL_TYP":"ES","SCHID_3":207.0,"CITY":"Alexandria","CLUSTER_NU":4,"SCHID_4":1207.0,"ZIP":"22307","WEB_ADDRES":"www.fcps.edu/BucknellES","SCHOOL_NAM":"BUCKNELL","SCHOOL_NUM":1207,"PYRAMID":"West Potomac","NAME_FINAL":"Y","STATE":"VA","STREET_NAM":"UNIVERSITY DR","id":"a67pbjd2r53y","ADDRESS":"6925 University DR","STREET_NUM":6925},"type":"Feature","geometry":{"type":"Point","coordinates":[-77.0740417646239,38.766577479148]}},{"properties":{"SCHOOL_TYP":"ES","SCHID_3":152.0,"CITY":"Springfield","CLUSTER_NU":6,"SCHID_4":1152.0,"ZIP":"22152","WEB_ADDRES":"www.fcps.edu/WestSpringfieldES","SCHOOL_NAM":"WEST SPRINGFIELD","SCHOOL_NUM":1152,"PYRAMID":"West Springfield","NAME_FINAL":"Y","STATE":"VA","STREET_NAM":"DELAND DR","id":"a67pbj3711rk","ADDRESS":"6802 Deland DR","STREET_NUM":6802},"type":"Feature","geometry":{"type":"Point","coordinates":[-77.219771080458,38.7691518146617]}},{"properties":{"SCHOOL_TYP":"ES","SCHID_3":205.0,"CITY":"Alexandria","CLUSTER_NU":4,"SCHID_4":1205.0,"ZIP":"22306","WEB_ADDRES":"www.fcps.edu/GrovetonES","SCHOOL_NAM":"GROVETON","SCHOOL_NUM":1205,"PYRAMID":"West Potomac","NAME_FINAL":"Y","STATE":"VA","STREET_NAM":"HARRISON LA","id":"a67pbj5eia3f","ADDRESS":"6900 Harrison LA","STREET_NUM":6900},"type":"Feature","geometry":{"type":"Point","coordinates":[-77.0952812104455,38.7685449724102]}},{"properties":{"SCHOOL_TYP":"ES","SCHID_3":202.0,"CITY":"Alexandria","CLUSTER_NU":4,"SCHID_4":1202.0,"ZIP":"22307","WEB_ADDRES":"www.fcps.edu/BelleViewES","SCHOOL_NAM":"BELLE VIEW","SCHOOL_NUM":1202,"PYRAMID":"West Potomac","NAME_FINAL":"Y","STATE":"VA","STREET_NAM":"FORT HUNT RD","id":"a67pbjdey2lr","ADDRESS":"6701 Fort Hunt RD","STREET_NUM":6701},"type":"Feature","geometry":{"type":"Point","coordinates":[-77.0610332098506,38.7719522688554]}},{"properties":{"SCHOOL_TYP":"ES","SCHID_3":165.0,"CITY":"Springfield","CLUSTER_NU":5,"SCHID_4":1165.0,"ZIP":"22150","WEB_ADDRES":"www.fcps.edu/ForestdaleES","SCHOOL_NAM":"FORESTDALE","SCHOOL_NUM":1165,"PYRAMID":"Lee","NAME_FINAL":"Y","STATE":"VA","STREET_NAM":"ELDER AV","id":"a67pbj4fqghs","ADDRESS":"6530 Elder AV","STREET_NUM":6530},"type":"Feature","geometry":{"type":"Point","coordinates":[-77.1699529229319,38.7764116891814]}},{"properties":{"SCHOOL_TYP":"HS","SCHID_3":200.0,"CITY":"Alexandria","CLUSTER_NU":4,"SCHID_4":1200.0,"ZIP":"22307","WEB_ADDRES":"www.fcps.edu/WestPotomacHS","SCHOOL_NAM":"WEST POTOMAC","SCHOOL_NUM":1200,"PYRAMID":"West Potomac","NAME_FINAL":"Y","STATE":"VA","STREET_NAM":"QUANDER RD","id":"a67pbj8xkghv","ADDRESS":"6500 Quander RD","STREET_NUM":6500},"type":"Feature","geometry":{"type":"Point","coordinates":[-77.0722798181225,38.7742970792609]}},{"properties":{"SCHOOL_TYP":"HS","SCHID_3":160.0,"CITY":"Springfield","CLUSTER_NU":5,"SCHID_4":1160.0,"ZIP":"22150","WEB_ADDRES":"www.fcps.edu/LeeHS/index1024.html","SCHOOL_NAM":"LEE","SCHOOL_NUM":1160,"PYRAMID":"Lee","NAME_FINAL":"Y","STATE":"VA","STREET_NAM":"FRANCONIA RD","id":"a67pbjb6q9o7","ADDRESS":"6540 Franconia RD","STREET_NUM":6540},"type":"Feature","geometry":{"type":"Point","coordinates":[-77.1695468795537,38.7796881831771]}},{"properties":{"SCHOOL_TYP":"ES","SCHID_3":157.0,"CITY":"Springfield","CLUSTER_NU":6,"SCHID_4":1157.0,"ZIP":"22152","WEB_ADDRES":"www.fcps.edu/KeeneMillES","SCHOOL_NAM":"KEENE MILL","SCHOOL_NUM":1157,"PYRAMID":"West Springfield","NAME_FINAL":"Y","STATE":"VA","STREET_NAM":"BARDU AV","id":"a67pbjhf51jy","ADDRESS":"6310 Bardu AV","STREET_NUM":6310},"type":"Feature","geometry":{"type":"Point","coordinates":[-77.2218056046553,38.781411264894]}},{"properties":{"SCHOOL_TYP":"MS","SCHID_3":151.0,"CITY":"Springfield","CLUSTER_NU":6,"SCHID_4":1151.0,"ZIP":"22152","WEB_ADDRES":"www.fcps.edu/IrvingMS","SCHOOL_NAM":"IRVING","SCHOOL_NUM":1151,"PYRAMID":"West Springfield","NAME_FINAL":"Y","STATE":"VA","STREET_NAM":"OLD KEENE MILL RD","id":"a67pbjajw1kq","ADDRESS":"8100 Old Keene Mill RD","STREET_NUM":8100},"type":"Feature","geometry":{"type":"Point","coordinates":[-77.224462243268,38.7817223064589]}},{"properties":{"SCHOOL_TYP":"ES","SCHID_3":122.0,"CITY":"Alexandria","CLUSTER_NU":5,"SCHID_4":1122.0,"ZIP":"22310","WEB_ADDRES":"www.fcps.edu/FranconiaES","SCHOOL_NAM":"FRANCONIA","SCHOOL_NUM":1122,"PYRAMID":"Edison","NAME_FINAL":"Y","STATE":"VA","STREET_NAM":"FRANCONIA RD","id":"a67pbje85zlf","ADDRESS":"6043 Franconia RD","STREET_NUM":6043},"type":"Feature","geometry":{"type":"Point","coordinates":[-77.144855118276,38.7812348046131]}},{"properties":{"SCHOOL_TYP":"ES","SCHID_3":387.0,"CITY":"Burke","CLUSTER_NU":6,"SCHID_4":1387.0,"ZIP":"22015","WEB_ADDRES":"www.fcps.edu/WhiteOaksES","SCHOOL_NAM":"WHITE OAKS","SCHOOL_NUM":1387,"PYRAMID":"Lake Braddock","NAME_FINAL":"Y","STATE":"VA","STREET_NAM":"SHIPPLETT BV","id":"a67pbj51v8gs","ADDRESS":"6130 Shiplett BV","STREET_NUM":6130},"type":"Feature","geometry":{"type":"Point","coordinates":[-77.2708315698078,38.7826638045195]}},{"properties":{"SCHOOL_TYP":"MS","SCHID_3":161.0,"CITY":"Springfield","CLUSTER_NU":5,"SCHID_4":1161.0,"ZIP":"22150","WEB_ADDRES":"www.fcps.edu/KeyMS","SCHOOL_NAM":"KEY","SCHOOL_NUM":1161,"PYRAMID":"Lee","NAME_FINAL":"Y","STATE":"VA","STREET_NAM":"FRANCONIA RD","id":"a67pbj9dqh8n","ADDRESS":"6402 Franconia LA","STREET_NUM":6402},"type":"Feature","geometry":{"type":"Point","coordinates":[-77.1616765503513,38.7808498069476]}},{"properties":{"SCHOOL_TYP":"ES","SCHID_3":194.0,"CITY":"Springfield","CLUSTER_NU":5,"SCHID_4":1194.0,"ZIP":"22310","WEB_ADDRES":"www.fcps.edu/RoseHillES","SCHOOL_NAM":"ROSE HILL","SCHOOL_NUM":1194,"PYRAMID":"Edison","NAME_FINAL":"Y","STATE":"VA","STREET_NAM":"ROSE HILL DR","id":"a67pbj71cd8f","ADDRESS":"6301 Rose Hill DR","STREET_NUM":6301},"type":"Feature","geometry":{"type":"Point","coordinates":[-77.1167844599289,38.7821342961409]}},{"properties":{"SCHOOL_TYP":"ES","SCHID_3":144.0,"CITY":"Annandale","CLUSTER_NU":3,"SCHID_4":2144.0,"ZIP":"22003","WEB_ADDRES":"www.fcps.edu/AnnandaleTerraceES","SCHOOL_NAM":"ANNANDALE TERRACE","SCHOOL_NUM":2144,"PYRAMID":"Annandale","NAME_FINAL":"Y","STATE":"VA","STREET_NAM":"HERALD ST","id":"a67pbj5aombx","ADDRESS":"7604 Herald ST","STREET_NUM":7604},"type":"Feature","geometry":{"type":"Point","coordinates":[-77.2086602752397,38.8273790902688]}},{"properties":{"SCHOOL_TYP":"ES","SCHID_3":424.0,"CITY":"Fairfax","CLUSTER_NU":7,"SCHID_4":2424.0,"ZIP":"22030","WEB_ADDRES":"www.fcps.edu/WillowSpringsES","SCHOOL_NAM":"WILLOW SPRINGS","SCHOOL_NUM":2424,"PYRAMID":"Fairfax","NAME_FINAL":"Y","STATE":"VA","STREET_NAM":"WILLOW SPRINGS SCHOOL RD","id":"a67pbjb327a1","ADDRESS":"5400 Willow Springs School RD","STREET_NUM":5400},"type":"Feature","geometry":{"type":"Point","coordinates":[-77.3798907183775,38.831728383767]}},{"properties":{"SCHOOL_TYP":"ES","SCHID_3":135.0,"CITY":"Fairfax","CLUSTER_NU":3,"SCHID_4":2135.0,"ZIP":"22032","WEB_ADDRES":"www.fcps.edu/OldeCreekES","SCHOOL_NAM":"OLDE CREEK","SCHOOL_NUM":2135,"PYRAMID":"Woodson","NAME_FINAL":"Y","STATE":"VA","STREET_NAM":"OLDE CREEK DR","id":"a67pbj6h8szw","ADDRESS":"9524 Old Creek DR","STREET_NUM":9524},"type":"Feature","geometry":{"type":"Point","coordinates":[-77.2766234114016,38.8311668629539]}},{"properties":{"SCHOOL_TYP":"HS","SCHID_3":240.0,"CITY":"Chantilly","CLUSTER_NU":8,"SCHID_4":2240.0,"ZIP":"20151","WEB_ADDRES":"www.fcps.edu/WestfieldHS","SCHOOL_NAM":"WESTFIELDS","SCHOOL_NUM":2240,"PYRAMID":"Westfield","NAME_FINAL":"Y","STATE":"VA","STREET_NAM":"STONECROFT BV","id":"a67pbj6llq0w","ADDRESS":"4700 Stonecroft BV","STREET_NUM":4700},"type":"Feature","geometry":{"type":"Point","coordinates":[-77.4651338793559,38.8855602869979]}},{"properties":{"SCHOOL_TYP":"ES","SCHID_3":252.0,"CITY":"Fairfax","CLUSTER_NU":7,"SCHID_4":2252.0,"ZIP":"22033","WEB_ADDRES":"www.fcps.edu/LeesCornerES","SCHOOL_NAM":"LEES CORNER","SCHOOL_NUM":2252,"PYRAMID":"Chantilly","NAME_FINAL":"Y","STATE":"VA","STREET_NAM":"HOLLINGER AV","id":"a67pbjc0qk1a","ADDRESS":"13500 Hollinger AV","STREET_NUM":13500},"type":"Feature","geometry":{"type":"Point","coordinates":[-77.4119233826648,38.8906210502294]}},{"properties":{"SCHOOL_TYP":"MS","SCHID_3":61.0,"CITY":"Vienna","CLUSTER_NU":2,"SCHID_4":3061.0,"ZIP":"22180","WEB_ADDRES":"www.fcps.edu/ThoreauMS","SCHOOL_NAM":"THOREAU","SCHOOL_NUM":3061,"PYRAMID":"Madison","NAME_FINAL":"Y","STATE":"VA","STREET_NAM":"CEDAR LA","id":"a67pbjdc61yt","ADDRESS":"2505 Cedar LA","STREET_NUM":2505},"type":"Feature","geometry":{"type":"Point","coordinates":[-77.2396337237318,38.8885570644736]}},{"properties":{"SCHOOL_TYP":"ES","SCHID_3":83.0,"CITY":"Falls Church","CLUSTER_NU":2,"SCHID_4":3083.0,"ZIP":"22043","WEB_ADDRES":"www.fcps.edu/ShrevewoodES","SCHOOL_NAM":"SHREVEWOOD","SCHOOL_NUM":3083,"PYRAMID":"Marshall","NAME_FINAL":"Y","STATE":"VA","STREET_NAM":"SHREVE RD","id":"a67pbj99c9je","ADDRESS":"7525 Shreve RD","STREET_NUM":7525},"type":"Feature","geometry":{"type":"Point","coordinates":[-77.2057255240327,38.8885619243939]}},{"properties":{"SCHOOL_TYP":"ES","SCHID_3":66.0,"CITY":"Vienna","CLUSTER_NU":2,"SCHID_4":3066.0,"ZIP":"22180","WEB_ADDRES":"www.fcps.edu/CunninghamParkES","SCHOOL_NAM":"CUNNINGHAM PARK","SCHOOL_NUM":3066,"PYRAMID":"Madison","NAME_FINAL":"Y","STATE":"VA","STREET_NAM":"PARK ST SE","id":"a67pbj582lqo","ADDRESS":"1001 Park St.","STREET_NUM":1001},"type":"Feature","geometry":{"type":"Point","coordinates":[-77.250079373453,38.8922892446287]}},{"properties":{"SCHOOL_TYP":"ES","SCHID_3":143.0,"CITY":"Springfield","CLUSTER_NU":3,"SCHID_4":2143.0,"ZIP":"22151","WEB_ADDRES":"www.fcps.edu/RavensworthES","SCHOOL_NAM":"RAVENSWORTH","SCHOOL_NUM":2143,"PYRAMID":"Annandale","NAME_FINAL":"Y","STATE":"VA","STREET_NAM":"NUTTING DR","id":"a67pbjgddvy5","ADDRESS":"5411 Nutting DR","STREET_NUM":5411},"type":"Feature","geometry":{"type":"Point","coordinates":[-77.2228573493385,38.803141158785]}},{"properties":{"SCHOOL_TYP":"ES","SCHID_3":114.0,"CITY":"Alexandria","CLUSTER_NU":3,"SCHID_4":2114.0,"ZIP":"22312","WEB_ADDRES":"www.fcps.edu/BrenMarParkES","SCHOOL_NAM":"BREN MAR PARK","SCHOOL_NUM":2114,"PYRAMID":"Annandale","NAME_FINAL":"Y","STATE":"VA","STREET_NAM":"BERYL RD","id":"a67pbj4fz1rw","ADDRESS":"634 Beryl RD","STREET_NUM":6344},"type":"Feature","geometry":{"type":"Point","coordinates":[-77.1573387504453,38.8021419298352]}},{"properties":{"SCHOOL_TYP":"ES","SCHID_3":173.0,"CITY":"Fairfax","CLUSTER_NU":7,"SCHID_4":2173.0,"ZIP":"22030","WEB_ADDRES":"www.fcps.edu/FairfaxVillaES","SCHOOL_NAM":"FAIRFAX VILLA","SCHOOL_NUM":2173,"PYRAMID":"Fairfax","NAME_FINAL":"Y","STATE":"VA","STREET_NAM":"SANTA CLARA DR","id":"a67pbjg9g7ud","ADDRESS":"10900 Santa Clara DR","STREET_NUM":10900},"type":"Feature","geometry":{"type":"Point","coordinates":[-77.3232402559457,38.8406273286919]}},{"properties":{"SCHOOL_TYP":"ES","SCHID_3":416.0,"CITY":"Clifton","CLUSTER_NU":6,"SCHID_4":2416.0,"ZIP":"20124","WEB_ADDRES":"www.fcps.edu/CliftonES","SCHOOL_NAM":"CLIFTON","SCHOOL_NUM":2416,"PYRAMID":"Robinson","NAME_FINAL":"Y","STATE":"VA","STREET_NAM":"CLIFTON RD","id":"a67pbjgmfd28","ADDRESS":"7010 Clifton RD","STREET_NUM":7010},"type":"Feature","geometry":{"type":"Point","coordinates":[-77.3886816430043,38.7843327105189]}},{"properties":{"SCHOOL_TYP":"HS","SCHID_3":120.0,"CITY":"Alexandria","CLUSTER_NU":5,"SCHID_4":1120.0,"ZIP":"22310","WEB_ADDRES":"www.fcps.edu/EdisonHS","SCHOOL_NAM":"EDISON","SCHOOL_NUM":1120,"PYRAMID":"Edison","NAME_FINAL":"Y","STATE":"VA","STREET_NAM":"FRANCONIA RD","id":"a67pbj4ef9mm","ADDRESS":"5801 Franconia RD","STREET_NUM":5801},"type":"Feature","geometry":{"type":"Point","coordinates":[-77.1334347585645,38.7814960757829]}},{"properties":{"SCHOOL_TYP":"ES","SCHID_3":383.0,"CITY":"Burke","CLUSTER_NU":6,"SCHID_4":2383.0,"ZIP":"22015","WEB_ADDRES":"www.fcps.edu/TerraCentreES","SCHOOL_NAM":"TERRA CENTER","SCHOOL_NUM":2383,"PYRAMID":"Robinson","NAME_FINAL":"Y","STATE":"VA","STREET_NAM":"BURKE CENTER PW","id":"a67pbj4owup5","ADDRESS":"6000 Burke Centre PW","STREET_NUM":6000},"type":"Feature","geometry":{"type":"Point","coordinates":[-77.2980147498464,38.7854675316368]}},{"properties":{"SCHOOL_TYP":"ES","SCHID_3":163.0,"CITY":"Springfield","CLUSTER_NU":5,"SCHID_4":1163.0,"ZIP":"22150","WEB_ADDRES":"www.fcps.edu/SpringfieldEstatesES","SCHOOL_NAM":"SPRINGFIELD ESTATES","SCHOOL_NUM":1163,"PYRAMID":"Lee","NAME_FINAL":"Y","STATE":"VA","STREET_NAM":"CHARLES GOFF DR","id":"a67pbjd8wk8g","ADDRESS":"6200 Charles Goff DR","STREET_NUM":6200},"type":"Feature","geometry":{"type":"Point","coordinates":[-77.1640809163865,38.783967466647]}},{"properties":{"SCHOOL_TYP":"ES","SCHID_3":203.0,"CITY":"Alexandria","CLUSTER_NU":5,"SCHID_4":1203.0,"ZIP":"22303","WEB_ADDRES":"www.fcps.edu/MtEagleES","SCHOOL_NAM":"MOUNT EAGLE","SCHOOL_NUM":1203,"PYRAMID":"Edison","NAME_FINAL":"Y","STATE":"VA","STREET_NAM":"N KINGS HY","id":"a67pbji60264","ADDRESS":"6116 N. Kings HY","STREET_NUM":6116},"type":"Feature","geometry":{"type":"Point","coordinates":[-77.0789814546598,38.7850642094629]}},{"properties":{"SCHOOL_TYP":"HS","SCHID_3":150.0,"CITY":"Springfield","CLUSTER_NU":6,"SCHID_4":1150.0,"ZIP":"22152","WEB_ADDRES":"www.fcps.edu/westspringfieldhs","SCHOOL_NAM":"WEST SPRINGFIELD","SCHOOL_NUM":1150,"PYRAMID":"West Springfield","NAME_FINAL":"Y","STATE":"VA","STREET_NAM":"ROLLING RD","id":"a67pbj9epfss","ADDRESS":"6100 Rolling RD","STREET_NUM":6100},"type":"Feature","geometry":{"type":"Point","coordinates":[-77.2408454340491,38.7851362000119]}},{"properties":{"SCHOOL_TYP":"ES","SCHID_3":166.0,"CITY":"Springfield","CLUSTER_NU":5,"SCHID_4":1166.0,"ZIP":"22150","WEB_ADDRES":"www.fcps.edu/CrestwoodES","SCHOOL_NAM":"CRESTWOOD","SCHOOL_NUM":1166,"PYRAMID":"Lee","NAME_FINAL":"Y","STATE":"VA","STREET_NAM":"HANOVER RD","id":"a67pbj5nd966","ADDRESS":"6010 Hanover Ave.","STREET_NUM":6010},"type":"Feature","geometry":{"type":"Point","coordinates":[-77.1949196917717,38.7873864992578]}},{"properties":{"SCHOOL_TYP":"ES","SCHID_3":123.0,"CITY":"Alexandria","CLUSTER_NU":5,"SCHID_4":1123.0,"ZIP":"22310","WEB_ADDRES":"www.fcps.edu/BushHillES","SCHOOL_NAM":"BUSH HILL","SCHOOL_NUM":1123,"PYRAMID":"Edison","NAME_FINAL":"Y","STATE":"VA","STREET_NAM":"WESTCHESTER ST","id":"a67pbjbcy4t6","ADDRESS":"5927 Weschester St.","STREET_NUM":5927},"type":"Feature","geometry":{"type":"Point","coordinates":[-77.1244830986668,38.7902500081734]}},{"properties":{"SCHOOL_TYP":"ES","SCHID_3":154.0,"CITY":"Springfield","CLUSTER_NU":6,"SCHID_4":1154.0,"ZIP":"22152","WEB_ADDRES":"www.fcps.edu/CardinalForestES","SCHOOL_NAM":"CARDINAL FOREST","SCHOOL_NUM":1154,"PYRAMID":"West Springfield","NAME_FINAL":"Y","STATE":"VA","STREET_NAM":"FORRESTER BV","id":"a67pbj2prsxv","ADDRESS":"8600 Forrester Blvd.","STREET_NUM":8600},"type":"Feature","geometry":{"type":"Point","coordinates":[-77.2409746434087,38.7922153622593]}},{"properties":{"SCHOOL_TYP":"MS","SCHID_3":191.0,"CITY":"Alexandria","CLUSTER_NU":5,"SCHID_4":1191.0,"ZIP":"22310","WEB_ADDRES":"www.fcps.edu/TwainMS","SCHOOL_NAM":"TWAIN","SCHOOL_NUM":1191,"PYRAMID":"Edison","NAME_FINAL":"Y","STATE":"VA","STREET_NAM":"FRANCONIA RD","id":"a67pbjejal74","ADDRESS":"4700 Franconia RD","STREET_NUM":4700},"type":"Feature","geometry":{"type":"Point","coordinates":[-77.1139221594495,38.7906386615512]}},{"properties":{"SCHOOL_TYP":"ES","SCHID_3":164.0,"CITY":"Springfield","CLUSTER_NU":5,"SCHID_4":1164.0,"ZIP":"22150","WEB_ADDRES":"www.fcps.edu/LynbrookES","SCHOOL_NAM":"LYNBROOK","SCHOOL_NUM":1164,"PYRAMID":"Lee","NAME_FINAL":"Y","STATE":"VA","STREET_NAM":"BACKLICK RD","id":"a67pbjb7xtcc","ADDRESS":"5801 Backlick RD","STREET_NUM":5801},"type":"Feature","geometry":{"type":"Point","coordinates":[-77.1876227006603,38.7942633337093]}},{"properties":{"SCHOOL_TYP":"ES","SCHID_3":193.0,"CITY":"Alexandria","CLUSTER_NU":5,"SCHID_4":1193.0,"ZIP":"22310","WEB_ADDRES":"www.fcps.edu/ClermontES","SCHOOL_NAM":"CLERMONT","SCHOOL_NUM":1193,"PYRAMID":"Edison","NAME_FINAL":"Y","STATE":"VA","STREET_NAM":"CLERMONT DR","id":"a67pbjdn9wa0","ADDRESS":"5720 Clermont DR","STREET_NUM":5720},"type":"Feature","geometry":{"type":"Point","coordinates":[-77.111188528716,38.794879090254]}},{"properties":{"SCHOOL_TYP":"ES","SCHID_3":362.0,"CITY":"Fairfax Station","CLUSTER_NU":6,"SCHID_4":2362.0,"ZIP":"22039","WEB_ADDRES":"www.fcps.edu/FairviewES","SCHOOL_NAM":"FAIRVIEW","SCHOOL_NUM":2362,"PYRAMID":"Robinson","NAME_FINAL":"Y","STATE":"VA","STREET_NAM":"OX RD","id":"a67pbjbv0h2c","ADDRESS":"5815 Ox RD","STREET_NUM":5815},"type":"Feature","geometry":{"type":"Point","coordinates":[-77.3240037427645,38.7974897156448]}},{"properties":{"SCHOOL_TYP":"ES","SCHID_3":394.0,"CITY":"Farifax","CLUSTER_NU":6,"SCHID_4":2394.0,"ZIP":"22032","WEB_ADDRES":"www.fcps.edu/LaurelRidgeES","SCHOOL_NAM":"LAUREL RIDGE","SCHOOL_NUM":2394,"PYRAMID":"Robinson","NAME_FINAL":"Y","STATE":"VA","STREET_NAM":"COMMONWEALTH BV","id":"a67pbj40y58n","ADDRESS":"10110 Commonwealth BV","STREET_NUM":10110},"type":"Feature","geometry":{"type":"Point","coordinates":[-77.2957286624476,38.8142648283884]}},{"properties":{"SCHOOL_TYP":"MS","SCHID_3":111.0,"CITY":"Alexandria","CLUSTER_NU":3,"SCHID_4":2111.0,"ZIP":"22312","WEB_ADDRES":"www.fcps.edu/HolmesMS","SCHOOL_NAM":"HOLMES","SCHOOL_NUM":2111,"PYRAMID":"Annandale","NAME_FINAL":"Y","STATE":"VA","STREET_NAM":"MONTROSE ST","id":"a67pbjflzqub","ADDRESS":"6525 Montrose ST","STREET_NUM":6525},"type":"Feature","geometry":{"type":"Point","coordinates":[-77.1636986198313,38.8138671779417]}},{"properties":{"SCHOOL_TYP":"ES","SCHID_3":392.0,"CITY":"Fairfax","CLUSTER_NU":6,"SCHID_4":2392.0,"ZIP":"22032","WEB_ADDRES":"www.fcps.edu/OakViewES","SCHOOL_NAM":"OAK VIEW","SCHOOL_NUM":2392,"PYRAMID":"Robinson","NAME_FINAL":"Y","STATE":"VA","STREET_NAM":"SIDEBURN RD","id":"a67pbj2r95cz","ADDRESS":"5004 Sideburn RD","STREET_NUM":5004},"type":"Feature","geometry":{"type":"Point","coordinates":[-77.3098393455867,38.81883468839]}},{"properties":{"SCHOOL_TYP":"ES","SCHID_3":415.0,"CITY":"Clifton","CLUSTER_NU":7,"SCHID_4":2415.0,"ZIP":"20124","WEB_ADDRES":"www.fcps.edu/UnionMillES","SCHOOL_NAM":"UNION MILL","SCHOOL_NUM":2415,"PYRAMID":"Centreville","NAME_FINAL":"Y","STATE":"VA","STREET_NAM":"SPRINGSTONE DR","id":"a67pbj9onyzc","ADDRESS":"13611 Springstone DR","STREET_NUM":13611},"type":"Feature","geometry":{"type":"Point","coordinates":[-77.4179676817446,38.820195054703]}},{"properties":{"SCHOOL_TYP":"HS","SCHID_3":390.0,"CITY":"Fairfax","CLUSTER_NU":6,"SCHID_4":2390.0,"ZIP":"22032","WEB_ADDRES":"www.fcps.edu/RobinsonSS","SCHOOL_NAM":"ROBINSON","SCHOOL_NUM":2390,"PYRAMID":"Robinson","NAME_FINAL":"Y","STATE":"VA","STREET_NAM":"SIDEBURN RD","id":"a67pbj6hg1qo","ADDRESS":"5035 Sideburn RD","STREET_NUM":5035},"type":"Feature","geometry":{"type":"Point","coordinates":[-77.3018711907199,38.815923710499]}},{"properties":{"SCHOOL_TYP":"ES","SCHID_3":433.0,"CITY":"Centreville","CLUSTER_NU":7,"SCHID_4":2433.0,"ZIP":"20121","WEB_ADDRES":"www.fcps.edu/CentrevilleES","SCHOOL_NAM":"CENTREVILLE","SCHOOL_NUM":2433,"PYRAMID":"Centreville","NAME_FINAL":"Y","STATE":"VA","STREET_NAM":"GREEN TRAIL BV","id":"a67pbj8dkp1n","ADDRESS":"14330 Green Trails Blvd.","STREET_NUM":14333},"type":"Feature","geometry":{"type":"Point","coordinates":[-77.44115749725,38.8199340639527]}},{"properties":{"SCHOOL_TYP":"ES","SCHID_3":402.0,"CITY":"Annandale","CLUSTER_NU":3,"SCHID_4":2402.0,"ZIP":"22003","WEB_ADDRES":"www.fcps.edu/CanterburyWoodsES","SCHOOL_NAM":"CANTERBURY WOODS","SCHOOL_NUM":2402,"PYRAMID":"Woodson","NAME_FINAL":"Y","STATE":"VA","STREET_NAM":"WILLET DR","id":"a67pbj6363qc","ADDRESS":"4910 Willet Dr.","STREET_NUM":4910},"type":"Feature","geometry":{"type":"Point","coordinates":[-77.2497017978287,38.8204677712121]}},{"properties":{"SCHOOL_TYP":"ES","SCHID_3":112.0,"CITY":"Alexandria","CLUSTER_NU":3,"SCHID_4":2112.0,"ZIP":"22312","WEB_ADDRES":"www.fcps.edu/WeyanokeES","SCHOOL_NAM":"WEYANOKE","SCHOOL_NUM":2112,"PYRAMID":"Annandale","NAME_FINAL":"Y","STATE":"VA","STREET_NAM":"BRADDOCK RD","id":"a67pbj5gbtuk","ADDRESS":"6520 Braddock RD","STREET_NUM":6520},"type":"Feature","geometry":{"type":"Point","coordinates":[-77.1660630686378,38.8198122182588]}},{"properties":{"SCHOOL_TYP":"ES","SCHID_3":227.0,"CITY":"Alexandria","CLUSTER_NU":4,"SCHID_4":1227.0,"ZIP":"22309","WEB_ADDRES":"www.fcps.edu/WoodlawnES","SCHOOL_NAM":"WOODLAWN","SCHOOL_NUM":1227,"PYRAMID":"Mount Vernon","NAME_FINAL":"Y","STATE":"VA","STREET_NAM":"HIGHLAND LA","id":"a67pbj74exqe","ADDRESS":"8505 Highland LA","STREET_NUM":8505},"type":"Feature","geometry":{"type":"Point","coordinates":[-77.1178646793838,38.7265228136161]}},{"properties":{"SCHOOL_TYP":"ES","SCHID_3":375.0,"CITY":"Farifax","CLUSTER_NU":5,"SCHID_4":1375.0,"ZIP":"22039","WEB_ADDRES":"www.fcps.edu/SilverbrookES","SCHOOL_NAM":"SILVERBROOK","SCHOOL_NUM":1375,"PYRAMID":"South County","NAME_FINAL":"Y","STATE":"VA","STREET_NAM":"CROSSPOINT DR","id":"a67pbjdi30x5","ADDRESS":"9350 Crosspointe DR","STREET_NUM":9350},"type":"Feature","geometry":{"type":"Point","coordinates":[-77.2688018973483,38.7293881698385]}},{"properties":{"SCHOOL_TYP":"ES","SCHID_3":212.0,"CITY":"Alexandria","CLUSTER_NU":4,"SCHID_4":1212.0,"ZIP":"22308","WEB_ADDRES":"www.fcps.edu/StratfordLandingES","SCHOOL_NAM":"STRATFORD LANDING","SCHOOL_NUM":1212,"PYRAMID":"West Potomac","NAME_FINAL":"Y","STATE":"VA","STREET_NAM":"RIVERSIDE RD","id":"a67pbj46pq4m","ADDRESS":"8484 Riverside RD","STREET_NUM":8484},"type":"Feature","geometry":{"type":"Point","coordinates":[-77.0690620447161,38.7282724039559]}},{"properties":{"SCHOOL_TYP":"HS","SCHID_3":220.0,"CITY":"Alexandria","CLUSTER_NU":4,"SCHID_4":1220.0,"ZIP":"22309","WEB_ADDRES":"www.fcps.edu/MtVernonHS","SCHOOL_NAM":"MOUNT VERNON","SCHOOL_NUM":1220,"PYRAMID":"Mount Vernon","NAME_FINAL":"Y","STATE":"VA","STREET_NAM":"OLD MOUNT VERNON RD","id":"a67pbjdfnp9z","ADDRESS":"8515 Old Mt. Vernon RD","STREET_NUM":8515},"type":"Feature","geometry":{"type":"Point","coordinates":[-77.092770206578,38.7267565637535]}},{"properties":{"SCHOOL_TYP":"ES","SCHID_3":226.0,"CITY":"Alexandria","CLUSTER_NU":4,"SCHID_4":1226.0,"ZIP":"22309","WEB_ADDRES":"www.fcps.edu/RiversideES","SCHOOL_NAM":"RIVERSIDE","SCHOOL_NUM":1226,"PYRAMID":"Mount Vernon","NAME_FINAL":"Y","STATE":"VA","STREET_NAM":"OLD MOUNT VERNON RD","id":"a67pbjc44hd2","ADDRESS":"8410 Old Mt. Vernon RD","STREET_NUM":8410},"type":"Feature","geometry":{"type":"Point","coordinates":[-77.0954460605722,38.729774705923]}},{"properties":{"SCHOOL_TYP":"MS","SCHID_3":231.0,"CITY":"Alexandria","CLUSTER_NU":4,"SCHID_4":1231.0,"ZIP":"22308","WEB_ADDRES":"www.fcps.edu/SandburgMS","SCHOOL_NAM":"SANDBURG","SCHOOL_NUM":1231,"PYRAMID":"West Potomac","NAME_FINAL":"Y","STATE":"VA","STREET_NAM":"FORT HUNT RD","id":"a67pbj6y4euk","ADDRESS":"8428 Fort Hunt RD","STREET_NUM":8428},"type":"Feature","geometry":{"type":"Point","coordinates":[-77.0621227490941,38.7291130366968]}},{"properties":{"SCHOOL_TYP":"ES","SCHID_3":378.0,"CITY":"Springfield","CLUSTER_NU":6,"SCHID_4":1378.0,"ZIP":"22152","WEB_ADDRES":"www.fcps.edu/HuntValleyES","SCHOOL_NAM":"HUNT VALLEY","SCHOOL_NUM":1378,"PYRAMID":"West Springfield","NAME_FINAL":"Y","STATE":"VA","STREET_NAM":"SYDENSTRICKER RD","id":"a67pbji517zf","ADDRESS":"7107 Sydenstricker RD","STREET_NUM":7107},"type":"Feature","geometry":{"type":"Point","coordinates":[-77.2427994788275,38.7620220976825]}},{"properties":{"SCHOOL_TYP":"ES","SCHID_3":162.0,"CITY":"Springfield","CLUSTER_NU":5,"SCHID_4":1162.0,"ZIP":"22150","WEB_ADDRES":"www.fcps.edu/GarfieldES","SCHOOL_NAM":"GARFIELD","SCHOOL_NUM":1162,"PYRAMID":"Lee","NAME_FINAL":"Y","STATE":"VA","STREET_NAM":"OLD KEENE MILL RD","id":"a67pbj6n1pnk","ADDRESS":"7101 Old Keene Mill RD","STREET_NUM":7101},"type":"Feature","geometry":{"type":"Point","coordinates":[-77.190548836461,38.7777325134089]}},{"properties":{"SCHOOL_TYP":"MS","SCHID_3":401.0,"CITY":"Burke","CLUSTER_NU":6,"SCHID_4":1400.0,"ZIP":"22015","WEB_ADDRES":"www.fcps.edu/LakeBraddockSS","SCHOOL_NAM":"LAKE BRADDOCK","SCHOOL_NUM":1400,"PYRAMID":"Lake Braddock","NAME_FINAL":"Y","STATE":"VA","STREET_NAM":"BURKE LAKE RD","id":"a67pbjewmh8j","ADDRESS":"9200 Burke Lake RD","STREET_NUM":9200},"type":"Feature","geometry":{"type":"Point","coordinates":[-77.2661122148285,38.8023209202811]}},{"properties":{"SCHOOL_TYP":"HS","SCHID_3":400.0,"CITY":"BURKE","CLUSTER_NU":6,"SCHID_4":1401.0,"ZIP":"22015","WEB_ADDRES":"www.fcps.edu/LakeBraddockSS","SCHOOL_NAM":"LAKE BRADDOCK","SCHOOL_NUM":1401,"PYRAMID":"Lake Braddock","NAME_FINAL":"Y","STATE":"VA","STREET_NAM":"BURKE LAKE RD","id":"a67pbjadqoqm","ADDRESS":"9200 BURKE LAKE RD","STREET_NUM":9200},"type":"Feature","geometry":{"type":"Point","coordinates":[-77.2657047862345,38.8040067485626]}},{"properties":{"SCHOOL_TYP":"ES","SCHID_3":407.0,"CITY":"Springfield","CLUSTER_NU":6,"SCHID_4":1407.0,"ZIP":"22151","WEB_ADDRES":"www.fcps.edu/KingsParkES","SCHOOL_NAM":"KINGS PARK","SCHOOL_NUM":1407,"PYRAMID":"Lake Braddock","NAME_FINAL":"Y","STATE":"VA","STREET_NAM":"HARROW WY","id":"a67pbjhkc5mr","ADDRESS":"5400 Harrow WY","STREET_NUM":5400},"type":"Feature","geometry":{"type":"Point","coordinates":[-77.2416101060504,38.8050244948985]}},{"properties":{"SCHOOL_TYP":"ES","SCHID_3":406.0,"CITY":"Springfield","CLUSTER_NU":6,"SCHID_4":1406.0,"ZIP":"22151","WEB_ADDRES":"www.fcps.edu/KingsGlenES","SCHOOL_NAM":"KINGS GLEN","SCHOOL_NUM":1406,"PYRAMID":"Lake Braddock","NAME_FINAL":"Y","STATE":"VA","STREET_NAM":"DANBURY FOREST DR","id":"a67pbj883jia","ADDRESS":"5401 Danbury Froest R","STREET_NUM":5401},"type":"Feature","geometry":{"type":"Point","coordinates":[-77.2346126992909,38.8040538028417]}},{"properties":{"SCHOOL_TYP":"MS","SCHID_3":101.0,"CITY":"Alexandria","CLUSTER_NU":3,"SCHID_4":2101.0,"ZIP":"22312","WEB_ADDRES":"www.fcps.edu/GlasgowMS","SCHOOL_NAM":"GLASGOW","SCHOOL_NUM":2101,"PYRAMID":"Stuart","NAME_FINAL":"Y","STATE":"VA","STREET_NAM":"FAIRFAX PW","id":"a67pbjbsjmhg","ADDRESS":"4101 Fairfax PW","STREET_NUM":4101},"type":"Feature","geometry":{"type":"Point","coordinates":[-77.1409816081765,38.8376290392596]}},{"properties":{"SCHOOL_TYP":"HS","SCHID_3":300.0,"CITY":"Alexandria","CLUSTER_NU":3,"SCHID_4":2300.0,"ZIP":"22312","WEB_ADDRES":"www.tjhsst.edu","SCHOOL_NAM":"JEFFERSON SCI TECH","SCHOOL_NUM":2300,"PYRAMID":"Annandale","NAME_FINAL":"Y","STATE":"VA","STREET_NAM":"BRADDOCK RD","id":"a67pbj6so1oa","ADDRESS":"6560 Braddock RD","STREET_NUM":6560},"type":"Feature","geometry":{"type":"Point","coordinates":[-77.1690164592334,38.8185450643446]}},{"properties":{"SCHOOL_TYP":"ES","SCHID_3":147.0,"CITY":"Annandale","CLUSTER_NU":3,"SCHID_4":2147.0,"ZIP":"22003","WEB_ADDRES":"www.fcps.edu/BraddockES","SCHOOL_NAM":"BRADDOCK","SCHOOL_NUM":2147,"PYRAMID":"Annandale","NAME_FINAL":"Y","STATE":"VA","STREET_NAM":"HERITAGE DR","id":"a67pbjah06j7","ADDRESS":"7825 Heritage DR","STREET_NUM":7825},"type":"Feature","geometry":{"type":"Point","coordinates":[-77.2155377926419,38.8222645974649]}},{"properties":{"SCHOOL_TYP":"HS","SCHID_3":140.0,"CITY":"Annandale","CLUSTER_NU":3,"SCHID_4":2140.0,"ZIP":"22003","WEB_ADDRES":"www.fcps.edu/AnnandaleHS","SCHOOL_NAM":"ANNANDALE","SCHOOL_NUM":2140,"PYRAMID":"Annandale","NAME_FINAL":"Y","STATE":"VA","STREET_NAM":"MEDFORD AV","id":"a67pbjeua9kd","ADDRESS":"4700 Medford DR","STREET_NUM":4700},"type":"Feature","geometry":{"type":"Point","coordinates":[-77.2092287600055,38.8223897946208]}},{"properties":{"SCHOOL_TYP":"HS","SCHID_3":410.0,"CITY":"Clifton","CLUSTER_NU":7,"SCHID_4":2410.0,"ZIP":"20124","WEB_ADDRES":"www.fcps.edu/CentrevilleHS","SCHOOL_NAM":"CENTREVILLE","SCHOOL_NUM":2410,"PYRAMID":"Centreville","NAME_FINAL":"Y","STATE":"VA","STREET_NAM":"UNION MILL RD","id":"a67pbj84e9gv","ADDRESS":"6001 Union Mill Rd.","STREET_NUM":6001},"type":"Feature","geometry":{"type":"Point","coordinates":[-77.4108417010863,38.8248289278181]}},{"properties":{"SCHOOL_TYP":"ES","SCHID_3":436.0,"CITY":"Centreville","CLUSTER_NU":7,"SCHID_4":2436.0,"ZIP":"20121","WEB_ADDRES":"www.fcps.edu/CentreRidgeES","SCHOOL_NAM":"CENTRE RIDGE","SCHOOL_NUM":2436,"PYRAMID":"Centreville","NAME_FINAL":"Y","STATE":"VA","STREET_NAM":"NEW BRADDOCK RD","id":"a67pbj4ytwi1","ADDRESS":"14400 New Braddock Rd.","STREET_NUM":14400},"type":"Feature","geometry":{"type":"Point","coordinates":[-77.4462438930136,38.8257553011734]}},{"properties":{"SCHOOL_TYP":"ES","SCHID_3":133.0,"CITY":"Fairfax","CLUSTER_NU":3,"SCHID_4":2133.0,"ZIP":"22032","WEB_ADDRES":"www.fcps.edu/LittleRunES","SCHOOL_NAM":"LITTLE RUN","SCHOOL_NUM":2133,"PYRAMID":"Woodson","NAME_FINAL":"Y","STATE":"VA","STREET_NAM":"OLLEY LA","id":"a67pbjd91m2c","ADDRESS":"4511 Olley LA","STREET_NUM":4511},"type":"Feature","geometry":{"type":"Point","coordinates":[-77.2665307740882,38.8256407453011]}},{"properties":{"SCHOOL_TYP":"ES","SCHID_3":102.0,"CITY":"Alexandria","CLUSTER_NU":3,"SCHID_4":2102.0,"ZIP":"22312","WEB_ADDRES":"www.fcps.edu/ParklawnES","SCHOOL_NAM":"PARKLAWN","SCHOOL_NUM":2102,"PYRAMID":"Stuart","NAME_FINAL":"Y","STATE":"VA","STREET_NAM":"BRADDOCK RD","id":"a67pbj67f7zq","ADDRESS":"4116 Braddock RD","STREET_NUM":4116},"type":"Feature","geometry":{"type":"Point","coordinates":[-77.1533843175638,38.8336460148883]}},{"properties":{"SCHOOL_TYP":"ES","SCHID_3":132.0,"CITY":"Fairfax","CLUSTER_NU":3,"SCHID_4":2132.0,"ZIP":"22032","WEB_ADDRES":"www.fcps.edu/WakefieldForestES","SCHOOL_NAM":"WAKEFIELD FOREST","SCHOOL_NUM":2132,"PYRAMID":"Woodson","NAME_FINAL":"Y","STATE":"VA","STREET_NAM":"IVA LA","id":"a67pbj47d8t7","ADDRESS":"4011 Iva LA","STREET_NUM":4011},"type":"Feature","geometry":{"type":"Point","coordinates":[-77.2468871871251,38.8355114294404]}},{"properties":{"SCHOOL_TYP":"MS","SCHID_3":131.0,"CITY":"Fairfax","CLUSTER_NU":3,"SCHID_4":2131.0,"ZIP":"22032","WEB_ADDRES":"www.fcps.edu/FrostMS","SCHOOL_NAM":"FROST","SCHOOL_NUM":2131,"PYRAMID":"Woodson","NAME_FINAL":"Y","STATE":"VA","STREET_NAM":"PICKETT RD","id":"a67pbjdlzvhq","ADDRESS":"4101 Pickett RD","STREET_NUM":4101},"type":"Feature","geometry":{"type":"Point","coordinates":[-77.273443900993,38.8361869852357]}},{"properties":{"SCHOOL_TYP":"ES","SCHID_3":245.0,"CITY":"Centreville","CLUSTER_NU":8,"SCHID_4":2245.0,"ZIP":"20120","WEB_ADDRES":"www.fcps.edu/LondonTowneES","SCHOOL_NAM":"LONDON TOWNE","SCHOOL_NUM":2245,"PYRAMID":"Westfield","NAME_FINAL":"Y","STATE":"VA","STREET_NAM":"STONE RD","id":"a67pbjeeqep6","ADDRESS":"6100 Stone RD","STREET_NUM":6100},"type":"Feature","geometry":{"type":"Point","coordinates":[-77.4565004136336,38.8396469352095]}},{"properties":{"SCHOOL_TYP":"ES","SCHID_3":138.0,"CITY":"Fairfax","CLUSTER_NU":3,"SCHID_4":2138.0,"ZIP":"22031","WEB_ADDRES":"www.fcps.edu/MantuaES","SCHOOL_NAM":"MANTUA","SCHOOL_NUM":2138,"PYRAMID":"Woodson","NAME_FINAL":"Y","STATE":"VA","STREET_NAM":"HORNER CT","id":"a67pbj8c2x3s","ADDRESS":"9107 Horner CT","STREET_NUM":9107},"type":"Feature","geometry":{"type":"Point","coordinates":[-77.2592730101087,38.8473958178626]}},{"properties":{"SCHOOL_TYP":"ES","SCHID_3":86.0,"CITY":"Annandale","CLUSTER_NU":2,"SCHID_4":3086.0,"ZIP":"22003","WEB_ADDRES":"www.fcps.edu/CamelotES","SCHOOL_NAM":"CAMELOT","SCHOOL_NUM":3086,"PYRAMID":"Falls Church","NAME_FINAL":"Y","STATE":"VA","STREET_NAM":"GUINEVERE DR","id":"a67pbjbdwvdi","ADDRESS":"8100 Guinevere DR","STREET_NUM":8100},"type":"Feature","geometry":{"type":"Point","coordinates":[-77.2247575530075,38.8483967266627]}},{"properties":{"SCHOOL_TYP":"ES","SCHID_3":232.0,"CITY":"Centreville","CLUSTER_NU":8,"SCHID_4":2232.0,"ZIP":"20120","WEB_ADDRES":"www.fcps.edu/VirginiaRunES","SCHOOL_NAM":"VIRGINIA RUN","SCHOOL_NUM":2232,"PYRAMID":"Westfield","NAME_FINAL":"Y","STATE":"VA","STREET_NAM":"MARTINS HUNDRED DR","id":"a67pbj3525ga","ADDRESS":"15450 Martins Hundred DR","STREET_NUM":15450},"type":"Feature","geometry":{"type":"Point","coordinates":[-77.4854909961778,38.8523267045014]}},{"properties":{"SCHOOL_TYP":"ES","SCHID_3":397.0,"CITY":"Fairfax","CLUSTER_NU":7,"SCHID_4":8397.0,"ZIP":"22030","WEB_ADDRES":"www.fcps.edu/DanielsRunES","SCHOOL_NAM":"DANIELS RUN","SCHOOL_NUM":8397,"PYRAMID":"Fairfax","NAME_FINAL":"Y","STATE":"VA","STREET_NAM":"OLD LEE HY","id":"a67pbjbausph","ADDRESS":"3705 Old Lee Highway","STREET_NUM":3705},"type":"Feature","geometry":{"type":"Point","coordinates":[-77.2957193125834,38.851885794564]}},{"properties":{"SCHOOL_TYP":"ES","SCHID_3":136.0,"CITY":"Fairfax","CLUSTER_NU":7,"SCHID_4":8136.0,"ZIP":"22030","WEB_ADDRES":"www.fcps.edu/eagleviewes","SCHOOL_NAM":"EAGLE VIEW","SCHOOL_NUM":8136,"PYRAMID":"Fairfax","NAME_FINAL":"Y","STATE":"VA","STREET_NAM":"DIXIE HILL RD","id":"a67pbjabpvgb","ADDRESS":"4500 Dixie Hill Rd.","STREET_NUM":4500},"type":"Feature","geometry":{"type":"Point","coordinates":[-77.3628352229613,38.8521443879629]}},{"properties":{"SCHOOL_TYP":"ES","SCHID_3":452.0,"CITY":"Falls Church","CLUSTER_NU":2,"SCHID_4":3452.0,"ZIP":"22042","WEB_ADDRES":"www.fcps.edu/WoodburnES","SCHOOL_NAM":"WOODBURN","SCHOOL_NUM":3452,"PYRAMID":"Falls Church","NAME_FINAL":"Y","STATE":"VA","STREET_NAM":"HEMLOCK DR","id":"a67pbj2i4qgd","ADDRESS":"3401 Hemlock DR","STREET_NUM":3401},"type":"Feature","geometry":{"type":"Point","coordinates":[-77.2131204225561,38.852116490244]}},{"properties":{"SCHOOL_TYP":"ES","SCHID_3":103.0,"CITY":"Falls Church","CLUSTER_NU":3,"SCHID_4":2103.0,"ZIP":"22041","WEB_ADDRES":"www.fcps.edu/BaileysES","SCHOOL_NAM":"BAILEY'S","SCHOOL_NUM":2103,"PYRAMID":"Stuart","NAME_FINAL":"Y","STATE":"VA","STREET_NAM":"KNOLLWOOD DR","id":"a67pbjfnebgi","ADDRESS":"6111 Knollwood DR","STREET_NUM":6111},"type":"Feature","geometry":{"type":"Point","coordinates":[-77.1453702763184,38.8520927425124]}},{"properties":{"SCHOOL_TYP":"ES","SCHID_3":242.0,"CITY":"Centreville","CLUSTER_NU":8,"SCHID_4":2242.0,"ZIP":"20120","WEB_ADDRES":"www.fcps.edu/DeerParkES","SCHOOL_NAM":"DEER PARK","SCHOOL_NUM":2242,"PYRAMID":"Westfield","NAME_FINAL":"Y","STATE":"VA","STREET_NAM":"CARLBERN RD","id":"a67pbjay83ne","ADDRESS":"15109 Carlbern Dr.","STREET_NUM":15109},"type":"Feature","geometry":{"type":"Point","coordinates":[-77.4710020428265,38.8554642504991]}},{"properties":{"SCHOOL_TYP":"ES","SCHID_3":96.0,"CITY":"Falls Church","CLUSTER_NU":3,"SCHID_4":2096.0,"ZIP":"22042","WEB_ADDRES":"www.fcps.edu/BeechTreeES","SCHOOL_NAM":"BEECH TREE","SCHOOL_NUM":2096,"PYRAMID":"Stuart","NAME_FINAL":"Y","STATE":"VA","STREET_NAM":"BEECH TREE LA","id":"a67pbj4v7gck","ADDRESS":"3401 Beech Tree LA","STREET_NUM":3401},"type":"Feature","geometry":{"type":"Point","coordinates":[-77.1810831274246,38.8529388081999]}},{"properties":{"SCHOOL_TYP":"MS","SCHID_3":241.0,"CITY":"Centreville","CLUSTER_NU":8,"SCHID_4":2241.0,"ZIP":"20120","WEB_ADDRES":"www.fcps.edu/StoneMS","SCHOOL_NAM":"STONE","SCHOOL_NUM":2241,"PYRAMID":"Westfield","NAME_FINAL":"Y","STATE":"VA","STREET_NAM":"SULLY PARK DR","id":"a67pbj2x1mnz","ADDRESS":"5500 Sully Park Dr.","STREET_NUM":5500},"type":"Feature","geometry":{"type":"Point","coordinates":[-77.4550549944677,38.8570027785481]}},{"properties":{"SCHOOL_TYP":"ES","SCHID_3":106.0,"CITY":"Falls Church","CLUSTER_NU":3,"SCHID_4":2106.0,"ZIP":"22044","WEB_ADDRES":"www.fcps.edu/SleepyHollowES","SCHOOL_NAM":"SLEEPY HOLLOW","SCHOOL_NUM":2106,"PYRAMID":"Stuart","NAME_FINAL":"Y","STATE":"VA","STREET_NAM":"SLEEPY HOLLOW RD","id":"a67pbjcpc2k2","ADDRESS":"3333 Sleepy Hollow RD","STREET_NUM":3333},"type":"Feature","geometry":{"type":"Point","coordinates":[-77.1678420475506,38.8555458403767]}},{"properties":{"SCHOOL_TYP":"ES","SCHID_3":104.0,"CITY":"Falls Church","CLUSTER_NU":3,"SCHID_4":2104.0,"ZIP":"22041","WEB_ADDRES":"www.fcps.edu/GlenForestES","SCHOOL_NAM":"GLEN FOREST","SCHOOL_NUM":2104,"PYRAMID":"Stuart","NAME_FINAL":"Y","STATE":"VA","STREET_NAM":"GLEN FOREST DR","id":"a67pbj3d9ly4","ADDRESS":"5829 Glen Forest DR","STREET_NUM":5829},"type":"Feature","geometry":{"type":"Point","coordinates":[-77.1286293730907,38.855538249968]}},{"properties":{"SCHOOL_TYP":"HS","SCHID_3":100.0,"CITY":"Falls Church","CLUSTER_NU":3,"SCHID_4":2100.0,"ZIP":"22044","WEB_ADDRES":"www.fcps.edu/StuartHS","SCHOOL_NAM":"STUART","SCHOOL_NUM":2100,"PYRAMID":"Stuart","NAME_FINAL":"Y","STATE":"VA","STREET_NAM":"PEACE VALLEY LA","id":"a67pbjd6rat5","ADDRESS":"3301 Peace Valley LA","STREET_NUM":3301},"type":"Feature","geometry":{"type":"Point","coordinates":[-77.1492602441224,38.8566276250273]}},{"properties":{"SCHOOL_TYP":"MS","SCHID_3":501.0,"CITY":"Fairfax","CLUSTER_NU":7,"SCHID_4":2501.0,"ZIP":"22030","WEB_ADDRES":"www.fcps.edu/LanierMS","SCHOOL_NAM":"LANIER","SCHOOL_NUM":2501,"PYRAMID":"Fairfax","NAME_FINAL":"Y","STATE":"VA","STREET_NAM":"BEVAN DR","id":"a67pbjayo2y8","ADDRESS":"3710 Bevan DR","STREET_NUM":3710},"type":"Feature","geometry":{"type":"Point","coordinates":[-77.3272189565066,38.8604843012292]}},{"properties":{"SCHOOL_TYP":"HS","SCHID_3":500.0,"CITY":"Fairfax","CLUSTER_NU":7,"SCHID_4":2500.0,"ZIP":"22030","WEB_ADDRES":"www.fcps.edu/FairfaxHS","SCHOOL_NAM":"FAIRFAX","SCHOOL_NUM":2500,"PYRAMID":"Fairfax","NAME_FINAL":"Y","STATE":"VA","STREET_NAM":"OLD LEE HY","id":"a67pbje0mii2","ADDRESS":"3500 Old Lee HY","STREET_NUM":3500},"type":"Feature","geometry":{"type":"Point","coordinates":[-77.2864235749212,38.8598584089003]}},{"properties":{"SCHOOL_TYP":"ES","SCHID_3":264.0,"CITY":"Chantilly","CLUSTER_NU":7,"SCHID_4":2264.0,"ZIP":"20151","WEB_ADDRES":"www.fcps.edu/PoplarTreeES","SCHOOL_NAM":"POPLAR TREE","SCHOOL_NUM":2264,"PYRAMID":"Chantilly","NAME_FINAL":"Y","STATE":"VA","STREET_NAM":"MELVILLE LA","id":"a67pbj7znn6s","ADDRESS":"13440 Melville Ln.","STREET_NUM":13400},"type":"Feature","geometry":{"type":"Point","coordinates":[-77.4146947960795,38.8631317939875]}},{"properties":{"SCHOOL_TYP":"HS","SCHID_3":90.0,"CITY":"Falls Church","CLUSTER_NU":2,"SCHID_4":3090.0,"ZIP":"22042","WEB_ADDRES":"www.fcps.edu/FallsChurchHS","SCHOOL_NAM":"FALLS CHURCH","SCHOOL_NUM":3090,"PYRAMID":"Falls Church","NAME_FINAL":"Y","STATE":"VA","STREET_NAM":"JAGUAR TR","id":"a67pbj7b0uzp","ADDRESS":"7521 Jaguar TR","STREET_NUM":7521},"type":"Feature","geometry":{"type":"Point","coordinates":[-77.2074262301223,38.8615111995503]}},{"properties":{"SCHOOL_TYP":"ES","SCHID_3":95.0,"CITY":"Falls Church","CLUSTER_NU":2,"SCHID_4":3095.0,"ZIP":"22042","WEB_ADDRES":"www.fcps.edu/WestlawnES","SCHOOL_NAM":"WESTLAWN","SCHOOL_NUM":3095,"PYRAMID":"Falls Church","NAME_FINAL":"Y","STATE":"VA","STREET_NAM":"WESTLEY RD","id":"a67pbji2kc6r","ADDRESS":"3200 Westley RD","STREET_NUM":3200},"type":"Feature","geometry":{"type":"Point","coordinates":[-77.1828656827405,38.8627459922985]}},{"properties":{"SCHOOL_TYP":"ES","SCHID_3":396.0,"CITY":"Fairfax","CLUSTER_NU":7,"SCHID_4":8396.0,"ZIP":"22030","WEB_ADDRES":"www.fcps.edu/ProvidenceES","SCHOOL_NAM":"PROVIDENCE","SCHOOL_NUM":8396,"PYRAMID":"Fairfax","NAME_FINAL":"Y","STATE":"VA","STREET_NAM":"GERMANTOWN RD","id":"a67pbj5fnac1","ADDRESS":"3616 Jermantown RD","STREET_NUM":3616},"type":"Feature","geometry":{"type":"Point","coordinates":[-77.3262315502356,38.8644869097237]}},{"properties":{"SCHOOL_TYP":"ES","SCHID_3":244.0,"CITY":"Centreville","CLUSTER_NU":8,"SCHID_4":2244.0,"ZIP":"20120","WEB_ADDRES":"www.fcps.edu/CubRunES","SCHOOL_NAM":"CUB RUN","SCHOOL_NUM":2244,"PYRAMID":"Westfield","NAME_FINAL":"Y","STATE":"VA","STREET_NAM":"SULLY STATION RD","id":"a67pbj6xzo2m","ADDRESS":"5301 Sully Station Dr.","STREET_NUM":5301},"type":"Feature","geometry":{"type":"Point","coordinates":[-77.4585144262107,38.8657103547715]}},{"properties":{"SCHOOL_TYP":"MS","SCHID_3":251.0,"CITY":"Chantilly","CLUSTER_NU":7,"SCHID_4":2251.0,"ZIP":"20151","WEB_ADDRES":"www.fcps.edu/RockyRunMS","SCHOOL_NAM":"ROCKY RUN","SCHOOL_NUM":2251,"PYRAMID":"Chantilly","NAME_FINAL":"Y","STATE":"VA","STREET_NAM":"STRINGFELLOW RD","id":"a67pbjah8dox","ADDRESS":"4400 Stringfellow Rd.","STREET_NUM":4400},"type":"Feature","geometry":{"type":"Point","coordinates":[-77.4107033543698,38.8740709936306]}},{"properties":{"SCHOOL_TYP":"ES","SCHID_3":273.0,"CITY":"Herndon","CLUSTER_NU":1,"SCHID_4":3273.0,"ZIP":"20170","WEB_ADDRES":"www.fcps.edu/DranesvilleES","SCHOOL_NAM":"DRANESVILLE","SCHOOL_NUM":3273,"PYRAMID":"Herndon","NAME_FINAL":"Y","STATE":"VA","STREET_NAM":"POWELLS TAVERN PLACE","id":"a67pbjb2bq1f","ADDRESS":"1515 Powells Tavern PL","STREET_NUM":1515},"type":"Feature","geometry":{"type":"Point","coordinates":[-77.3872688614402,38.9964476268421]}},{"properties":{"SCHOOL_TYP":"ES","SCHID_3":297.0,"CITY":"Great Falls","CLUSTER_NU":1,"SCHID_4":3297.0,"ZIP":"22066","WEB_ADDRES":"www.fcps.edu/GreatFallsES","SCHOOL_NAM":"GREAT FALLS","SCHOOL_NUM":3297,"PYRAMID":"Langley","NAME_FINAL":"Y","STATE":"VA","STREET_NAM":"WALKER RD","id":"a67pbji1sxbr","ADDRESS":"701 Walker RD","STREET_NUM":701},"type":"Feature","geometry":{"type":"Point","coordinates":[-77.2918496770149,39.0014385913487]}},{"properties":{"SCHOOL_TYP":"ES","SCHID_3":87.0,"CITY":"Fairfax","CLUSTER_NU":2,"SCHID_4":3087.0,"ZIP":"22031","WEB_ADDRES":"www.fcps.edu/FairhillES","SCHOOL_NAM":"FAIRHILL","SCHOOL_NUM":3087,"PYRAMID":"Falls Church","NAME_FINAL":"Y","STATE":"VA","STREET_NAM":"CHICHESTER LA","id":"a67pbjhon7jf","ADDRESS":"301 Chichester LA","STREET_NUM":3001},"type":"Feature","geometry":{"type":"Point","coordinates":[-77.2479469446192,38.8697711964504]}},{"properties":{"SCHOOL_TYP":"ES","SCHID_3":53.0,"CITY":"Fairfax","CLUSTER_NU":8,"SCHID_4":3053.0,"ZIP":"22031","WEB_ADDRES":"www.fcps.edu/MosbyWoodsES","SCHOOL_NAM":"MOSBY WOODS","SCHOOL_NUM":3053,"PYRAMID":"Oakton","NAME_FINAL":"Y","STATE":"VA","STREET_NAM":"FIVE OAKS RD","id":"a67pbj3j5peu","ADDRESS":"9819 Five Oaks RD","STREET_NUM":9819},"type":"Feature","geometry":{"type":"Point","coordinates":[-77.2860567384866,38.8697085087398]}},{"properties":{"SCHOOL_TYP":"ES","SCHID_3":254.0,"CITY":"Fairfax","CLUSTER_NU":7,"SCHID_4":2254.0,"ZIP":"22033","WEB_ADDRES":"www.fcps.edu/GreenbriarEastES","SCHOOL_NAM":"GREENBRIAR EAST","SCHOOL_NUM":2254,"PYRAMID":"Chantilly","NAME_FINAL":"Y","STATE":"VA","STREET_NAM":"POINT PLEASANT DR","id":"a67pbjhely89","ADDRESS":"13006 Point Pleasant DR","STREET_NUM":13006},"type":"Feature","geometry":{"type":"Point","coordinates":[-77.3944068213199,38.8718531344756]}},{"properties":{"SCHOOL_TYP":"ES","SCHID_3":84.0,"CITY":"Falls Church","CLUSTER_NU":2,"SCHID_4":3084.0,"ZIP":"22042","WEB_ADDRES":"www.fcps.edu/PineSpringES","SCHOOL_NAM":"PINE SPRING","SCHOOL_NUM":3084,"PYRAMID":"Falls Church","NAME_FINAL":"Y","STATE":"VA","STREET_NAM":"WILLOW LN","id":"a67pbj7pxsfy","ADDRESS":"7607 Willow LA","STREET_NUM":7607},"type":"Feature","geometry":{"type":"Point","coordinates":[-77.2090326104096,38.8704369595746]}},{"properties":{"SCHOOL_TYP":"ES","SCHID_3":255.0,"CITY":"Fairfax","CLUSTER_NU":7,"SCHID_4":2255.0,"ZIP":"22033","WEB_ADDRES":"www.fcps.edu/GreenbriarWestES","SCHOOL_NAM":"GREENBRIAR WEST","SCHOOL_NUM":2255,"PYRAMID":"Chantilly","NAME_FINAL":"Y","STATE":"VA","STREET_NAM":"POPLAR TREE RD","id":"a67pbjejuc2o","ADDRESS":"13300 Poplar Tree RD","STREET_NUM":13300},"type":"Feature","geometry":{"type":"Point","coordinates":[-77.4054376603954,38.8764379011362]}},{"properties":{"SCHOOL_TYP":"ES","SCHID_3":445.0,"CITY":"Oakton","CLUSTER_NU":8,"SCHID_4":3445.0,"ZIP":"22124","WEB_ADDRES":"www.fcps.edu/WaplesMillES","SCHOOL_NAM":"WAPLES MILL","SCHOOL_NUM":3445,"PYRAMID":"Oakton","NAME_FINAL":"Y","STATE":"VA","STREET_NAM":"WAPLES MILL RD","id":"a67pbj7m6hyv","ADDRESS":"11509 Waples Mill RD","STREET_NUM":11509},"type":"Feature","geometry":{"type":"Point","coordinates":[-77.3447247095237,38.8757988008942]}},{"properties":{"SCHOOL_TYP":"ES","SCHID_3":52.0,"CITY":"Oakton","CLUSTER_NU":8,"SCHID_4":3052.0,"ZIP":"22124","WEB_ADDRES":"www.fcps.edu/OaktonES","SCHOOL_NAM":"OAKTON","SCHOOL_NUM":3052,"PYRAMID":"Oakton","NAME_FINAL":"Y","STATE":"VA","STREET_NAM":"CHAIN BRIDGE RD","id":"a67pbj78nu44","ADDRESS":"3000 Chain Bridge RD","STREET_NUM":3000},"type":"Feature","geometry":{"type":"Point","coordinates":[-77.3049073639498,38.8797657240927]}},{"properties":{"SCHOOL_TYP":"HS","SCHID_3":250.0,"CITY":"Chantilly","CLUSTER_NU":7,"SCHID_4":2250.0,"ZIP":"20151","WEB_ADDRES":"www.fcps.edu/ChantillyHS","SCHOOL_NAM":"CHANTILLY","SCHOOL_NUM":2250,"PYRAMID":"Chantilly","NAME_FINAL":"Y","STATE":"VA","STREET_NAM":"STRINGFELLOW RD","id":"a67pbjdc6djl","ADDRESS":"4201 Stringfellow RD","STREET_NUM":4201},"type":"Feature","geometry":{"type":"Point","coordinates":[-77.4069489921419,38.8791957068843]}},{"properties":{"SCHOOL_TYP":"HS","SCHID_3":50.0,"CITY":"Vienna","CLUSTER_NU":8,"SCHID_4":3050.0,"ZIP":"22181","WEB_ADDRES":"www.fcps.edu/OaktonHS","SCHOOL_NAM":"OAKTON","SCHOOL_NUM":3050,"PYRAMID":"Oakton","NAME_FINAL":"Y","STATE":"VA","STREET_NAM":"SUTTON RD","id":"a67pbj4zp53a","ADDRESS":"2900 Sutton RD","STREET_NUM":2900},"type":"Feature","geometry":{"type":"Point","coordinates":[-77.2820468294331,38.8787919115123]}},{"properties":{"SCHOOL_TYP":"ES","SCHID_3":82.0,"CITY":"Falls Church","CLUSTER_NU":1,"SCHID_4":3082.0,"ZIP":"22046","WEB_ADDRES":"www.fcps.edu/TimberLaneES","SCHOOL_NAM":"TIMBER LANE","SCHOOL_NUM":3082,"PYRAMID":"McLean","NAME_FINAL":"Y","STATE":"VA","STREET_NAM":"WEST ST","id":"a67pbjao00yn","ADDRESS":"2737 West ST","STREET_NUM":2737},"type":"Feature","geometry":{"type":"Point","coordinates":[-77.1979435751559,38.8797615189568]}},{"properties":{"SCHOOL_TYP":"ES","SCHID_3":263.0,"CITY":"Chantilly","CLUSTER_NU":7,"SCHID_4":2263.0,"ZIP":"20151","WEB_ADDRES":"www.fcps.edu/BrookfieldES","SCHOOL_NAM":"BROOKFIELD","SCHOOL_NUM":2263,"PYRAMID":"Chantilly","NAME_FINAL":"Y","STATE":"VA","STREET_NAM":"LEES CORNER RD","id":"a67pbjf8xw6k","ADDRESS":"4200 Lees Corner Rd.","STREET_NUM":4200},"type":"Feature","geometry":{"type":"Point","coordinates":[-77.4192713066591,38.8823894112519]}},{"properties":{"SCHOOL_TYP":"ES","SCHID_3":54.0,"CITY":"Vienna","CLUSTER_NU":2,"SCHID_4":3054.0,"ZIP":"22180","WEB_ADDRES":"www.fcps.edu/MarshallRoadES","SCHOOL_NAM":"MARSHALL ROAD","SCHOOL_NUM":3054,"PYRAMID":"Madison","NAME_FINAL":"Y","STATE":"VA","STREET_NAM":"MARSHALL RD SW","id":"a67pbjdsedoy","ADDRESS":"730 Marshall RD","STREET_NUM":730},"type":"Feature","geometry":{"type":"Point","coordinates":[-77.2661696086102,38.881975807824]}},{"properties":{"SCHOOL_TYP":"ES","SCHID_3":332.0,"CITY":"Fairfax","CLUSTER_NU":8,"SCHID_4":3332.0,"ZIP":"22033","WEB_ADDRES":"www.fcps.edu/NavyES","SCHOOL_NAM":"NAVY","SCHOOL_NUM":3332,"PYRAMID":"Oakton","NAME_FINAL":"Y","STATE":"VA","STREET_NAM":"WEST OX RD","id":"a67pbjcxmb02","ADDRESS":"3500 West Ox RD","STREET_NUM":3500},"type":"Feature","geometry":{"type":"Point","coordinates":[-77.3793294857396,38.8891588105213]}},{"properties":{"SCHOOL_TYP":"ES","SCHID_3":63.0,"CITY":"Vienna","CLUSTER_NU":2,"SCHID_4":3063.0,"ZIP":"22181","WEB_ADDRES":"www.fcps.edu/FlintHillES","SCHOOL_NAM":"FLINT HILL","SCHOOL_NUM":3063,"PYRAMID":"Madison","NAME_FINAL":"Y","STATE":"VA","STREET_NAM":"FLINT HILL RD","id":"a67pbjd4u591","ADDRESS":"2444 Flint Hill RD","STREET_NUM":2444},"type":"Feature","geometry":{"type":"Point","coordinates":[-77.2852234734093,38.896364879089]}},{"properties":{"SCHOOL_TYP":"HS","SCHID_3":60.0,"CITY":"Vienna","CLUSTER_NU":2,"SCHID_4":3060.0,"ZIP":"22181","WEB_ADDRES":"www.fcps.edu/MadisonHS","SCHOOL_NAM":"MADISON","SCHOOL_NUM":3060,"PYRAMID":"Madison","NAME_FINAL":"Y","STATE":"VA","STREET_NAM":"JAMES MADISON DR","id":"a67pbj5bn2za","ADDRESS":"2500 James Madison DR","STREET_NUM":2500},"type":"Feature","geometry":{"type":"Point","coordinates":[-77.2793542517679,38.8958595198371]}},{"properties":{"SCHOOL_TYP":"ES","SCHID_3":67.0,"CITY":"Vienna","CLUSTER_NU":2,"SCHID_4":3067.0,"ZIP":"22180","WEB_ADDRES":"www.fcps.edu/LouiseArcherES","SCHOOL_NAM":"LOUISE ARCHER","SCHOOL_NUM":3067,"PYRAMID":"Madison","NAME_FINAL":"Y","STATE":"VA","STREET_NAM":"NUTLEY ST","id":"a67pbj5wahcb","ADDRESS":"324 Nutley ST","STREET_NUM":324},"type":"Feature","geometry":{"type":"Point","coordinates":[-77.2783789250979,38.8986155851344]}},{"properties":{"SCHOOL_TYP":"ES","SCHID_3":62.0,"CITY":"Vienna","CLUSTER_NU":2,"SCHID_4":3062.0,"ZIP":"22180","WEB_ADDRES":"www.fcps.edu/ViennaES","SCHOOL_NAM":"VIENNA","SCHOOL_NUM":3062,"PYRAMID":"Madison","NAME_FINAL":"Y","STATE":"VA","STREET_NAM":"CENTER ST S","id":"a67pbj9vhs66","ADDRESS":"128 Center ST","STREET_NUM":128},"type":"Feature","geometry":{"type":"Point","coordinates":[-77.2632649542143,38.9011386026327]}},{"properties":{"SCHOOL_TYP":"ES","SCHID_3":74.0,"CITY":"Falls Church","CLUSTER_NU":1,"SCHID_4":3074.0,"ZIP":"22043","WEB_ADDRES":"www.fcps.edu/LemonRoadES","SCHOOL_NAM":"LEMON ROAD","SCHOOL_NUM":3074,"PYRAMID":"Marshall","NAME_FINAL":"Y","STATE":"VA","STREET_NAM":"IDYLWOOD RD","id":"a67pbjh6ztnw","ADDRESS":"7230 Idylwood RD","STREET_NUM":7230},"type":"Feature","geometry":{"type":"Point","coordinates":[-77.195220401324,38.9039617638146]}},{"properties":{"SCHOOL_TYP":"MS","SCHID_3":71.0,"CITY":"Vienna","CLUSTER_NU":2,"SCHID_4":3071.0,"ZIP":"22182","WEB_ADDRES":"www.fcps.edu/KilmerMS","SCHOOL_NAM":"KILMER","SCHOOL_NUM":3071,"PYRAMID":"Marshall","NAME_FINAL":"Y","STATE":"VA","STREET_NAM":"WOLFTRAP RD","id":"a67pbj5dukvo","ADDRESS":"8100 Wolftrap RD","STREET_NUM":8100},"type":"Feature","geometry":{"type":"Point","coordinates":[-77.224813544008,38.9045623100339]}},{"properties":{"SCHOOL_TYP":"HS","SCHID_3":70.0,"CITY":"Falls Church","CLUSTER_NU":2,"SCHID_4":3070.0,"ZIP":"22043","WEB_ADDRES":"www.fcps.edu/MarshallHS","SCHOOL_NAM":"MARSHALL","SCHOOL_NUM":3070,"PYRAMID":"Marshall","NAME_FINAL":"Y","STATE":"VA","STREET_NAM":"LEESBURG PI","id":"a67pbj2ocjd1","ADDRESS":"7731 Leesburg PI","STREET_NUM":7731},"type":"Feature","geometry":{"type":"Point","coordinates":[-77.2130588696163,38.9049879608578]}},{"properties":{"SCHOOL_TYP":"MS","SCHID_3":331.0,"CITY":"Chantilly","CLUSTER_NU":7,"SCHID_4":2331.0,"ZIP":"20151","WEB_ADDRES":"www.fcps.edu/FranklinMS","SCHOOL_NAM":"FRANKLIN","SCHOOL_NUM":2331,"PYRAMID":"Chantilly","NAME_FINAL":"Y","STATE":"VA","STREET_NAM":"LEES CORNER RD","id":"a67pbja7e45b","ADDRESS":"3300 Lees Corner Rd.","STREET_NUM":3300},"type":"Feature","geometry":{"type":"Point","coordinates":[-77.4207916981334,38.907487193467]}},{"properties":{"SCHOOL_TYP":"MS","SCHID_3":31.0,"CITY":"Falls Church","CLUSTER_NU":1,"SCHID_4":3031.0,"ZIP":"22043","WEB_ADDRES":"www.fcps.edu/LongfellowMS","SCHOOL_NAM":"LONGFELLOW","SCHOOL_NUM":3031,"PYRAMID":"McLean","NAME_FINAL":"Y","STATE":"VA","STREET_NAM":"WESTMORELAND ST","id":"a67pbj4x6287","ADDRESS":"2000 Westmoreland ST","STREET_NUM":2000},"type":"Feature","geometry":{"type":"Point","coordinates":[-77.1747055523373,38.9096603194442]}},{"properties":{"SCHOOL_TYP":"ES","SCHID_3":77.0,"CITY":"Vienna","CLUSTER_NU":2,"SCHID_4":3077.0,"ZIP":"22182","WEB_ADDRES":"www.fcps.edu/FreedomHillES","SCHOOL_NAM":"FREEDOM HILL","SCHOOL_NUM":3077,"PYRAMID":"Marshall","NAME_FINAL":"Y","STATE":"VA","STREET_NAM":"LORD FAIRFAX DR","id":"a67pbj816kti","ADDRESS":"1945 Lord Fairfax RD","STREET_NUM":1945},"type":"Feature","geometry":{"type":"Point","coordinates":[-77.2296962404914,38.9106800750565]}},{"properties":{"SCHOOL_TYP":"ES","SCHID_3":333.0,"CITY":"Herndon","CLUSTER_NU":7,"SCHID_4":2333.0,"ZIP":"20171","WEB_ADDRES":"www.fcps.edu/OakHillES","SCHOOL_NAM":"OAK HILL","SCHOOL_NUM":2333,"PYRAMID":"Chantilly","NAME_FINAL":"Y","STATE":"VA","STREET_NAM":"KINROSS CI","id":"a67pbjffksjx","ADDRESS":"3210 Kinross CI","STREET_NUM":3210},"type":"Feature","geometry":{"type":"Point","coordinates":[-77.4084987095409,38.9129529658535]}},{"properties":{"SCHOOL_TYP":"ES","SCHID_3":337.0,"CITY":"Herndon","CLUSTER_NU":8,"SCHID_4":3337.0,"ZIP":"20171","WEB_ADDRES":"www.fcps.edu/CrossfieldES","SCHOOL_NAM":"CROSSFIELD","SCHOOL_NUM":3337,"PYRAMID":"Oakton","NAME_FINAL":"Y","STATE":"VA","STREET_NAM":"FOX MILL RD","id":"a67pbj9v6ptp","ADDRESS":"2791 Fox Mill RD","STREET_NUM":2791},"type":"Feature","geometry":{"type":"Point","coordinates":[-77.3618439778268,38.9150715600667]}},{"properties":{"SCHOOL_TYP":"ES","SCHID_3":42.0,"CITY":"Vienna","CLUSTER_NU":2,"SCHID_4":3042.0,"ZIP":"22182","WEB_ADDRES":"www.fcps.edu/WolftrapES","SCHOOL_NAM":"WOLFTRAP","SCHOOL_NUM":3042,"PYRAMID":"Madison","NAME_FINAL":"Y","STATE":"VA","STREET_NAM":"BEULAH RD","id":"a67pbj2l20ky","ADDRESS":"1903 Beulah RD","STREET_NUM":1903},"type":"Feature","geometry":{"type":"Point","coordinates":[-77.2665327497658,38.9176380879057]}},{"properties":{"SCHOOL_TYP":"ES","SCHID_3":75.0,"CITY":"Falls Church","CLUSTER_NU":2,"SCHID_4":3075.0,"ZIP":"22043","WEB_ADDRES":"www.fcps.edu/WestgateES","SCHOOL_NAM":"WESTGATE","SCHOOL_NUM":3075,"PYRAMID":"Marshall","NAME_FINAL":"Y","STATE":"VA","STREET_NAM":"MAGARITY RD","id":"a67pbj2xx4jy","ADDRESS":"7500 Magarity RD","STREET_NUM":7500},"type":"Feature","geometry":{"type":"Point","coordinates":[-77.205246674641,38.9194547509998]}},{"properties":{"SCHOOL_TYP":"ES","SCHID_3":35.0,"CITY":"McLean","CLUSTER_NU":1,"SCHID_4":3035.0,"ZIP":"22101","WEB_ADDRES":"www.fcps.edu/ChesterbrookES","SCHOOL_NAM":"CHESTERBROOK","SCHOOL_NUM":3035,"PYRAMID":"McLean","NAME_FINAL":"Y","STATE":"VA","STREET_NAM":"KIRBY RD","id":"a67pbj2jw1gb","ADDRESS":"1753 Kirby RD","STREET_NUM":1753},"type":"Feature","geometry":{"type":"Point","coordinates":[-77.1554238176799,38.9186385568605]}},{"properties":{"SCHOOL_TYP":"ES","SCHID_3":48.0,"CITY":"Vienna","CLUSTER_NU":2,"SCHID_4":3048.0,"ZIP":"22182","WEB_ADDRES":"www.fcps.edu/WestbriarES","SCHOOL_NAM":"WESTBRIAR","SCHOOL_NUM":3048,"PYRAMID":"Marshall","NAME_FINAL":"Y","STATE":"VA","STREET_NAM":"PINE VALLEY DR","id":"a67pbjd2hz7b","ADDRESS":"1741 Pine Valley DR","STREET_NUM":1741},"type":"Feature","geometry":{"type":"Point","coordinates":[-77.2448110032494,38.9207216316254]}},{"properties":{"SCHOOL_TYP":"ES","SCHID_3":36.0,"CITY":"McLean","CLUSTER_NU":1,"SCHID_4":3036.0,"ZIP":"22101","WEB_ADDRES":"www.fcps.edu/KentGardensES","SCHOOL_NAM":"KENT GARDENS","SCHOOL_NUM":3036,"PYRAMID":"McLean","NAME_FINAL":"Y","STATE":"VA","STREET_NAM":"MELBOURNE DR","id":"a67pbjco0vgn","ADDRESS":"1717 Melbourne DR","STREET_NUM":1717},"type":"Feature","geometry":{"type":"Point","coordinates":[-77.175769765099,38.9214772300148]}},{"properties":{"SCHOOL_TYP":"HS","SCHID_3":30.0,"CITY":"McLean","CLUSTER_NU":1,"SCHID_4":3030.0,"ZIP":"22101","WEB_ADDRES":"www.fcps.edu/McLeanHS","SCHOOL_NAM":"MCLEAN","SCHOOL_NUM":3030,"PYRAMID":"McLean","NAME_FINAL":"Y","STATE":"VA","STREET_NAM":"DAVIDSON RD","id":"a67pbjgn4vss","ADDRESS":"1633 Davidson RD","STREET_NUM":1633},"type":"Feature","geometry":{"type":"Point","coordinates":[-77.1852073144453,38.9232171883567]}},{"properties":{"SCHOOL_TYP":"ES","SCHID_3":334.0,"CITY":"Herndon","CLUSTER_NU":8,"SCHID_4":3334.0,"ZIP":"20171","WEB_ADDRES":"www.fcps.edu/FoxMillES","SCHOOL_NAM":"FOX MILL","SCHOOL_NUM":3334,"PYRAMID":"Oakton","NAME_FINAL":"Y","STATE":"VA","STREET_NAM":"VIKING DR","id":"a67pbjhjvtzw","ADDRESS":"2601 Viking DR","STREET_NUM":2601},"type":"Feature","geometry":{"type":"Point","coordinates":[-77.3822631243665,38.9278117475783]}},{"properties":{"SCHOOL_TYP":"ES","SCHID_3":327.0,"CITY":"Reston","CLUSTER_NU":8,"SCHID_4":3327.0,"ZIP":"20191","WEB_ADDRES":"www.fcps.edu/HuntersWoodsES","SCHOOL_NAM":"HUNTERS WOODS","SCHOOL_NUM":3327,"PYRAMID":"South Lakes","NAME_FINAL":"Y","STATE":"VA","STREET_NAM":"COLTS NECK RD","id":"a67pbjelfo0b","ADDRESS":"2401 Colts Neck RD","STREET_NUM":2401},"type":"Feature","geometry":{"type":"Point","coordinates":[-77.3613508632072,38.9325662256742]}},{"properties":{"SCHOOL_TYP":"HS","SCHID_3":320.0,"CITY":"Reston","CLUSTER_NU":8,"SCHID_4":3320.0,"ZIP":"20191","WEB_ADDRES":"www.fcps.edu/SouthLakesHS","SCHOOL_NAM":"SOUTH LAKES","SCHOOL_NUM":3320,"PYRAMID":"South Lakes","NAME_FINAL":"Y","STATE":"VA","STREET_NAM":"SOUTH LAKES DR","id":"a67pbjaas8xa","ADDRESS":"11400 South Lakes DR","STREET_NUM":11400},"type":"Feature","geometry":{"type":"Point","coordinates":[-77.3393372820887,38.9324532364354]}},{"properties":{"SCHOOL_TYP":"ES","SCHID_3":286.0,"CITY":"Herndon","CLUSTER_NU":8,"SCHID_4":3286.0,"ZIP":"20171","WEB_ADDRES":"www.fcps.edu/FlorisES","SCHOOL_NAM":"FLORIS","SCHOOL_NUM":3286,"PYRAMID":"Westfield","NAME_FINAL":"Y","STATE":"VA","STREET_NAM":"CENTREVILLE RD","id":"a67pbj3e8ywe","ADDRESS":"2708 Centreville Rd.","STREET_NUM":2708},"type":"Feature","geometry":{"type":"Point","coordinates":[-77.4140544024512,38.9359277855613]}},{"properties":{"SCHOOL_TYP":"MS","SCHID_3":321.0,"CITY":"Reston","CLUSTER_NU":8,"SCHID_4":3321.0,"ZIP":"20191","WEB_ADDRES":"www.fcps.edu/HughesMS","SCHOOL_NAM":"HUGHES","SCHOOL_NUM":3321,"PYRAMID":"South Lakes","NAME_FINAL":"Y","STATE":"VA","STREET_NAM":"RIDGE HEIGHTS RD","id":"a67pbjdpehk3","ADDRESS":"11401 Ridge Heights RD","STREET_NUM":11401},"type":"Feature","geometry":{"type":"Point","coordinates":[-77.3388399088179,38.9353208517562]}},{"properties":{"SCHOOL_TYP":"ES","SCHID_3":25.0,"CITY":"McLean","CLUSTER_NU":1,"SCHID_4":3025.0,"ZIP":"22101","WEB_ADDRES":"www.fcps.edu/FranklinShermanES","SCHOOL_NAM":"FRANKLIN SHERMAN","SCHOOL_NUM":3025,"PYRAMID":"McLean","NAME_FINAL":"Y","STATE":"VA","STREET_NAM":"BRAWNER ST","id":"a67pbjhmr5gn","ADDRESS":"6630 Brawner ST","STREET_NUM":6630},"type":"Feature","geometry":{"type":"Point","coordinates":[-77.1744523438166,38.9347585952994]}},{"properties":{"SCHOOL_TYP":"ES","SCHID_3":323.0,"CITY":"Reston","CLUSTER_NU":8,"SCHID_4":3323.0,"ZIP":"20191","WEB_ADDRES":"www.fcps.edu/TerrasetES","SCHOOL_NAM":"TERRASET","SCHOOL_NUM":3323,"PYRAMID":"South Lakes","NAME_FINAL":"Y","STATE":"VA","STREET_NAM":"RIDGE HEIGHTS RD","id":"a67pbj82an2w","ADDRESS":"11411 Ridge Heights RD","STREET_NUM":11411},"type":"Feature","geometry":{"type":"Point","coordinates":[-77.3429734001172,38.9367313329135]}},{"properties":{"SCHOOL_TYP":"ES","SCHID_3":18.0,"CITY":"McLean","CLUSTER_NU":1,"SCHID_4":3018.0,"ZIP":"22102","WEB_ADDRES":"www.fcps.edu/SpringHillES","SCHOOL_NAM":"SPRING HILL.","SCHOOL_NUM":3018,"PYRAMID":"Langley","NAME_FINAL":"Y","STATE":"VA","STREET_NAM":"LEWINSVILLE RD","id":"a67pbj51hubt","ADDRESS":"8201 Lewinsville RD","STREET_NUM":8201},"type":"Feature","geometry":{"type":"Point","coordinates":[-77.2288730118942,38.9389984280936]}},{"properties":{"SCHOOL_TYP":"ES","SCHID_3":325.0,"CITY":"Reston","CLUSTER_NU":8,"SCHID_4":3325.0,"ZIP":"20191","WEB_ADDRES":"www.fcps.edu/SunriseValleyES","SCHOOL_NAM":"SUNRISE VALLEY","SCHOOL_NUM":3325,"PYRAMID":"South Lakes","NAME_FINAL":"Y","STATE":"VA","STREET_NAM":"CROSS ROAD SCHOOL RD","id":"a67pbjf0fzjq","ADDRESS":"10824 Cross School RD","STREET_NUM":10824},"type":"Feature","geometry":{"type":"Point","coordinates":[-77.3202191004613,38.9402632662705]}},{"properties":{"SCHOOL_TYP":"ES","SCHID_3":336.0,"CITY":"Reston","CLUSTER_NU":8,"SCHID_4":3336.0,"ZIP":"20191","WEB_ADDRES":"www.fcps.edu/DogwoodES","SCHOOL_NAM":"DOGWOOD","SCHOOL_NUM":3336,"PYRAMID":"South Lakes","NAME_FINAL":"Y","STATE":"VA","STREET_NAM":"GLADE DR","id":"a67pbj59lblg","ADDRESS":"12300 Glade Dr.","STREET_NUM":12300},"type":"Feature","geometry":{"type":"Point","coordinates":[-77.3708147316107,38.9429754435044]}},{"properties":{"SCHOOL_TYP":"ES","SCHID_3":335.0,"CITY":"Herndon","CLUSTER_NU":8,"SCHID_4":3335.0,"ZIP":"20171","WEB_ADDRES":"www.fcps.edu/McNairES","SCHOOL_NAM":"MCNAIR","SCHOOL_NUM":3335,"PYRAMID":"Westfield","NAME_FINAL":"Y","STATE":"VA","STREET_NAM":"THOMAS JEFFERSON DR","id":"a67pbj3uq95p","ADDRESS":"2499 Thomas Jefferson DD","STREET_NUM":2499},"type":"Feature","geometry":{"type":"Point","coordinates":[-77.4044640553413,38.9466774397813]}},{"properties":{"SCHOOL_TYP":"ES","SCHID_3":17.0,"CITY":"Vienna","CLUSTER_NU":1,"SCHID_4":3017.0,"ZIP":"22182","WEB_ADDRES":"www.fcps.edu/colvinrunes","SCHOOL_NAM":"COLVIN RUN","SCHOOL_NUM":3017,"PYRAMID":"Langley","NAME_FINAL":"Y","STATE":"VA","STREET_NAM":"TRAP RD","id":"a67pbjfgt0ik","ADDRESS":"1400 Trap RD","STREET_NUM":1400},"type":"Feature","geometry":{"type":"Point","coordinates":[-77.2635290413033,38.9469885340804]}},{"properties":{"SCHOOL_TYP":"ES","SCHID_3":26.0,"CITY":"McLean","CLUSTER_NU":1,"SCHID_4":3026.0,"ZIP":"22101","WEB_ADDRES":"www.fcps.edu/ChurchillRoadES","SCHOOL_NAM":"CHURCHILL ROAD","SCHOOL_NUM":3026,"PYRAMID":"Langley","NAME_FINAL":"Y","STATE":"VA","STREET_NAM":"CHURCHILL RD","id":"a67pbj7im36d","ADDRESS":"7100 Churchill RD","STREET_NUM":7100},"type":"Feature","geometry":{"type":"Point","coordinates":[-77.1893564770917,38.946436995774]}},{"properties":{"SCHOOL_TYP":"MS","SCHID_3":21.0,"CITY":"McLean","CLUSTER_NU":1,"SCHID_4":3021.0,"ZIP":"22101","WEB_ADDRES":"www.fcps.edu/CooperMS","SCHOOL_NAM":"COOPER","SCHOOL_NUM":3021,"PYRAMID":"Langley","NAME_FINAL":"Y","STATE":"VA","STREET_NAM":"BALLS HILL RD","id":"a67pbjcgmds3","ADDRESS":"977 Balls Hill RD","STREET_NUM":977},"type":"Feature","geometry":{"type":"Point","coordinates":[-77.1920670907348,38.9522914234205]}},{"properties":{"SCHOOL_TYP":"HS","SCHID_3":20.0,"CITY":"McLean","CLUSTER_NU":1,"SCHID_4":3020.0,"ZIP":"22101","WEB_ADDRES":"www.fcps.edu/LangleyHS","SCHOOL_NAM":"LANGLEY","SCHOOL_NUM":3020,"PYRAMID":"Langley","NAME_FINAL":"Y","STATE":"VA","STREET_NAM":"GEORGETOWN PI","id":"a67pbj4nhiis","ADDRESS":"6520 Georgetown PL","STREET_NUM":6520},"type":"Feature","geometry":{"type":"Point","coordinates":[-77.1666058162734,38.9500460448189]}},{"properties":{"SCHOOL_TYP":"ES","SCHID_3":307.0,"CITY":"Reston","CLUSTER_NU":8,"SCHID_4":3307.0,"ZIP":"20190","WEB_ADDRES":"www.fcps.edu/LakeAnneES","SCHOOL_NAM":"LAKE ANNE","SCHOOL_NUM":3307,"PYRAMID":"South Lakes","NAME_FINAL":"Y","STATE":"VA","STREET_NAM":"NORTH SHORE DR","id":"a67pbjht7lym","ADDRESS":"11510 North Shore DR","STREET_NUM":11510},"type":"Feature","geometry":{"type":"Point","coordinates":[-77.3467488544831,38.9651822187829]}},{"properties":{"SCHOOL_TYP":"MS","SCHID_3":281.0,"CITY":"Vienna","CLUSTER_NU":1,"SCHID_4":3281.0,"ZIP":"22180","WEB_ADDRES":"www.fcps.edu/HerndonMS","SCHOOL_NAM":"HERNDON","SCHOOL_NUM":3281,"PYRAMID":"Herndon","NAME_FINAL":"Y","STATE":"VA","STREET_NAM":"LOCUST ST","id":"a67pbjb8r3xy","ADDRESS":"901 Locust ST","STREET_NUM":901},"type":"Feature","geometry":{"type":"Point","coordinates":[-77.3913144799752,38.9677930240078]}},{"properties":{"SCHOOL_TYP":"ES","SCHID_3":302.0,"CITY":"Reston","CLUSTER_NU":8,"SCHID_4":3302.0,"ZIP":"20190","WEB_ADDRES":"www.fcps.edu/ForestEdgeES","SCHOOL_NAM":"FOREST EDGE","SCHOOL_NUM":3302,"PYRAMID":"South Lakes","NAME_FINAL":"Y","STATE":"VA","STREET_NAM":"BEACONTREE LA","id":"a67pbjcigp38","ADDRESS":"1501 Becontree LA","STREET_NUM":1501},"type":"Feature","geometry":{"type":"Point","coordinates":[-77.3292610669838,38.9691527495509]}},{"properties":{"SCHOOL_TYP":"ES","SCHID_3":276.0,"CITY":"Herndon","CLUSTER_NU":1,"SCHID_4":3276.0,"ZIP":"20170","WEB_ADDRES":"www.fcps.edu/HerndonES","SCHOOL_NAM":"HERNDON","SCHOOL_NUM":3276,"PYRAMID":"Herndon","NAME_FINAL":"Y","STATE":"VA","STREET_NAM":"DRAINSVILLE RD","id":"a67pbjg7ndnu","ADDRESS":"630 Drainesville Rd.","STREET_NUM":630},"type":"Feature","geometry":{"type":"Point","coordinates":[-77.3767839461741,38.9759135944438]}},{"properties":{"SCHOOL_TYP":"ES","SCHID_3":305.0,"CITY":"Reston","CLUSTER_NU":1,"SCHID_4":3305.0,"ZIP":"20194","WEB_ADDRES":"www.fcps.edu/AldrinES","SCHOOL_NAM":"ALDRIN","SCHOOL_NUM":3305,"PYRAMID":"Herndon","NAME_FINAL":"Y","STATE":"VA","STREET_NAM":"CENTER HARBOR RD","id":"a67pbjgg6jzf","ADDRESS":"11375 Center Harbor RD","STREET_NUM":11375},"type":"Feature","geometry":{"type":"Point","coordinates":[-77.3379626717065,38.9797477347015]}},{"properties":{"SCHOOL_TYP":"ES","SCHID_3":304.0,"CITY":"Reston","CLUSTER_NU":1,"SCHID_4":3304.0,"ZIP":"20194","WEB_ADDRES":"www.fcps.edu/ArmstrongES","SCHOOL_NAM":"ARMSRONG","SCHOOL_NUM":3304,"PYRAMID":"Herndon","NAME_FINAL":"Y","STATE":"VA","STREET_NAM":"LAKE NEWPORT RD","id":"a67pbjgiua0q","ADDRESS":"11900 Lake Newport RD","STREET_NUM":11900},"type":"Feature","geometry":{"type":"Point","coordinates":[-77.3583423167061,38.9802019412086]}},{"properties":{"SCHOOL_TYP":"ES","SCHID_3":282.0,"CITY":"Herndon","CLUSTER_NU":1,"SCHID_4":3282.0,"ZIP":"20170","WEB_ADDRES":"www.fcps.edu/ClearviewES","SCHOOL_NAM":"CLEARVIEW","SCHOOL_NUM":3282,"PYRAMID":"Herndon","NAME_FINAL":"Y","STATE":"VA","STREET_NAM":"BUILDERS RD","id":"a67pbj4n0b9u","ADDRESS":"12635 Builders Rd.","STREET_NUM":12635},"type":"Feature","geometry":{"type":"Point","coordinates":[-77.3912107531807,38.983692375881]}},{"properties":{"SCHOOL_TYP":"HS","SCHID_3":270.0,"CITY":"Herndon","CLUSTER_NU":1,"SCHID_4":3270.0,"ZIP":"20170","WEB_ADDRES":"www.fcps.edu/HerndonHS","SCHOOL_NAM":"HERNDON","SCHOOL_NUM":3270,"PYRAMID":"Herndon","NAME_FINAL":"Y","STATE":"VA","STREET_NAM":"BENNET ST","id":"a67pbj6b2py5","ADDRESS":"700 Bennett St.","STREET_NUM":700},"type":"Feature","geometry":{"type":"Point","coordinates":[-77.3744265589917,38.9862394009163]}},{"properties":{"SCHOOL_TYP":"ES","SCHID_3":295.0,"CITY":"Great Falls","CLUSTER_NU":1,"SCHID_4":3295.0,"ZIP":"22066","WEB_ADDRES":"www.fcps.edu/ForestvilleES","SCHOOL_NAM":"FORESTVILLE","SCHOOL_NUM":3295,"PYRAMID":"Langley","NAME_FINAL":"Y","STATE":"VA","STREET_NAM":"UTTERBACK STORE RD","id":"a67pbjau115a","ADDRESS":"1085 Utterback Store RD","STREET_NUM":1085},"type":"Feature","geometry":{"type":"Point","coordinates":[-77.3282989451862,38.9935629723727]}},{"properties":{"SCHOOL_TYP":"MS","SCHID_3":141.0,"CITY":"Annandale","CLUSTER_NU":3,"SCHID_4":2141.0,"ZIP":"22003","WEB_ADDRES":"www.fcps.edu/PoeMS","SCHOOL_NAM":"POE","SCHOOL_NUM":2141,"PYRAMID":"Annandale","NAME_FINAL":"Y","STATE":"VA","STREET_NAM":"CINDY LA","id":"a67pbjex0hzi","ADDRESS":"7000 Cindy LA","STREET_NUM":7000},"type":"Feature","geometry":{"type":"Point","coordinates":[-77.1866604781315,38.8204869259308]}},{"properties":{"SCHOOL_TYP":"ES","SCHID_3":197.0,"CITY":"Fort Belvoir","CLUSTER_NU":4,"SCHID_4":1197.0,"ZIP":"22060","WEB_ADDRES":"www.fcps.edu/FtBelvoirES","SCHOOL_NAM":"FORT BELVOIR","SCHOOL_NUM":1197,"PYRAMID":"Mount Vernon","NAME_FINAL":"Y","STATE":"VA","STREET_NAM":"MEERES RD","id":"a67pbjfnq5sr","ADDRESS":"5970 Meeres RD","STREET_NUM":5970},"type":"Feature","geometry":{"type":"Point","coordinates":[-77.1421676463378,38.7221855023901]}},{"properties":{"SCHOOL_TYP":"MS","SCHID_3":171.0,"CITY":"Herndon","CLUSTER_NU":8,"SCHID_4":3171.0,"ZIP":"20171","WEB_ADDRES":"www.fcps.edu/RachelCarsonMS","SCHOOL_NAM":"CARSON","SCHOOL_NUM":3171,"PYRAMID":"Oakton","NAME_FINAL":"Y","STATE":"VA","STREET_NAM":"MCLEAREN RD","id":"a67pbjb6tp8x","ADDRESS":"13618 McLearen Rd.","STREET_NUM":13618},"type":"Feature","geometry":{"type":"Point","coordinates":[-77.4195799796407,38.9273335704102]}},{"properties":{"SCHOOL_TYP":"ES","SCHID_3":429.0,"CITY":"Kingstowne","CLUSTER_NU":4,"SCHID_4":8429.0,"ZIP":"22315","WEB_ADDRES":"www.fcps.edu/islandcreekes","SCHOOL_NAM":"ISLAND CREEK","SCHOOL_NUM":8429,"PYRAMID":"Hayfield","NAME_FINAL":"Y","STATE":"VA","STREET_NAM":"MORNING VIEW LA","id":"a67pbjchcjy6","ADDRESS":"7855 Morning View LA","STREET_NUM":7855},"type":"Feature","geometry":{"type":"Point","coordinates":[-77.1710697806638,38.7414994735217]}},{"properties":{"SCHOOL_TYP":"ES","SCHID_3":431.0,"CITY":"Centreville","CLUSTER_NU":7,"SCHID_4":8431.0,"ZIP":"20120","WEB_ADDRES":"www.fcps.edu/powelles","SCHOOL_NAM":"POWELL","SCHOOL_NUM":8431,"PYRAMID":"Centreville","NAME_FINAL":"Y","STATE":"VA","STREET_NAM":"LEELAND RD","id":"a67pbjfjc3k0","ADDRESS":"13340 Leland RD","STREET_NUM":13340},"type":"Feature","geometry":{"type":"Point","coordinates":[-77.4082514605977,38.8457586051317]}},{"properties":{"SCHOOL_TYP":"HS","SCHID_3":420.0,"CITY":"Lorton","CLUSTER_NU":5,"SCHID_4":8420.0,"ZIP":"22079","WEB_ADDRES":"www.fcps.edu/southcountyss","SCHOOL_NAM":"SOUTH COUNTY","SCHOOL_NUM":8420,"PYRAMID":"South County","NAME_FINAL":"Y","STATE":"VA","STREET_NAM":"SILVERBROOK RD","id":"a67pbj6av2lm","ADDRESS":"8501 Silverbrook Rd.","STREET_NUM":8501},"type":"Feature","geometry":{"type":"Point","coordinates":[-77.2386347897155,38.7170563456044]}},{"properties":{"SCHOOL_TYP":"HS","SCHID_3":130.0,"CITY":"Fairfax","CLUSTER_NU":3,"SCHID_4":2130.0,"ZIP":"22031","WEB_ADDRES":"www.fcps.edu/Woodsonhs","SCHOOL_NAM":"WOODSON","SCHOOL_NUM":2130,"PYRAMID":"Woodson","NAME_FINAL":"Y","STATE":"VA","STREET_NAM":"MAIN ST","id":"a67pbj604dqn","ADDRESS":"9525 Main ST","STREET_NUM":9525},"type":"Feature","geometry":{"type":"Point","coordinates":[-77.2761562242456,38.8402514258802]}},{"properties":{"SCHOOL_TYP":"MS","SCHID_3":391.0,"CITY":"Fairfax","CLUSTER_NU":6,"SCHID_4":2391.0,"ZIP":"22032","WEB_ADDRES":"www.fcps.edu/RobinsonSS","SCHOOL_NAM":"ROBINSON","SCHOOL_NUM":2391,"PYRAMID":"Robinson","NAME_FINAL":"Y","STATE":"VA","STREET_NAM":"SIDEBURN RD","id":"a67pbj7x0oo6","ADDRESS":"5035 Sideburn RD","STREET_NUM":5035},"type":"Feature","geometry":{"type":"Point","coordinates":[-77.3026173875727,38.8191209729856]}},{"properties":{"SCHOOL_TYP":"ES","SCHID_3":33.0,"CITY":"Falls Church","CLUSTER_NU":1,"SCHID_4":3033.0,"ZIP":"22043","WEB_ADDRES":"www.fcps.edu/HaycockES","SCHOOL_NAM":"HAYCOCK","SCHOOL_NUM":3033,"PYRAMID":"McLean","NAME_FINAL":"Y","STATE":"VA","STREET_NAM":"HAYCOCK RD","id":"a67pbj7x6a4z","ADDRESS":"6616 Haycock RD","STREET_NUM":6616},"type":"Feature","geometry":{"type":"Point","coordinates":[-77.1803080060662,38.899974203956]}},{"properties":{"SCHOOL_TYP":"ES","SCHID_3":137.0,"CITY":null,"CLUSTER_NU":2,"SCHID_4":3137.0,"ZIP":null,"WEB_ADDRES":null,"SCHOOL_NAM":"STONEHURST","SCHOOL_NUM":3137,"PYRAMID":null,"NAME_FINAL":"N","STATE":"VA","STREET_NAM":null,"id":"a67pbjdul5f3","ADDRESS":null,"STREET_NUM":null},"type":"Feature","geometry":{"type":"Point","coordinates":[-77.2668302595436,38.8688138729368]}},{"properties":{"SCHOOL_TYP":"ES","SCHID_3":158.0,"CITY":null,"CLUSTER_NU":5,"SCHID_4":1158.0,"ZIP":null,"WEB_ADDRES":null,"SCHOOL_NAM":"HOOES ROAD","SCHOOL_NUM":1158,"PYRAMID":null,"NAME_FINAL":"N","STATE":"VA","STREET_NAM":null,"id":"a67pbjbc0gvl","ADDRESS":null,"STREET_NUM":null},"type":"Feature","geometry":{"type":"Point","coordinates":[-77.1970845568714,38.765092980383]}},{"properties":{"SCHOOL_TYP":"ES","SCHID_3":403.0,"CITY":null,"CLUSTER_NU":5,"SCHID_4":1403.0,"ZIP":null,"WEB_ADDRES":null,"SCHOOL_NAM":"LAUREL HILL","SCHOOL_NUM":1403,"PYRAMID":null,"NAME_FINAL":"N","STATE":"VA","STREET_NAM":null,"id":"a67pbjhh9ivn","ADDRESS":null,"STREET_NUM":null},"type":"Feature","geometry":{"type":"Point","coordinates":[-77.2372936327423,38.7212679006988]}},{"properties":{"SCHOOL_TYP":"AC","SCHID_3":610.0,"CITY":"Falls Church","CLUSTER_NU":2,"SCHID_4":610.0,"ZIP":"22042","WEB_ADDRES":null,"SCHOOL_NAM":"ADMINISTRATIVE CENTER","SCHOOL_NUM":610,"PYRAMID":null,"NAME_FINAL":"Y","STATE":"VA","STREET_NAM":"GATEHOUSE RD","id":"a67pbj28vznk","ADDRESS":"8115 GATEHOUSE RD","STREET_NUM":8115},"type":"Feature","geometry":{"type":"Point","coordinates":[-77.2242481072284,38.8678747857934]}},{"properties":{"SCHOOL_TYP":"SC","SCHID_3":204.0,"CITY":"Alexandria","CLUSTER_NU":4,"SCHID_4":1204.0,"ZIP":"22307","WEB_ADDRES":"www.fcps.edu/QuanderRoadSchool","SCHOOL_NAM":"QUANDER RD ED CTR","SCHOOL_NUM":1204,"PYRAMID":null,"NAME_FINAL":"Y","STATE":"VA","STREET_NAM":"QUANDER RD","id":"a67pbjb8u7ci","ADDRESS":"6400 QUANDER RD","STREET_NUM":6400},"type":"Feature","geometry":{"type":"Point","coordinates":[-77.0718353428864,38.7783207310828]}},{"properties":{"SCHOOL_TYP":"AC","SCHID_3":73.0,"CITY":"Falls Church","CLUSTER_NU":2,"SCHID_4":3073.0,"ZIP":"22043","WEB_ADDRES":"www.fcps.edu/PimmitAltHS","SCHOOL_NAM":"PIMMIT HILLS","SCHOOL_NUM":3073,"PYRAMID":null,"NAME_FINAL":"Y","STATE":"VA","STREET_NAM":"LISLE AV","id":"a67pbjia7glm","ADDRESS":"7510 LISLE AV","STREET_NUM":7510},"type":"Feature","geometry":{"type":"Point","coordinates":[-77.2045112089305,38.917292689283]}},{"properties":{"SCHOOL_TYP":"SC","SCHID_3":64.0,"CITY":"Vienna","CLUSTER_NU":2,"SCHID_4":3064.0,"ZIP":"22180","WEB_ADDRES":"www.fcps.edu/CedarLaneCenter","SCHOOL_NAM":"CEDAR LANE ED CTR","SCHOOL_NUM":3064,"PYRAMID":null,"NAME_FINAL":"Y","STATE":"VA","STREET_NAM":"CEDAR LA, SW","id":"a67pbj5hc5jl","ADDRESS":"101 CEDAR LA, SW","STREET_NUM":101},"type":"Feature","geometry":{"type":"Point","coordinates":[-77.2455018582717,38.8840326933638]}},{"properties":{"SCHOOL_TYP":"AE","SCHID_3":201.0,"CITY":"Alexandria","CLUSTER_NU":4,"SCHID_4":201.0,"ZIP":"22306","WEB_ADDRES":"www.fcps.edu/BryantAdultAHS","SCHOOL_NAM":"BRYANT","SCHOOL_NUM":201,"PYRAMID":null,"NAME_FINAL":"Y","STATE":"VA","STREET_NAM":"POPKIN LA","id":"a67pbjgyybc3","ADDRESS":"2709 POPKIN LA","STREET_NUM":2709},"type":"Feature","geometry":{"type":"Point","coordinates":[-77.079770253201,38.7626926354344]}},{"properties":{"SCHOOL_TYP":"ES","SCHID_3":225.0,"CITY":null,"CLUSTER_NU":4,"SCHID_4":1225.0,"ZIP":null,"WEB_ADDRES":null,"SCHOOL_NAM":"FAIRFIELD","SCHOOL_NUM":1225,"PYRAMID":null,"NAME_FINAL":"N","STATE":"VA","STREET_NAM":null,"id":"a67pbj7xxt2j","ADDRESS":null,"STREET_NUM":null},"type":"Feature","geometry":{"type":"Point","coordinates":[-77.105138704059,38.7355904574756]}},{"properties":{"SCHOOL_TYP":"ES","SCHID_3":285.0,"CITY":"Vienna","CLUSTER_NU":8,"SCHID_4":8285.0,"ZIP":null,"WEB_ADDRES":null,"SCHOOL_NAM":"COPPERMINE","SCHOOL_NUM":8285,"PYRAMID":null,"NAME_FINAL":"N","STATE":"VA","STREET_NAM":null,"id":"a67pbj8aq9du","ADDRESS":null,"STREET_NUM":null},"type":"Feature","geometry":{"type":"Point","coordinates":[-77.4172305724213,38.9499884340113]}},{"properties":{"SCHOOL_TYP":"AE","SCHID_3":432.0,"CITY":"Centreville","CLUSTER_NU":7,"SCHID_4":2432.0,"ZIP":"20121","WEB_ADDRES":"www.fcps.edu/MountainViewS","SCHOOL_NAM":"MOUNTAIN VIEW","SCHOOL_NUM":2432,"PYRAMID":null,"NAME_FINAL":"Y","STATE":"VA","STREET_NAM":"SPINDLE CT","id":"a67pbjesnefz","ADDRESS":"5775 SPINDLE CT","STREET_NUM":5775},"type":"Feature","geometry":{"type":"Point","coordinates":[-77.424183879002,38.8380906705017]}},{"properties":{"SCHOOL_TYP":"SC","SCHID_3":389.0,"CITY":"Burke","CLUSTER_NU":6,"SCHID_4":1389.0,"ZIP":"22015","WEB_ADDRES":"www.fcps.edu/BurkeCenter","SCHOOL_NAM":"BURKE ED CTR","SCHOOL_NUM":1389,"PYRAMID":null,"NAME_FINAL":"Y","STATE":"VA","STREET_NAM":"BURKE LAKE RD","id":"a67pbjgah6wq","ADDRESS":"9645 BURKE LAKE RD","STREET_NUM":9645},"type":"Feature","geometry":{"type":"Point","coordinates":[-77.2783391054987,38.7836293904438]}},{"properties":{"SCHOOL_TYP":"AC","SCHID_3":358.0,"CITY":"Lorton","CLUSTER_NU":4,"SCHID_4":1358.0,"ZIP":"22079","WEB_ADDRES":null,"SCHOOL_NAM":"LORTON","SCHOOL_NUM":1358,"PYRAMID":null,"NAME_FINAL":"Y","STATE":"VA","STREET_NAM":"LORTON RD","id":"a67pbjgwgrir","ADDRESS":"8101 LORTON RD","STREET_NUM":8101},"type":"Feature","geometry":{"type":"Point","coordinates":[-77.2268805390831,38.7032079147245]}},{"properties":{"SCHOOL_TYP":"AC","SCHID_3":195.0,"CITY":"Alexandria","CLUSTER_NU":5,"SCHID_4":1195.0,"ZIP":"22310","WEB_ADDRES":null,"SCHOOL_NAM":"WILTON WOODS","SCHOOL_NUM":1195,"PYRAMID":null,"NAME_FINAL":"Y","STATE":"VA","STREET_NAM":"FRANCONIA RD","id":"a67pbj8tawwq","ADDRESS":"3701 FRANCONIA RD","STREET_NUM":3701},"type":"Feature","geometry":{"type":"Point","coordinates":[-77.0969366888133,38.7903687269207]}},{"properties":{"SCHOOL_TYP":"AC","SCHID_3":196.0,"CITY":null,"CLUSTER_NU":4,"SCHID_4":1196.0,"ZIP":null,"WEB_ADDRES":null,"SCHOOL_NAM":"VIRGINIA HILLS CTR","SCHOOL_NUM":1196,"PYRAMID":null,"NAME_FINAL":"Y","STATE":"VA","STREET_NAM":"DIANA LA","id":"a67pbj5dmrbt","ADDRESS":"6520 DIANA LA","STREET_NUM":6520},"type":"Feature","geometry":{"type":"Point","coordinates":[-77.1013630572254,38.7736061720041]}},{"properties":{"SCHOOL_TYP":"AC","SCHID_3":72.0,"CITY":"Dunn Loring","CLUSTER_NU":2,"SCHID_4":72.0,"ZIP":"22027","WEB_ADDRES":null,"SCHOOL_NAM":"DUNN LORING","SCHOOL_NUM":72,"PYRAMID":null,"NAME_FINAL":"Y","STATE":"VA","STREET_NAM":"Gallows Rd","id":"a67pbj55hh39","ADDRESS":"2334 Gallows Rd","STREET_NUM":2334},"type":"Feature","geometry":{"type":"Point","coordinates":[-77.225663841836,38.8966452742273]}},{"properties":{"SCHOOL_TYP":"AC","SCHID_3":94.0,"CITY":"Falls Church","CLUSTER_NU":2,"SCHID_4":3094.0,"ZIP":"22042","WEB_ADDRES":null,"SCHOOL_NAM":"ALAN LEIS CTR","SCHOOL_NUM":3094,"PYRAMID":null,"NAME_FINAL":"Y","STATE":"VA","STREET_NAM":"CAMP ALGER AV","id":"a67pbj5bhqon","ADDRESS":"7423 CAMP ALGER AV","STREET_NUM":7423},"type":"Feature","geometry":{"type":"Point","coordinates":[-77.201834053305,38.8567060313961]}},{"properties":{"SCHOOL_TYP":"AC","SCHID_3":134.0,"CITY":"Annandale","CLUSTER_NU":3,"SCHID_4":2134.0,"ZIP":"22003","WEB_ADDRES":null,"SCHOOL_NAM":"NANCY SPRAGUE CTR","SCHOOL_NUM":2134,"PYRAMID":null,"NAME_FINAL":"Y","STATE":"VA","STREET_NAM":"HOLBORN AV","id":"a67pbj4j7fc2","ADDRESS":"4414 HOLBORN AV","STREET_NUM":4414},"type":"Feature","geometry":{"type":"Point","coordinates":[-77.2354340718655,38.8262712106343]}},{"properties":{"SCHOOL_TYP":"AC","SCHID_3":453.0,"CITY":"Annandale","CLUSTER_NU":3,"SCHID_4":2453.0,"ZIP":"22003","WEB_ADDRES":null,"SCHOOL_NAM":"LACEY CTR","SCHOOL_NUM":2453,"PYRAMID":null,"NAME_FINAL":"Y","STATE":"VA","STREET_NAM":"CREST DR","id":"a67pbjiaejry","ADDRESS":"3705 CREST DR","STREET_NUM":3705},"type":"Feature","geometry":{"type":"Point","coordinates":[-77.1959671475294,38.8432326202065]}},{"properties":{"SCHOOL_TYP":"AC","SCHID_3":92.0,"CITY":"Falls Church","CLUSTER_NU":2,"SCHID_4":3092.0,"ZIP":"22042","WEB_ADDRES":null,"SCHOOL_NAM":"DEVONSHIRE CTR","SCHOOL_NUM":3092,"PYRAMID":null,"NAME_FINAL":"Y","STATE":"VA","STREET_NAM":"GRAHAM RD","id":"a67pbj5pek9u","ADDRESS":"2831 GRAHAM RD","STREET_NUM":2831},"type":"Feature","geometry":{"type":"Point","coordinates":[-77.1898463550845,38.8771644059741]}},{"properties":{"SCHOOL_TYP":"HS","SCHID_3":80.0,"CITY":null,"CLUSTER_NU":2,"SCHID_4":3080.0,"ZIP":null,"WEB_ADDRES":null,"SCHOOL_NAM":"PINE RIDGE","SCHOOL_NUM":3080,"PYRAMID":null,"NAME_FINAL":"N","STATE":"VA","STREET_NAM":null,"id":"a67pbjdo4ruv","ADDRESS":null,"STREET_NUM":null},"type":"Feature","geometry":{"type":"Point","coordinates":[-77.2285030438424,38.8527521627629]}},{"properties":{"SCHOOL_TYP":"MS","SCHID_3":301.0,"CITY":null,"CLUSTER_NU":1,"SCHID_4":3301.0,"ZIP":null,"WEB_ADDRES":null,"SCHOOL_NAM":"RESTON","SCHOOL_NUM":3301,"PYRAMID":null,"NAME_FINAL":"N","STATE":"VA","STREET_NAM":null,"id":"a67pbj9wulk1","ADDRESS":null,"STREET_NUM":null},"type":"Feature","geometry":{"type":"Point","coordinates":[-77.3391599899507,38.9754081720258]}},{"properties":{"SCHOOL_TYP":"HS","SCHID_3":300.0,"CITY":null,"CLUSTER_NU":1,"SCHID_4":3300.0,"ZIP":null,"WEB_ADDRES":null,"SCHOOL_NAM":"RESTON","SCHOOL_NUM":3300,"PYRAMID":null,"NAME_FINAL":"N","STATE":"VA","STREET_NAM":null,"id":"a67pbjeh6agp","ADDRESS":null,"STREET_NUM":null},"type":"Feature","geometry":{"type":"Point","coordinates":[-77.3372062712816,38.974461710348]}}],"is_temporal":false,"author":{"url":"http://www.fairfaxcounty.gov/maps/metadata.htm","metadata":"","contact_name":"Fairfax County Virginia","contact_address":"Government Center \r\n12000 Government Center Parkway\r\nFairfax, VA 22035\r\n","source":"Fairfax County Virginia","contact_phone":"703-324-7329"},"source":"http://www.fairfaxcounty.gov/maps/metadata.htm","pagination":{"sort":null,"start":0,"total":211,"limit":1000000},"state":"complete","tags":"","published":"2014-08-14T23:55:12-04:00","id":207249}