{"type":"FeatureCollection","data_type":"Dataset","url_type":null,"permissions":[{"permissions":{"download":true,"view":true},"group_id":"everyone"}],"classification":null,"title":"GWC Member Distribution","count":62,"stream_id":207474,"contributor":{"url":"http://geocommons.com/users/39083","name":"gwcintern"},"data_attributes":null,"calculation_params":null,"icon_link":null,"link":"http://geocommons.com/overlays/207474.json","extent":[-91.1522,37.4478,-87.6386,42.3636],"geometry_types":["point"],"unique_name":null,"name":"GWC Member Distribution","feature_count":62,"description":"This is for a heat map to visualize goodWORKSconnect membership.","next_feature":null,"is_raster":false,"short_classification":"Y","stats":{"value":{"max":204,"mean":17.6290322580645,"variance":1857.02406134321,"stdev":43.0932020316802,"min":1,"median":3}},"features":[{"properties":{"zip":"62521","geo_score":0.714,"value":138,"id":"a62iaakqj67b","geo_precision":"zip"},"type":"Feature","geometry":{"type":"Point","coordinates":[-88.855908,39.866703]}},{"properties":{"zip":"61821","geo_score":0.714,"value":204,"id":"a62iaanm2c85","geo_precision":"zip"},"type":"Feature","geometry":{"type":"Point","coordinates":[-88.312553,40.113087]}},{"properties":{"zip":"61953","geo_score":0.714,"value":6,"id":"a62iaapr85lc","geo_precision":"zip"},"type":"Feature","geometry":{"type":"Point","coordinates":[-88.21699,39.825865]}},{"properties":{"zip":"61944","geo_score":0.714,"value":9,"id":"a62iaaqhb0mr","geo_precision":"zip"},"type":"Feature","geometry":{"type":"Point","coordinates":[-87.638637,39.533924]}},{"properties":{"zip":"61951","geo_score":0.714,"value":17,"id":"a62iaappqgk6","geo_precision":"zip"},"type":"Feature","geometry":{"type":"Point","coordinates":[-88.668398,39.570591]}},{"properties":{"zip":"61856","geo_score":0.714,"value":9,"id":"a62iaah291r3","geo_precision":"zip"},"type":"Feature","geometry":{"type":"Point","coordinates":[-88.560064,40.106145]}},{"properties":{"zip":"61832","geo_score":0.714,"value":19,"id":"a62iaaknzy2g","geo_precision":"zip"},"type":"Feature","geometry":{"type":"Point","coordinates":[-87.653355,40.123648]}},{"properties":{"zip":"62568","geo_score":0.714,"value":7,"id":"a62iaapi6qox","geo_precision":"zip"},"type":"Feature","geometry":{"type":"Point","coordinates":[-89.233419,39.596988]}},{"properties":{"zip":"62049","geo_score":0.714,"value":7,"id":"a62iaalawy20","geo_precision":"zip"},"type":"Feature","geometry":{"type":"Point","coordinates":[-89.463698,39.164214]}},{"properties":{"zip":"62704","geo_score":0.714,"value":186,"id":"a62iaagofbwb","geo_precision":"zip"},"type":"Feature","geometry":{"type":"Point","coordinates":[-89.679267,39.776995]}},{"properties":{"zip":"62441","geo_score":0.714,"value":13,"id":"a62iaaanpxzo","geo_precision":"zip"},"type":"Feature","geometry":{"type":"Point","coordinates":[-87.681416,39.483924]}},{"properties":{"zip":"61938","geo_score":0.714,"value":145,"id":"a62iaam47o93","geo_precision":"zip"},"type":"Feature","geometry":{"type":"Point","coordinates":[-88.436716,39.410313]}},{"properties":{"zip":"62468","geo_score":0.714,"value":2,"id":"a62iaaea4cjp","geo_precision":"zip"},"type":"Feature","geometry":{"type":"Point","coordinates":[-88.242819,39.324204]}},{"properties":{"zip":"62401","geo_score":0.714,"value":61,"id":"a62iaanmqhhf","geo_precision":"zip"},"type":"Feature","geometry":{"type":"Point","coordinates":[-88.451992,39.189762]}},{"properties":{"zip":"62471","geo_score":0.714,"value":11,"id":"a62iaagu6p32","geo_precision":"zip"},"type":"Feature","geometry":{"type":"Point","coordinates":[-89.185071,39.013656]}},{"properties":{"zip":"62565","geo_score":0.714,"value":4,"id":"a62iaabcnqvp","geo_precision":"zip"},"type":"Feature","geometry":{"type":"Point","coordinates":[-88.715343,39.412261]}},{"properties":{"zip":"60453","geo_score":0.714,"value":98,"id":"a62iaafuidgn","geo_precision":"zip"},"type":"Feature","geometry":{"type":"Point","coordinates":[-87.68732,41.811929]}},{"properties":{"zip":"61701","geo_score":0.714,"value":26,"id":"a62iaaj6vf32","geo_precision":"zip"},"type":"Feature","geometry":{"type":"Point","coordinates":[-89.060356,40.53337]}},{"properties":{"zip":"62325","geo_score":0.714,"value":23,"id":"a62iaaj2zgj9","geo_precision":"zip"},"type":"Feature","geometry":{"type":"Point","coordinates":[-91.152206,40.012663]}},{"properties":{"zip":"62025","geo_score":0.714,"value":12,"id":"a62iaafyr85k","geo_precision":"zip"},"type":"Feature","geometry":{"type":"Point","coordinates":[-90.038716,38.834492]}},{"properties":{"zip":"62881","geo_score":0.714,"value":7,"id":"a62iaacxpsg9","geo_precision":"zip"},"type":"Feature","geometry":{"type":"Point","coordinates":[-88.978394,38.664771]}},{"properties":{"zip":"62966","geo_score":0.714,"value":6,"id":"a62iaaf5wfy5","geo_precision":"zip"},"type":"Feature","geometry":{"type":"Point","coordinates":[-89.321199,37.751995]}},{"properties":{"zip":"61261","geo_score":0.714,"value":5,"id":"a62iaakk9btm","geo_precision":"zip"},"type":"Feature","geometry":{"type":"Point","coordinates":[-89.910699,41.73562]}},{"properties":{"zip":"60189","geo_score":0.714,"value":6,"id":"a62iaaq4p0it","geo_precision":"zip"},"type":"Feature","geometry":{"type":"Point","coordinates":[-88.088716,41.839679]}},{"properties":{"zip":"61614","geo_score":0.714,"value":5,"id":"a62iaan4kdgl","geo_precision":"zip"},"type":"Feature","geometry":{"type":"Point","coordinates":[-89.660378,40.718093]}},{"properties":{"zip":"61727","geo_score":0.714,"value":3,"id":"a62iaamhl9u9","geo_precision":"zip"},"type":"Feature","geometry":{"type":"Point","coordinates":[-88.955359,40.088648]}},{"properties":{"zip":"60933","geo_score":0.714,"value":3,"id":"a62iaacnt1e4","geo_precision":"zip"},"type":"Feature","geometry":{"type":"Point","coordinates":[-88.271245,40.46483]}},{"properties":{"zip":"62859","geo_score":0.714,"value":3,"id":"a62iaahxhzil","geo_precision":"zip"},"type":"Feature","geometry":{"type":"Point","coordinates":[-88.453105,38.120048]}},{"properties":{"zip":"60098","geo_score":0.714,"value":4,"id":"a62iaagokvcf","geo_precision":"zip"},"type":"Feature","geometry":{"type":"Point","coordinates":[-88.507317,42.363632]}},{"properties":{"zip":"62226","geo_score":0.714,"value":6,"id":"a62iaanxxyfk","geo_precision":"zip"},"type":"Feature","geometry":{"type":"Point","coordinates":[-89.998685,38.509999]}},{"properties":{"zip":"62675","geo_score":0.714,"value":3,"id":"a62iaansaxm0","geo_precision":"zip"},"type":"Feature","geometry":{"type":"Point","coordinates":[-89.79483,39.985327]}},{"properties":{"zip":"62454","geo_score":0.714,"value":2,"id":"a62iaanzd1rs","geo_precision":"zip"},"type":"Feature","geometry":{"type":"Point","coordinates":[-87.68447,39.063375]}},{"properties":{"zip":"61238","geo_score":0.714,"value":3,"id":"a62iaalkrbka","geo_precision":"zip"},"type":"Feature","geometry":{"type":"Point","coordinates":[-90.146228,41.269203]}},{"properties":{"zip":"60915","geo_score":0.714,"value":2,"id":"a62iaaq9t0qg","geo_precision":"zip"},"type":"Feature","geometry":{"type":"Point","coordinates":[-87.842583,41.207762]}},{"properties":{"zip":"61448","geo_score":0.714,"value":2,"id":"a62iaal3z657","geo_precision":"zip"},"type":"Feature","geometry":{"type":"Point","coordinates":[-90.168778,40.972611]}},{"properties":{"zip":"60030","geo_score":0.714,"value":3,"id":"a62iaand7gdd","geo_precision":"zip"},"type":"Feature","geometry":{"type":"Point","coordinates":[-87.998133,42.3428]}},{"properties":{"zip":"61350","geo_score":0.714,"value":1,"id":"a62iaaq0twqx","geo_precision":"zip"},"type":"Feature","geometry":{"type":"Point","coordinates":[-88.83341,41.299201]}},{"properties":{"zip":"62441","geo_score":0.714,"value":2,"id":"a62iaadl0p0m","geo_precision":"zip"},"type":"Feature","geometry":{"type":"Point","coordinates":[-87.681416,39.483924]}},{"properties":{"zip":"62650","geo_score":0.714,"value":2,"id":"a62iaampb3p2","geo_precision":"zip"},"type":"Feature","geometry":{"type":"Point","coordinates":[-90.228176,39.708658]}},{"properties":{"zip":"61264","geo_score":0.714,"value":2,"id":"a62iaacezbe6","geo_precision":"zip"},"type":"Feature","geometry":{"type":"Point","coordinates":[-90.570691,41.410589]}},{"properties":{"zip":"61356","geo_score":0.714,"value":1,"id":"a62iaagn8v1h","geo_precision":"zip"},"type":"Feature","geometry":{"type":"Point","coordinates":[-89.297032,41.365035]}},{"properties":{"zip":"62219","geo_score":0.714,"value":1,"id":"a62iaaf6gmhv","geo_precision":"zip"},"type":"Feature","geometry":{"type":"Point","coordinates":[-89.427944,38.601825]}},{"properties":{"zip":"62812","geo_score":0.714,"value":1,"id":"a62iaacli91f","geo_precision":"zip"},"type":"Feature","geometry":{"type":"Point","coordinates":[-88.935069,37.993939]}},{"properties":{"zip":"62016","geo_score":0.714,"value":1,"id":"a62iaai7sk7k","geo_precision":"zip"},"type":"Feature","geometry":{"type":"Point","coordinates":[-90.48512,39.263658]}},{"properties":{"zip":"62321","geo_score":0.714,"value":1,"id":"a62iaacmt65b","geo_precision":"zip"},"type":"Feature","geometry":{"type":"Point","coordinates":[-91.000694,40.466432]}},{"properties":{"zip":"61437","geo_score":0.714,"value":1,"id":"a62iaajfjhq7","geo_precision":"zip"},"type":"Feature","geometry":{"type":"Point","coordinates":[-90.985293,40.852582]}},{"properties":{"zip":"62864","geo_score":0.714,"value":1,"id":"a62iaadvxqcz","geo_precision":"zip"},"type":"Feature","geometry":{"type":"Point","coordinates":[-88.867007,38.327827]}},{"properties":{"zip":"60183","geo_score":0.714,"value":2,"id":"a62iaajn8vx6","geo_precision":"zip"},"type":"Feature","geometry":{"type":"Point","coordinates":[-88.477859,41.948916]}},{"properties":{"zip":"62417","geo_score":0.714,"value":1,"id":"a62iaajufquc","geo_precision":"zip"},"type":"Feature","geometry":{"type":"Point","coordinates":[-87.778918,38.760603]}},{"properties":{"zip":"61455","geo_score":0.714,"value":1,"id":"a62iaajbsouq","geo_precision":"zip"},"type":"Feature","geometry":{"type":"Point","coordinates":[-90.660675,40.459904]}},{"properties":{"zip":"62298","geo_score":0.714,"value":1,"id":"a62iaaqaabsu","geo_precision":"zip"},"type":"Feature","geometry":{"type":"Point","coordinates":[-90.19567,38.290609]}},{"properties":{"zip":"62363","geo_score":0.714,"value":1,"id":"a62iaakvzxrr","geo_precision":"zip"},"type":"Feature","geometry":{"type":"Point","coordinates":[-90.724294,39.561437]}},{"properties":{"zip":"62450","geo_score":0.714,"value":1,"id":"a62iaameypb9","geo_precision":"zip"},"type":"Feature","geometry":{"type":"Point","coordinates":[-87.983646,38.825046]}},{"properties":{"zip":"61568","geo_score":0.714,"value":1,"id":"a62iaal75nt6","geo_precision":"zip"},"type":"Feature","geometry":{"type":"Point","coordinates":[-89.538156,40.476707]}},{"properties":{"zip":"62952","geo_score":0.714,"value":1,"id":"a62iaaau6ra4","geo_precision":"zip"},"type":"Feature","geometry":{"type":"Point","coordinates":[-89.393979,37.447827]}},{"properties":{"zip":"60431","geo_score":0.714,"value":2,"id":"a62iaabe7zgl","geo_precision":"zip"},"type":"Feature","geometry":{"type":"Point","coordinates":[-88.081724,41.491698]}},{"properties":{"zip":"61561","geo_score":0.714,"value":1,"id":"a62iaaaymcah","geo_precision":"zip"},"type":"Feature","geometry":{"type":"Point","coordinates":[-89.238985,40.793501]}},{"properties":{"zip":"60928","geo_score":0.714,"value":1,"id":"a62iaaf1moki","geo_precision":"zip"},"type":"Feature","geometry":{"type":"Point","coordinates":[-87.95062,40.66202]}},{"properties":{"zip":"62959","geo_score":0.714,"value":2,"id":"a62iaamgd6pi","geo_precision":"zip"},"type":"Feature","geometry":{"type":"Point","coordinates":[-88.924792,37.789494]}},{"properties":{"zip":"62448","geo_score":0.714,"value":1,"id":"a62iaap3cxa9","geo_precision":"zip"},"type":"Feature","geometry":{"type":"Point","coordinates":[-88.272821,38.83338]}},{"properties":{"zip":"61112","geo_score":0.714,"value":1,"id":"a62iaahs0n3b","geo_precision":"zip"},"type":"Feature","geometry":{"type":"Point","coordinates":[-88.97517,42.246231]}},{"properties":{"zip":"62858","geo_score":0.714,"value":2,"id":"a62iaaj8ob58","geo_precision":"zip"},"type":"Feature","geometry":{"type":"Point","coordinates":[-88.564216,38.805324]}}],"is_temporal":false,"author":{"url":"","metadata":"","contact_name":"","contact_address":"","source":"","contact_phone":""},"source":"","pagination":{"sort":null,"start":0,"total":62,"limit":1000000},"state":"complete","tags":"","published":"2014-08-15T00:24:05-04:00","id":207474}