{"type":"FeatureCollection","data_type":"Dataset","url_type":null,"permissions":[{"permissions":{"download":true,"view":true},"group_id":"everyone"}],"classification":null,"title":"February 21-23 2012 - CO &amp; WY High Wind Speed Gusts","count":90,"stream_id":207978,"contributor":{"url":"http://geocommons.com/users/37944","name":"ExaminerWeather"},"data_attributes":null,"calculation_params":null,"icon_link":null,"link":"http://geocommons.com/overlays/207978.json","extent":[-107.23,38.54,-103.17,41.95],"geometry_types":["point"],"unique_name":null,"name":"February 21-23 2012 - CO & WY High Wind Speed Gusts","feature_count":90,"description":"High wind reports in Colorado and Wyoming for February 21-23, 2012. Updated 2/23/12 at 7:30am. More details: http://denver.exweather.com","next_feature":null,"is_raster":false,"short_classification":"Y","stats":{"lon":{"max":-103.17,"mean":-105.321111111111,"variance":0.511459425717852,"stdev":0.715163915279464,"min":-107.23,"median":-105.25},"wind speed":{"max":88,"mean":67.0111111111111,"variance":92.2807740324594,"stdev":9.60628825470376,"min":38,"median":67},"lat":{"max":41.95,"mean":40.4763333333334,"variance":0.783016741573034,"stdev":0.884882332049315,"min":38.54,"median":40.22}},"features":[{"properties":{"lon":-104.05,"event type":"NON-TSTM WND GST","county":"Kimball","report time":"Wed Feb 22 2012 18:31:00 GMT-0700 (Mountain Standard Time)","wind speed":71,"id":"a62fds71ws75","lat":41.18,"source":"dept of highways","state":"NE","location":"1 E Pine Bluffs"},"type":"Feature","geometry":{"type":"Point","coordinates":[-104.05,41.18]}},{"properties":{"lon":-105.23,"event type":"NON-TSTM WND GST","county":"Jefferson","report time":"Tue Feb 21 2012 22:18:00 GMT-0700 (Mountain Standard Time)","wind speed":73,"id":"a62fds7845ry","lat":39.75,"source":"mesonet","state":"CO","location":"1 Nw Golden"},"type":"Feature","geometry":{"type":"Point","coordinates":[-105.23,39.75]}},{"properties":{"lon":-105.6,"event type":"NON-TSTM WND GST","county":"Clear Creek","report time":"Wed Feb 22 2012 11:29:00 GMT-0700 (Mountain Standard Time)","wind speed":72,"id":"a62fds518cb3","lat":39.76,"source":"mesonet","state":"CO","location":"1 S Dumont"},"type":"Feature","geometry":{"type":"Point","coordinates":[-105.6,39.76]}},{"properties":{"lon":-105.08,"event type":"NON-TSTM WND GST","county":"Broomfield","report time":"Wed Feb 22 2012 01:55:00 GMT-0700 (Mountain Standard Time)","wind speed":68,"id":"a62fds726yfl","lat":39.93,"source":"asos","state":"CO","location":"1 Sw Broomfield"},"type":"Feature","geometry":{"type":"Point","coordinates":[-105.08,39.93]}},{"properties":{"lon":-104.88,"event type":"NON-TSTM WND GST","county":"El Paso","report time":"Wed Feb 22 2012 05:30:00 GMT-0700 (Mountain Standard Time)","wind speed":63,"id":"a62fdrv02nfw","lat":38.98,"source":"awos","state":"CO","location":"1 Wnw Air Force Academy"},"type":"Feature","geometry":{"type":"Point","coordinates":[-104.88,38.98]}},{"properties":{"lon":-103.96,"event type":"NON-TSTM WND GST","county":"Kimball","report time":"Wed Feb 22 2012 18:43:00 GMT-0700 (Mountain Standard Time)","wind speed":67,"id":"a62fdsatp9gv","lat":41.1,"source":"dept of highways","state":"NE","location":"10 Ssw Bushnell"},"type":"Feature","geometry":{"type":"Point","coordinates":[-103.96,41.1]}},{"properties":{"lon":-104.93,"event type":"NON-TSTM WND GST","county":"Laramie","report time":"Wed Feb 22 2012 12:30:00 GMT-0700 (Mountain Standard Time)","wind speed":58,"id":"a62fds6jdzfq","lat":41.04,"source":"dept of highways","state":"WY","location":"10 Sw Cheyenne"},"type":"Feature","geometry":{"type":"Point","coordinates":[-104.93,41.04]}},{"properties":{"lon":-104.93,"event type":"NON-TSTM WND GST","county":"Laramie","report time":"Wed Feb 22 2012 07:16:00 GMT-0700 (Mountain Standard Time)","wind speed":60,"id":"a62fds0tc4qj","lat":41.04,"source":"dept of highways","state":"WY","location":"10 Sw Cheyenne"},"type":"Feature","geometry":{"type":"Point","coordinates":[-104.93,41.04]}},{"properties":{"lon":-104.93,"event type":"NON-TSTM WND GST","county":"Laramie","report time":"Tue Feb 21 2012 23:11:00 GMT-0700 (Mountain Standard Time)","wind speed":61,"id":"a62fdsasg4g5","lat":41.04,"source":"dept of highways","state":"WY","location":"10 Sw Cheyenne"},"type":"Feature","geometry":{"type":"Point","coordinates":[-104.93,41.04]}},{"properties":{"lon":-104.93,"event type":"NON-TSTM WND GST","county":"Laramie","report time":"Wed Feb 22 2012 00:31:00 GMT-0700 (Mountain Standard Time)","wind speed":67,"id":"a62fds5vawbw","lat":41.04,"source":"dept of highways","state":"WY","location":"10 Sw Cheyenne"},"type":"Feature","geometry":{"type":"Point","coordinates":[-104.93,41.04]}},{"properties":{"lon":-106.64,"event type":"NON-TSTM WND GST","county":"Carbon","report time":"Wed Feb 22 2012 18:00:00 GMT-0700 (Mountain Standard Time)","wind speed":58,"id":"a62fdsahzqw5","lat":41.72,"source":"dept of highways","state":"WY","location":"11 Ssw Hanna"},"type":"Feature","geometry":{"type":"Point","coordinates":[-106.64,41.72]}},{"properties":{"lon":-106.58,"event type":"NON-TSTM WND GST","county":"Carbon","report time":"Wed Feb 22 2012 08:11:00 GMT-0700 (Mountain Standard Time)","wind speed":76,"id":"a62fds9s6ze1","lat":41.14,"source":"dept of highways","state":"WY","location":"12 Ese Encampment"},"type":"Feature","geometry":{"type":"Point","coordinates":[-106.58,41.14]}},{"properties":{"lon":-105.25,"event type":"NON-TSTM WND GST","county":"Jefferson","report time":"Tue Feb 21 2012 20:48:00 GMT-0700 (Mountain Standard Time)","wind speed":66,"id":"a62fdrx3gp5d","lat":39.85,"source":"mesonet","state":"CO","location":"12 S Boulder"},"type":"Feature","geometry":{"type":"Point","coordinates":[-105.25,39.85]}},{"properties":{"lon":-105.09,"event type":"NON-TSTM WND GST","county":"Laramie","report time":"Wed Feb 22 2012 07:05:00 GMT-0700 (Mountain Standard Time)","wind speed":74,"id":"a62fds668uhv","lat":41.25,"source":"trained spotter","state":"WY","location":"12 Sse Horse Creek"},"type":"Feature","geometry":{"type":"Point","coordinates":[-105.09,41.25]}},{"properties":{"lon":-105.41,"event type":"NON-TSTM WND GST","county":"Albany","report time":"Wed Feb 22 2012 11:22:00 GMT-0700 (Mountain Standard Time)","wind speed":61,"id":"a62fds3fuuhf","lat":41.18,"source":"dept of highways","state":"WY","location":"13 Se Laramie"},"type":"Feature","geometry":{"type":"Point","coordinates":[-105.41,41.18]}},{"properties":{"lon":-105.92,"event type":"NON-TSTM WND GST","county":"Albany","report time":"Wed Feb 22 2012 12:56:00 GMT-0700 (Mountain Standard Time)","wind speed":75,"id":"a62fdsb5nxjj","lat":41.44,"source":"dept of highways","state":"WY","location":"14 Ne Centennial"},"type":"Feature","geometry":{"type":"Point","coordinates":[-105.92,41.44]}},{"properties":{"lon":-106.6,"event type":"NON-TSTM WND GST","county":"Carbon","report time":"Wed Feb 22 2012 07:45:00 GMT-0700 (Mountain Standard Time)","wind speed":63,"id":"a62fdsa5a0ru","lat":41.35,"source":"dept of highways","state":"WY","location":"14 Ne Encampment"},"type":"Feature","geometry":{"type":"Point","coordinates":[-106.6,41.35]}},{"properties":{"lon":-105.04,"event type":"NON-TSTM WND GST","county":"Laramie","report time":"Wed Feb 22 2012 16:55:00 GMT-0700 (Mountain Standard Time)","wind speed":67,"id":"a62fds3nt2im","lat":41.07,"source":"dept of highways","state":"WY","location":"14 Wsw Cheyenne"},"type":"Feature","geometry":{"type":"Point","coordinates":[-105.04,41.07]}},{"properties":{"lon":-105.04,"event type":"NON-TSTM WND GST","county":"Laramie","report time":"Tue Feb 21 2012 21:55:00 GMT-0700 (Mountain Standard Time)","wind speed":74,"id":"a62fdry7nnrd","lat":41.07,"source":"mesonet","state":"WY","location":"14 Wsw Cheyenne"},"type":"Feature","geometry":{"type":"Point","coordinates":[-105.04,41.07]}},{"properties":{"lon":-106.0,"event type":"NON-TSTM WND GST","county":"Albany","report time":"Tue Feb 21 2012 23:16:00 GMT-0700 (Mountain Standard Time)","wind speed":70,"id":"a62fds803u50","lat":41.5,"source":"dept of highways","state":"WY","location":"15 Nne Centennial"},"type":"Feature","geometry":{"type":"Point","coordinates":[-106.0,41.5]}},{"properties":{"lon":-104.87,"event type":"NON-TSTM WND GST","county":"Laramie","report time":"Tue Feb 21 2012 23:06:00 GMT-0700 (Mountain Standard Time)","wind speed":61,"id":"a62fds20tz75","lat":41.41,"source":"dept of highways","state":"WY","location":"16 E Horse Creek"},"type":"Feature","geometry":{"type":"Point","coordinates":[-104.87,41.41]}},{"properties":{"lon":-105.11,"event type":"NON-TSTM WND GST","county":"Laramie","report time":"Tue Feb 21 2012 21:43:00 GMT-0700 (Mountain Standard Time)","wind speed":74,"id":"a62fds4uod5n","lat":41.24,"source":"trained spotter","state":"WY","location":"18 Wnw Cheyenne"},"type":"Feature","geometry":{"type":"Point","coordinates":[-105.11,41.24]}},{"properties":{"lon":-105.32,"event type":"NON-TSTM WND GST","county":"Albany","report time":"Tue Feb 21 2012 19:00:00 GMT-0700 (Mountain Standard Time)","wind speed":74,"id":"a62fds8zm898","lat":41.12,"source":"mesonet","state":"WY","location":"19 Se Laramie"},"type":"Feature","geometry":{"type":"Point","coordinates":[-105.32,41.12]}},{"properties":{"lon":-106.17,"event type":"NON-TSTM WND GST","county":"Carbon","report time":"Wed Feb 22 2012 07:45:00 GMT-0700 (Mountain Standard Time)","wind speed":69,"id":"a62fds2ttw25","lat":41.58,"source":"dept of highways","state":"WY","location":"2 Ese Arlington"},"type":"Feature","geometry":{"type":"Point","coordinates":[-106.17,41.58]}},{"properties":{"lon":-105.22,"event type":"NON-TSTM WND GST","county":"Boulder","report time":"Wed Feb 22 2012 08:19:00 GMT-0700 (Mountain Standard Time)","wind speed":58,"id":"a62fds6280zr","lat":40.05,"source":"awos","state":"CO","location":"2 Ne Boulder"},"type":"Feature","geometry":{"type":"Point","coordinates":[-105.22,40.05]}},{"properties":{"lon":-106.05,"event type":"NON-TSTM WND GST","county":"Chaffee","report time":"Wed Feb 22 2012 10:55:00 GMT-0700 (Mountain Standard Time)","wind speed":58,"id":"a62fds1uy9uj","lat":38.54,"source":"awos","state":"CO","location":"2 Ne Poncha Springs"},"type":"Feature","geometry":{"type":"Point","coordinates":[-106.05,38.54]}},{"properties":{"lon":-105.48,"event type":"NON-TSTM WND GST","county":"Gilpin","report time":"Tue Feb 21 2012 19:56:00 GMT-0700 (Mountain Standard Time)","wind speed":73,"id":"a62fdrv3e2es","lat":39.83,"source":"mesonet","state":"CO","location":"2 Nne Black Hawk"},"type":"Feature","geometry":{"type":"Point","coordinates":[-105.48,39.83]}},{"properties":{"lon":-105.24,"event type":"NON-TSTM WND GST","county":"Jefferson","report time":"Wed Feb 22 2012 15:45:00 GMT-0700 (Mountain Standard Time)","wind speed":81,"id":"a62fds35wl4l","lat":39.91,"source":"mesonet","state":"CO","location":"2 Nw Rocky Flats"},"type":"Feature","geometry":{"type":"Point","coordinates":[-105.24,39.91]}},{"properties":{"lon":-103.17,"event type":"NON-TSTM WND GST","county":"Logan","report time":"Wed Feb 22 2012 17:59:00 GMT-0700 (Mountain Standard Time)","wind speed":58,"id":"a62fdrxq2g66","lat":40.62,"source":"mesonet","state":"CO","location":"2 Se Sterling"},"type":"Feature","geometry":{"type":"Point","coordinates":[-103.17,40.62]}},{"properties":{"lon":-104.85,"event type":"NON-TSTM WND GST","county":"El Paso","report time":"Wed Feb 22 2012 06:13:00 GMT-0700 (Mountain Standard Time)","wind speed":63,"id":"a62fds39zp6h","lat":38.96,"source":"awos","state":"CO","location":"2 Sse Air Force Academy"},"type":"Feature","geometry":{"type":"Point","coordinates":[-104.85,38.96]}},{"properties":{"lon":-106.12,"event type":"NON-TSTM WND GST","county":"Chaffee","report time":"Wed Feb 22 2012 11:52:00 GMT-0700 (Mountain Standard Time)","wind speed":59,"id":"a62fds06cs8u","lat":38.81,"source":"awos","state":"CO","location":"2 Sse Buena Vista"},"type":"Feature","geometry":{"type":"Point","coordinates":[-106.12,38.81]}},{"properties":{"lon":-105.27,"event type":"NON-TSTM WND GST","county":"Boulder","report time":"Wed Feb 22 2012 07:05:00 GMT-0700 (Mountain Standard Time)","wind speed":78,"id":"a62fds3rjo4o","lat":40.0,"source":"mesonet","state":"CO","location":"2 Ssw Boulder"},"type":"Feature","geometry":{"type":"Point","coordinates":[-105.27,40.0]}},{"properties":{"lon":-105.24,"event type":"NON-TSTM WND GST","county":"Jefferson","report time":"Wed Feb 22 2012","wind speed":85,"id":"a62fdrzvttwj","lat":39.87,"source":"mesonet","state":"CO","location":"2 Sw Rocky Flats"},"type":"Feature","geometry":{"type":"Point","coordinates":[-105.24,39.87]}},{"properties":{"lon":-105.15,"event type":"NON-TSTM WND GST","county":"Boulder","report time":"Wed Feb 22 2012 08:57:00 GMT-0700 (Mountain Standard Time)","wind speed":58,"id":"a62fds743cez","lat":40.17,"source":"awos","state":"CO","location":"2 W Longmont"},"type":"Feature","geometry":{"type":"Point","coordinates":[-105.15,40.17]}},{"properties":{"lon":-105.16,"event type":"NON-TSTM WND GST","county":"Laramie","report time":"Tue Feb 21 2012 21:15:00 GMT-0700 (Mountain Standard Time)","wind speed":75,"id":"a62fdsa4i6gp","lat":41.03,"source":"mesonet","state":"WY","location":"21 Wsw Cheyenne"},"type":"Feature","geometry":{"type":"Point","coordinates":[-105.16,41.03]}},{"properties":{"lon":-105.44,"event type":"NON-TSTM WND GST","county":"Albany","report time":"Wed Feb 22 2012 11:44:00 GMT-0700 (Mountain Standard Time)","wind speed":63,"id":"a62fdrvkyxsb","lat":41.9,"source":"dept of highways","state":"WY","location":"27 Wsw Wheatland"},"type":"Feature","geometry":{"type":"Point","coordinates":[-105.44,41.9]}},{"properties":{"lon":-104.81,"event type":"NON-TSTM WND GST","county":"El Paso","report time":"Wed Feb 22 2012 05:33:00 GMT-0700 (Mountain Standard Time)","wind speed":60,"id":"a62fdsbb1abs","lat":38.97,"source":"asos","state":"CO","location":"3 Ese Air Force Academy"},"type":"Feature","geometry":{"type":"Point","coordinates":[-104.81,38.97]}},{"properties":{"lon":-106.36,"event type":"NON-TSTM WND GST","county":"Carbon","report time":"Wed Feb 22 2012 13:25:00 GMT-0700 (Mountain Standard Time)","wind speed":61,"id":"a62fds4eno9x","lat":41.67,"source":"dept of highways","state":"WY","location":"3 Ese Elk Mountain"},"type":"Feature","geometry":{"type":"Point","coordinates":[-106.36,41.67]}},{"properties":{"lon":-105.21,"event type":"NON-TSTM WND GST","county":"Boulder","report time":"Wed Feb 22 2012 08:19:00 GMT-0700 (Mountain Standard Time)","wind speed":58,"id":"a62fds9h4qk8","lat":40.06,"source":"awos","state":"CO","location":"3 Ne Boulder"},"type":"Feature","geometry":{"type":"Point","coordinates":[-105.21,40.06]}},{"properties":{"lon":-104.88,"event type":"NON-TSTM WND GST","county":"El Paso","report time":"Wed Feb 22 2012 06:13:00 GMT-0700 (Mountain Standard Time)","wind speed":61,"id":"a62fdrxiyyci","lat":39.03,"source":"awos","state":"CO","location":"3 Nnw Air Force Academy"},"type":"Feature","geometry":{"type":"Point","coordinates":[-104.88,39.03]}},{"properties":{"lon":-106.25,"event type":"NON-TSTM WND GST","county":"Carbon","report time":"Wed Feb 22 2012 15:05:00 GMT-0700 (Mountain Standard Time)","wind speed":67,"id":"a62fdrx04rxm","lat":41.62,"source":"mesonet","state":"WY","location":"3 Nw Arlington"},"type":"Feature","geometry":{"type":"Point","coordinates":[-106.25,41.62]}},{"properties":{"lon":-106.45,"event type":"NON-TSTM WND GST","county":"Carbon","report time":"Wed Feb 22 2012 02:01:00 GMT-0700 (Mountain Standard Time)","wind speed":60,"id":"a62fdsb96o66","lat":41.72,"source":"awos","state":"WY","location":"3 Nw Elk Mountain"},"type":"Feature","geometry":{"type":"Point","coordinates":[-106.45,41.72]}},{"properties":{"lon":-105.29,"event type":"NON-TSTM WND GST","county":"Boulder","report time":"Wed Feb 22 2012 19:00:00 GMT-0700 (Mountain Standard Time)","wind speed":88,"id":"a62fds5pqlgu","lat":40.0,"source":"mesonet","state":"CO","location":"3 Sw Boulder"},"type":"Feature","geometry":{"type":"Point","coordinates":[-105.29,40.0]}},{"properties":{"lon":-105.24,"event type":"NON-TSTM WND GST","county":"Jefferson","report time":"Wed Feb 22 2012 13:25:00 GMT-0700 (Mountain Standard Time)","wind speed":80,"id":"a62fds202lct","lat":39.87,"source":"broadcast media","state":"CO","location":"3 Sw Rocky Flats"},"type":"Feature","geometry":{"type":"Point","coordinates":[-105.24,39.87]}},{"properties":{"lon":-103.84,"event type":"NON-TSTM WND GST","county":"Weld","report time":"Wed Feb 22 2012 18:45:00 GMT-0700 (Mountain Standard Time)","wind speed":60,"id":"a62fdrwu9i9y","lat":40.63,"source":"mesonet","state":"CO","location":"3 W New Raymer"},"type":"Feature","geometry":{"type":"Point","coordinates":[-103.84,40.63]}},{"properties":{"lon":-105.45,"event type":"NON-TSTM WND GST","county":"Boulder","report time":"Wed Feb 22 2012 01:48:00 GMT-0700 (Mountain Standard Time)","wind speed":63,"id":"a62fds8qgx0l","lat":40.0,"source":"mesonet","state":"CO","location":"4 Ne Nederland"},"type":"Feature","geometry":{"type":"Point","coordinates":[-105.45,40.0]}},{"properties":{"lon":-104.91,"event type":"NON-TSTM WND GST","county":"El Paso","report time":"Wed Feb 22 2012 06:47:00 GMT-0700 (Mountain Standard Time)","wind speed":81,"id":"a62fds0lerht","lat":38.94,"source":"mesonet","state":"CO","location":"4 Sw Air Force Academy"},"type":"Feature","geometry":{"type":"Point","coordinates":[-104.91,38.94]}},{"properties":{"lon":-105.64,"event type":"NON-TSTM WND GST","county":"Larimer","report time":"Tue Feb 21 2012 20:52:00 GMT-0700 (Mountain Standard Time)","wind speed":73,"id":"a62fdrvy4kf1","lat":40.98,"source":"trained spotter","state":"CO","location":"42 Nw Fort Collins"},"type":"Feature","geometry":{"type":"Point","coordinates":[-105.64,40.98]}},{"properties":{"lon":-106.28,"event type":"NON-TSTM WND GST","county":"Carbon","report time":"Wed Feb 22 2012 07:40:00 GMT-0700 (Mountain Standard Time)","wind speed":80,"id":"a62fds5spys7","lat":41.64,"source":"dept of highways","state":"WY","location":"5 Nw Arlington"},"type":"Feature","geometry":{"type":"Point","coordinates":[-106.28,41.64]}},{"properties":{"lon":-105.32,"event type":"NON-TSTM WND GST","county":"Boulder","report time":"Tue Feb 21 2012 23:06:00 GMT-0700 (Mountain Standard Time)","wind speed":82,"id":"a62fds691b41","lat":40.08,"source":"mesonet","state":"CO","location":"5 Nw Boulder"},"type":"Feature","geometry":{"type":"Point","coordinates":[-105.32,40.08]}},{"properties":{"lon":-106.22,"event type":"NON-TSTM WND GST","county":"Chaffee","report time":"Wed Feb 22 2012 07:18:00 GMT-0700 (Mountain Standard Time)","wind speed":77,"id":"a62fdrybs18s","lat":38.78,"source":"mesonet","state":"CO","location":"6 Ne Alpine"},"type":"Feature","geometry":{"type":"Point","coordinates":[-106.22,38.78]}},{"properties":{"lon":-105.33,"event type":"NON-TSTM WND GST","county":"Boulder","report time":"Wed Feb 22 2012 06:47:00 GMT-0700 (Mountain Standard Time)","wind speed":78,"id":"a62fds3kuu2x","lat":40.09,"source":"mesonet","state":"CO","location":"6 Nw Boulder"},"type":"Feature","geometry":{"type":"Point","coordinates":[-105.33,40.09]}},{"properties":{"lon":-106.08,"event type":"NON-TSTM WND GST","county":"Carbon","report time":"Tue Feb 21 2012 21:00:00 GMT-0700 (Mountain Standard Time)","wind speed":58,"id":"a62fdrveos8g","lat":41.55,"source":"dept of highways","state":"WY","location":"7 Ese Arlington"},"type":"Feature","geometry":{"type":"Point","coordinates":[-106.08,41.55]}},{"properties":{"lon":-106.51,"event type":"NON-TSTM WND GST","county":"Carbon","report time":"Wed Feb 22 2012 09:30:00 GMT-0700 (Mountain Standard Time)","wind speed":65,"id":"a62fds92745a","lat":41.76,"source":"dept of highways","state":"WY","location":"7 Nw Elk Mountain"},"type":"Feature","geometry":{"type":"Point","coordinates":[-106.51,41.76]}},{"properties":{"lon":-105.34,"event type":"NON-TSTM WND GST","county":"Boulder","report time":"Tue Feb 21 2012 22:21:00 GMT-0700 (Mountain Standard Time)","wind speed":81,"id":"a62fdsa4qh4v","lat":39.96,"source":"mesonet","state":"CO","location":"7 Sw Boulder"},"type":"Feature","geometry":{"type":"Point","coordinates":[-105.34,39.96]}},{"properties":{"lon":-105.25,"event type":"NON-TSTM WND GST","county":"Jefferson","report time":"Wed Feb 22 2012 06:39:00 GMT-0700 (Mountain Standard Time)","wind speed":81,"id":"a62fds58xx3m","lat":39.91,"source":"mesonet","state":"CO","location":"8 S Boulder"},"type":"Feature","geometry":{"type":"Point","coordinates":[-105.25,39.91]}},{"properties":{"lon":-104.28,"event type":"NON-TSTM WND GST","county":"Weld","report time":"Wed Feb 22 2012 18:39:00 GMT-0700 (Mountain Standard Time)","wind speed":62,"id":"a62fds2xo009","lat":40.76,"source":"mesonet","state":"CO","location":"8 Ssw Grover"},"type":"Feature","geometry":{"type":"Point","coordinates":[-104.28,40.76]}},{"properties":{"lon":-106.38,"event type":"NON-TSTM WND GST","county":"Carbon","report time":"Wed Feb 22 2012 17:00:00 GMT-0700 (Mountain Standard Time)","wind speed":58,"id":"a62fds32o9oq","lat":41.9,"source":"mesonet","state":"WY","location":"9 W Medicine Bow"},"type":"Feature","geometry":{"type":"Point","coordinates":[-106.38,41.9]}},{"properties":{"lon":-106.57,"event type":"NON-TSTM WND GST","county":"Carbon","report time":"Wed Feb 22 2012 12:30:00 GMT-0700 (Mountain Standard Time)","wind speed":59,"id":"a62fdrvyizux","lat":41.74,"source":"dept of highways","state":"WY","location":"9 Wnw Elk Mountain"},"type":"Feature","geometry":{"type":"Point","coordinates":[-106.57,41.74]}},{"properties":{"lon":-106.21,"event type":"NON-TSTM WND GST","county":"Carbon","report time":"Wed Feb 22 2012 14:26:00 GMT-0700 (Mountain Standard Time)","wind speed":74,"id":"a62fds1seqq7","lat":41.59,"source":"dept of highways","state":"WY","location":"Arlington"},"type":"Feature","geometry":{"type":"Point","coordinates":[-106.21,41.59]}},{"properties":{"lon":-105.49,"event type":"NON-TSTM WND GST","county":"Gilpin","report time":"Tue Feb 21 2012 19:33:00 GMT-0700 (Mountain Standard Time)","wind speed":69,"id":"a62fds319cbs","lat":39.8,"source":"mesonet","state":"CO","location":"Black Hawk"},"type":"Feature","geometry":{"type":"Point","coordinates":[-105.49,39.8]}},{"properties":{"lon":-104.95,"event type":"NON-TSTM WND GST","county":"Platte","report time":"Wed Feb 22 2012 18:20:00 GMT-0700 (Mountain Standard Time)","wind speed":66,"id":"a62fdryvc6da","lat":41.95,"source":"dept of highways","state":"WY","location":"Bordeaux"},"type":"Feature","geometry":{"type":"Point","coordinates":[-104.95,41.95]}},{"properties":{"lon":-105.3,"event type":"NON-TSTM WND GST","county":"Albany","report time":"Tue Feb 21 2012 19:00:00 GMT-0700 (Mountain Standard Time)","wind speed":74,"id":"a62fds24sodz","lat":41.11,"source":"mesonet","state":"WY","location":"Buford"},"type":"Feature","geometry":{"type":"Point","coordinates":[-105.3,41.11]}},{"properties":{"lon":-104.79,"event type":"NON-TSTM WND GST","county":"Laramie","report time":"Wed Feb 22 2012 18:47:00 GMT-0700 (Mountain Standard Time)","wind speed":58,"id":"a62fdrx9u2ql","lat":41.15,"source":"asos","state":"WY","location":"Cheyenne"},"type":"Feature","geometry":{"type":"Point","coordinates":[-104.79,41.15]}},{"properties":{"lon":-103.66,"event type":"NON-TSTM WND GST","county":"Kimball","report time":"Wed Feb 22 2012 18:33:00 GMT-0700 (Mountain Standard Time)","wind speed":59,"id":"a62fds9fyxtj","lat":41.23,"source":"awos","state":"NE","location":"Kimball"},"type":"Feature","geometry":{"type":"Point","coordinates":[-103.66,41.23]}},{"properties":{"lon":-105.58,"event type":"NON-TSTM WND GST","county":"Albany","report time":"Wed Feb 22 2012 08:53:00 GMT-0700 (Mountain Standard Time)","wind speed":58,"id":"a62fds9tj0xp","lat":41.31,"source":"asos","state":"WY","location":"Laramie"},"type":"Feature","geometry":{"type":"Point","coordinates":[-105.58,41.31]}},{"properties":{"lon":-105.27,"event type":"NON-TSTM WND GST","county":"Boulder","report time":"Wed Feb 22 2012 06:55:00 GMT-0700 (Mountain Standard Time)","wind speed":77,"id":"a62fds54pyjw","lat":40.22,"source":"public","state":"CO","location":"Lyons"},"type":"Feature","geometry":{"type":"Point","coordinates":[-105.27,40.22]}},{"properties":{"lon":-105.27,"event type":"NON-TSTM WND GST","county":"Boulder","report time":"Wed Feb 22 2012 06:55:00 GMT-0700 (Mountain Standard Time)","wind speed":77,"id":"a62fdrwwbovr","lat":40.22,"source":"public","state":"CO","location":"Lyons"},"type":"Feature","geometry":{"type":"Point","coordinates":[-105.27,40.22]}},{"properties":{"lon":-105.04,"event type":"NON-TSTM WND GST","county":"El Paso","report time":"Wed Feb 22 2012 14:10:00 GMT-0700 (Mountain Standard Time)","wind speed":85,"id":"a62fdry13x9x","lat":38.84,"source":"mesonet","state":"CO","location":"Pikes Peak"},"type":"Feature","geometry":{"type":"Point","coordinates":[-105.04,38.84]}},{"properties":{"lon":-107.23,"event type":"NON-TSTM WND GST","county":"Carbon","report time":"Wed Feb 22 2012 05:25:00 GMT-0700 (Mountain Standard Time)","wind speed":61,"id":"a62fdryowfaa","lat":41.78,"source":"asos","state":"WY","location":"Rawlins"},"type":"Feature","geometry":{"type":"Point","coordinates":[-107.23,41.78]}},{"properties":{"lon":-105.2,"event type":"NON-TSTM WND GST","county":"Jefferson","report time":"Wed Feb 22 2012 01:55:00 GMT-0700 (Mountain Standard Time)","wind speed":66,"id":"a62fds8jgwko","lat":39.89,"source":"mesonet","state":"CO","location":"Rocky Flats"},"type":"Feature","geometry":{"type":"Point","coordinates":[-105.2,39.89]}},{"properties":{"lon":-103.2,"event type":"NON-TSTM WND GST","county":"Logan","report time":"Wed Feb 22 2012 18:00:00 GMT-0700 (Mountain Standard Time)","wind speed":63,"id":"a62fdsaf8540","lat":40.65,"source":"awos","state":"CO","location":"Sterling"},"type":"Feature","geometry":{"type":"Point","coordinates":[-103.2,40.65]}},{"properties":{"lon":-105.35,"event type":"NON-TSTM WND GST","county":"Larimer","report time":"Wed Feb 22 2012 00:50:00 GMT-0700 (Mountain Standard Time)","wind speed":68,"id":"a62fdrv6h6rn","lat":40.95,"source":"mesonet","state":"CO","location":"Virginia Dale"},"type":"Feature","geometry":{"type":"Point","coordinates":[-105.35,40.95]}},{"properties":{"lon":-105.48,"event type":"NON-TSTM WND GST","county":"Larimer","report time":"Wed Feb 22 2012","wind speed":54,"id":"a62fds716gkv","lat":40.38,"source":"RMWN","state":"CO","location":"Estes Park"},"type":"Feature","geometry":{"type":"Point","coordinates":[-105.48,40.38]}},{"properties":{"lon":-105.48,"event type":"NON-TSTM WND GST","county":"Gilpin","report time":"Wed Feb 22 2012","wind speed":75,"id":"a62fdsbb36p5","lat":39.83,"source":"RMWN","state":"CO","location":"Black Hawk"},"type":"Feature","geometry":{"type":"Point","coordinates":[-105.48,39.83]}},{"properties":{"lon":-105.06,"event type":"NON-TSTM WND GST","county":"Broomfield","report time":"Wed Feb 22 2012","wind speed":58,"id":"a62fds88ijty","lat":39.91,"source":"RMWN","state":"CO","location":"Broomfield"},"type":"Feature","geometry":{"type":"Point","coordinates":[-105.06,39.91]}},{"properties":{"lon":-104.93,"event type":"NON-TSTM WND GST","county":"Adams","report time":"Thu Feb 23 2012","wind speed":46,"id":"a62fds3lt9vz","lat":39.91,"source":"RMWN","state":"CO","location":"Thornton"},"type":"Feature","geometry":{"type":"Point","coordinates":[-104.93,39.91]}},{"properties":{"lon":-105.1,"event type":"NON-TSTM WND GST","county":"Jefferson","report time":"Wed Feb 22 2012","wind speed":68,"id":"a62fdrws7pm4","lat":39.79,"source":"RMWN","state":"CO","location":"Arvada"},"type":"Feature","geometry":{"type":"Point","coordinates":[-105.1,39.79]}},{"properties":{"lon":-104.79,"event type":"NON-TSTM WND GST","county":"Adams","report time":"Wed Feb 22 2012","wind speed":38,"id":"a62fds3kzyah","lat":39.88,"source":"RMWN","state":"CO","location":"Commerce City"},"type":"Feature","geometry":{"type":"Point","coordinates":[-104.79,39.88]}},{"properties":{"lon":-104.67,"event type":"NON-TSTM WND GST","county":"Denver","report time":"Thu Feb 23 2012","wind speed":53,"id":"a62fds8mpjma","lat":39.84,"source":"National Weather Service","state":"CO","location":"Denver - DIA"},"type":"Feature","geometry":{"type":"Point","coordinates":[-104.67,39.84]}},{"properties":{"lon":-104.99,"event type":"NON-TSTM WND GST","county":"Douglas","report time":"Wed Feb 22 2012","wind speed":53,"id":"a62fds50bwk7","lat":39.61,"source":"RMWN","state":"CO","location":"Littleton"},"type":"Feature","geometry":{"type":"Point","coordinates":[-104.99,39.61]}},{"properties":{"lon":-104.94,"event type":"NON-TSTM WND GST","county":"Denver","report time":"Thu Feb 23 2012","wind speed":46,"id":"a62fdrx0uqjw","lat":39.74,"source":"National Weather Service","state":"CO","location":"Denver - City Park"},"type":"Feature","geometry":{"type":"Point","coordinates":[-104.94,39.74]}},{"properties":{"lon":-105.28,"event type":"NON-TSTM WND GST","county":"Boulder","report time":"Wed Feb 22 2012","wind speed":72,"id":"a62fds1mgohi","lat":40.01,"source":"mesonet","state":"CO","location":"2 SW Boulder"},"type":"Feature","geometry":{"type":"Point","coordinates":[-105.28,40.01]}},{"properties":{"lon":-105.78,"event type":"NON-TSTM WND GST","county":"Clear Creek","report time":"Wed Feb 22 2012","wind speed":70,"id":"a62fds2qlh56","lat":39.8,"source":"mesonet","state":"CO","location":"Berthoud Pass"},"type":"Feature","geometry":{"type":"Point","coordinates":[-105.78,39.8]}},{"properties":{"lon":-105.88,"event type":"NON-TSTM WND GST","county":"Clear Creek","report time":"Wed Feb 22 2012","wind speed":61,"id":"a62fds1hw791","lat":39.67,"source":"mesonet","state":"CO","location":"Loveland Pass"},"type":"Feature","geometry":{"type":"Point","coordinates":[-105.88,39.67]}},{"properties":{"lon":-105.09,"event type":"NON-TSTM WND GST","county":"Broomfield","report time":"Wed Feb 22 2012","wind speed":77,"id":"a62fdrx97toe","lat":39.92,"source":"asos","state":"CO","location":"Broomfield - Rocky Mtn Metro Airport"},"type":"Feature","geometry":{"type":"Point","coordinates":[-105.09,39.92]}},{"properties":{"lon":-105.11,"event type":"NON-TSTM WND GST","county":"Jefferson","report time":"Wed Feb 22 2012","wind speed":67,"id":"a62fdrw8p7ro","lat":39.73,"source":"mesonet","state":"CO","location":"Lookout Mountain"},"type":"Feature","geometry":{"type":"Point","coordinates":[-105.11,39.73]}},{"properties":{"lon":-105.58,"event type":"NON-TSTM WND GST","county":"Larimer","report time":"Wed Feb 22 2012","wind speed":58,"id":"a62fds4pthgq","lat":40.8,"source":"mesonet","state":"CO","location":"Red Feather Lakes"},"type":"Feature","geometry":{"type":"Point","coordinates":[-105.58,40.8]}},{"properties":{"lon":-105.25,"event type":"NON-TSTM WND GST","county":"Boulder","report time":"Wed Feb 22 2012","wind speed":75,"id":"a62fds23yfg6","lat":40.03,"source":"awos","state":"CO","location":"Boulder - Boulder Municipal Airport"},"type":"Feature","geometry":{"type":"Point","coordinates":[-105.25,40.03]}},{"properties":{"lon":-105.11,"event type":"NON-TSTM WND GST","county":"Boulder","report time":"Wed Feb 22 2012","wind speed":81,"id":"a62fds7qlr3y","lat":40.2,"source":"trained spotter","state":"CO","location":"2 N Longmont"},"type":"Feature","geometry":{"type":"Point","coordinates":[-105.11,40.2]}}],"is_temporal":false,"author":{"url":"","metadata":"","contact_name":"","contact_address":"","source":"","contact_phone":""},"source":"","pagination":{"sort":null,"start":0,"total":90,"limit":1000000},"state":"complete","tags":"colorado,denver,national weather service,storm report,weather,wind,wyoming","published":"2014-08-15T01:20:02-04:00","id":207978}