{"type":"FeatureCollection","data_type":"Dataset","url_type":null,"permissions":[{"permissions":{"download":true,"view":true},"group_id":"everyone"}],"classification":null,"title":"address","count":53,"stream_id":208603,"contributor":{"url":"http://geocommons.com/users/40747","name":"plancet10"},"data_attributes":null,"calculation_params":null,"icon_link":null,"link":"http://geocommons.com/overlays/208603.json","extent":[-76.9974,38.5793,-73.3833,41.3618],"geometry_types":["point"],"unique_name":null,"name":"address","feature_count":53,"description":"","next_feature":null,"is_raster":false,"short_classification":"Y","stats":{"marker":{"max":61,"mean":33.1132075471698,"variance":315.102322206096,"stdev":17.7511217168408,"min":1,"median":35}},"features":[{"properties":{"geo_score":0.835,"marker":1,"id":"a7sdejbquh9q","geo_precision":"range","address":"736 Christina Mill Drive Newark, DE 19711"},"type":"Feature","geometry":{"type":"Point","coordinates":[-75.774907,39.670685]}},{"properties":{"geo_score":0.793,"marker":2,"id":"a7sdejbywjr7","geo_precision":"range","address":"375 Carter Moir Drive Lancaster, PA 17601"},"type":"Feature","geometry":{"type":"Point","coordinates":[-76.327584,40.103643]}},{"properties":{"geo_score":0.956,"marker":4,"id":"a7sdeixo2m45","geo_precision":"range","address":"1637 Lincoln Ave Prospect Park, PA 19076"},"type":"Feature","geometry":{"type":"Point","coordinates":[-75.313295,39.892094]}},{"properties":{"geo_score":0.836,"marker":6,"id":"a7sdej6xn77k","geo_precision":"range","address":"1009 Little Shiloh Road West Chester, PA 19382"},"type":"Feature","geometry":{"type":"Point","coordinates":[-75.558905,39.95317]}},{"properties":{"geo_score":0.808,"marker":7,"id":"a7sdeizsj81r","geo_precision":"range","address":"448 Gallaher Road Elkton, MD 21921"},"type":"Feature","geometry":{"type":"Point","coordinates":[-75.840691,39.686827]}},{"properties":{"geo_score":0.595,"marker":8,"id":"a7sdejbzivnt","geo_precision":"street","address":"338 W 5th Ave. Conshohocken, PA 19428"},"type":"Feature","geometry":{"type":"Point","coordinates":[-75.316125,40.079646]}},{"properties":{"geo_score":0.755,"marker":10,"id":"a7sdej452p69","geo_precision":"range","address":"1002 Caren Drive Eldersburg, MD 21784"},"type":"Feature","geometry":{"type":"Point","coordinates":[-76.960507,39.407713]}},{"properties":{"geo_score":0.501,"marker":11,"id":"a7sdej1s57s3","geo_precision":"street","address":"127 Bishop Drive Aston, PA 19014"},"type":"Feature","geometry":{"type":"Point","coordinates":[-75.429757,39.868286]}},{"properties":{"geo_score":0.778,"marker":12,"id":"a7sdeixhlvcd","geo_precision":"range","address":"605 Green Avenue West Chester, PA 19380"},"type":"Feature","geometry":{"type":"Point","coordinates":[-75.574856,39.98013]}},{"properties":{"geo_score":0.787,"marker":13,"id":"a7sdej4eksp7","geo_precision":"range","address":"5 Riverside Drive Wilmington, DE 19809"},"type":"Feature","geometry":{"type":"Point","coordinates":[-75.496496,39.763428]}},{"properties":{"geo_score":0.792,"marker":14,"id":"a7sdej1mfu3f","geo_precision":"range","address":"11 Hidden Springs Lane Landenberg, PA 19350"},"type":"Feature","geometry":{"type":"Point","coordinates":[-75.782709,39.780161]}},{"properties":{"geo_score":0.81,"marker":15,"id":"a7sdejalfn0q","geo_precision":"range","address":"4820 Grandview Ct. La Plata, MD 20646"},"type":"Feature","geometry":{"type":"Point","coordinates":[-76.997378,38.579288]}},{"properties":{"geo_score":0.825,"marker":16,"id":"a7sdej1rgfqn","geo_precision":"range","address":"111 Woodring Lane Newark, DE 19702"},"type":"Feature","geometry":{"type":"Point","coordinates":[-75.679879,39.657954]}},{"properties":{"geo_score":0.764,"marker":17,"id":"a7sdeiz8npa7","geo_precision":"range","address":"308 South Bank Road Landenberg, PA 19350"},"type":"Feature","geometry":{"type":"Point","coordinates":[-75.756297,39.781835]}},{"properties":{"geo_score":0.808,"marker":19,"id":"a7sdeiydopud","geo_precision":"range","address":"321 Deakyneville Road Townsend, DE 19734"},"type":"Feature","geometry":{"type":"Point","coordinates":[-75.541894,39.370314]}},{"properties":{"geo_score":0.73,"marker":20,"id":"a7sdeixqykw0","geo_precision":"range","address":"2008 Eden Road Wilmington, DE 19810"},"type":"Feature","geometry":{"type":"Point","coordinates":[-75.505352,39.813482]}},{"properties":{"geo_score":0.769,"marker":22,"id":"a7sdej1rmby7","geo_precision":"range","address":"44 Balmoral Drive Chadds Ford, PA 19317"},"type":"Feature","geometry":{"type":"Point","coordinates":[-75.639989,39.844079]}},{"properties":{"geo_score":0.772,"marker":23,"id":"a7sdeixp86ni","geo_precision":"range","address":"903 N. Clayton Street Wilmington, DE 19805"},"type":"Feature","geometry":{"type":"Point","coordinates":[-75.565235,39.75155]}},{"properties":{"geo_score":0.8,"marker":25,"id":"a7sdej938u2u","geo_precision":"range","address":"418 West Hanna Dr. Newark, DE 19702"},"type":"Feature","geometry":{"type":"Point","coordinates":[-75.708805,39.645334]}},{"properties":{"geo_score":0.747,"marker":27,"id":"a7sdej62kafp","geo_precision":"range","address":"400 W. 29th Street Wilmington, DE 19802"},"type":"Feature","geometry":{"type":"Point","coordinates":[-75.535929,39.759353]}},{"properties":{"geo_score":0.797,"marker":28,"id":"a7sdeizz2ecy","geo_precision":"range","address":"908 Pickett Lane Newark, DE 19711"},"type":"Feature","geometry":{"type":"Point","coordinates":[-75.776205,39.679098]}},{"properties":{"geo_score":0.707,"marker":29,"id":"a7sdeixbwvkl","geo_precision":"range","address":"1303 Delaware Avenue, #914 Wilmington, DE 19806"},"type":"Feature","geometry":{"type":"Point","coordinates":[-75.558466,39.754307]}},{"properties":{"geo_score":0.817,"marker":31,"id":"a7sdej4l7h5x","geo_precision":"range","address":"15 Garlyn Hall Newark, DE 19711"},"type":"Feature","geometry":{"type":"Point","coordinates":[-75.700051,39.716651]}},{"properties":{"geo_score":0.796,"marker":32,"id":"a7sdej00nlcx","geo_precision":"range","address":"2209 Ashkirk Drive Newark, DE 19702"},"type":"Feature","geometry":{"type":"Point","coordinates":[-75.705103,39.612707]}},{"properties":{"geo_score":0.771,"marker":33,"id":"a7sdej2lz3df","geo_precision":"range","address":"30 North Torton Ave Carney's Point, NJ 08069"},"type":"Feature","geometry":{"type":"Point","coordinates":[-75.460715,39.725321]}},{"properties":{"geo_score":0.77,"marker":34,"id":"a7sdejdbizxk","geo_precision":"range","address":"793 Cedar Knoll Road Coatesville, PA 19320"},"type":"Feature","geometry":{"type":"Point","coordinates":[-75.849538,40.040727]}},{"properties":{"geo_score":0.787,"marker":35,"id":"a7sdejdfblsd","geo_precision":"range","address":"504 Beechwood Dr Kennett Square, PA 19348"},"type":"Feature","geometry":{"type":"Point","coordinates":[-75.681877,39.866886]}},{"properties":{"geo_score":0.951,"marker":36,"id":"a7sdeixj3xtj","geo_precision":"range","address":"291 Monroe Street Delaware City, DE 19706"},"type":"Feature","geometry":{"type":"Point","coordinates":[-75.595411,39.578407]}},{"properties":{"geo_score":0.74,"marker":37,"id":"a7sdejd6e5dc","geo_precision":"range","address":"2024 R Upland Way, Unit 307 Philadelphia, PA 19131"},"type":"Feature","geometry":{"type":"Point","coordinates":[-75.245656,39.987021]}},{"properties":{"geo_score":0.791,"marker":38,"id":"a7sdej9ltaug","geo_precision":"range","address":"144 Park Avenue, Apt. 4E Swarthmore, PA 19081"},"type":"Feature","geometry":{"type":"Point","coordinates":[-75.348369,39.90103]}},{"properties":{"geo_score":0.773,"marker":39,"id":"a7sdej0qasna","geo_precision":"range","address":"28 Bradbury Road New Castle, DE 19720"},"type":"Feature","geometry":{"type":"Point","coordinates":[-75.635523,39.67182]}},{"properties":{"geo_score":0.819,"marker":40,"id":"a7sdej2m64qr","geo_precision":"range","address":"29 Hunt Valley Drive Elkton, MD 21921"},"type":"Feature","geometry":{"type":"Point","coordinates":[-75.872944,39.711367]}},{"properties":{"geo_score":0.943,"marker":41,"id":"a7sdej38z0rw","geo_precision":"range","address":"1609 N. Lincoln Street Wilmington, DE 19806"},"type":"Feature","geometry":{"type":"Point","coordinates":[-75.56518,39.758578]}},{"properties":{"geo_score":0.734,"marker":42,"id":"a7sdej0yrxer","geo_precision":"range","address":"1303 Delaware Avenue, Apt. 210 Wilmington, DE 19806"},"type":"Feature","geometry":{"type":"Point","coordinates":[-75.558466,39.754307]}},{"properties":{"geo_score":0.944,"marker":43,"id":"a7sdej65kpdc","geo_precision":"range","address":"132 Ronway Drive Avondale, PA 19311"},"type":"Feature","geometry":{"type":"Point","coordinates":[-75.777446,39.842357]}},{"properties":{"geo_score":0.774,"marker":44,"id":"a7sdej6v2ls7","geo_precision":"range","address":"1952 Prospect Road Wilmington, DE 19805"},"type":"Feature","geometry":{"type":"Point","coordinates":[-75.581104,39.740207]}},{"properties":{"geo_score":0.777,"marker":45,"id":"a7sdej4uf6hd","geo_precision":"range","address":"59 Robinson Drive New Castle, DE 19720"},"type":"Feature","geometry":{"type":"Point","coordinates":[-75.582407,39.696341]}},{"properties":{"geo_score":0.776,"marker":46,"id":"a7sdej9oxndt","geo_precision":"range","address":"8124 Clyde Bank Rd Parkville, MD 21234"},"type":"Feature","geometry":{"type":"Point","coordinates":[-76.574274,39.385363]}},{"properties":{"geo_score":0.777,"marker":47,"id":"a7sdej07eu4h","geo_precision":"range","address":"1 East Cole Blvd. Middleton, DE 19709"},"type":"Feature","geometry":{"type":"Point","coordinates":[-75.708046,39.452138]}},{"properties":{"geo_score":0.778,"marker":48,"id":"a7sdej2rj25n","geo_precision":"range","address":"2303 Silverside Road Wilmington, DE 19810"},"type":"Feature","geometry":{"type":"Point","coordinates":[-75.509537,39.804865]}},{"properties":{"geo_score":0.737,"marker":49,"id":"a7sdeizezbdl","geo_precision":"range","address":"806 Penn Street Flourtown, PA 19031"},"type":"Feature","geometry":{"type":"Point","coordinates":[-75.209637,40.11558]}},{"properties":{"geo_score":0.823,"marker":50,"id":"a7sdej77cfqx","geo_precision":"range","address":"1108 Downingtown Pike West Chester, PA 19380"},"type":"Feature","geometry":{"type":"Point","coordinates":[-75.675888,39.968997]}},{"properties":{"geo_score":0.823,"marker":51,"id":"a7sdej1m1gbh","geo_precision":"range","address":"1108 Downingtown Pike West Chester, PA 19380"},"type":"Feature","geometry":{"type":"Point","coordinates":[-75.675888,39.968997]}},{"properties":{"geo_score":0.751,"marker":52,"id":"a7sdej8ltg3a","geo_precision":"range","address":"3005 Duncan Rd Wilmington, DE 19808"},"type":"Feature","geometry":{"type":"Point","coordinates":[-75.655295,39.747809]}},{"properties":{"geo_score":0.835,"marker":53,"id":"a7sdej8hwg5p","geo_precision":"range","address":"322 Christina Mill Drive Newark, DE 19711"},"type":"Feature","geometry":{"type":"Point","coordinates":[-75.774517,39.669939]}},{"properties":{"geo_score":0.932,"marker":54,"id":"a7sdeixx01n6","geo_precision":"range","address":"84 Putnam Park Road Bethel, CT 06801"},"type":"Feature","geometry":{"type":"Point","coordinates":[-73.38329,41.36183]}},{"properties":{"geo_score":0.73,"marker":55,"id":"a7sdej16x162","geo_precision":"range","address":"2322 Brae Road Wilmington, DE 19810"},"type":"Feature","geometry":{"type":"Point","coordinates":[-75.480566,39.807083]}},{"properties":{"geo_score":0.871,"marker":56,"id":"a7sdej6eqg0t","geo_precision":"range","address":"55 Springfield Drive North East, MD 21901"},"type":"Feature","geometry":{"type":"Point","coordinates":[-75.943434,39.698725]}},{"properties":{"geo_score":0.754,"marker":57,"id":"a7sdejbj1m1u","geo_precision":"range","address":"218 Pueblo Road Doylestown, PA 18901"},"type":"Feature","geometry":{"type":"Point","coordinates":[-75.196398,40.297197]}},{"properties":{"geo_score":0.385,"marker":58,"id":"a7sdeizomdqb","geo_precision":"street","address":"17124 Jays Way Milton, DE 19968"},"type":"Feature","geometry":{"type":"Point","coordinates":[-75.557932,39.208801]}},{"properties":{"geo_score":0.791,"marker":59,"id":"a7sdej2ep01s","geo_precision":"range","address":"7 Dunbar Rd. Newark, DE 19711"},"type":"Feature","geometry":{"type":"Point","coordinates":[-75.712624,39.695213]}},{"properties":{"geo_score":0.797,"marker":60,"id":"a7sdejc7ag7i","geo_precision":"range","address":"26 West Kapok Drive Newark, DE 19702"},"type":"Feature","geometry":{"type":"Point","coordinates":[-75.670985,39.658134]}},{"properties":{"geo_score":0.814,"marker":61,"id":"a7sdejd2cezv","geo_precision":"range","address":"11 Deerfield Circle Sewell, NJ 08080"},"type":"Feature","geometry":{"type":"Point","coordinates":[-75.158886,39.767649]}}],"is_temporal":false,"author":{"url":"","metadata":"","contact_name":"","contact_address":"","source":"","contact_phone":""},"source":"","pagination":{"sort":null,"start":0,"total":53,"limit":1000000},"state":"complete","tags":"","published":"2014-08-15T02:04:41-04:00","id":208603}