{"type":"FeatureCollection","data_type":"Dataset","url_type":null,"permissions":[{"permissions":{"download":true,"view":true},"group_id":"everyone"}],"classification":null,"title":"Richmond Organizations and Individuals Geocommons","count":50,"stream_id":208826,"contributor":{"url":"http://geocommons.com/users/34351","name":"ACTA"},"data_attributes":null,"calculation_params":null,"icon_link":null,"link":"http://geocommons.com/overlays/208826.json","extent":[-122.373,37.9019,-122.008,37.9876],"geometry_types":["point"],"unique_name":null,"name":"Richmond Organizations and Individuals Geocommons","feature_count":50,"description":"","next_feature":null,"is_raster":false,"short_classification":"Y","stats":{"id":{"max":50,"mean":25.6734693877551,"variance":215.391156462585,"stdev":14.6762105620826,"min":1,"median":26}},"features":[{"properties":{"city":"San Pablo","organizations":"Afterglo Lighting","geo_score":0.827,"zip code":"94806","id":"a69v3e17dvn8","geo_precision":"range","satete":"CA","address":"13350 San Pablo Avenue"},"type":"Feature","geometry":{"type":"Point","coordinates":[-122.333653,37.953345]}},{"properties":{"city":"El Cerrito","organizations":"Arhoolie Foundation","geo_score":0.805,"zip code":"94530","id":"a69v3e3nkc3l","geo_precision":"street","satete":"CA","address":"10341 San Pablo Avenue"},"type":"Feature","geometry":{"type":"Point","coordinates":[-122.305624,37.906962]}},{"properties":{"city":"El Cerrito","organizations":"Celebrating Culture and Community","geo_score":0.902,"zip code":"94530","id":"a69v3dyytwoj","geo_precision":"range","satete":"CA","address":"1355 Arlington Boulevard"},"type":"Feature","geometry":{"type":"Point","coordinates":[-122.295279,37.926659]}},{"properties":{"city":"El Cerrito","organizations":"Chaksam-Pa Tibetan Dance &amp; Opera Co.","geo_score":0.902,"zip code":"94530","id":"a69v3e5hp1mc","geo_precision":"range","satete":"CA","address":"6615 Schmidt Lane"},"type":"Feature","geometry":{"type":"Point","coordinates":[-122.307725,37.91526]}},{"properties":{"city":"Richmond","organizations":"East Bay Center for the Performing Arts","geo_score":0.767,"zip code":"94801","id":"a69v3e5cd8pk","geo_precision":"range","satete":"CA","address":"339 11th Street"},"type":"Feature","geometry":{"type":"Point","coordinates":[-122.358997,37.936138]}},{"properties":{"city":"El Cerrito","organizations":"Foundation for Philippine Folklife","geo_score":0.902,"zip code":"94530","id":"a69v3e3s16l9","geo_precision":"range","satete":"CA","address":"8647 Thors Bay Road"},"type":"Feature","geometry":{"type":"Point","coordinates":[-122.291392,37.925487]}},{"properties":{"city":"Richmond","organizations":"Gadung Kasturi Balinese Dance &amp; Music","geo_score":0.902,"zip code":"94805","id":"a69v3e4camfk","geo_precision":"range","satete":"CA","address":"6125 Bernhard Avenue"},"type":"Feature","geometry":{"type":"Point","coordinates":[-122.315297,37.947142]}},{"properties":{"city":"San Pablo","organizations":"Los Cenzontles Mexican Arts Center","geo_score":0.805,"zip code":"94805","id":"a69v3dv7oijt","geo_precision":"range","satete":"CA","address":"13108 San Pablo Avenue"},"type":"Feature","geometry":{"type":"Point","coordinates":[-122.332541,37.951016]}},{"properties":{"city":"El Cerrito","organizations":"Martenichki Family Dance Group","geo_score":0.902,"zip code":"94530","id":"a69v3duo4wlt","geo_precision":"range","satete":"CA","address":"10837 San Pablo Avenue"},"type":"Feature","geometry":{"type":"Point","coordinates":[-122.310721,37.914449]}},{"properties":{"city":"Richmond","organizations":"Palabuniyan Kulintang Ensemble","geo_score":0.902,"zip code":"94805","id":"a69v3e56aby5","geo_precision":"range","satete":"CA","address":"765 Mesa Way"},"type":"Feature","geometry":{"type":"Point","coordinates":[-122.332796,37.941302]}},{"properties":{"city":"San Pablo","organizations":"Palestinian Embroidery","geo_score":0.827,"zip code":"94806","id":"a69v3e0u6hcr","geo_precision":"range","satete":"CA","address":"10 Parkview Terrace"},"type":"Feature","geometry":{"type":"Point","coordinates":[-122.321511,37.959994]}},{"properties":{"city":"Richmond","organizations":"Richmond Arts &amp; Culture Commission","geo_score":0.902,"zip code":"94804","id":"a69v3e0npel1","geo_precision":"range","satete":"CA","address":"2600 Barrett Avenue"},"type":"Feature","geometry":{"type":"Point","coordinates":[-122.343589,37.937916]}},{"properties":{"city":"Richmond","organizations":"Shahrzad Dance Academy","geo_score":0.902,"zip code":"94805","id":"a69v3e235cm2","geo_precision":"range","satete":"CA","address":"6262 Bernhard Avenue"},"type":"Feature","geometry":{"type":"Point","coordinates":[-122.312455,37.944605]}},{"properties":{"city":"El Cerrito","organizations":"Suhaila Salimpour Dance School","geo_score":0.902,"zip code":"94530","id":"a69v3duj1j95","geo_precision":"range","satete":"CA","address":"10082 San Pablo Avenue"},"type":"Feature","geometry":{"type":"Point","coordinates":[-122.303183,37.901935]}},{"properties":{"city":"El Cerrito","organizations":"Alexander D Peter","geo_score":0.0,"zip code":null,"id":"a69v3dxvdp9v","geo_precision":"unmatched","satete":"CA","address":"10082 San Pablo Avenue"},"type":"Feature","geometry":null},{"properties":{"city":"Richmond","organizations":"Ali J Luna","geo_score":0.829,"zip code":"94804","id":"a69v3e14ktsj","geo_precision":"range","satete":"CA","address":"1928 Placer"},"type":"Feature","geometry":{"type":"Point","coordinates":[-122.312943,37.909085]}},{"properties":{"city":"Richmond","organizations":"Chad Manning","geo_score":0.865,"zip code":"94801","id":"a69v3e0zvi9t","geo_precision":"range","satete":"CA","address":"326 W Bissell Avenue"},"type":"Feature","geometry":{"type":"Point","coordinates":[-122.372923,37.934131]}},{"properties":{"city":"El Cerrito","organizations":"Chris Strachwitz","geo_score":0.902,"zip code":"94530","id":"a69v3dxbk2fx","geo_precision":"range","satete":"CA","address":"315 Carmel Avenue"},"type":"Feature","geometry":{"type":"Point","coordinates":[-122.290686,37.902743]}},{"properties":{"city":"El Cerrito","organizations":"Dana Kramer-Rolls","geo_score":0.805,"zip code":"94530","id":"a69v3e1oci8w","geo_precision":"street","satete":"CA","address":"10341 San Pablo Avenue"},"type":"Feature","geometry":{"type":"Point","coordinates":[-122.305624,37.906962]}},{"properties":{"city":"Richmond","organizations":"Delores Garcia","geo_score":0.902,"zip code":"94805","id":"a69v3e28gluj","geo_precision":"range","satete":"CA","address":"6174 Bernhard Avenue"},"type":"Feature","geometry":{"type":"Point","coordinates":[-122.314182,37.946362]}},{"properties":{"city":"Richmond","organizations":"Donna Reid","geo_score":0.902,"zip code":"94804","id":"a69v3dzzin8z","geo_precision":"range","satete":"CA","address":"2839 Rheem Avenue"},"type":"Feature","geometry":{"type":"Point","coordinates":[-122.340228,37.949856]}},{"properties":{"city":"Richmond","organizations":"Eugene Rodriguez","geo_score":0.333,"zip code":"94804","id":"a69v3dry3v2o","geo_precision":"street","satete":"CA","address":"PO Box 1267"},"type":"Feature","geometry":{"type":"Point","coordinates":[-122.35586,37.955871]}},{"properties":{"city":"San Pablo","organizations":"Eve Moss","geo_score":0.805,"zip code":"94805","id":"a69v3dus6oxv","geo_precision":"range","satete":"CA","address":"13108 San Pablo Avenue"},"type":"Feature","geometry":{"type":"Point","coordinates":[-122.332541,37.951016]}},{"properties":{"city":"El Cerrito","organizations":"Helena Nolan","geo_score":0.902,"zip code":"94530","id":"a69v3dttq5oz","geo_precision":"range","satete":"CA","address":"1355 Arlington Boulevard"},"type":"Feature","geometry":{"type":"Point","coordinates":[-122.295279,37.926659]}},{"properties":{"city":"Richmond","organizations":"Hugo Arroyo","geo_score":0.767,"zip code":"94801","id":"a69v3e5h5dwv","geo_precision":"range","satete":"CA","address":"339 11th Street"},"type":"Feature","geometry":{"type":"Point","coordinates":[-122.358997,37.936138]}},{"properties":{"city":"San Pablo","organizations":"I Gusti Agung Ayu Warsiki","geo_score":0.356,"zip code":"94806","id":"a69v3dytmqf9","geo_precision":"street","satete":"CA","address":"1263 E. Victoria Court"},"type":"Feature","geometry":{"type":"Point","coordinates":[-122.354184,37.951032]}},{"properties":{"city":"El Cerrito","organizations":"J. Carlos Moore","geo_score":0.902,"zip code":"94530","id":"a69v3dyfx9yi","geo_precision":"range","satete":"CA","address":"6485 Conlon Avenue"},"type":"Feature","geometry":{"type":"Point","coordinates":[-122.317797,37.931567]}},{"properties":{"city":"San Pablo","organizations":"Ja Mar Welch","geo_score":0.827,"zip code":"94806","id":"a69v3duzvenu","geo_precision":"range","satete":"CA","address":"13350 San Pablo Avenue"},"type":"Feature","geometry":{"type":"Point","coordinates":[-122.333653,37.953345]}},{"properties":{"city":"Richmond","organizations":"Jacie Wang","geo_score":0.902,"zip code":"94804","id":"a69v3dqvwo23","geo_precision":"range","satete":"CA","address":"2622 Esmond Avenue"},"type":"Feature","geometry":{"type":"Point","coordinates":[-122.342998,37.945153]}},{"properties":{"city":"El Cerrito","organizations":"Jenifer Daley","geo_score":0.902,"zip code":"94530","id":"a69v3ds8fcx4","geo_precision":"range","satete":"CA","address":"525 Norvell Street"},"type":"Feature","geometry":{"type":"Point","coordinates":[-122.297248,37.904593]}},{"properties":{"city":"Richmond","organizations":"Jennifer June","geo_score":0.767,"zip code":"94801","id":"a69v3e2sw1mk","geo_precision":"range","satete":"CA","address":"339 11th Street"},"type":"Feature","geometry":{"type":"Point","coordinates":[-122.358997,37.936138]}},{"properties":{"city":"El Cerrito","organizations":"Jordan Simmons","geo_score":0.537,"zip code":"94530","id":"a69v3dt284mi","geo_precision":"street","satete":"CA","address":"3020 El Cerrito Plaza"},"type":"Feature","geometry":{"type":"Point","coordinates":[-122.007715,37.952801]}},{"properties":{"city":"Richmond","organizations":"Julian Gonzales","geo_score":0.767,"zip code":"94801","id":"a69v3dt29kgr","geo_precision":"range","satete":"CA","address":"339 11th Street"},"type":"Feature","geometry":{"type":"Point","coordinates":[-122.358997,37.936138]}},{"properties":{"city":"Richmond","organizations":"Lani Herrmann","geo_score":0.806,"zip code":"94801","id":"a69v3e000hor","geo_precision":"range","satete":"CA","address":"715 Pennsylvania"},"type":"Feature","geometry":{"type":"Point","coordinates":[-122.362506,37.942591]}},{"properties":{"city":"Richmond","organizations":"Leticia T Figuero","geo_score":0.902,"zip code":"94805","id":"a69v3drdc973","geo_precision":"range","satete":"CA","address":"5621 Sierra Avenue"},"type":"Feature","geometry":{"type":"Point","coordinates":[-122.319476,37.940861]}},{"properties":{"city":"El Cerrito","organizations":"Leveron Bryant","geo_score":0.902,"zip code":"94530","id":"a69v3dxs5moj","geo_precision":"range","satete":"CA","address":"8647 Thors Bay Road"},"type":"Feature","geometry":{"type":"Point","coordinates":[-122.291392,37.925487]}},{"properties":{"city":"Richmond","organizations":"Lucina Rodriguez","geo_score":0.286,"zip code":"94804","id":"a69v3e18dy5d","geo_precision":"street","satete":"CA","address":"P. O. Box 4046"},"type":"Feature","geometry":{"type":"Point","coordinates":[-122.35586,37.955871]}},{"properties":{"city":"El Cerrito","organizations":"Mary J. O'Drain","geo_score":0.902,"zip code":"94530","id":"a69v3ds292rk","geo_precision":"range","satete":"CA","address":"1722 Liberty Street"},"type":"Feature","geometry":{"type":"Point","coordinates":[-122.31347,37.923172]}},{"properties":{"city":"Richmond","organizations":"Noni Gunarsa","geo_score":0.902,"zip code":"94805","id":"a69v3dqezjss","geo_precision":"range","satete":"CA","address":"828 Ventura Street"},"type":"Feature","geometry":{"type":"Point","coordinates":[-122.326326,37.945182]}},{"properties":{"city":"El Cerrito","organizations":"Salamah Lategano","geo_score":0.902,"zip code":"94530","id":"a69v3dy68dcx","geo_precision":"range","satete":"CA","address":"6485 Conlon Avenue"},"type":"Feature","geometry":{"type":"Point","coordinates":[-122.317797,37.931567]}},{"properties":{"city":"Richmond","organizations":"Sargam Shah","geo_score":0.816,"zip code":"94806","id":"a69v3dutzzrx","geo_precision":"range","satete":"CA","address":"3400 Richmond Parkway"},"type":"Feature","geometry":{"type":"Point","coordinates":[-122.318941,37.987594]}},{"properties":{"city":"El Cerrito","organizations":"Shahrzad Khorsandi","geo_score":0.849,"zip code":"94530","id":"a69v3dpixbc4","geo_precision":"range","satete":"CA","address":"2535 Mira Vista Drive"},"type":"Feature","geometry":{"type":"Point","coordinates":[-122.313809,37.935922]}},{"properties":{"city":"Richmond","organizations":"Suheir Khalaf","geo_score":0.902,"zip code":"94805","id":"a69v3dr4suzs","geo_precision":"range","satete":"CA","address":"6262 Bernhard Avenue"},"type":"Feature","geometry":{"type":"Point","coordinates":[-122.312455,37.944605]}},{"properties":{"city":"San Pablo","organizations":"Sylvia Townsend","geo_score":0.827,"zip code":"94806","id":"a69v3e0lr98e","geo_precision":"range","satete":"CA","address":"10 Parkview Terrace"},"type":"Feature","geometry":{"type":"Point","coordinates":[-122.321511,37.959994]}},{"properties":{"city":"Richmond","organizations":"Titania Buchholdt","geo_score":0.865,"zip code":"94801","id":"a69v3dzo48e2","geo_precision":"range","satete":"CA","address":"258 Marina Way"},"type":"Feature","geometry":{"type":"Point","coordinates":[-122.356186,37.935043]}},{"properties":{"city":"Richmond","organizations":"Tsering Dolker","geo_score":0.902,"zip code":"94805","id":"a69v3dxt3lrg","geo_precision":"range","satete":"CA","address":"765 Mesa Way"},"type":"Feature","geometry":{"type":"Point","coordinates":[-122.332796,37.941302]}},{"properties":{"city":"El Cerrito","organizations":"Virginia Rigney","geo_score":0.902,"zip code":"94530","id":"a69v3dydfj4p","geo_precision":"range","satete":"CA","address":"6615 Schmidt Lane"},"type":"Feature","geometry":{"type":"Point","coordinates":[-122.307725,37.91526]}},{"properties":{"city":"Richmond","organizations":"Wayne Vitale","geo_score":0.902,"zip code":"94804","id":"a69v3dtbrgn4","geo_precision":"range","satete":"CA","address":"2600 Barrett Avenue"},"type":"Feature","geometry":{"type":"Point","coordinates":[-122.343589,37.937916]}},{"properties":{"city":"El Cerrito","organizations":"Yangchen Lhamo","geo_score":0.902,"zip code":"94530","id":"a69v3dtrkojo","geo_precision":"range","satete":"CA","address":"6485 Conlon Avenue"},"type":"Feature","geometry":{"type":"Point","coordinates":[-122.317797,37.931567]}},{"properties":{"city":"El Cerrito","organizations":null,"geo_score":0.902,"zip code":"94530","id":"a69v3drz7zlp","geo_precision":"range","satete":"CA","address":"6615 Schmidt Lane"},"type":"Feature","geometry":{"type":"Point","coordinates":[-122.307725,37.91526]}}],"is_temporal":false,"author":{"url":"","metadata":"","contact_name":"","contact_address":"","source":"","contact_phone":""},"source":"","pagination":{"sort":null,"start":0,"total":50,"limit":1000000},"state":"complete","tags":"","published":"2014-08-15T02:24:12-04:00","id":208826}