{"type":"FeatureCollection","data_type":"Dataset","url_type":null,"permissions":[{"permissions":{"download":true,"view":true},"group_id":"everyone"}],"classification":null,"title":"Florida_hospices_022712","count":43,"stream_id":209514,"contributor":{"url":"http://geocommons.com/users/40762","name":"frangilpin"},"data_attributes":null,"calculation_params":null,"icon_link":null,"link":"http://geocommons.com/overlays/209514.json","extent":[-87.205,24.5499,-80.0679,30.4732],"geometry_types":["point"],"unique_name":null,"name":"Florida_hospices_022712","feature_count":43,"description":"","next_feature":null,"is_raster":false,"short_classification":"Y","stats":{"beds":{"max":161,"mean":24.7209302325581,"variance":1174.5869324474,"stdev":34.2722472628714,"min":0,"median":13}},"features":[{"properties":{"status":"Not-For-Profit","city":"NAPLES","name":"AVOW HOSPICE  INC.","zip":"34105-3847","county":"Collier","geo_score":1.0,"beds":20,"phone":"(239) 261-4404","license expiration":"1/31/2013","owner":"AVOW HOSPICE  INC.","license effective":"2/2/2012","id":"a62w0s4zd0p9","geo_precision":"range","address":"1095 WHIPPOORWILL LANE","state":"FL"},"type":"Feature","geometry":{"type":"Point","coordinates":[-81.743476,26.208165]}},{"properties":{"status":"Not-For-Profit","city":"TALLAHASSEE","name":"BIG BEND HOSPICE  INC.","zip":"32308-5428","county":"Leon","geo_score":0.929,"beds":12,"phone":"(850) 878-5310","license expiration":"3/31/2013","owner":"BIG BEND HOSPICE INC","license effective":"6/24/2011","id":"a62w0s1skyvq","geo_precision":"range","address":"1723 MAHAN CENTER BLVD","state":"FL"},"type":"Feature","geometry":{"type":"Point","coordinates":[-84.236083,30.459908]}},{"properties":{"status":"Not-For-Profit","city":"MIAMI LAKES","name":"CATHOLIC HOSPICE INC","zip":"33014-2568","county":"Miami-Dade","geo_score":0.935,"beds":13,"phone":"(305) 822-2380","license expiration":"11/30/2013","owner":"CATHOLIC HOSPICE INC","license effective":"12/1/2011","id":"a62w0ryr7d74","geo_precision":"range","address":"14875 NW 77TH AVENUE","state":"FL"},"type":"Feature","geometry":{"type":"Point","coordinates":[-80.324326,25.90853]}},{"properties":{"status":"Not-For-Profit","city":"JACKSONVILLE","name":"COMMUNITY HOSPICE OF NORTHEAST FLORIDA  INC.","zip":"32257-6030","county":"Duval","geo_score":1.0,"beds":70,"phone":"(904) 268-5200","license expiration":"7/31/2013","owner":"COMMUNITY HOSPICE OF NORTHEAST FLORIDA  INC.","license effective":"8/1/2011","id":"a62w0rtqi7vo","geo_precision":"range","address":"4266 SUNBEAM ROAD","state":"FL"},"type":"Feature","geometry":{"type":"Point","coordinates":[-81.605891,30.205849]}},{"properties":{"status":"For-Profit","city":"BARTOW","name":"COMPASSIONATE CARE HOSPICE","zip":"33830","county":"Polk","geo_score":0.919,"beds":0,"phone":"(863) 709-0099","license expiration":"2/21/2013","owner":"COMPASSIONATE CARE HOSPICE OF MIAMI DADE INC","license effective":"2/22/2011","id":"a62w0rvh7w16","geo_precision":"range","address":"2393 E F GRIFFIN ROAD","state":"FL"},"type":"Feature","geometry":{"type":"Point","coordinates":[-81.87114,27.952201]}},{"properties":{"status":"Not-For-Profit","city":"TAVARES","name":"CORNERSTONE HOSPICE &amp; PALLIATIVE CARE INC","zip":"32778-9648","county":"Lake","geo_score":0.586,"beds":36,"phone":"(352) 343-1341","license expiration":"5/31/2013","owner":"CORNERSTONE HOSPICE &amp; PALLIATIVE CARE  INC.","license effective":"7/31/2011","id":"a62w0s6tyz58","geo_precision":"street","address":"2445 LANE PARK ROAD","state":"FL"},"type":"Feature","geometry":{"type":"Point","coordinates":[-81.718612,28.80762]}},{"properties":{"status":"Not-For-Profit","city":"PENSACOLA","name":"COVENANT HOSPICE  INC.","zip":"32504-8916","county":"Escambia","geo_score":0.751,"beds":18,"phone":"(850) 433-2155","license expiration":"11/30/2013","owner":"COVENANT HOSPICE  INC","license effective":"12/1/2011","id":"a62w0s536f8x","geo_precision":"range","address":"5041 NORTH 12TH AVENUE","state":"FL"},"type":"Feature","geometry":{"type":"Point","coordinates":[-87.200232,30.473206]}},{"properties":{"status":"Not-For-Profit","city":"PANAMA CITY","name":"EMERALD COAST HOSPICE","zip":"32405-4411","county":"Bay","geo_score":0.61,"beds":0,"phone":"(850) 769-0055","license expiration":"2/28/2013","owner":"HOSPICE OF THE EMERALD COAST  INC.","license effective":"3/1/2011","id":"a62w0s8aed0o","geo_precision":"street","address":"2925 MARTIN LUTHER KING BOULEVARD","state":"FL"},"type":"Feature","geometry":{"type":"Point","coordinates":[-85.304049,29.822667]}},{"properties":{"status":"Not-For-Profit","city":"ORMOND BEACH","name":"FLORIDA HOSPITAL HOSPICECARE","zip":"32174-5180","county":"Volusia","geo_score":1.0,"beds":8,"phone":"(386) 671-2138","license expiration":"5/31/2013","owner":"MEMORIAL HOSPITAL FLAGLER INC","license effective":"6/28/2011","id":"a62w0rsuf21n","geo_precision":"range","address":"770 WEST GRANADA BOULEVARD","state":"FL"},"type":"Feature","geometry":{"type":"Point","coordinates":[-81.080746,29.278896]}},{"properties":{"status":"Not-For-Profit","city":"LAKELAND","name":"GOOD SHEPHERD HOSPICE","zip":"33815-1556","county":"Polk","geo_score":1.0,"beds":28,"phone":"(863) 682-0067","license expiration":"4/30/2012","owner":"GOOD SHEPHERD HOSPICE INC","license effective":"5/9/2011","id":"a62w0s1a77to","geo_precision":"range","address":"320 W MAIN ST","state":"FL"},"type":"Feature","geometry":{"type":"Point","coordinates":[-81.959773,28.044107]}},{"properties":{"status":"Not-For-Profit","city":"NEW PORT RICHEY","name":"GULFSIDE REGIONAL HOSPICE INC","zip":"34653-5240","county":"Pasco","geo_score":1.0,"beds":22,"phone":"(727) 845-5707","license expiration":"3/31/2013","owner":"GULFSIDE REGIONAL HOSPICE  INC.","license effective":"4/1/2011","id":"a62w0s4yu5m4","geo_precision":"range","address":"6117 TROUBLE CREEK RD","state":"FL"},"type":"Feature","geometry":{"type":"Point","coordinates":[-82.713417,28.224389]}},{"properties":{"status":"Not-For-Profit","city":"PORT ORANGE","name":"HALIFAX HEALTH HOSPICE OF VOLUSIA/FLAGLER","zip":"32129-9626","county":"Volusia","geo_score":1.0,"beds":46,"phone":"(386) 322-4701","license expiration":"7/31/2013","owner":"HALIFAX HOSPICE INC","license effective":"8/1/2011","id":"a62w0rx1xakr","geo_precision":"range","address":"3800 WOODBRIAR TRAIL","state":"FL"},"type":"Feature","geometry":{"type":"Point","coordinates":[-81.012089,29.127471]}},{"properties":{"status":"Not-For-Profit","city":"GAINESVILLE","name":"HAVEN HOSPICE","zip":"32606-3809","county":"Alachua","geo_score":0.854,"beds":62,"phone":"(352) 378-2121","license expiration":"5/31/2013","owner":"NORTH CENTRAL FLORIDA HOSPICE INC","license effective":"6/1/2011","id":"a62w0rynhhj8","geo_precision":"range","address":"4200 N W 90TH BOULEVARD","state":"FL"},"type":"Feature","geometry":{"type":"Point","coordinates":[-82.438164,29.675915]}},{"properties":{"status":"For-Profit","city":"JACKSONVILLE","name":"HEARTLAND HOME HEALTH CARE AND HOSPICE","zip":"32256-7451","county":"Duval","geo_score":1.0,"beds":0,"phone":"(904) 737-2553","license expiration":"9/5/2013","owner":"HCR MANOR CARE SERVICES OF FLORIDA INC","license effective":"9/6/2011","id":"a62w0rt89kla","geo_precision":"range","address":"8130 BAYMEADOWS WAY WEST","state":"FL"},"type":"Feature","geometry":{"type":"Point","coordinates":[-81.589363,30.232649]}},{"properties":{"status":"For-Profit","city":"PLANTATION","name":"HEARTLAND HOSPICE SERVICES","zip":"33324-2695","county":"Broward","geo_score":0.916,"beds":0,"phone":"(954) 467-7423","license expiration":"9/30/2013","owner":"HCR MANOR CARE SERVICES OF FLORIDA III INC","license effective":"11/29/2011","id":"a62w0s8j66wq","geo_precision":"range","address":"150 S PINE ISLAND ROAD","state":"FL"},"type":"Feature","geometry":{"type":"Point","coordinates":[-80.263275,26.117434]}},{"properties":{"status":"For-Profit","city":"HOMESTEAD","name":"HEARTLAND HOSPICE SERVICES","zip":"33030","county":"Miami-Dade","geo_score":0.623,"beds":0,"phone":"(305) 247-3127","license expiration":"3/1/2013","owner":"HCR MANOR CARE SERVICES OF FLORIDA II INC","license effective":"3/2/2011","id":"a62w0s4y0o5t","geo_precision":"street","address":"381 N KROME AVE","state":"FL"},"type":"Feature","geometry":{"type":"Point","coordinates":[-80.475839,25.480826]}},{"properties":{"status":"Not-For-Profit","city":"FORT MYERS","name":"HOPE HOSPICE AND COMMUNITY SERVICES INC","zip":"33908-3600","county":"Lee","geo_score":1.0,"beds":100,"phone":"(239) 482-4673","license expiration":"8/31/2013","owner":"HOPE HOSPICE AND COMMUNITY SERVICES INC","license effective":"9/1/2011","id":"a62w0s0b78pk","geo_precision":"range","address":"9470 HEALTHPARK CIRCLE","state":"FL"},"type":"Feature","geometry":{"type":"Point","coordinates":[-81.911619,26.511235]}},{"properties":{"status":"Not-For-Profit","city":"BOCA RATON","name":"HOSPICE BY THE SEA  INC.","zip":"33486-3307","county":"Palm Beach","geo_score":1.0,"beds":30,"phone":"(561) 395-5031","license expiration":"5/31/2013","owner":"HOSPICE BY THE SEA  INC.","license effective":"7/11/2011","id":"a62w0s8g91ni","geo_precision":"range","address":"1531 WEST PALMETTO PARK ROAD","state":"FL"},"type":"Feature","geometry":{"type":"Point","coordinates":[-80.114383,26.350753]}},{"properties":{"status":"Not-For-Profit","city":"MIAMI","name":"HOSPICE CARE OF SOUTH FLORIDA","zip":"33126-1929","county":"Miami-Dade","geo_score":0.927,"beds":0,"phone":"(305) 591-1606","license expiration":"6/30/2013","owner":"COMPREHENSIVE HOME HEALTH CARE INC","license effective":"7/1/2011","id":"a62w0rwfh7tb","geo_precision":"range","address":"7270 NW 12TH ST","state":"FL"},"type":"Feature","geometry":{"type":"Point","coordinates":[-80.314606,25.782594]}},{"properties":{"status":"Not-For-Profit","city":"LECANTO","name":"HOSPICE OF CITRUS COUNTY  INC.","zip":"34461","county":"Citrus","geo_score":1.0,"beds":16,"phone":"(352) 527-2020","license expiration":"7/31/2013","owner":"HOSPICE OF CITRUS COUNTY INC","license effective":"8/31/2011","id":"a62w0rv2c2wd","geo_precision":"range","address":"3264 WEST AUDUBON PARK PATH","state":"FL"},"type":"Feature","geometry":{"type":"Point","coordinates":[-82.489959,28.864912]}},{"properties":{"status":"Not-For-Profit","city":"FORT LAUDERDALE","name":"HOSPICE OF GOLD COAST HOME HEALTH SERVICES","zip":"33309-3005","county":"Broward","geo_score":0.93,"beds":0,"phone":"(954) 785-2990","license expiration":"10/31/2013","owner":"NORTH BROWARD HOSPITAL DISTRICT","license effective":"11/1/2011","id":"a62w0rvx0j05","geo_precision":"range","address":"2101 W COMMERCIAL BLVD","state":"FL"},"type":"Feature","geometry":{"type":"Point","coordinates":[-80.171143,26.188088]}},{"properties":{"status":"Not-For-Profit","city":"WEST MELBOURNE","name":"HOSPICE OF HEALTH FIRST  INC.","zip":"32904-4046","county":"Brevard","geo_score":0.97,"beds":16,"phone":"(321) 952-0494","license expiration":"4/30/2013","owner":"HOSPICE OF HEALTH FIRST INC","license effective":"5/1/2011","id":"a62w0ruy0i1p","geo_precision":"range","address":"1900 DAIRY ROAD","state":"FL"},"type":"Feature","geometry":{"type":"Point","coordinates":[-80.637979,28.080623]}},{"properties":{"status":"Not-For-Profit","city":"OCALA","name":"HOSPICE OF MARION COUNTY  INC.","zip":"34474-8489","county":"Marion","geo_score":0.935,"beds":64,"phone":"(352) 873-7400","license expiration":"12/31/2012","owner":"HOSPICE OF MARION COUNTY INC","license effective":"1/1/2011","id":"a62w0s2adnkl","geo_precision":"range","address":"3231 S W 34TH AVENUE","state":"FL"},"type":"Feature","geometry":{"type":"Point","coordinates":[-82.178375,29.156003]}},{"properties":{"status":"Not-For-Profit","city":"OKEECHOBEE","name":"HOSPICE OF OKEECHOBEE  INCORPORATED","zip":"34974-4437","county":"Okeechobee","geo_score":0.916,"beds":12,"phone":"(863) 467-2321","license expiration":"4/30/2013","owner":"HOSPICE OF OKEECHOBEE  INCORPORATED","license effective":"5/1/2011","id":"a62w0rvztmpb","geo_precision":"range","address":"411 SE 4TH STREET","state":"FL"},"type":"Feature","geometry":{"type":"Point","coordinates":[-80.825881,27.240041]}},{"properties":{"status":"Not-For-Profit","city":"WEST PALM BEACH","name":"HOSPICE OF PALM BEACH COUNTY INC","zip":"33407-2387","county":"Palm Beach","geo_score":0.875,"beds":36,"phone":"(561) 848-5200","license expiration":"5/31/2013","owner":"HOSPICE OF PALM BEACH COUNTY  INC.","license effective":"10/1/2011","id":"a62w0s3qm6l5","geo_precision":"range","address":"5300 EAST AVENUE","state":"FL"},"type":"Feature","geometry":{"type":"Point","coordinates":[-80.067901,26.759104]}},{"properties":{"status":"Not-For-Profit","city":"TITUSVILLE","name":"HOSPICE OF ST FRANCIS INC","zip":"32780-7927","county":"Brevard","geo_score":0.383,"beds":0,"phone":"(321) 269-4240","license expiration":"6/30/2013","owner":"HOSPICE OF ST FRANCIS INC","license effective":"7/1/2011","id":"a62w0s362vsc","geo_precision":"street","address":"1250B GRUMMAN PLACE","state":"FL"},"type":"Feature","geometry":{"type":"Point","coordinates":[-81.24338,28.997137]}},{"properties":{"status":"Not-For-Profit","city":"ALTAMONTE SPRINGS","name":"HOSPICE OF THE COMFORTER INC.","zip":"32714-2415","county":"Seminole","geo_score":0.927,"beds":22,"phone":"(407) 682-0808","license expiration":"3/31/2013","owner":"HOSPICE OF THE COMFORTER INC","license effective":"4/1/2011","id":"a62w0rx54w9i","geo_precision":"range","address":"480 WEST CENTRAL PARKWAY","state":"FL"},"type":"Feature","geometry":{"type":"Point","coordinates":[-81.401622,28.672721]}},{"properties":{"status":"Not-For-Profit","city":"KEY WEST","name":"HOSPICE OF THE FLORIDA KEYS INC","zip":"33040-4736","county":"Monroe","geo_score":0.911,"beds":0,"phone":"(305) 294-8812","license expiration":"11/30/2013","owner":"HOSPICE OF THE FLORIDA KEYS  INC.","license effective":"12/1/2011","id":"a62w0s7esqr0","geo_precision":"range","address":"1319 WILLIAM STREET","state":"FL"},"type":"Feature","geometry":{"type":"Point","coordinates":[-81.792774,24.549901]}},{"properties":{"status":"Not-For-Profit","city":"FORT PIERCE","name":"HOSPICE OF THE TREASURE COAST  INCORPORATED","zip":"34981-4901","county":"St. Lucie","geo_score":0.902,"beds":16,"phone":"(772) 403-4500","license expiration":"5/31/2013","owner":"HOSPICE OF THE TREASURE COAST INCORPORATED","license effective":"6/1/2011","id":"a62w0s6t2fxu","geo_precision":"street","address":"5000 DUNN ROAD","state":"FL"},"type":"Feature","geometry":{"type":"Point","coordinates":[-80.36254,27.37429]}},{"properties":{"status":"Not-For-Profit","city":"HUDSON","name":"HPH HOSPICE","zip":"34667-2455","county":"Pasco","geo_score":0.919,"beds":161,"phone":"(727) 863-7971","license expiration":"2/28/2013","owner":"HERNANDO-PASCO HOSPICE INC","license effective":"4/12/2011","id":"a62w0s5imtys","geo_precision":"range","address":"12107 MAJESTIC BOULEVARD","state":"FL"},"type":"Feature","geometry":{"type":"Point","coordinates":[-82.68553,28.33258]}},{"properties":{"status":"Not-For-Profit","city":"TAMPA","name":"LIFEPATH HOSPICE","zip":"33609-3169","county":"Hillsborough","geo_score":1.0,"beds":48,"phone":"(813) 877-2200","license expiration":"4/30/2012","owner":"LIFEPATH HOSPICE INC","license effective":"5/1/2010","id":"a62w0s3zzn24","geo_precision":"range","address":"3010 WEST AZEELE STREET","state":"FL"},"type":"Feature","geometry":{"type":"Point","coordinates":[-82.492273,27.941143]}},{"properties":{"status":"For-Profit","city":"MIAMI","name":"ODYSSEY HOSPICE","zip":"33126-2045","county":"Miami-Dade","geo_score":1.0,"beds":0,"phone":"(786) 388-1400","license expiration":"10/31/2013","owner":"ODYSSEY HEALTHCARE OF MARION COUNTY INC","license effective":"11/1/2011","id":"a62w0s134gqw","geo_precision":"range","address":"6161 BLUE LAGOON DRIVE","state":"FL"},"type":"Feature","geometry":{"type":"Point","coordinates":[-80.295102,25.783124]}},{"properties":{"status":"For-Profit","city":"PENSACOLA","name":"REGENCY HOSPICE OF NORTHWEST FLORIDA INC","zip":"32503-2543","county":"Escambia","geo_score":0.902,"beds":0,"phone":"(850) 478-2695","license expiration":"6/4/2013","owner":"Regency Hospice of Northwest Florida Inc","license effective":"6/5/2011","id":"a62w0rwbth7w","geo_precision":"range","address":"4900 BAYOU BOULEVARD","state":"FL"},"type":"Feature","geometry":{"type":"Point","coordinates":[-87.204994,30.466973]}},{"properties":{"status":"For-Profit","city":"ORLANDO","name":"SAMARITAN CARE HOSPICE OF FLORIDA","zip":"32807-3567","county":"Orange","geo_score":0.922,"beds":0,"phone":"(407) 514-1300","license expiration":"8/21/2012","owner":"SAMARITAN CARE HOSPICE OF OSCEOLA LLC","license effective":"8/22/2010","id":"a62w0s3n2u4k","geo_precision":"range","address":"1300 N SEMORAN BLVD","state":"FL"},"type":"Feature","geometry":{"type":"Point","coordinates":[-81.310861,28.562777]}},{"properties":{"status":"For-Profit","city":"MIAMI","name":"SEASONS HOSPICE &amp; PALLIATIVE CARE OF SOUTHERN FLORIDA  INC","zip":"33137-2706","county":"Miami-Dade","geo_score":0.927,"beds":0,"phone":"(305) 762-3883","license expiration":"9/19/2012","owner":"Seasons Hospice &amp; Palliative Care of Southern Florida  Inc","license effective":"9/20/2010","id":"a62w0s26m0j6","geo_precision":"range","address":"5200 NORTHEAST 2ND AVENUE","state":"FL"},"type":"Feature","geometry":{"type":"Point","coordinates":[-80.191796,25.823802]}},{"properties":{"status":"Not-For-Profit","city":"CLEARWATER","name":"SUNCOAST HOSPICE","zip":"33760-3413","county":"Pinellas","geo_score":0.807,"beds":102,"phone":"(727) 586-4432","license expiration":"6/30/2013","owner":"THE HOSPICE OF THE FLORIDA SUNCOAST INC","license effective":"7/1/2011","id":"a62w0rtcpdtc","geo_precision":"street","address":"5771 ROOSEVELT BOULEVARD","state":"FL"},"type":"Feature","geometry":{"type":"Point","coordinates":[-82.708175,27.915221]}},{"properties":{"status":"Not-For-Profit","city":"STUART","name":"THE HOSPICE OF MARTIN &amp; ST. LUCIE  INC.","zip":"34997-5688","county":"Martin","geo_score":1.0,"beds":16,"phone":"(772) 403-4500","license expiration":"8/31/2013","owner":"HOSPICE OF MARTIN AND ST LUCIE INC","license effective":"9/1/2011","id":"a62w0rvyigkc","geo_precision":"range","address":"1201 SOUTHEAST INDIAN STREET","state":"FL"},"type":"Feature","geometry":{"type":"Point","coordinates":[-80.239514,27.161147]}},{"properties":{"status":"Not-For-Profit","city":"SARASOTA","name":"TIDEWELL HOSPICE INC","zip":"34238-5160","county":"Sarasota","geo_score":1.0,"beds":65,"phone":"(941) 552-7500","license expiration":"10/31/2013","owner":"TIDEWELL HOSPICE INC","license effective":"11/1/2011","id":"a62w0rx9hzpt","geo_precision":"range","address":"5955 RAND BOULEVARD","state":"FL"},"type":"Feature","geometry":{"type":"Point","coordinates":[-82.45918,27.264933]}},{"properties":{"status":"For-Profit","city":"NORTH MIAMI BEACH","name":"VITAS HEALTHCARE CORPORATION OF FLORIDA","zip":"33169-5549","county":"Miami-Dade","geo_score":0.855,"beds":0,"phone":"(350) 654-3718","license expiration":"7/31/2013","owner":"VITAS HEALTHCARE CORPORATION OF FLORIDA","license effective":"8/1/2011","id":"a62w0s8y6gmk","geo_precision":"range","address":"16800 N W 2ND AVENUE","state":"FL"},"type":"Feature","geometry":{"type":"Point","coordinates":[-80.204411,25.928863]}},{"properties":{"status":"For-Profit","city":"BOYNTON BEACH","name":"VITAS HEALTHCARE CORPORATION OF FLORIDA","zip":"33426-6588","county":"Palm Beach","geo_score":1.0,"beds":0,"phone":"(561) 364-1479","license expiration":"11/12/2013","owner":"VITAS HEALTHCARE CORPORATION OF FLORIDA","license effective":"11/13/2011","id":"a62w0ryl3twu","geo_precision":"range","address":"1901 SOUTH CONGRESS AVENUE","state":"FL"},"type":"Feature","geometry":{"type":"Point","coordinates":[-80.090178,26.510565]}},{"properties":{"status":"For-Profit","city":"MELBOURNE","name":"VITAS HEALTHCARE CORPORATION OF FLORIDA","zip":"32934-7214","county":"Brevard","geo_score":0.811,"beds":0,"phone":"(321) 751-6671","license expiration":"12/30/2012","owner":"VITAS HEALTHCARE CORPORATION OF FLORIDA","license effective":"5/24/2011","id":"a62w0s5qlc7x","geo_precision":"street","address":"4450 W EAU GALLIE BLVD","state":"FL"},"type":"Feature","geometry":{"type":"Point","coordinates":[-80.696218,28.120779]}},{"properties":{"status":"Not-For-Profit","city":"VERO BEACH","name":"VNA HOSPICE OF INDIAN RIVER COUNTY INC","zip":"32960-6549","county":"Indian River","geo_score":0.732,"beds":12,"phone":"(772) 567-5551","license expiration":"9/30/2013","owner":"VNA HOSPICE OF INDIAN RIVER COUNTY INC","license effective":"10/1/2011","id":"a62w0s40xpih","geo_precision":"range","address":"1110 35TH LANE","state":"FL"},"type":"Feature","geometry":{"type":"Point","coordinates":[-80.421579,27.623689]}},{"properties":{"status":"For-Profit","city":"VIERA","name":"WUESTHOFF BREVARD HOSPICE AND PALLIATIVE CARE","zip":"32940-7983","county":"Brevard","geo_score":0.913,"beds":12,"phone":"(321) 253-2222","license expiration":"9/30/2012","owner":"BREVARD HMA HOSPICE LLC","license effective":"4/11/2011","id":"a62w0ru45rdi","geo_precision":"range","address":"8060 SPYGLASS HILL ROAD","state":"FL"},"type":"Feature","geometry":{"type":"Point","coordinates":[-80.701842,28.237234]}}],"is_temporal":false,"author":{"url":"","metadata":null,"contact_name":null,"contact_address":null,"source":null,"contact_phone":null},"source":"","pagination":{"sort":null,"start":0,"total":43,"limit":1000000},"state":"complete","tags":"","published":"2014-08-15T03:19:55-04:00","id":209514}