{"type":"FeatureCollection","data_type":"Dataset","url_type":null,"permissions":[{"permissions":{"download":true,"view":true},"group_id":"everyone"}],"classification":null,"title":"final-zips","count":49,"stream_id":209517,"contributor":{"url":"http://geocommons.com/users/40713","name":"beanbone"},"data_attributes":null,"calculation_params":null,"icon_link":null,"link":"http://geocommons.com/overlays/209517.json","extent":[-75.0407,39.8723,-73.9751,41.1029],"geometry_types":["point"],"unique_name":null,"name":"final-zips","feature_count":49,"description":"","next_feature":null,"is_raster":false,"short_classification":"Y","stats":{"priority":{"max":5,"mean":2.54166666666667,"variance":2.21099290780142,"stdev":1.48694078826341,"min":1,"median":2}},"features":[{"properties":{"column_4":null,"column_5":null,"zip":"08540","column_6":null,"geo_score":0.857,"priority":5,"id":"a669e0k5qim9","geo_precision":"zip","state":"NJ"},"type":"Feature","geometry":{"type":"Point","coordinates":[-74.64795,40.363882]}},{"properties":{"column_4":null,"column_5":null,"zip":"07920","column_6":null,"geo_score":0.857,"priority":5,"id":"a669e0w4vvl6","geo_precision":"zip","state":"NJ"},"type":"Feature","geometry":{"type":"Point","coordinates":[-74.540434,40.719545]}},{"properties":{"column_4":null,"column_5":null,"zip":"08807","column_6":null,"geo_score":0.857,"priority":5,"id":"a669e0p6cjno","geo_precision":"zip","state":"NJ"},"type":"Feature","geometry":{"type":"Point","coordinates":[-74.607518,40.598702]}},{"properties":{"column_4":null,"column_5":null,"zip":"08904","column_6":null,"geo_score":0.857,"priority":5,"id":"a669e0iuar1y","geo_precision":"zip","state":"NJ"},"type":"Feature","geometry":{"type":"Point","coordinates":[-74.428095,40.499866]}},{"properties":{"column_4":null,"column_5":null,"zip":"08902","column_6":null,"geo_score":0.857,"priority":5,"id":"a669e0xtlw6h","geo_precision":"zip","state":"NJ"},"type":"Feature","geometry":{"type":"Point","coordinates":[-74.47043,40.443717]}},{"properties":{"column_4":null,"column_5":null,"zip":"07043","column_6":null,"geo_score":0.857,"priority":5,"id":"a669e0uxkn7v","geo_precision":"zip","state":"NJ"},"type":"Feature","geometry":{"type":"Point","coordinates":[-74.201257,40.846211]}},{"properties":{"column_4":null,"column_5":null,"zip":"07078","column_6":null,"geo_score":0.857,"priority":5,"id":"a669e0qz51rf","geo_precision":"zip","state":"NJ"},"type":"Feature","geometry":{"type":"Point","coordinates":[-74.334316,40.745934]}},{"properties":{"column_4":null,"column_5":null,"zip":"07960","column_6":null,"geo_score":0.857,"priority":5,"id":"a669e0r0ji9u","geo_precision":"zip","state":"NJ"},"type":"Feature","geometry":{"type":"Point","coordinates":[-74.527101,40.805656]}},{"properties":{"column_4":null,"column_5":null,"zip":"08003","column_6":null,"geo_score":0.857,"priority":4,"id":"a669e0rejcsm","geo_precision":"zip","state":"NJ"},"type":"Feature","geometry":{"type":"Point","coordinates":[-74.998501,39.872336]}},{"properties":{"column_4":null,"column_5":null,"zip":"08873","column_6":null,"geo_score":0.857,"priority":4,"id":"a669e0kjibg2","geo_precision":"zip","state":"NJ"},"type":"Feature","geometry":{"type":"Point","coordinates":[-74.529322,40.497604]}},{"properties":{"column_4":null,"column_5":null,"zip":"07760","column_6":null,"geo_score":0.857,"priority":4,"id":"a669e0njfds9","geo_precision":"zip","state":"NJ"},"type":"Feature","geometry":{"type":"Point","coordinates":[-73.975138,40.379832]}},{"properties":{"column_4":null,"column_5":null,"zip":"07931","column_6":null,"geo_score":0.857,"priority":4,"id":"a669e0rwa838","geo_precision":"zip","state":"NJ"},"type":"Feature","geometry":{"type":"Point","coordinates":[-74.607103,40.693157]}},{"properties":{"column_4":null,"column_5":null,"zip":"07052","column_6":null,"geo_score":0.857,"priority":4,"id":"a669e0vtbuy9","geo_precision":"zip","state":"NJ"},"type":"Feature","geometry":{"type":"Point","coordinates":[-74.273759,40.775101]}},{"properties":{"column_4":null,"column_5":null,"zip":"08901","column_6":null,"geo_score":0.857,"priority":4,"id":"a669e0xuga5g","geo_precision":"zip","state":"NJ"},"type":"Feature","geometry":{"type":"Point","coordinates":[-74.403206,40.484827]}},{"properties":{"column_4":null,"column_5":null,"zip":"07039","column_6":null,"geo_score":0.857,"priority":3,"id":"a669e0xtmqdv","geo_precision":"zip","state":"NJ"},"type":"Feature","geometry":{"type":"Point","coordinates":[-74.324594,40.774267]}},{"properties":{"column_4":null,"column_5":null,"zip":"07076","column_6":null,"geo_score":0.857,"priority":3,"id":"a669e0pgt38b","geo_precision":"zip","state":"NJ"},"type":"Feature","geometry":{"type":"Point","coordinates":[-74.368244,40.637852]}},{"properties":{"column_4":null,"column_5":null,"zip":"07090","column_6":null,"geo_score":0.857,"priority":3,"id":"a669e0l76vxt","geo_precision":"zip","state":"NJ"},"type":"Feature","geometry":{"type":"Point","coordinates":[-74.346764,40.652851]}},{"properties":{"column_4":null,"column_5":null,"zip":"07901","column_6":null,"geo_score":0.857,"priority":3,"id":"a669e0tsiwdj","geo_precision":"zip","state":"NJ"},"type":"Feature","geometry":{"type":"Point","coordinates":[-74.361594,40.71275]}},{"properties":{"column_4":null,"column_5":null,"zip":"07059","column_6":null,"geo_score":0.857,"priority":3,"id":"a669e0xerjky","geo_precision":"zip","state":"NJ"},"type":"Feature","geometry":{"type":"Point","coordinates":[-74.532449,40.629101]}},{"properties":{"column_4":null,"column_5":null,"zip":"07069","column_6":null,"geo_score":0.857,"priority":3,"id":"a669e0pjr1zc","geo_precision":"zip","state":"NJ"},"type":"Feature","geometry":{"type":"Point","coordinates":[-74.43901,40.643369]}},{"properties":{"column_4":null,"column_5":null,"zip":"08854","column_6":null,"geo_score":0.857,"priority":2,"id":"a669e0phzual","geo_precision":"zip","state":"NJ"},"type":"Feature","geometry":{"type":"Point","coordinates":[-74.474598,40.515382]}},{"properties":{"column_4":null,"column_5":null,"zip":"08057","column_6":null,"geo_score":0.857,"priority":2,"id":"a669e0runvv1","geo_precision":"zip","state":"NJ"},"type":"Feature","geometry":{"type":"Point","coordinates":[-74.982391,39.962335]}},{"properties":{"column_4":null,"column_5":null,"zip":"08033","column_6":null,"geo_score":0.857,"priority":2,"id":"a669e0mbyezp","geo_precision":"zip","state":"NJ"},"type":"Feature","geometry":{"type":"Point","coordinates":[-75.040727,39.90178]}},{"properties":{"column_4":null,"column_5":null,"zip":"08820","column_6":null,"geo_score":0.857,"priority":2,"id":"a669e0seu1qb","geo_precision":"zip","state":"NJ"},"type":"Feature","geometry":{"type":"Point","coordinates":[-74.362616,40.576611]}},{"properties":{"column_4":null,"column_5":null,"zip":"08844","column_6":null,"geo_score":0.857,"priority":2,"id":"a669e0o1vrey","geo_precision":"zip","state":"NJ"},"type":"Feature","geometry":{"type":"Point","coordinates":[-74.609278,40.569622]}},{"properties":{"column_4":null,"column_5":null,"zip":"08831","column_6":null,"geo_score":0.857,"priority":2,"id":"a669e0no3omw","geo_precision":"zip","state":"NJ"},"type":"Feature","geometry":{"type":"Point","coordinates":[-74.407373,40.37733]}},{"properties":{"column_4":null,"column_5":null,"zip":"08840","column_6":null,"geo_score":0.857,"priority":2,"id":"a669e0tgxfur","geo_precision":"zip","state":"NJ"},"type":"Feature","geometry":{"type":"Point","coordinates":[-74.323481,40.552604]}},{"properties":{"column_4":null,"column_5":null,"zip":"08816","column_6":null,"geo_score":0.857,"priority":2,"id":"a669e0x8nekn","geo_precision":"zip","state":"NJ"},"type":"Feature","geometry":{"type":"Point","coordinates":[-74.409595,40.455106]}},{"properties":{"column_4":null,"column_5":null,"zip":"07762","column_6":null,"geo_score":0.857,"priority":2,"id":"a669e0uk5uo7","geo_precision":"zip","state":"NJ"},"type":"Feature","geometry":{"type":"Point","coordinates":[-74.03097,40.150392]}},{"properties":{"column_4":null,"column_5":null,"zip":"08055","column_6":null,"geo_score":0.857,"priority":2,"id":"a669e0x27f0e","geo_precision":"zip","state":"NJ"},"type":"Feature","geometry":{"type":"Point","coordinates":[-74.831552,39.872892]}},{"properties":{"column_4":null,"column_5":null,"zip":"07728","column_6":null,"geo_score":0.857,"priority":2,"id":"a669e0lso9tc","geo_precision":"zip","state":"NJ"},"type":"Feature","geometry":{"type":"Point","coordinates":[-74.255701,40.203446]}},{"properties":{"column_4":null,"column_5":null,"zip":"07041","column_6":null,"geo_score":0.857,"priority":2,"id":"a669e0skkogu","geo_precision":"zip","state":"NJ"},"type":"Feature","geometry":{"type":"Point","coordinates":[-74.301692,40.73365]}},{"properties":{"column_4":null,"column_5":null,"zip":"07079","column_6":null,"geo_score":0.857,"priority":1,"id":"a669e0r5b7ez","geo_precision":"zip","state":"NJ"},"type":"Feature","geometry":{"type":"Point","coordinates":[-74.267541,40.745772]}},{"properties":{"column_4":null,"column_5":null,"zip":"07934","column_6":null,"geo_score":0.857,"priority":1,"id":"a669e0mld0cu","geo_precision":"zip","state":"NJ"},"type":"Feature","geometry":{"type":"Point","coordinates":[-74.657105,40.715657]}},{"properties":{"column_4":null,"column_5":null,"zip":"07006","column_6":null,"geo_score":0.857,"priority":1,"id":"a669e0q9tjq4","geo_precision":"zip","state":"NJ"},"type":"Feature","geometry":{"type":"Point","coordinates":[-74.266259,40.863433]}},{"properties":{"column_4":null,"column_5":null,"zip":"07945","column_6":null,"geo_score":0.857,"priority":1,"id":"a669e0l98qly","geo_precision":"zip","state":"NJ"},"type":"Feature","geometry":{"type":"Point","coordinates":[-74.625159,40.771211]}},{"properties":{"column_4":null,"column_5":null,"zip":"07450","column_6":null,"geo_score":0.857,"priority":1,"id":"a669e0k6qvqg","geo_precision":"zip","state":"NJ"},"type":"Feature","geometry":{"type":"Point","coordinates":[-74.11207,40.982247]}},{"properties":{"column_4":null,"column_5":null,"zip":"07739","column_6":null,"geo_score":0.857,"priority":1,"id":"a669e0ve3v28","geo_precision":"zip","state":"NJ"},"type":"Feature","geometry":{"type":"Point","coordinates":[-74.02875,40.335666]}},{"properties":{"column_4":null,"column_5":null,"zip":"08534","column_6":null,"geo_score":0.857,"priority":1,"id":"a669e0qx3pkq","geo_precision":"zip","state":"NJ"},"type":"Feature","geometry":{"type":"Point","coordinates":[-74.813557,40.32863]}},{"properties":{"column_4":null,"column_5":null,"zip":"08502","column_6":null,"geo_score":0.857,"priority":1,"id":"a669e0ysm3r5","geo_precision":"zip","state":"NJ"},"type":"Feature","geometry":{"type":"Point","coordinates":[-74.662381,40.447605]}},{"properties":{"column_4":null,"column_5":null,"zip":"07430","column_6":null,"geo_score":0.857,"priority":1,"id":"a669e0obupm1","geo_precision":"zip","state":"NJ"},"type":"Feature","geometry":{"type":"Point","coordinates":[-74.151533,41.102874]}},{"properties":{"column_4":null,"column_5":null,"zip":"07928","column_6":null,"geo_score":0.857,"priority":1,"id":"a669e0wy5bne","geo_precision":"zip","state":"NJ"},"type":"Feature","geometry":{"type":"Point","coordinates":[-74.496806,40.759477]}},{"properties":{"column_4":null,"column_5":null,"zip":"08822","column_6":null,"geo_score":0.857,"priority":1,"id":"a669e0w7237j","geo_precision":"zip","state":"NJ"},"type":"Feature","geometry":{"type":"Point","coordinates":[-74.808775,40.502604]}},{"properties":{"column_4":null,"column_5":null,"zip":null,"column_6":null,"geo_score":0.0,"priority":null,"id":"a669e0k7r2ei","geo_precision":"unmatched","state":"NJ"},"type":"Feature","geometry":null},{"properties":{"column_4":null,"column_5":null,"zip":"08753","column_6":null,"geo_score":0.857,"priority":1,"id":"a669e0jb1g86","geo_precision":"zip","state":"NJ"},"type":"Feature","geometry":{"type":"Point","coordinates":[-74.204308,39.942063]}},{"properties":{"column_4":null,"column_5":null,"zip":"07976","column_6":null,"geo_score":0.857,"priority":1,"id":"a669e0j10dyd","geo_precision":"zip","state":"NJ"},"type":"Feature","geometry":{"type":"Point","coordinates":[-74.483413,40.739599]}},{"properties":{"column_4":null,"column_5":null,"zip":"07016","column_6":null,"geo_score":0.857,"priority":1,"id":"a669e0mbmfmf","geo_precision":"zip","state":"NJ"},"type":"Feature","geometry":{"type":"Point","coordinates":[-74.287092,40.658991]}},{"properties":{"column_4":null,"column_5":null,"zip":"07417","column_6":null,"geo_score":0.857,"priority":1,"id":"a669e0k0ayil","geo_precision":"zip","state":"NJ"},"type":"Feature","geometry":{"type":"Point","coordinates":[-74.20831,41.010464]}},{"properties":{"column_4":null,"column_5":null,"zip":"07470","column_6":null,"geo_score":0.857,"priority":1,"id":"a669e0v39gai","geo_precision":"zip","state":"NJ"},"type":"Feature","geometry":{"type":"Point","coordinates":[-74.262092,40.991764]}}],"is_temporal":false,"author":{"url":"","metadata":null,"contact_name":null,"contact_address":null,"source":null,"contact_phone":null},"source":"","pagination":{"sort":null,"start":0,"total":49,"limit":1000000},"state":"complete","tags":"","published":"2014-08-15T03:19:58-04:00","id":209517}