{"type":"FeatureCollection","data_type":"Dataset","url_type":null,"permissions":[{"permissions":{"download":true,"view":true},"group_id":"everyone"}],"classification":null,"title":"outreach map trial 2 28","count":23,"stream_id":209792,"contributor":{"url":"http://geocommons.com/users/40927","name":"stephanienoble"},"data_attributes":null,"calculation_params":null,"icon_link":null,"link":"http://geocommons.com/overlays/209792.json","extent":[-170.688,-14.275,-71.4594,48.0945],"geometry_types":["point"],"unique_name":null,"name":"outreach map trial 2 28","feature_count":23,"description":"","next_feature":null,"is_raster":false,"short_classification":"Y","stats":{},"features":[{"properties":{"city":"Mebane","name":"Laura Royal","geo_score":0.667,"street name":"811 S. Third St. Ext","id":"a6mqha7c6fig","geo_precision":"city","state":"NC 27302"},"type":"Feature","geometry":{"type":"Point","coordinates":[-122.415149,48.09454]}},{"properties":{"city":"Clovis","name":"Nathan Lange","geo_score":0.667,"street name":"1727 N. Hughes Ave","id":"a6mqha6ax4bk","geo_precision":"city","state":"CA 93619"},"type":"Feature","geometry":{"type":"Point","coordinates":[-93.0452,42.472758]}},{"properties":{"city":"Rochester","name":"Diversipak InStyle","geo_score":0.714,"street name":"40 Humboldt Street","id":"a6mqhafkgryr","geo_precision":"city","state":"NY 14609"},"type":"Feature","geometry":{"type":"Point","coordinates":[-77.615557,43.154785]}},{"properties":{"city":"Columbian Station","name":"Tim Wolfe","geo_score":0.643,"street name":"10500 Westwood Road","id":"a6mqhaf3bg27","geo_precision":"city","state":"OH 44028"},"type":"Feature","geometry":{"type":"Point","coordinates":[-105.06943,39.587766]}},{"properties":{"city":"Lewisville","name":"Angie O'Brien","geo_score":0.714,"street name":"2175 S Hwy 121, Apt 2096","id":"a6mqhaf38cbq","geo_precision":"city","state":"TX 75067"},"type":"Feature","geometry":{"type":"Point","coordinates":[-96.994174,33.046233]}},{"properties":{"city":"Coral Springs","name":"Ryan Lerman","geo_score":0.595,"street name":"12180 NW 9th Place","id":"a6mqha4ztsb2","geo_precision":"city","state":"FL 33071"},"type":"Feature","geometry":{"type":"Point","coordinates":[-72.589811,42.101483]}},{"properties":{"city":"Orem","name":"Julio Romeo De Leon","geo_score":0.679,"street name":"105 E 1100 S","id":"a6mqhah1g2mg","geo_precision":"city","state":"UT 84058"},"type":"Feature","geometry":{"type":"Point","coordinates":[-96.270575,41.545828]}},{"properties":{"city":"Hattiesburg","name":"Colin Colbourn","geo_score":0.675,"street name":"514 Rebecca Ave","id":"a6mqhach4mup","geo_precision":"city","state":"MS 39401"},"type":"Feature","geometry":{"type":"Point","coordinates":[-78.725838,36.61014]}},{"properties":{"city":"Ann Arbor","name":"Mara Richardson","geo_score":0.625,"street name":"2878 Baylis Dr.","id":"a6mqha7h6pfb","geo_precision":"city","state":"MI 48108"},"type":"Feature","geometry":{"type":"Point","coordinates":[-170.687778,-14.275]}},{"properties":{"city":"Golden","name":"Verne Carlson","geo_score":0.619,"street name":"418 Sunshine Parkway","id":"a6mqha1facgc","geo_precision":"city","state":"CO 80403"},"type":"Feature","geometry":{"type":"Point","coordinates":[-87.087485,31.890428]}},{"properties":{"city":"Rochester","name":"Zeid Nasser","geo_score":0.714,"street name":"125 Tech Park Drive","id":"a6mqhaa4sdrf","geo_precision":"city","state":"NY 14623"},"type":"Feature","geometry":{"type":"Point","coordinates":[-77.615557,43.154785]}},{"properties":{"city":"Las Vegas","name":"Heather Turk","geo_score":0.714,"street name":"2750 W. Wigwam Ave. #1213 Bldg. 24","id":"a6mqhaef4lpc","geo_precision":"city","state":"NV 89123"},"type":"Feature","geometry":{"type":"Point","coordinates":[-115.137223,36.174971]}},{"properties":{"city":"G0X 3G0 CANADA","name":"Richard Cloutier","geo_score":0.583,"street name":"180 rue de l'Anse Sainte-Thecle, QC","id":"a6mqhabe8hvv","geo_precision":"city","state":"G0X 3G0 CANADA"},"type":"Feature","geometry":{"type":"Point","coordinates":[-122.234843,47.380934]}},{"properties":{"city":"El Segundo","name":"Francine Brokaw","geo_score":0.603,"street name":"812 Penn Street","id":"a6mqhabw76hw","geo_precision":"city","state":"CA 90245"},"type":"Feature","geometry":{"type":"Point","coordinates":[-92.896003,35.902299]}},{"properties":{"city":"Randolph","name":"Anne Kostuchik","geo_score":0.714,"street name":"71 Center Grove Road","id":"a6mqhaauh4ll","geo_precision":"city","state":"NJ 07869-4411"},"type":"Feature","geometry":{"type":"Point","coordinates":[-120.370763,39.579626]}},{"properties":{"city":"Newburgh","name":"Alison Wright","geo_score":0.648,"street name":"10 Roosevelt PL","id":"a6mqhaaqd420","geo_precision":"city","state":"NY 12550"},"type":"Feature","geometry":{"type":"Point","coordinates":[-81.663462,41.450052]}},{"properties":{"city":"Morristown","name":"Kaye Knight","geo_score":0.714,"street name":"6209 Nightingale St","id":"a6mqha3srnlm","geo_precision":"city","state":"TN 37814"},"type":"Feature","geometry":{"type":"Point","coordinates":[-89.067048,42.172523]}},{"properties":{"city":"Sheboygan","name":"William Skrube","geo_score":0.683,"street name":"1723 Norma Court","id":"a6mqha52vy5c","geo_precision":"city","state":"WI 53081"},"type":"Feature","geometry":{"type":"Point","coordinates":[-86.053601,35.753125]}},{"properties":{"city":"Penfield","name":"Chris Zimmer","geo_score":0.648,"street name":"15 Thorntree Circle","id":"a6mqhafnb1te","geo_precision":"city","state":"NY 14526"},"type":"Feature","geometry":{"type":"Point","coordinates":[-86.729712,33.59427]}},{"properties":{"city":"Milwaukee","name":"Karter Wilkening","geo_score":0.714,"street name":"3023 N. Newhall Street","id":"a6mqha48wn37","geo_precision":"city","state":"WI 53211"},"type":"Feature","geometry":{"type":"Point","coordinates":[-87.906474,43.038903]}},{"properties":{"city":"Sioux Falls","name":"Tammy Litke","geo_score":0.714,"street name":"6112 S Avalon Ave Unit 208","id":"a6mqha45vvx2","geo_precision":"city","state":"SD 57108"},"type":"Feature","geometry":{"type":"Point","coordinates":[-96.730328,43.546642]}},{"properties":{"city":"Billerica","name":"Kari Warner","geo_score":0.714,"street name":"4 Skyline Dr","id":"a6mqhaf75b5j","geo_precision":"city","state":"MA 01821"},"type":"Feature","geometry":{"type":"Point","coordinates":[-71.459405,42.446396]}},{"properties":{"city":"Greenville","name":"Elizabeth Mays","geo_score":0.671,"street name":"2510 Hunterchase Ln.","id":"a6mqha2y4fg3","geo_precision":"city","state":"NC 27858"},"type":"Feature","geometry":{"type":"Point","coordinates":[-90.712612,35.632301]}}],"is_temporal":false,"author":{"url":"","metadata":"","contact_name":"","contact_address":"","source":"","contact_phone":""},"source":"","pagination":{"sort":null,"start":0,"total":23,"limit":1000000},"state":"complete","tags":"","published":"2014-08-15T03:52:17-04:00","id":209792}