{"type":"FeatureCollection","data_type":"Dataset","url_type":null,"permissions":[{"permissions":{"download":true,"view":true},"group_id":"everyone"}],"classification":null,"title":"20110427 Tornado Reports","count":74,"stream_id":209867,"contributor":{"url":"http://geocommons.com/users/6","name":"seagor"},"data_attributes":null,"calculation_params":[{"input":{"atr":"state","equals":"AL"},"calculation":"filter"}],"icon_link":null,"link":"http://geocommons.com/overlays/209867.json","extent":[-90.53,30.82,-74.38,43.58],"geometry_types":["point"],"unique_name":null,"name":"20110427 Tornado Reports","feature_count":74,"description":"","next_feature":null,"is_raster":false,"short_classification":"Y","stats":{"timestamp":{"max":"2011/04/27 23:50:00 -0400","mean":"2010/03/15 20:00:42 -0400","variance":4.53234157156238e+16,"stdev":212892967.745823,"min":"1969/12/31 19:00:00 -0500","median":"2011/04/27 20:52:00 -0400"},"latitude":{"max":34.9,"mean":33.9785135135135,"variance":0.53718817104776,"stdev":0.732931218497179,"min":32.22,"median":34.26},"longitude":{"max":-85.61,"mean":-86.9271621621622,"variance":0.496587726767864,"stdev":0.704689808900245,"min":-88.38,"median":-86.76}},"features":[{"properties":{"timestamp":{"end_time":"2011/04/27 16:30:00 -0400","original":"4/27/11 4:29 PM","granularity":"min","time":"2011/04/27 16:29:00 -0400"},"latitude":34.62,"comments":"TOUCHDOWN JUST NORTH OF DECATUR (HUN)","county":"MORGAN","f-scale":"UNK","longitude":-86.98,"id":"14","state":"AL","location":"1 N DECATUR"},"type":"Feature","geometry":{"type":"Point","coordinates":[-86.98,34.62]}},{"properties":{"timestamp":{"end_time":"2011/04/27 16:32:00 -0400","original":"4/27/11 4:31 PM","granularity":"min","time":"2011/04/27 16:31:00 -0400"},"latitude":34.8,"comments":"DEBRIS NEAR ATHENS HIGH SCHOOL (HUN)","county":"LIMESTONE","f-scale":"UNK","longitude":-86.97,"id":"15","state":"AL","location":"ATHENS"},"type":"Feature","geometry":{"type":"Point","coordinates":[-86.97,34.8]}},{"properties":{"timestamp":{"end_time":"2011/04/27 17:31:00 -0400","original":"4/27/11 5:30 PM","granularity":"min","time":"2011/04/27 17:30:00 -0400"},"latitude":34.47,"comments":"NEAR ANTIOCH (HUN)","county":"MORGAN","f-scale":"UNK","longitude":-86.76,"id":"16","state":"AL","location":"2 E SOMERVILLE"},"type":"Feature","geometry":{"type":"Point","coordinates":[-86.76,34.47]}},{"properties":{"timestamp":{"end_time":"2011/04/27 20:00:00 -0400","original":"4/27/11 7:00 PM","granularity":"hour","time":"2011/04/27 19:00:00 -0400"},"latitude":34.42,"comments":"TORNADO REPORTED ON THE GROUND. (HUN)","county":"LAWRENCE","f-scale":"UNK","longitude":-87.17,"id":"20","state":"AL","location":"SPEAKE"},"type":"Feature","geometry":{"type":"Point","coordinates":[-87.17,34.42]}},{"properties":{"timestamp":{"end_time":"2011/04/27 19:46:00 -0400","original":"4/27/11 7:45 PM","granularity":"min","time":"2011/04/27 19:45:00 -0400"},"latitude":34.11,"comments":"TORNADO ON THE GROUND. (HUN)","county":"CULLMAN","f-scale":"UNK","longitude":-86.86,"id":"28","state":"AL","location":"GOOD HOPE"},"type":"Feature","geometry":{"type":"Point","coordinates":[-86.86,34.11]}},{"properties":{"timestamp":{"end_time":"2011/04/27 19:47:00 -0400","original":"4/27/11 7:46 PM","granularity":"min","time":"2011/04/27 19:46:00 -0400"},"latitude":34.09,"comments":"TORNADO ON THE GROUND NEAR THE INTERSECTION OF CR 222 AND CR 310 NEAR GOOD HOPE. (HUN)","county":"CULLMAN","f-scale":"UNK","longitude":-86.96,"id":"29","state":"AL","location":"5 WSW GOOD HOPE"},"type":"Feature","geometry":{"type":"Point","coordinates":[-86.96,34.09]}},{"properties":{"timestamp":{"end_time":"2011/04/27 20:06:00 -0400","original":"4/27/11 8:05 PM","granularity":"min","time":"2011/04/27 20:05:00 -0400"},"latitude":34.09,"comments":"*** 25 FATAL *** AN EF-5 TORNADO TOUCHED DOWN SW OF HAMILTON AND MOVED NE ACROSS MARION COUNTY AND CONTINUED INTO FRANKLIN COUNTY...SEE LSR/S FROM WFO HUN. THE TORNADO (BMX)","county":"MARION","f-scale":"UNK","longitude":-88.13,"id":"35","state":"AL","location":"5 NNE DETROIT"},"type":"Feature","geometry":{"type":"Point","coordinates":[-88.13,34.09]}},{"properties":{"timestamp":{"end_time":"2011/04/27 20:08:00 -0400","original":"4/27/11 8:07 PM","granularity":"min","time":"2011/04/27 20:07:00 -0400"},"latitude":34.26,"comments":"TORNADO ON THE GROUND (HUN)","county":"CULLMAN","f-scale":"UNK","longitude":-86.61,"id":"39","state":"AL","location":"BAILEYTON"},"type":"Feature","geometry":{"type":"Point","coordinates":[-86.61,34.26]}},{"properties":{"timestamp":{"end_time":"2011/04/27 20:15:00 -0400","original":"4/27/11 8:14 PM","granularity":"min","time":"2011/04/27 20:14:00 -0400"},"latitude":34.14,"comments":"TORNADO REPORTED ON THE GROUD JUST WEST OF THE MARION COUNTY AIRPORT IN HAMILTON. (BMX)","county":"MARION","f-scale":"UNK","longitude":-87.98,"id":"44","state":"AL","location":"HAMILTON"},"type":"Feature","geometry":{"type":"Point","coordinates":[-87.98,34.14]}},{"properties":{"timestamp":{"end_time":"2011/04/27 20:17:00 -0400","original":"4/27/11 8:16 PM","granularity":"min","time":"2011/04/27 20:16:00 -0400"},"latitude":34.31,"comments":"TORNADO ON GROUND (HUN)","county":"MORGAN","f-scale":"UNK","longitude":-86.6,"id":"47","state":"AL","location":"HULACO"},"type":"Feature","geometry":{"type":"Point","coordinates":[-86.6,34.31]}},{"properties":{"timestamp":{"end_time":"2011/04/27 20:24:00 -0400","original":"4/27/11 8:23 PM","granularity":"min","time":"2011/04/27 20:23:00 -0400"},"latitude":34.3,"comments":"TORNADO ON THE GROUND (HUN)","county":"CULLMAN","f-scale":"UNK","longitude":-86.56,"id":"52","state":"AL","location":"JOPPA"},"type":"Feature","geometry":{"type":"Point","coordinates":[-86.56,34.3]}},{"properties":{"timestamp":{"end_time":"2011/04/27 20:25:00 -0400","original":"4/27/11 8:24 PM","granularity":"min","time":"2011/04/27 20:24:00 -0400"},"latitude":34.36,"comments":"TORNADO ON THE GROUND (HUN)","county":"MARSHALL","f-scale":"UNK","longitude":-86.51,"id":"54","state":"AL","location":"3 NNW ARAB"},"type":"Feature","geometry":{"type":"Point","coordinates":[-86.51,34.36]}},{"properties":{"timestamp":{"end_time":"2011/04/27 20:26:00 -0400","original":"4/27/11 8:25 PM","granularity":"min","time":"2011/04/27 20:25:00 -0400"},"latitude":34.31,"comments":"STRUCTURAL DAMAGE ON HWY 67 (HUN)","county":"MORGAN","f-scale":"UNK","longitude":-86.6,"id":"55","state":"AL","location":"HULACO"},"type":"Feature","geometry":{"type":"Point","coordinates":[-86.6,34.31]}},{"properties":{"timestamp":{"end_time":"2011/04/27 20:29:00 -0400","original":"4/27/11 8:28 PM","granularity":"min","time":"2011/04/27 20:28:00 -0400"},"latitude":34.27,"comments":"TORNADO ON GROUND JUST MOVED THROUGH DOWNTOWN HACLEBURG. IN NOW NORTH OF 345. (BMX)","county":"MARION","f-scale":"UNK","longitude":-87.83,"id":"58","state":"AL","location":"HACKLEBURG"},"type":"Feature","geometry":{"type":"Point","coordinates":[-87.83,34.27]}},{"properties":{"timestamp":{"end_time":"2011/04/27 20:31:00 -0400","original":"4/27/11 8:30 PM","granularity":"min","time":"2011/04/27 20:30:00 -0400"},"latitude":34.35,"comments":"TORNADO ON GROUND ON HIGHWAY 243 IN PHIL CAMPBELL. (HUN)","county":"FRANKLIN","f-scale":"UNK","longitude":-87.71,"id":"59","state":"AL","location":"PHIL CAMPBELL"},"type":"Feature","geometry":{"type":"Point","coordinates":[-87.71,34.35]}},{"properties":{"timestamp":{"end_time":"2011/04/27 20:36:00 -0400","original":"4/27/11 8:35 PM","granularity":"min","time":"2011/04/27 20:35:00 -0400"},"latitude":34.32,"comments":"NUMEROUS STRUCTURES DAMAGED ALONG HWY69 ARAB TO MARSHALL MEDICAL NORTH. POSSIBLE INJURIES (HUN)","county":"MARSHALL","f-scale":"UNK","longitude":-86.5,"id":"62","state":"AL","location":"ARAB"},"type":"Feature","geometry":{"type":"Point","coordinates":[-86.5,34.32]}},{"properties":{"timestamp":{"end_time":"2011/04/27 20:41:00 -0400","original":"4/27/11 8:40 PM","granularity":"min","time":"2011/04/27 20:40:00 -0400"},"latitude":34.54,"comments":"DEBRIS FALLING OUT OF SKY. LOCATION WAS MAPLE ROAD AND BUTLER MILL ROAD. (HUN)","county":"MADISON","f-scale":"UNK","longitude":-86.42,"id":"63","state":"AL","location":"NEW HOPE"},"type":"Feature","geometry":{"type":"Point","coordinates":[-86.42,34.54]}},{"properties":{"timestamp":{"end_time":"2011/04/27 20:44:00 -0400","original":"4/27/11 8:43 PM","granularity":"min","time":"2011/04/27 20:43:00 -0400"},"latitude":34.4,"comments":"POWER LINES DOWN AND DEBRIS BLOCKING ROADS. (HUN)","county":"MARSHALL","f-scale":"UNK","longitude":-86.45,"id":"64","state":"AL","location":"UNION GROVE"},"type":"Feature","geometry":{"type":"Point","coordinates":[-86.45,34.4]}},{"properties":{"timestamp":{"end_time":"2011/04/27 20:47:00 -0400","original":"4/27/11 8:46 PM","granularity":"min","time":"2011/04/27 20:46:00 -0400"},"latitude":34.46,"comments":"TORNADO ON GROUND WITH DEBRIS AND ROARING SOUND. (HUN)","county":"LAWRENCE","f-scale":"UNK","longitude":-87.48,"id":"67","state":"AL","location":"MT HOPE"},"type":"Feature","geometry":{"type":"Point","coordinates":[-87.48,34.46]}},{"properties":{"timestamp":{"end_time":"2011/04/27 20:49:00 -0400","original":"4/27/11 8:48 PM","granularity":"min","time":"2011/04/27 20:48:00 -0400"},"latitude":34.46,"comments":"TORNADO ON GROUND. (HUN)","county":"LAWRENCE","f-scale":"UNK","longitude":-87.48,"id":"69","state":"AL","location":"MT HOPE"},"type":"Feature","geometry":{"type":"Point","coordinates":[-87.48,34.46]}},{"properties":{"timestamp":{"end_time":"2011/04/27 20:53:00 -0400","original":"4/27/11 8:52 PM","granularity":"min","time":"2011/04/27 20:52:00 -0400"},"latitude":34.56,"comments":"MT HOPE TO HATTON. NUMEROUS HOUSES ARE GONE. (HUN)","county":"LAWRENCE","f-scale":"UNK","longitude":-87.41,"id":"70","state":"AL","location":"HATTON"},"type":"Feature","geometry":{"type":"Point","coordinates":[-87.41,34.56]}},{"properties":{"timestamp":{"end_time":"2011/04/27 20:54:00 -0400","original":"4/27/11 8:53 PM","granularity":"min","time":"2011/04/27 20:53:00 -0400"},"latitude":34.56,"comments":"ONE HALF MILE WIDE TORNADO ALONG HWY 157 AND HWY 101 NEAR HATTON. (HUN)","county":"LAWRENCE","f-scale":"UNK","longitude":-87.41,"id":"71","state":"AL","location":"HATTON"},"type":"Feature","geometry":{"type":"Point","coordinates":[-87.41,34.56]}},{"properties":{"timestamp":{"end_time":"2011/04/27 20:56:00 -0400","original":"4/27/11 8:55 PM","granularity":"min","time":"2011/04/27 20:55:00 -0400"},"latitude":34.48,"comments":"TORNADO ON GROUN NORTH OF MOULTON AT 102 AND CR41. (HUN)","county":"LAWRENCE","f-scale":"UNK","longitude":-87.29,"id":"72","state":"AL","location":"MOULTON"},"type":"Feature","geometry":{"type":"Point","coordinates":[-87.29,34.48]}},{"properties":{"timestamp":{"end_time":"2011/04/27 21:06:00 -0400","original":"4/27/11 9:05 PM","granularity":"min","time":"2011/04/27 21:05:00 -0400"},"latitude":33.43,"comments":"LAW ENFORCEMENT REPORTS TORNADO ON THE GROUND IN PICKENS COUNTY MOVING TOWARD BROWNVILLE COMMUNITY. (BMX)","county":"PICKENS","f-scale":"UNK","longitude":-87.87,"id":"74","state":"AL","location":"LUBBUB"},"type":"Feature","geometry":{"type":"Point","coordinates":[-87.87,33.43]}},{"properties":{"timestamp":{"end_time":"2011/04/27 21:08:00 -0400","original":"4/27/11 9:07 PM","granularity":"min","time":"2011/04/27 21:07:00 -0400"},"latitude":34.31,"comments":"TORNADO ON GROUND HULACO RD. (HUN)","county":"MORGAN","f-scale":"UNK","longitude":-86.6,"id":"75","state":"AL","location":"HULACO"},"type":"Feature","geometry":{"type":"Point","coordinates":[-86.6,34.31]}},{"properties":{"timestamp":{"end_time":"2011/04/27 21:12:00 -0400","original":"4/27/11 9:11 PM","granularity":"min","time":"2011/04/27 21:11:00 -0400"},"latitude":34.33,"comments":"TREE FELL ON CAR WITH ENTRAPMENT. INJURIES UNKNOWN. (HUN)","county":"MARSHALL","f-scale":"UNK","longitude":-86.56,"id":"77","state":"AL","location":"4 WNW ARAB"},"type":"Feature","geometry":{"type":"Point","coordinates":[-86.56,34.33]}},{"properties":{"timestamp":{"end_time":"2011/04/27 21:16:00 -0400","original":"4/27/11 9:15 PM","granularity":"min","time":"2011/04/27 21:15:00 -0400"},"latitude":34.69,"comments":"COUNTY ROAD 155 AND 814. MULTIPLE HOUSES DAMAGED WITH INJURIES. (HUN)","county":"DEKALB","f-scale":"UNK","longitude":-85.65,"id":"78","state":"AL","location":"1 SE IDER"},"type":"Feature","geometry":{"type":"Point","coordinates":[-85.65,34.69]}},{"properties":{"timestamp":{"end_time":"2011/04/27 21:17:00 -0400","original":"4/27/11 9:16 PM","granularity":"min","time":"2011/04/27 21:16:00 -0400"},"latitude":34.61,"comments":"TORNADO REPORTED ON GROUND IN MORGAN COUNTY MOVING INTO SOURTHERN LIMESTON COUNTY. (HUN)","county":"LAWRENCE","f-scale":"UNK","longitude":-87.15,"id":"79","state":"AL","location":"4 W TRINITY"},"type":"Feature","geometry":{"type":"Point","coordinates":[-87.15,34.61]}},{"properties":{"timestamp":{"end_time":"1969/12/31 19:00:01 -0500","original":"4/27/11 9:20 PM","granularity":"usec","time":"1969/12/31 19:00:00 -0500"},"latitude":32.87,"comments":"DAMAGE PATH REPORTED JUST NORTH OF GEIGER. EMERGENCY RESPONDERS ENROUTE. (BMX)","county":"SUMTER","f-scale":"UNK","longitude":-88.31,"id":"80","state":"AL","location":"N GEIGER"},"type":"Feature","geometry":{"type":"Point","coordinates":[-88.31,32.87]}},{"properties":{"timestamp":{"end_time":"1969/12/31 19:00:01 -0500","original":"4/27/11 9:20 PM","granularity":"usec","time":"1969/12/31 19:00:00 -0500"},"latitude":33.45,"comments":"DAMAGE IN THE OLD MOORES BRIDGE AREA. (BMX)","county":"TUSCALOOSA","f-scale":"UNK","longitude":-87.78,"id":"81","state":"AL","location":"1 E MOORES BRIDGE"},"type":"Feature","geometry":{"type":"Point","coordinates":[-87.78,33.45]}},{"properties":{"timestamp":{"end_time":"2011/04/27 21:27:00 -0400","original":"4/27/11 9:26 PM","granularity":"min","time":"2011/04/27 21:26:00 -0400"},"latitude":34.73,"comments":"TORNADO ON GROUND LILLY FLAG AND SOUTH MEMORIAL PARKWAY. (HUN)","county":"MADISON","f-scale":"UNK","longitude":-86.59,"id":"82","state":"AL","location":"HUNTSVILLE"},"type":"Feature","geometry":{"type":"Point","coordinates":[-86.59,34.73]}},{"properties":{"timestamp":{"end_time":"2011/04/27 21:28:00 -0400","original":"4/27/11 9:27 PM","granularity":"min","time":"2011/04/27 21:27:00 -0400"},"latitude":33.68,"comments":"DEBRIS FALLING FROM SKY. (BMX)","county":"FAYETTE","f-scale":"UNK","longitude":-87.61,"id":"84","state":"AL","location":"1 N BERRY"},"type":"Feature","geometry":{"type":"Point","coordinates":[-87.61,33.68]}},{"properties":{"timestamp":{"end_time":"2011/04/27 21:32:00 -0400","original":"4/27/11 9:31 PM","granularity":"min","time":"2011/04/27 21:31:00 -0400"},"latitude":34.73,"comments":"TORNADO ON GROUND. HWY 72 AND MOORESVILLE ROAD. PATH 22 YARDS WIDE. (HUN)","county":"MADISON","f-scale":"UNK","longitude":-86.59,"id":"86","state":"AL","location":"HUNTSVILLE"},"type":"Feature","geometry":{"type":"Point","coordinates":[-86.59,34.73]}},{"properties":{"timestamp":{"end_time":"2011/04/27 21:34:00 -0400","original":"4/27/11 9:33 PM","granularity":"min","time":"2011/04/27 21:33:00 -0400"},"latitude":32.94,"comments":"SPOTTER REPORTS TORNADO ON THE GROUND NEAR THE COMMUNITY OF WEST GREENE. (BMX)","county":"GREENE","f-scale":"UNK","longitude":-88.03,"id":"88","state":"AL","location":"3 NW CLINTON"},"type":"Feature","geometry":{"type":"Point","coordinates":[-88.03,32.94]}},{"properties":{"timestamp":{"end_time":"2011/04/27 21:34:00 -0400","original":"4/27/11 9:33 PM","granularity":"min","time":"2011/04/27 21:33:00 -0400"},"latitude":34.86,"comments":"TORNADO ON GROUND AT NICK DAVIS AND INTERSTATE 65. (HUN)","county":"MADISON","f-scale":"UNK","longitude":-86.75,"id":"89","state":"AL","location":"HARVEST"},"type":"Feature","geometry":{"type":"Point","coordinates":[-86.75,34.86]}},{"properties":{"timestamp":{"end_time":"2011/04/27 21:40:00 -0400","original":"4/27/11 9:39 PM","granularity":"min","time":"2011/04/27 21:39:00 -0400"},"latitude":34.8,"comments":"WEDGE TORNADO ON GROUND NORTH OF CAPSHAW IN LIMESTONE COUNTY. (HUN)","county":"LIMESTONE","f-scale":"UNK","longitude":-86.97,"id":"91","state":"AL","location":"ATHENS"},"type":"Feature","geometry":{"type":"Point","coordinates":[-86.97,34.8]}},{"properties":{"timestamp":{"end_time":"2011/04/27 21:43:00 -0400","original":"4/27/11 9:42 PM","granularity":"min","time":"2011/04/27 21:42:00 -0400"},"latitude":34.83,"comments":"ON GROUND NEAR SPARKMAN HIGH SCHOOL. (HUN)","county":"MADISON","f-scale":"UNK","longitude":-86.72,"id":"94","state":"AL","location":"2 SE HARVEST"},"type":"Feature","geometry":{"type":"Point","coordinates":[-86.72,34.83]}},{"properties":{"timestamp":{"end_time":"2011/04/27 21:45:00 -0400","original":"4/27/11 9:44 PM","granularity":"min","time":"2011/04/27 21:44:00 -0400"},"latitude":34.9,"comments":"HOMES DAMAGED (HUN)","county":"MADISON","f-scale":"UNK","longitude":-86.57,"id":"96","state":"AL","location":"4 N MERIDIANVILLE"},"type":"Feature","geometry":{"type":"Point","coordinates":[-86.57,34.9]}},{"properties":{"timestamp":{"end_time":"2011/04/27 21:46:00 -0400","original":"4/27/11 9:45 PM","granularity":"min","time":"2011/04/27 21:45:00 -0400"},"latitude":34.85,"comments":"HWY 53 AND JEFF ROAD TORNADO ON GROUND. GAS STATION LEVELED. PIGGLY WIGGLY GROCERY STORE DAMAGED. PEOPLE TRAPPED. (HUN)","county":"MADISON","f-scale":"UNK","longitude":-86.71,"id":"97","state":"AL","location":"2 ESE HARVEST"},"type":"Feature","geometry":{"type":"Point","coordinates":[-86.71,34.85]}},{"properties":{"timestamp":{"end_time":"2011/04/27 21:48:00 -0400","original":"4/27/11 9:47 PM","granularity":"min","time":"2011/04/27 21:47:00 -0400"},"latitude":34.45,"comments":"TORNADO ON THE GROUND AT FYFFE AND SHERWOOD (HUN)","county":"DEKALB","f-scale":"UNK","longitude":-85.9,"id":"98","state":"AL","location":"FYFFE"},"type":"Feature","geometry":{"type":"Point","coordinates":[-85.9,34.45]}},{"properties":{"timestamp":{"end_time":"2011/04/27 21:49:00 -0400","original":"4/27/11 9:48 PM","granularity":"min","time":"2011/04/27 21:48:00 -0400"},"latitude":34.83,"comments":"SIGNIFICAN STRUCTURAL DAMAGE AT 6247 AND COUNTY ROAD 155 IN CARTERSVILLE. (HUN)","county":"DEKALB","f-scale":"UNK","longitude":-85.61,"id":"99","state":"AL","location":"1 SSE HIGDON"},"type":"Feature","geometry":{"type":"Point","coordinates":[-85.61,34.83]}},{"properties":{"timestamp":{"end_time":"2011/04/27 21:55:00 -0400","original":"4/27/11 9:54 PM","granularity":"min","time":"2011/04/27 21:54:00 -0400"},"latitude":34.9,"comments":"TORNADO ON GROUND HWY 231 AND WALKER LANE. (HUN)","county":"MADISON","f-scale":"UNK","longitude":-86.57,"id":"101","state":"AL","location":"4 N MERIDIANVILLE"},"type":"Feature","geometry":{"type":"Point","coordinates":[-86.57,34.9]}},{"properties":{"timestamp":{"end_time":"2011/04/27 22:07:00 -0400","original":"4/27/11 10:06 PM","granularity":"min","time":"2011/04/27 22:06:00 -0400"},"latitude":34.7,"comments":"TORNADO ON GROUND AT U.S. HIGHWAY 72 AND SLAUGHTER ROAD. (HUN)","county":"MADISON","f-scale":"UNK","longitude":-86.75,"id":"103","state":"AL","location":"MADISON"},"type":"Feature","geometry":{"type":"Point","coordinates":[-86.75,34.7]}},{"properties":{"timestamp":{"end_time":"2011/04/27 22:08:00 -0400","original":"4/27/11 10:07 PM","granularity":"min","time":"2011/04/27 22:07:00 -0400"},"latitude":33.73,"comments":"TORNADO ON THE GROUND IN DORA. (BMX)","county":"WALKER","f-scale":"UNK","longitude":-87.08,"id":"104","state":"AL","location":"DORA"},"type":"Feature","geometry":{"type":"Point","coordinates":[-87.08,33.73]}},{"properties":{"timestamp":{"end_time":"2011/04/27 22:10:00 -0400","original":"4/27/11 10:09 PM","granularity":"min","time":"2011/04/27 22:09:00 -0400"},"latitude":33.24,"comments":"TORNADO ON THE GROUND ALONG HWY 82 NEAR THE MCFARLAND MALL. (BMX)","county":"TUSCALOOSA","f-scale":"UNK","longitude":-87.54,"id":"106","state":"AL","location":"TUSCALOOSA"},"type":"Feature","geometry":{"type":"Point","coordinates":[-87.54,33.24]}},{"properties":{"timestamp":{"end_time":"2011/04/27 22:13:00 -0400","original":"4/27/11 10:12 PM","granularity":"min","time":"2011/04/27 22:12:00 -0400"},"latitude":33.89,"comments":"TORNADO REPORTED ON THE GROUND NEAR EXIT 284 ON I-65 AT PHILADELPHIA ROAD. (BMX)","county":"BLOUNT","f-scale":"UNK","longitude":-86.82,"id":"109","state":"AL","location":"SMOKE RISE"},"type":"Feature","geometry":{"type":"Point","coordinates":[-86.82,33.89]}},{"properties":{"timestamp":{"end_time":"2011/04/27 22:31:00 -0400","original":"4/27/11 10:30 PM","granularity":"min","time":"2011/04/27 22:30:00 -0400"},"latitude":32.62,"comments":"*** 7 FATAL","county":"GREENE","f-scale":"UNK","longitude":-88.05,"id":"116","state":"AL","location":"3 WSW TISHABEE"},"type":"Feature","geometry":{"type":"Point","coordinates":[-88.05,32.62]}},{"properties":{"timestamp":{"end_time":"2011/04/27 22:47:00 -0400","original":"4/27/11 10:46 PM","granularity":"min","time":"2011/04/27 22:46:00 -0400"},"latitude":34.1,"comments":"*** 1 INJ *** MULTIPLE HOMES DESTROYED IN BLOUNTSVILLE. ONE INJURY CONFIRMED AT THIS TIME. (BMX)","county":"BLOUNT","f-scale":"UNK","longitude":-86.58,"id":"121","state":"AL","location":"BLOUNTSVILLE"},"type":"Feature","geometry":{"type":"Point","coordinates":[-86.58,34.1]}},{"properties":{"timestamp":{"end_time":"2011/04/27 22:48:00 -0400","original":"4/27/11 10:47 PM","granularity":"min","time":"2011/04/27 22:47:00 -0400"},"latitude":34.2,"comments":"TORNADO ON GROUND AT NIXON CHAPEL (HUN)","county":"MARSHALL","f-scale":"UNK","longitude":-86.38,"id":"122","state":"AL","location":"3 SW HYATT"},"type":"Feature","geometry":{"type":"Point","coordinates":[-86.38,34.2]}},{"properties":{"timestamp":{"end_time":"2011/04/27 22:57:00 -0400","original":"4/27/11 10:56 PM","granularity":"min","time":"2011/04/27 22:56:00 -0400"},"latitude":33.44,"comments":"MAJOR DAMAGE IN HUEYTOWN...HOUSES LEVELED. (BMX)","county":"JEFFERSON","f-scale":"UNK","longitude":-87.0,"id":"124","state":"AL","location":"HUEYTOWN"},"type":"Feature","geometry":{"type":"Point","coordinates":[-87.0,33.44]}},{"properties":{"timestamp":{"end_time":"2011/04/27 14:04:00 -0400","original":"4/27/11 2:03 PM","granularity":"min","time":"2011/04/27 14:03:00 -0400"},"latitude":34.26,"comments":"TORNADO ON THE GROUND. DAMAGE OCCURRING AT TIME OF REPORT. (HUN)","county":"MARSHALL","f-scale":"UNK","longitude":-86.21,"id":"129","state":"AL","location":"ALBERTVILLE"},"type":"Feature","geometry":{"type":"Point","coordinates":[-86.21,34.26]}},{"properties":{"timestamp":{"end_time":"2011/04/27 23:10:00 -0400","original":"4/27/11 11:09 PM","granularity":"min","time":"2011/04/27 23:09:00 -0400"},"latitude":33.62,"comments":"TREES DOWN","county":"JEFFERSON","f-scale":"UNK","longitude":-86.8,"id":"130","state":"AL","location":"FULTONDALE"},"type":"Feature","geometry":{"type":"Point","coordinates":[-86.8,33.62]}},{"properties":{"timestamp":{"end_time":"2011/04/27 23:11:00 -0400","original":"4/27/11 11:10 PM","granularity":"min","time":"2011/04/27 23:10:00 -0400"},"latitude":33.88,"comments":"TREE AND STRUCTURAL DAMAGE ON HIGHWAY 129 FROM GLEN ALLEN TO HUBBERTVILLE NEAR THE TEXACO STATION. (BMX)","county":"FAYETTE","f-scale":"UNK","longitude":-87.74,"id":"131","state":"AL","location":"S GLEN ALLEN"},"type":"Feature","geometry":{"type":"Point","coordinates":[-87.74,33.88]}},{"properties":{"timestamp":{"end_time":"2011/04/27 23:21:00 -0400","original":"4/27/11 11:20 PM","granularity":"min","time":"2011/04/27 23:20:00 -0400"},"latitude":34.39,"comments":"LARGE PIECES OF DEBRIS FALLING FROM SKY. (HUN)","county":"MARSHALL","f-scale":"UNK","longitude":-86.26,"id":"133","state":"AL","location":"3 NE GUNTERSVILLE"},"type":"Feature","geometry":{"type":"Point","coordinates":[-86.26,34.39]}},{"properties":{"timestamp":{"end_time":"2011/04/27 23:24:00 -0400","original":"4/27/11 11:23 PM","granularity":"min","time":"2011/04/27 23:23:00 -0400"},"latitude":33.68,"comments":"AN EF-3 TORNADO TOUCHED DOWN NEAR ARGO...BETWEEN DEERFOOT PARKWAY AND ADVENT ROAD...TRAVELING NORTHEAST ACROSS SEVERAL COUNTIES INTO GA. THE COUNTIES AFFECTED WERE JEFF (BMX)","county":"JEFFERSON","f-scale":"UNK","longitude":-86.57,"id":"136","state":"AL","location":"3 NNE TRUSSVILLE"},"type":"Feature","geometry":{"type":"Point","coordinates":[-86.57,33.68]}},{"properties":{"timestamp":{"end_time":"2011/04/27 23:26:00 -0400","original":"4/27/11 11:25 PM","granularity":"min","time":"2011/04/27 23:25:00 -0400"},"latitude":34.49,"comments":"MAJOR STRUCTURAL DAMAGE AT PLAINVIEW SCHOOL. (HUN)","county":"DEKALB","f-scale":"UNK","longitude":-85.82,"id":"137","state":"AL","location":"2 ESE RAINSVILLE"},"type":"Feature","geometry":{"type":"Point","coordinates":[-85.82,34.49]}},{"properties":{"timestamp":{"end_time":"2011/04/27 23:28:00 -0400","original":"4/27/11 11:27 PM","granularity":"min","time":"2011/04/27 23:27:00 -0400"},"latitude":33.55,"comments":"DAMAGE TO HOUSES ON AL 269. (BMX)","county":"JEFFERSON","f-scale":"UNK","longitude":-86.98,"id":"139","state":"AL","location":"MULGA"},"type":"Feature","geometry":{"type":"Point","coordinates":[-86.98,33.55]}},{"properties":{"timestamp":{"end_time":"2011/04/27 23:49:00 -0400","original":"4/27/11 11:48 PM","granularity":"min","time":"2011/04/27 23:48:00 -0400"},"latitude":34.24,"comments":"TRAILER PARK HIT. INJURIES BUT NUMBER UNKNOWN. (HUN)","county":"CULLMAN","f-scale":"UNK","longitude":-86.96,"id":"145","state":"AL","location":"WEST POINT"},"type":"Feature","geometry":{"type":"Point","coordinates":[-86.96,34.24]}},{"properties":{"timestamp":{"end_time":"2011/04/27 23:51:00 -0400","original":"4/27/11 11:50 PM","granularity":"min","time":"2011/04/27 23:50:00 -0400"},"latitude":32.85,"comments":"AN EF-1 TORNADO TOUCHED DOWN 2 MILES SOUTHWEST OF WATEROAK IN HALE COUNTY AND PROCEEDED NORTHEAST INTO THE TALLADEGA NATIONAL FOREST ENDING IN SOUTHWEST BIBB COUNTY 2 M (BMX)","county":"HALE","f-scale":"UNK","longitude":-87.48,"id":"147","state":"AL","location":"2 WSW WATEROAK"},"type":"Feature","geometry":{"type":"Point","coordinates":[-87.48,32.85]}},{"properties":{"timestamp":{"end_time":"2011/04/27 23:51:00 -0400","original":"4/27/11 11:50 PM","granularity":"min","time":"2011/04/27 23:50:00 -0400"},"latitude":33.83,"comments":"MULTIPLE HOMES AND/OR STRUCTURES DAMAGED OR DESTROYED IN THE SHOAL CREEK VALLEY AREA. (BMX)","county":"ST. CLAIR","f-scale":"UNK","longitude":-86.26,"id":"148","state":"AL","location":"E ASHVILLE"},"type":"Feature","geometry":{"type":"Point","coordinates":[-86.26,33.83]}},{"properties":{"timestamp":{"end_time":"2011/04/27 00:13:00 -0400","original":"4/27/11 12:12 AM","granularity":"min","time":"2011/04/27 00:12:00 -0400"},"latitude":34.24,"comments":"TORNADO ON GROUND (HUN)","county":"CULLMAN","f-scale":"UNK","longitude":-86.96,"id":"156","state":"AL","location":"WEST POINT"},"type":"Feature","geometry":{"type":"Point","coordinates":[-86.96,34.24]}},{"properties":{"timestamp":{"end_time":"2011/04/27 00:16:00 -0400","original":"4/27/11 12:15 AM","granularity":"min","time":"2011/04/27 00:15:00 -0400"},"latitude":33.78,"comments":"MULTIPLE DAMAGE LOCATIONS IN AND AROUND OHATCHEE. (BMX)","county":"CALHOUN","f-scale":"UNK","longitude":-86.02,"id":"157","state":"AL","location":"OHATCHEE"},"type":"Feature","geometry":{"type":"Point","coordinates":[-86.02,33.78]}},{"properties":{"timestamp":{"end_time":"2011/04/27 00:26:00 -0400","original":"4/27/11 12:25 AM","granularity":"min","time":"2011/04/27 00:25:00 -0400"},"latitude":32.24,"comments":"PEOPLE TRAPPED IN A MOBILE HOME IN THE MOLLIE COMMUNITY (MOB)","county":"CHOCTAW","f-scale":"UNK","longitude":-88.27,"id":"160","state":"AL","location":"5 N LISMAN"},"type":"Feature","geometry":{"type":"Point","coordinates":[-88.27,32.24]}},{"properties":{"timestamp":{"end_time":"2011/04/27 00:28:00 -0400","original":"4/27/11 12:27 AM","granularity":"min","time":"2011/04/27 00:27:00 -0400"},"latitude":32.22,"comments":"EMA REPORTED A TORNADO ON THE GROUND BETWEEN CROMWELL AND YANTLEY. (MOB)","county":"CHOCTAW","f-scale":"UNK","longitude":-88.26,"id":"162","state":"AL","location":"1 ESE CROMWELL"},"type":"Feature","geometry":{"type":"Point","coordinates":[-88.26,32.22]}},{"properties":{"timestamp":{"end_time":"2011/04/27 00:28:00 -0400","original":"4/27/11 12:27 AM","granularity":"min","time":"2011/04/27 00:27:00 -0400"},"latitude":32.25,"comments":"STATE POLICE REPORTED TREES AND POWER LINES DOWN ALONG WITH STRUCTURAL DAMAGE IN YANTLEY. (MOB)","county":"CHOCTAW","f-scale":"UNK","longitude":-88.38,"id":"163","state":"AL","location":"YANTLEY"},"type":"Feature","geometry":{"type":"Point","coordinates":[-88.38,32.25]}},{"properties":{"timestamp":{"end_time":"2011/04/27 00:33:00 -0400","original":"4/27/11 12:32 AM","granularity":"min","time":"2011/04/27 00:32:00 -0400"},"latitude":33.12,"comments":"AN EF-1 TORNADO TOUCHED DOWN IN NORTHEAST BIBB COUNTY JUST SOUTH OF MARVEL AND MOVED NORTHEAST INTO SOUTHWEST SHELBY COUNTY SNAPPING OFF DOZENS OF PINE TREES. NO STRUCT (BMX)","county":"BIBB","f-scale":"UNK","longitude":-87.01,"id":"166","state":"AL","location":"2 S MARVEL"},"type":"Feature","geometry":{"type":"Point","coordinates":[-87.01,33.12]}},{"properties":{"timestamp":{"end_time":"2011/04/27 00:34:00 -0400","original":"4/27/11 12:33 AM","granularity":"min","time":"2011/04/27 00:33:00 -0400"},"latitude":32.28,"comments":"THREE MOBILE HOMES SEVERELY DAMAGE ON HWY 17. (MOB)","county":"CHOCTAW","f-scale":"UNK","longitude":-88.17,"id":"167","state":"AL","location":"5 NW DEAS"},"type":"Feature","geometry":{"type":"Point","coordinates":[-88.17,32.28]}},{"properties":{"timestamp":{"end_time":"2011/04/27 02:00:00 -0400","original":"4/27/11 1:00 AM","granularity":"hour","time":"2011/04/27 01:00:00 -0400"},"latitude":33.81,"comments":"MT GILEAD COMMUNITY IS COMPLETELY IMPASSABLE EVEN ON FOOT. (BMX)","county":"CALHOUN","f-scale":"UNK","longitude":-85.76,"id":"178","state":"AL","location":"NW JACKSONVILLE"},"type":"Feature","geometry":{"type":"Point","coordinates":[-85.76,33.81]}},{"properties":{"timestamp":{"end_time":"2011/04/27 01:02:00 -0400","original":"4/27/11 1:01 AM","granularity":"min","time":"2011/04/27 01:01:00 -0400"},"latitude":34.06,"comments":"TORNADO ON GROUND ALONG HIGHWAY 91. (HUN)","county":"CULLMAN","f-scale":"UNK","longitude":-86.76,"id":"179","state":"AL","location":"HANCEVILLE"},"type":"Feature","geometry":{"type":"Point","coordinates":[-86.76,34.06]}},{"properties":{"timestamp":{"end_time":"2011/04/27 09:00:00 -0400","original":"4/27/11 8:00 AM","granularity":"hour","time":"2011/04/27 08:00:00 -0400"},"latitude":33.24,"comments":"SPOTTER REPORTED TORNADO STRUCK POWERLINES AND/OR TRANSFORMER. POWER IS OUT. (BMX)","county":"SHELBY","f-scale":"UNK","longitude":-86.48,"id":"180","state":"AL","location":"N WILSONVILLE"},"type":"Feature","geometry":{"type":"Point","coordinates":[-86.48,33.24]}},{"properties":{"timestamp":{"end_time":"2011/04/27 01:08:00 -0400","original":"4/27/11 1:07 AM","granularity":"min","time":"2011/04/27 01:07:00 -0400"},"latitude":33.37,"comments":"AN EF-1 TORNADO TOUCHED DOWN ABOUT 2 MILES ESE OF VINCENT IN EASTERN SHELBY COUNTY AND MOVED NORTHEAST INTO WESTERN TALLADEGA COUNTY SNAPPING OFF AND/OR UPROOTING DOZEN (BMX)","county":"SHELBY","f-scale":"UNK","longitude":-86.38,"id":"182","state":"AL","location":"2 ESE VINCENT"},"type":"Feature","geometry":{"type":"Point","coordinates":[-86.38,33.37]}},{"properties":{"timestamp":{"end_time":"2011/04/27 01:25:00 -0400","original":"4/27/11 1:24 AM","granularity":"min","time":"2011/04/27 01:24:00 -0400"},"latitude":32.63,"comments":"STRUCTURAL DAMAGE IN THE DEXTER ROAD AREA OF SANTUCK. (BMX)","county":"ELMORE","f-scale":"UNK","longitude":-86.13,"id":"185","state":"AL","location":"SANTUCK"},"type":"Feature","geometry":{"type":"Point","coordinates":[-86.13,32.63]}},{"properties":{"timestamp":{"end_time":"2011/04/27 02:11:00 -0400","original":"4/27/11 2:10 AM","granularity":"min","time":"2011/04/27 02:10:00 -0400"},"latitude":32.83,"comments":"DADEVILLE TOOK A DIRECT HIT. MULTIPLE REPORTS OF EXTENSIVE DAMAGE. (BMX)","county":"TALLAPOOSA","f-scale":"UNK","longitude":-85.77,"id":"200","state":"AL","location":"DADEVILLE"},"type":"Feature","geometry":{"type":"Point","coordinates":[-85.77,32.83]}},{"properties":{"timestamp":{"end_time":"2011/04/27 02:34:00 -0400","original":"4/27/11 2:33 AM","granularity":"min","time":"2011/04/27 02:33:00 -0400"},"latitude":32.76,"comments":"TREES DOWN AND BLOCKING HWY 49 NEAR THE COMMUNITY OF STILL WATERS. (BMX)","county":"TALLAPOOSA","f-scale":"UNK","longitude":-85.77,"id":"202","state":"AL","location":"5 S DADEVILLE"},"type":"Feature","geometry":{"type":"Point","coordinates":[-85.77,32.76]}}],"is_temporal":true,"author":{"url":"","metadata":"","contact_name":"","contact_address":"","source":"","contact_phone":""},"source":"","pagination":{"sort":null,"start":0,"total":74,"limit":1000000},"state":"complete","tags":"","published":"2014-08-15T03:56:04-04:00","id":209867}