{"type":"FeatureCollection","data_type":"Dataset Analysis","url_type":null,"permissions":[{"permissions":{"download":true,"view":true},"group_id":"everyone"}],"classification":null,"title":"Filtered Features of 'Virginia Golf Courses' based on 'Virginia Wineries 2011'","count":185,"stream_id":210176,"contributor":{"url":"http://geocommons.com/users/40984","name":"scholarslab"},"data_attributes":null,"calculation_params":{"input":{"min_distance":"0","unit":"miles","near_id":"209821","distance":"10","include_distance":true,"id":"209828"},"calculation":"buffer_intersect"},"icon_link":null,"link":"http://geocommons.com/overlays/210176.json","extent":[-82.447,36.5767,-76.3398,39.1822],"geometry_types":["point"],"unique_name":null,"name":"Filtered Features of 'Virginia Golf Courses' based on 'Virginia Wineries 2011'","feature_count":185,"description":"Dataset created by filtering features of 'Virginia Golf Courses' that are within a buffer of 0 to 10 miles around the features in 'Virginia Wineries 2011'","next_feature":null,"is_raster":false,"short_classification":"Y","stats":{"distance":{"max":9.99019219782545,"mean":5.86976264952555,"variance":6.80856882365685,"stdev":2.60932344174823,"min":0.193297078741509,"median":6.16373247533764}},"features":[{"properties":{"NAME":"Tanglewood Shores Golf and Country Club","CITY":"Bracey","ZIP":"23919","MAIL_ADD":"74 Tanglewood Drive","TYPE":"Private","id":"145","distance":2.30331172439599},"type":"Feature","geometry":{"type":"Point","coordinates":[-78.0526450763343,36.5766856179035]}},{"properties":{"NAME":"River Ridge Golf Course","CITY":"Bracey","ZIP":"23919","MAIL_ADD":"P.O. Box 40","TYPE":"Public","id":"144","distance":5.54853154782911},"type":"Feature","geometry":{"type":"Point","coordinates":[-78.1408723102135,36.581485498591]}},{"properties":{"NAME":"Gordon Trent Golf Course","CITY":"Stuart","ZIP":"24171","MAIL_ADD":"2160 Golf Course Road","TYPE":"Public","id":"201","distance":6.10119238700255},"type":"Feature","geometry":{"type":"Point","coordinates":[-80.0998587980214,36.5880045379984]}},{"properties":{"NAME":"Virginian Golf Club","CITY":"Bristol","ZIP":"24202","MAIL_ADD":"1375 Jonesboro Road","TYPE":"Private","id":"181","distance":8.89578040104693},"type":"Feature","geometry":{"type":"Point","coordinates":[-82.0900581812619,36.6229219911717]}},{"properties":{"NAME":"Olde Farm","CITY":"Bristol","ZIP":"24202","MAIL_ADD":"16639 Old Jonesboro Rd","TYPE":"Private","id":"322","distance":7.18775342526855},"type":"Feature","geometry":{"type":"Point","coordinates":[-82.0702366272159,36.6401758633592]}},{"properties":{"NAME":"Deerfield Golf Course","CITY":"Damascus","ZIP":"24236","MAIL_ADD":"33315 Brittany Lane","TYPE":"Public","id":"325","distance":7.77631351334023},"type":"Feature","geometry":{"type":"Point","coordinates":[-81.7748455641988,36.6529654209804]}},{"properties":{"NAME":"Primland Resort","CITY":"Meadows of Dan","ZIP":"24120","MAIL_ADD":"2000 Busted Rock Road","TYPE":"Resort","id":"361","distance":9.45311031837069},"type":"Feature","geometry":{"type":"Point","coordinates":[-80.431166250532,36.663425235149]}},{"properties":{"NAME":"Clear Creek Golf Course","CITY":"Bristol","ZIP":"24202","MAIL_ADD":"20012 Harleywood Road","TYPE":"Public","id":"321","distance":8.57844011975591},"type":"Feature","geometry":{"type":"Point","coordinates":[-82.1239398699654,36.6659470045573]}},{"properties":{"NAME":"Lynwood Golf and Country Club","CITY":"Martinsville","ZIP":"24115","MAIL_ADD":"P.O. Box 4826","TYPE":"Private","id":"141","distance":6.47559047634273},"type":"Feature","geometry":{"type":"Point","coordinates":[-79.9005738939548,36.6693076503209]}},{"properties":{"NAME":"Olde Mill Resort","CITY":"Laurel Fork","ZIP":"24352","MAIL_ADD":"2258 Stone Mountain Rd.","TYPE":"Public","id":"194","distance":5.43457557303562},"type":"Feature","geometry":{"type":"Point","coordinates":[-80.5173847385341,36.690817813755]}},{"properties":{"NAME":"Glenrochie Country Club","CITY":"Abingdon","ZIP":"24210","MAIL_ADD":"Country Club Drive","TYPE":"Private","id":"183","distance":1.54380529599324},"type":"Feature","geometry":{"type":"Point","coordinates":[-81.9573430065237,36.6968562978471]}},{"properties":{"NAME":"Beaver Hills Golf Course","CITY":"Martinsville","ZIP":"24112","MAIL_ADD":"325 Beaver Hill Club Drive","TYPE":"Public","id":"137","distance":8.60434063176894},"type":"Feature","geometry":{"type":"Point","coordinates":[-79.8879830350876,36.7368578525702]}},{"properties":{"NAME":"Bassett Country Club","CITY":"Bassett","ZIP":"24055","MAIL_ADD":"P.O. Box 873","TYPE":"Private","id":"180","distance":6.04036341850931},"type":"Feature","geometry":{"type":"Point","coordinates":[-79.941580655962,36.7413629480046]}},{"properties":{"NAME":"South Hill Country Club","CITY":"South Hill","ZIP":"23970","MAIL_ADD":"P.O. Box 596","TYPE":"Private","id":"175","distance":9.47204179104543},"type":"Feature","geometry":{"type":"Point","coordinates":[-78.0681693762728,36.7440169349399]}},{"properties":{"NAME":"Cedars Country Club","CITY":"Chatham","ZIP":"24531","MAIL_ADD":"1029 Anderson Mill Road","TYPE":"Semi-Private","id":"218","distance":3.95180886791766},"type":"Feature","geometry":{"type":"Point","coordinates":[-79.4218642569643,36.8910742129104]}},{"properties":{"NAME":"Great Oaks Country Club","CITY":"Floyd","ZIP":"24091","MAIL_ADD":"P.O. Box 536","TYPE":"Private","id":"113","distance":8.70393896189418},"type":"Feature","geometry":{"type":"Point","coordinates":[-80.2708480151985,36.9303221206247]}},{"properties":{"NAME":"Dan Hall Mountain Resort","CITY":"Coeburn","ZIP":"24230","MAIL_ADD":"Dan Hall Mt. Road","TYPE":"Semi-Private","id":"182","distance":5.42197844194016},"type":"Feature","geometry":{"type":"Point","coordinates":[-82.4469772740398,36.9585445149456]}},{"properties":{"NAME":"Draper Valley Golf Club","CITY":"Draper","ZIP":"24324","MAIL_ADD":"2800 Big Valley Drive","TYPE":"Public","id":"195","distance":9.47015252144658},"type":"Feature","geometry":{"type":"Point","coordinates":[-80.8158509456918,36.9955935180657]}},{"properties":{"NAME":"Waters Edge Country Club","CITY":"Penhook","ZIP":"24137","MAIL_ADD":"1825 Waters Edge Drive","TYPE":"Private","id":"214","distance":3.98729242515845},"type":"Feature","geometry":{"type":"Point","coordinates":[-79.6195429259065,37.0218018252607]}},{"properties":{"NAME":"Altavista Country Club","CITY":"Hurt","ZIP":"24563","MAIL_ADD":"Country Club Road","TYPE":"Private","id":"225","distance":4.24961237006112},"type":"Feature","geometry":{"type":"Point","coordinates":[-79.3119723403034,37.0774532110114]}},{"properties":{"NAME":"Auburn Hills Golf Club","CITY":"Riner","ZIP":"24149","MAIL_ADD":"1581 Turnberry Lane","TYPE":"Semi-Private","id":"198","distance":5.42934345369802},"type":"Feature","geometry":{"type":"Point","coordinates":[-80.4418207751806,37.0783959353014]}},{"properties":{"NAME":"Mariners Landing Golf and Country Club","CITY":"Huddleston","ZIP":"24101","MAIL_ADD":"Route 1","TYPE":"Semi-Private","id":"212","distance":4.7367747485949},"type":"Feature","geometry":{"type":"Point","coordinates":[-79.5720237699641,37.0954845107396]}},{"properties":{"NAME":"Waterfront Country Club","CITY":"Moneta","ZIP":"24121","MAIL_ADD":"275 Anchor Drive","TYPE":"Private","id":"213","distance":9.52356828812829},"type":"Feature","geometry":{"type":"Point","coordinates":[-79.6638331271116,37.1008448409432]}},{"properties":{"NAME":"Hat Creek Golf Course","CITY":"Brookneal","ZIP":"24528","MAIL_ADD":"Rural Route 1","TYPE":"Public","id":"226","distance":4.0700343248342},"type":"Feature","geometry":{"type":"Point","coordinates":[-78.9333822938064,37.1037528919475]}},{"properties":{"NAME":"Westlake Golf and Country Club","CITY":"Hardy","ZIP":"24101","MAIL_ADD":"360 Chestnut Creek Drive","TYPE":"Semi-Private","id":"210","distance":1.03977479207682},"type":"Feature","geometry":{"type":"Point","coordinates":[-79.7205800718706,37.134276586804]}},{"properties":{"NAME":"Round Meadows Country Club","CITY":"Christiansburg","ZIP":"24073","MAIL_ADD":"1111 Round Meadow Drive","TYPE":"Private","id":"105","distance":8.25752360530139},"type":"Feature","geometry":{"type":"Point","coordinates":[-80.4416969325189,37.1433237480855]}},{"properties":{"NAME":"Hollyfields Golf Club","CITY":"Bent Mountain","ZIP":"24059","MAIL_ADD":"10416 Mill Creek Ln","TYPE":"Semi-Private","id":"204","distance":1.36421966938091},"type":"Feature","geometry":{"type":"Point","coordinates":[-80.1227977212525,37.1477117350231]}},{"properties":{"NAME":"Pete Dye River Course of Virginia Tech","CITY":"Radford","ZIP":"24141","MAIL_ADD":"8400 Rivercourse Drive","TYPE":"Semi-Private","id":"324","distance":7.03218412515119},"type":"Feature","geometry":{"type":"Point","coordinates":[-80.5329252032639,37.1489855512462]}},{"properties":{"NAME":"Sycamore Ridge Golf Course","CITY":"Goodview","ZIP":"24095","MAIL_ADD":"Route 2, Box 288","TYPE":"Public","id":"332","distance":0.581522159779357},"type":"Feature","geometry":{"type":"Point","coordinates":[-79.7067339158049,37.1907550831409]}},{"properties":{"NAME":"Hunting Hills Country Club","CITY":"Roanoke","ZIP":"24014","MAIL_ADD":"5220 Hunting Hills Drive","TYPE":"Private","id":"205","distance":5.52733451799223},"type":"Feature","geometry":{"type":"Point","coordinates":[-79.9730597149926,37.2157461154424]}},{"properties":{"NAME":"Kingsmill Golf Course","CITY":"Williamsburg","ZIP":"23185","MAIL_ADD":"1010 Kingsmill Road","TYPE":"Resort","id":"298","distance":6.47997245193578},"type":"Feature","geometry":{"type":"Point","coordinates":[-76.6302072313975,37.2233343172693]}},{"properties":{"NAME":"Kingsmill Woods Golf Course","CITY":"Williamsburg","ZIP":"23691","MAIL_ADD":"1010 Kingsmill Road","TYPE":"Resort","id":"100","distance":6.13345941970429},"type":"Feature","geometry":{"type":"Point","coordinates":[-76.6348300391005,37.2276540143856]}},{"properties":{"NAME":"Kingsmill Golf Club","CITY":"Williamsburg","ZIP":"23185","MAIL_ADD":"1010 Kingsmill Road","TYPE":"Resort","id":"297","distance":3.73961106460133},"type":"Feature","geometry":{"type":"Point","coordinates":[-76.6696280069529,37.2284399046364]}},{"properties":{"NAME":"Williamsburg Country Club","CITY":"Williamsburg","ZIP":"23187","MAIL_ADD":"P.O. Box 404","TYPE":"Private","id":"99","distance":5.61356388139798},"type":"Feature","geometry":{"type":"Point","coordinates":[-76.6425796265126,37.2435891058584]}},{"properties":{"NAME":"Two Rivers Country Club","CITY":"Williamsburg","ZIP":"23185","MAIL_ADD":"1400 Two Rivers Road","TYPE":"Private","id":"156","distance":9.10217540371844},"type":"Feature","geometry":{"type":"Point","coordinates":[-76.8535342098381,37.2465073345044]}},{"properties":{"NAME":"Hidden Valley Country Club","CITY":"Salem","ZIP":"24153","MAIL_ADD":"2500 Romar Drive","TYPE":"Private","id":"157","distance":2.45275664433089},"type":"Feature","geometry":{"type":"Point","coordinates":[-80.0494127152951,37.2586314118186]}},{"properties":{"NAME":"Golden Horseshoe Golf Course","CITY":"Williamsburg","ZIP":"23185","MAIL_ADD":"401 South England Street","TYPE":"Resort","id":"98","distance":2.87600904337517},"type":"Feature","geometry":{"type":"Point","coordinates":[-76.6914399550287,37.2611618710277]}},{"properties":{"NAME":"Williamsburg National Golf Course","CITY":"Williamsburg","ZIP":"23188","MAIL_ADD":"3700 Centerville Road","TYPE":"Semi-Private","id":"95","distance":6.16373247533764},"type":"Feature","geometry":{"type":"Point","coordinates":[-76.8051240998326,37.268756006286]}},{"properties":{"NAME":"Deer Cove Golf Course","CITY":"Williamsburg","ZIP":"23185","MAIL_ADD":"108 Sanda Avenue","TYPE":"Military","id":"93","distance":9.54384861576221},"type":"Feature","geometry":{"type":"Point","coordinates":[-76.5934225962562,37.2825430309128]}},{"properties":{"NAME":"Ford's Colony Golf Course","CITY":"Williamsburg","ZIP":"23188","MAIL_ADD":"240 Ford's Colony Drive","TYPE":"Semi-Private","id":"296","distance":4.979931083675},"type":"Feature","geometry":{"type":"Point","coordinates":[-76.768502002989,37.2897155442696]}},{"properties":{"NAME":"Roanoke Country Club","CITY":"Roanoke","ZIP":"24017","MAIL_ADD":"3360 Country Club Drive, NW","TYPE":"Private","id":"155","distance":6.66757068140908},"type":"Feature","geometry":{"type":"Point","coordinates":[-79.9907159281967,37.2976520469783]}},{"properties":{"NAME":"Salem Golf Course","CITY":"Salem","ZIP":"24153","MAIL_ADD":"601 Academy St","TYPE":"Public","id":"202","distance":5.21714191531617},"type":"Feature","geometry":{"type":"Point","coordinates":[-80.0664855156389,37.2977499372473]}},{"properties":{"NAME":"London Downs Golf Club","CITY":"Forest","ZIP":"24551","MAIL_ADD":"1400 New London Road","TYPE":"Semi-Private","id":"97","distance":7.7207584060271},"type":"Feature","geometry":{"type":"Point","coordinates":[-79.3072209763817,37.2983429371649]}},{"properties":{"NAME":"Ford's Colony Golf Course","CITY":"Williamsburg","ZIP":"23188","MAIL_ADD":"240 Ford's Colony Drive","TYPE":"Semi-Private","id":"295","distance":6.31997519097649},"type":"Feature","geometry":{"type":"Point","coordinates":[-76.7848312116615,37.3014483945881]}},{"properties":{"NAME":"Hanging Rock Golf Club","CITY":"Salem","ZIP":"24153","MAIL_ADD":"1500 Red Lane","TYPE":"Public","id":"203","distance":6.46577605902635},"type":"Feature","geometry":{"type":"Point","coordinates":[-80.0718071952507,37.3151132865302]}},{"properties":{"NAME":"Countryside Golf Course","CITY":"Roanoke","ZIP":"24017","MAIL_ADD":"1 Countryside Road","TYPE":"Public","id":"153","distance":7.79296880190473},"type":"Feature","geometry":{"type":"Point","coordinates":[-79.9884939064661,37.3169364633632]}},{"properties":{"NAME":"Falling River Country Club","CITY":"Appomatox","ZIP":"24522","MAIL_ADD":"Rural Route 4","TYPE":"Private","id":"229","distance":6.74763753819223},"type":"Feature","geometry":{"type":"Point","coordinates":[-78.8747371554815,37.3356475350298]}},{"properties":{"NAME":"Peaks Par-3 Golf Course","CITY":"Lynchburg","ZIP":"24501","MAIL_ADD":"4856 Campbell Highway","TYPE":"Public","id":"344","distance":9.51893293742152},"type":"Feature","geometry":{"type":"Point","coordinates":[-79.1091986769645,37.3458552946783]}},{"properties":{"NAME":"Colonial Heritage Club","CITY":"Williamsburg","ZIP":"23188","MAIL_ADD":"6500 Arthur Hills Drive","TYPE":"Public","id":"349","distance":8.59996749273122},"type":"Feature","geometry":{"type":"Point","coordinates":[-76.7738296019635,37.3480391532492]}},{"properties":{"NAME":"Poplar Forest Golf Course","CITY":"Forest","ZIP":"24551","MAIL_ADD":"Ramblewood Road","TYPE":"Public","id":"216","distance":9.64239888866626},"type":"Feature","geometry":{"type":"Point","coordinates":[-79.2694254761979,37.3506377631555]}},{"properties":{"NAME":"Bedford Country Club","CITY":"Bedford","ZIP":"24523","MAIL_ADD":"3563 Peaks Road","TYPE":"Private","id":"211","distance":3.62221091113127},"type":"Feature","geometry":{"type":"Point","coordinates":[-79.5427850711528,37.3756427328995]}},{"properties":{"NAME":"Colonial Hills Golf Course","CITY":"Forest","ZIP":"24551","MAIL_ADD":"1990 Gumtree Road","TYPE":"Public","id":"88","distance":9.63452971201083},"type":"Feature","geometry":{"type":"Point","coordinates":[-79.274528686129,37.3814347090463]}},{"properties":{"NAME":"Birkdale Golf Course","CITY":"Chesterfield","ZIP":"23832","MAIL_ADD":"8511 Royal Birkdale Drive","TYPE":"Semi-Private","id":"85","distance":4.53980448895783},"type":"Feature","geometry":{"type":"Point","coordinates":[-77.6664121675918,37.3866765136641]}},{"properties":{"NAME":"Colonial Golf Course","CITY":"Lanexa","ZIP":"23187","MAIL_ADD":"P.O. Box 356","TYPE":"Public","id":"83","distance":8.57635571419372},"type":"Feature","geometry":{"type":"Point","coordinates":[-76.8768423065951,37.3932464855062]}},{"properties":{"NAME":"Ivy Hill Golf Course","CITY":"Forest","ZIP":"24551","MAIL_ADD":"1327 Ivy Hill Avenue","TYPE":"Semi-Private","id":"86","distance":7.10283391372724},"type":"Feature","geometry":{"type":"Point","coordinates":[-79.3207442267653,37.3972341184953]}},{"properties":{"NAME":"Oasis Sport Park","CITY":"Chesterfield","ZIP":"23112","MAIL_ADD":"15300 Cosby Rd","TYPE":"Public","id":"333","distance":2.63785210940733},"type":"Feature","geometry":{"type":"Point","coordinates":[-77.6960308991835,37.4051530330913]}},{"properties":{"NAME":"Stonehouse Golf Club","CITY":"Toano","ZIP":"23168","MAIL_ADD":"9540 Old Stage Road","TYPE":"Semi-Private","id":"294","distance":7.74478309387058},"type":"Feature","geometry":{"type":"Point","coordinates":[-76.8178685792144,37.4298448093291]}},{"properties":{"NAME":"Ashley Plantation Golf Club","CITY":"Daleville","ZIP":"24083","MAIL_ADD":"Magnolia Lane","TYPE":"Semi-Private","id":"327","distance":5.53682149020767},"type":"Feature","geometry":{"type":"Point","coordinates":[-79.8986273487192,37.4338723274214]}},{"properties":{"NAME":"Brandermill Country Club","CITY":"Midlothian","ZIP":"23112","MAIL_ADD":"P.O. Box 1990","TYPE":"Private","id":"82","distance":3.54970047692736},"type":"Feature","geometry":{"type":"Point","coordinates":[-77.6497372632939,37.4365881563151]}},{"properties":{"NAME":"Royal New Kent Golf Course","CITY":"Providence Forge","ZIP":"23140","MAIL_ADD":"5300 Bailey Road","TYPE":"Public","id":"337","distance":5.02446917727453},"type":"Feature","geometry":{"type":"Point","coordinates":[-77.0194684815399,37.4751840078936]}},{"properties":{"NAME":"Brickshire, Golf Club at","CITY":"Providence Forge","ZIP":"23140","MAIL_ADD":"11010 Kentland Trail","TYPE":"Public","id":"336","distance":5.47013485658952},"type":"Feature","geometry":{"type":"Point","coordinates":[-76.9934849274481,37.4760887447236]}},{"properties":{"NAME":"Botetourt Country Club","CITY":"Fincastle","ZIP":"24090","MAIL_ADD":"4444 Country Club Rd","TYPE":"Semi-Private","id":"209","distance":7.06280027987695},"type":"Feature","geometry":{"type":"Point","coordinates":[-79.9254030403637,37.4771227251257]}},{"properties":{"NAME":"Providence Golf Course","CITY":"Richmond","ZIP":"23236","MAIL_ADD":"1160 Providence Road","TYPE":"Public","id":"317","distance":9.99019219782545},"type":"Feature","geometry":{"type":"Point","coordinates":[-77.5612084702336,37.4809431504665]}},{"properties":{"NAME":"Stonehenge Country Club","CITY":"Richmond","ZIP":"23236","MAIL_ADD":"1000 Farnham Drive","TYPE":"Private","id":"302","distance":6.25870866276954},"type":"Feature","geometry":{"type":"Point","coordinates":[-77.6276014815485,37.4959858067857]}},{"properties":{"NAME":"Mill Quarter Plantation Golf Course","CITY":"Powhatan","ZIP":"23139","MAIL_ADD":"1525 Mill Quarter Plantation Road","TYPE":"Public","id":"80","distance":6.04646804701728},"type":"Feature","geometry":{"type":"Point","coordinates":[-77.922514990283,37.4974709092408]}},{"properties":{"NAME":"Brookwoods Golf Club","CITY":"Quinton","ZIP":"23141","MAIL_ADD":"7325 Club Drive","TYPE":"Public","id":"293","distance":6.57082760894921},"type":"Feature","geometry":{"type":"Point","coordinates":[-77.1683293994489,37.5049696383299]}},{"properties":{"NAME":"Windy Hill Sports","CITY":"Midlothian","ZIP":"23140","MAIL_ADD":"16500 Midlothian Turnpike","TYPE":"Public","id":"79","distance":4.81806728367245},"type":"Feature","geometry":{"type":"Point","coordinates":[-77.7171901229235,37.5114536683925]}},{"properties":{"NAME":"Salisbury Country Club","CITY":"Midlothian","ZIP":"23113","MAIL_ADD":"13620 Salisbury Road","TYPE":"Private","id":"78","distance":6.71440795114486},"type":"Feature","geometry":{"type":"Point","coordinates":[-77.6551589446674,37.528006465668]}},{"properties":{"NAME":"Independence Golf Club","CITY":"Midlothian","ZIP":"23113","MAIL_ADD":"600 Founders Bridge Boulevard","TYPE":"Public","id":"313","distance":7.10971901583282},"type":"Feature","geometry":{"type":"Point","coordinates":[-77.6862824022693,37.5439842641008]}},{"properties":{"NAME":"Poplar Grove Golf Club","CITY":"Amherst","ZIP":"24521","MAIL_ADD":"380 London Lane","TYPE":"Semi-Private","id":"340","distance":5.458549123713},"type":"Feature","geometry":{"type":"Point","coordinates":[-79.048699642612,37.5483110007196]}},{"properties":{"NAME":"West Point Country Club","CITY":"West Point","ZIP":"23181","MAIL_ADD":"P.O. Box 270","TYPE":"Private","id":"71","distance":5.31980957541302},"type":"Feature","geometry":{"type":"Point","coordinates":[-76.8258465176719,37.560673815873]}},{"properties":{"NAME":"Shadow Ridge Golf Club","CITY":"Amherst","ZIP":"24521","MAIL_ADD":"361 Pierces Mill Road","TYPE":"Public","id":"331","distance":3.85287755960744},"type":"Feature","geometry":{"type":"Point","coordinates":[-78.9854835579597,37.5731672816999]}},{"properties":{"NAME":"Foundry Golf Club","CITY":"Powhatan","ZIP":"23139","MAIL_ADD":"3225 Lees Landing Road'","TYPE":"Private","id":"70","distance":5.42071801841629},"type":"Feature","geometry":{"type":"Point","coordinates":[-77.8308318187117,37.5932028625626]}},{"properties":{"NAME":"Belmont Golf Course","CITY":"Richmond","ZIP":"23228","MAIL_ADD":"1600 Hilliard Road","TYPE":"Public","id":"68","distance":5.91161573445625},"type":"Feature","geometry":{"type":"Point","coordinates":[-77.4633815974201,37.6162859387861]}},{"properties":{"NAME":"Jefferson Lakeside Country Club","CITY":"Richmond","ZIP":"23228","MAIL_ADD":"1700 Lakeside Drive","TYPE":"Private","id":"66","distance":5.28836933448845},"type":"Feature","geometry":{"type":"Point","coordinates":[-77.469661450447,37.625984369507]}},{"properties":{"NAME":"Winton Country Club","CITY":"Clifford","ZIP":"24533","MAIL_ADD":"P.O. Box 8, Route 1","TYPE":"Semi-Private","id":"67","distance":0.451736852517106},"type":"Feature","geometry":{"type":"Point","coordinates":[-79.0277661395942,37.6364072001731]}},{"properties":{"NAME":"Spring Lake Golf Course","CITY":"Glen Allen","ZIP":"23060","MAIL_ADD":"2019 Mountain Road","TYPE":"Public","id":"65","distance":3.47036763414174},"type":"Feature","geometry":{"type":"Point","coordinates":[-77.4822783317976,37.6564135437193]}},{"properties":{"NAME":"Crossings Golf Course","CITY":"Glen Allen","ZIP":"23060","MAIL_ADD":"800 Virginia Center Parkway","TYPE":"Public","id":"64","distance":3.14191614812159},"type":"Feature","geometry":{"type":"Point","coordinates":[-77.4411144014687,37.6614958122309]}},{"properties":{"NAME":"Tides Inn Par 3","CITY":"Irvington","ZIP":"22480","MAIL_ADD":"480 King Carter Drive","TYPE":"Resort","id":"152","distance":6.2569191490666},"type":"Feature","geometry":{"type":"Point","coordinates":[-76.4288169805883,37.661928373885]}},{"properties":{"NAME":"The Tartan Golf Club","CITY":"Weems","ZIP":"22480","MAIL_ADD":"633 Saint Andrews Lane","TYPE":"Public","id":"151","distance":5.80108825023196},"type":"Feature","geometry":{"type":"Point","coordinates":[-76.4335094332575,37.6737594644729]}},{"properties":{"NAME":"Golden Eagle Golf Course at the Tides Inn","CITY":"Kilmarnock","ZIP":"22482","MAIL_ADD":"Golden Eagle Drive","TYPE":"Resort","id":"150","distance":4.15102167477758},"type":"Feature","geometry":{"type":"Point","coordinates":[-76.399397348051,37.6817554618873]}},{"properties":{"NAME":"King Carter Golf Club","CITY":"Irvington","ZIP":"22480","MAIL_ADD":"480 Old Saint Johns Road","TYPE":"Public","id":"345","distance":3.51611784714953},"type":"Feature","geometry":{"type":"Point","coordinates":[-76.40247866886,37.6929084328372]}},{"properties":{"NAME":"Indian Creek Yacht and Country Club","CITY":"Kilmarnock","ZIP":"22482","MAIL_ADD":"1934 Club Drive","TYPE":"Private","id":"341","distance":3.90589491765588},"type":"Feature","geometry":{"type":"Point","coordinates":[-76.3397844788891,37.6997130468566]}},{"properties":{"NAME":"The Vista Links","CITY":"Buena Vista","ZIP":"24416","MAIL_ADD":"100 Vista Links Drive","TYPE":"Public","id":"359","distance":9.39931724723984},"type":"Feature","geometry":{"type":"Point","coordinates":[-79.3710910582237,37.7379467028387]}},{"properties":{"NAME":"Lexington Golf and Country Club","CITY":"Lexington","ZIP":"24450","MAIL_ADD":"141 Country Club Road","TYPE":"Private","id":"217","distance":7.14967635348436},"type":"Feature","geometry":{"type":"Point","coordinates":[-79.4624723363471,37.7721271999912]}},{"properties":{"NAME":"Hanover Country Club","CITY":"Ashland","ZIP":"23005","MAIL_ADD":"14314 Country Club Drive","TYPE":"Private","id":"168","distance":8.87565480858826},"type":"Feature","geometry":{"type":"Point","coordinates":[-77.5412828166487,37.8015241950658]}},{"properties":{"NAME":"Royal Virginia Golf Course","CITY":"Hadensville","ZIP":"23093","MAIL_ADD":"3181 Dukes Road","TYPE":"Public","id":"62","distance":8.63036906474342},"type":"Feature","geometry":{"type":"Point","coordinates":[-78.0078324033348,37.8361207330117]}},{"properties":{"NAME":"Hobbs Hole Golf Course","CITY":"Tappahanock","ZIP":"22560","MAIL_ADD":"1267 Hobbs Hole Drive","TYPE":"Semi-Private","id":"287","distance":6.48580781637004},"type":"Feature","geometry":{"type":"Point","coordinates":[-76.8579241149642,37.898900417065]}},{"properties":{"NAME":"Wintergreen Resort - Stony Creek Course","CITY":"Nellysford","ZIP":"22958","MAIL_ADD":"Route 664","TYPE":"Resort","id":"238","distance":8.15894718788829},"type":"Feature","geometry":{"type":"Point","coordinates":[-78.8782010852842,37.8989395465896]}},{"properties":{"NAME":"Lake Monticello Golf Course","CITY":"Palmyra","ZIP":"22963","MAIL_ADD":"51 Bunker Boulevard","TYPE":"Private","id":"248","distance":9.82604101645793},"type":"Feature","geometry":{"type":"Point","coordinates":[-78.3219931805779,37.9041140571291]}},{"properties":{"NAME":"Wintergreen Resort - Devil's Knob","CITY":"Nellysford","ZIP":"22958","MAIL_ADD":"Route 664","TYPE":"Resort","id":"237","distance":3.33979479843056},"type":"Feature","geometry":{"type":"Point","coordinates":[-78.9506522359515,37.9241053443157]}},{"properties":{"NAME":"Morven Estate Golf Course","CITY":"Charlottesville","ZIP":"22902","MAIL_ADD":"James Monroe Parkway Route 795","TYPE":"Private","id":"247","distance":7.25708157358224},"type":"Feature","geometry":{"type":"Point","coordinates":[-78.5056393348633,37.9416009133781]}},{"properties":{"NAME":"Quinton Oaks Golf Course","CITY":"Callao","ZIP":"22435","MAIL_ADD":"P.O. Box 247","TYPE":"Semi-Private","id":"61","distance":6.29248747564496},"type":"Feature","geometry":{"type":"Point","coordinates":[-76.5711355673208,37.9428266880644]}},{"properties":{"NAME":"Woodside Country Club","CITY":"Tappahanock","ZIP":"22560","MAIL_ADD":"Route 17 N","TYPE":"Public","id":"286","distance":7.9315669745434},"type":"Feature","geometry":{"type":"Point","coordinates":[-76.9150256939201,37.9629062400904]}},{"properties":{"NAME":"Village Green Golf Course","CITY":"Callao","ZIP":"22435","MAIL_ADD":"P.O. Box 579","TYPE":"Public","id":"60","distance":5.72569249809678},"type":"Feature","geometry":{"type":"Point","coordinates":[-76.5596787738277,37.9654282282331]}},{"properties":{"NAME":"Spring Creek Golf Club","CITY":"Gordonsville","ZIP":"22942","MAIL_ADD":"109 Clubhouse Way","TYPE":"Public","id":"358","distance":7.81610301326031},"type":"Feature","geometry":{"type":"Point","coordinates":[-78.2133151445875,37.9916674960641]}},{"properties":{"NAME":"Glenmore Country Club","CITY":"Keswick","ZIP":"22947","MAIL_ADD":"1750 Piper Way","TYPE":"Private","id":"245","distance":3.49638998621922},"type":"Feature","geometry":{"type":"Point","coordinates":[-78.3824793146747,37.9943973121285]}},{"properties":{"NAME":"Tanyard Country Club","CITY":"Louisa","ZIP":"23093","MAIL_ADD":"404 East Main Street","TYPE":"Semi-Private","id":"262","distance":0.289099698626774},"type":"Feature","geometry":{"type":"Point","coordinates":[-77.9974796712259,38.0117867194487]}},{"properties":{"NAME":"Keswick","CITY":"Keswick","ZIP":"22947","MAIL_ADD":"701 Country Club Drive","TYPE":"Private","id":"59","distance":3.49492926170376},"type":"Feature","geometry":{"type":"Point","coordinates":[-78.3597941340632,38.0139019320313]}},{"properties":{"NAME":"Swannanoa Country Club","CITY":"Afton","ZIP":"22920","MAIL_ADD":"Rural Route 1","TYPE":"Public","id":"236","distance":9.32621122438639},"type":"Feature","geometry":{"type":"Point","coordinates":[-78.8809229127844,38.0207383186557]}},{"properties":{"NAME":"Birdwood Golf Course","CITY":"Charlottesville","ZIP":"22901","MAIL_ADD":"410 Golf Course Drive","TYPE":"Public","id":"243","distance":2.6752756201024},"type":"Feature","geometry":{"type":"Point","coordinates":[-78.5371107890202,38.0423671372359]}},{"properties":{"NAME":"McIntire Park Golf Course","CITY":"Charlottesville","ZIP":"22902","MAIL_ADD":"McIntire Park Route 250","TYPE":"Public","id":"244","distance":6.30156629530335},"type":"Feature","geometry":{"type":"Point","coordinates":[-78.4743309334229,38.0457517845241]}},{"properties":{"NAME":"University of Virginia Golf Course","CITY":"Charlottesville","ZIP":"22905","MAIL_ADD":"Route 250 West","TYPE":"Private","id":"246","distance":1.7263140526976},"type":"Feature","geometry":{"type":"Point","coordinates":[-78.5902943443379,38.049816150219]}},{"properties":{"NAME":"Meadow Creek Golf Course at Pen Park","CITY":"Charlottesville","ZIP":"22901","MAIL_ADD":"1400 Pen Park Road","TYPE":"Public","id":"58","distance":7.29760072519391},"type":"Feature","geometry":{"type":"Point","coordinates":[-78.4520099950717,38.0513516667405]}},{"properties":{"NAME":"Old Trail Golf Club","CITY":"Crozet","ZIP":"22932","MAIL_ADD":"5494 Rea's Creek Drive","TYPE":"Public","id":"355","distance":8.98661762736887},"type":"Feature","geometry":{"type":"Point","coordinates":[-78.719033895505,38.0568362897515]}},{"properties":{"NAME":"Farmington Country Club","CITY":"Charlottesville","ZIP":"22901","MAIL_ADD":"1 Country Club Circle","TYPE":"Private","id":"242","distance":1.91681160337541},"type":"Feature","geometry":{"type":"Point","coordinates":[-78.5399623892192,38.0603059859703]}},{"properties":{"NAME":"Waynesboro Country Club","CITY":"Waynesboro","ZIP":"22980","MAIL_ADD":"1117 Meadowbrook Road","TYPE":"Private","id":"235","distance":0.79420913238698},"type":"Feature","geometry":{"type":"Point","coordinates":[-78.9164594425611,38.0612683892407]}},{"properties":{"NAME":"Scotto's World of Golf","CITY":"Waynesboro","ZIP":"22980","MAIL_ADD":"Route 250","TYPE":"Public","id":"57","distance":2.39485037128649},"type":"Feature","geometry":{"type":"Point","coordinates":[-78.8654476984828,38.0648143272135]}},{"properties":{"NAME":"Shenandoah Crossing","CITY":"Gordonsville","ZIP":"22942","MAIL_ADD":"10 Shenandoah Crossing Drive","TYPE":"Resort","id":"263","distance":9.34690301642324},"type":"Feature","geometry":{"type":"Point","coordinates":[-78.148305285604,38.0870545076899]}},{"properties":{"NAME":"Bushfield Golf Course","CITY":"Callao","ZIP":"22435","MAIL_ADD":"P.O. Box 629","TYPE":"Semi-Private","id":"56","distance":4.49681508057786},"type":"Feature","geometry":{"type":"Point","coordinates":[-76.7071883131586,38.1268886401211]}},{"properties":{"NAME":"Gypsy Hill Golf Club","CITY":"Staunton","ZIP":"24401","MAIL_ADD":"Gypsy Hill Park","TYPE":"Public","id":"232","distance":1.32643100106809},"type":"Feature","geometry":{"type":"Point","coordinates":[-79.0874381324731,38.1591537170737]}},{"properties":{"NAME":"Country Club of Staunton","CITY":"Staunton","ZIP":"24401","MAIL_ADD":"Country Club Road","TYPE":"Semi-Private","id":"234","distance":9.49705527424968},"type":"Feature","geometry":{"type":"Point","coordinates":[-79.0096357443645,38.1732863124217]}},{"properties":{"NAME":"Ingleside Resort and Country Club","CITY":"Staunton","ZIP":"24401","MAIL_ADD":"1410 Commerce Road","TYPE":"Public","id":"233","distance":1.30653833249677},"type":"Feature","geometry":{"type":"Point","coordinates":[-79.0337894661166,38.1872810692367]}},{"properties":{"NAME":"Cameron Hills Golf Links","CITY":"King George","ZIP":"22485","MAIL_ADD":"14140 Salem Church Road","TYPE":"Public","id":"285","distance":7.37176581816222},"type":"Feature","geometry":{"type":"Point","coordinates":[-77.1095810528166,38.1912928195043]}},{"properties":{"NAME":"Woodberry Forest Golf Course","CITY":"Woodberry Forest","ZIP":"22989","MAIL_ADD":"Route 15","TYPE":"Private","id":"334","distance":2.84161502805205},"type":"Feature","geometry":{"type":"Point","coordinates":[-78.124251068992,38.2919845964527]}},{"properties":{"NAME":"Browning's Golf Course","CITY":"Unionville","ZIP":"22701","MAIL_ADD":"27503 Old Office Road","TYPE":"Public","id":"271","distance":9.09168393679364},"type":"Feature","geometry":{"type":"Point","coordinates":[-77.9104467218719,38.3232921449868]}},{"properties":{"NAME":"Cannon Ridge Golf Club","CITY":"Fredericksburg","ZIP":"22406","MAIL_ADD":"9000 Celebrate Virginia Parkway","TYPE":"Public","id":"348","distance":7.33514680661265},"type":"Feature","geometry":{"type":"Point","coordinates":[-77.5343003234817,38.3234018837285]}},{"properties":{"NAME":"Greene Hills Golf Club","CITY":"Stanardsville","ZIP":"22973","MAIL_ADD":"3858 Dundee Road","TYPE":"Semi-Private","id":"258","distance":2.68692831369787},"type":"Feature","geometry":{"type":"Point","coordinates":[-78.4021391817244,38.3250111250567]}},{"properties":{"NAME":"Willow Oaks Golf Club","CITY":"Dahlgren","ZIP":"22448","MAIL_ADD":"17320 Dahlgren Road, Building 1278","TYPE":"Military","id":"284","distance":3.23612735898674},"type":"Feature","geometry":{"type":"Point","coordinates":[-77.0396543276504,38.3252274396408]}},{"properties":{"NAME":"Lake of the Woods Country Club","CITY":"Locust Grove","ZIP":"22508","MAIL_ADD":"HC75 Box 3","TYPE":"Private","id":"149","distance":6.40361008309294},"type":"Feature","geometry":{"type":"Point","coordinates":[-77.7490228278852,38.3340469506822]}},{"properties":{"NAME":"Meadows Farms Golf Club","CITY":"Locust Grove","ZIP":"22508","MAIL_ADD":"4300 Flat Run Road","TYPE":"Public","id":"272","distance":6.22337790890601},"type":"Feature","geometry":{"type":"Point","coordinates":[-77.777561458749,38.3476871572049]}},{"properties":{"NAME":"Somerset Golf Club","CITY":"Locust Grove","ZIP":"22508","MAIL_ADD":"35448 Somerset Ridge Road","TYPE":"Semi-Private","id":"273","distance":3.52167002487401},"type":"Feature","geometry":{"type":"Point","coordinates":[-77.7568617774573,38.3810384395928]}},{"properties":{"NAME":"Lakeview Golf Course","CITY":"Harrisonburg","ZIP":"22801","MAIL_ADD":"4101 Shen Lake Drive","TYPE":"Semi-Private","id":"256","distance":5.00903611374779},"type":"Feature","geometry":{"type":"Point","coordinates":[-78.8262014184004,38.3900427547916]}},{"properties":{"NAME":"Massanutten Resort and Golf Course","CITY":"Harrisonburg","ZIP":"22840","MAIL_ADD":"Route 644","TYPE":"Resort","id":"257","distance":9.56921327586823},"type":"Feature","geometry":{"type":"Point","coordinates":[-78.7494268972826,38.4127874826172]}},{"properties":{"NAME":"Spotswood Country Club","CITY":"Harrisonburg","ZIP":"22802","MAIL_ADD":"1980 Country Club Road","TYPE":"Private","id":"255","distance":7.3820684980535},"type":"Feature","geometry":{"type":"Point","coordinates":[-78.8343174393522,38.4287197454626]}},{"properties":{"NAME":"Gauntlet Golf Club at Curtis Park","CITY":"Fredericksburg","ZIP":"22406","MAIL_ADD":"18 Fairway Drive","TYPE":"Private","id":"52","distance":1.15906657675536},"type":"Feature","geometry":{"type":"Point","coordinates":[-77.5706326204383,38.4371703088081]}},{"properties":{"NAME":"Augustine Golf and Country Club","CITY":"Stafford","ZIP":"22554","MAIL_ADD":"76 Monument Avenue","TYPE":"Semi-Private","id":"51","distance":4.35794849416118},"type":"Feature","geometry":{"type":"Point","coordinates":[-77.4757207396453,38.4426398060727]}},{"properties":{"NAME":"Heritage Oaks","CITY":"Harrisonburg","ZIP":"22801","MAIL_ADD":"680 Garbers Church Road","TYPE":"Public","id":"330","distance":8.42798083975639},"type":"Feature","geometry":{"type":"Point","coordinates":[-78.8990156465994,38.447094494001]}},{"properties":{"NAME":"Country Club of Culpeper","CITY":"Culpeper","ZIP":"22701","MAIL_ADD":"2100 Country Club Road","TYPE":"Private","id":"270","distance":5.55119392388941},"type":"Feature","geometry":{"type":"Point","coordinates":[-78.0178586807884,38.4632076045449]}},{"properties":{"NAME":"Aquia Harbour Golf and Country Club","CITY":"Stafford","ZIP":"22554","MAIL_ADD":"204 Bow Cove","TYPE":"Semi-Private","id":"274","distance":2.22216234778449},"type":"Feature","geometry":{"type":"Point","coordinates":[-77.3733349515285,38.4706961953693]}},{"properties":{"NAME":"Medal of Honor Golf Club","CITY":"Quantico","ZIP":"22134","MAIL_ADD":"Building 3303 Fuller Heights Road","TYPE":"Military","id":"283","distance":5.60877600393759},"type":"Feature","geometry":{"type":"Point","coordinates":[-77.3091312722387,38.5304384331088]}},{"properties":{"NAME":"Forest Greens Golf Course","CITY":"Triangle","ZIP":"22172","MAIL_ADD":"7915 South Woods","TYPE":"Semi-Private","id":"148","distance":6.03438659730618},"type":"Feature","geometry":{"type":"Point","coordinates":[-77.3524007194481,38.544321216467]}},{"properties":{"NAME":"Kastle Greens Golf Course","CITY":"Midland","ZIP":"22728","MAIL_ADD":"11446 Rogues Road","TYPE":"Public","id":"50","distance":8.11750208175281},"type":"Feature","geometry":{"type":"Point","coordinates":[-77.7179591081348,38.5589099012286]}},{"properties":{"NAME":"Fauquier Springs Country Club","CITY":"Warrenton","ZIP":"20186","MAIL_ADD":"9236 Tournament Drive","TYPE":"Private","id":"48","distance":6.28755185887077},"type":"Feature","geometry":{"type":"Point","coordinates":[-77.8715340478026,38.6556012558243]}},{"properties":{"NAME":"South Wales Golf Club","CITY":"Jeffersonton","ZIP":"22724","MAIL_ADD":"18363 Golf Lanen","TYPE":"Public","id":"269","distance":7.699102889862},"type":"Feature","geometry":{"type":"Point","coordinates":[-77.912337175796,38.6667614867244]}},{"properties":{"NAME":"Caverns Country Club","CITY":"Luray","ZIP":"22835","MAIL_ADD":"970 Highway 211 W","TYPE":"Semi-Private","id":"259","distance":7.14200471440973},"type":"Feature","geometry":{"type":"Point","coordinates":[-78.5099259991515,38.6713490605407]}},{"properties":{"NAME":"Lakeridge Golf Course","CITY":"Woodbridge","ZIP":"22192","MAIL_ADD":"12350 Cotton Mill Drive","TYPE":"Public","id":"45","distance":7.85621855730514},"type":"Feature","geometry":{"type":"Point","coordinates":[-77.3201943175599,38.6911120010985]}},{"properties":{"NAME":"Old Hickory Golf Club","CITY":"Woodbridge","ZIP":"22192","MAIL_ADD":"11921 Chanceford Drive","TYPE":"Public","id":"44","distance":6.65907897943502},"type":"Feature","geometry":{"type":"Point","coordinates":[-77.3448332016272,38.6916524752352]}},{"properties":{"NAME":"Bristow Manor Golf Course","CITY":"Bristow","ZIP":"20136","MAIL_ADD":"11507 Valley View Drive","TYPE":"Semi-Private","id":"43","distance":9.71989622158289},"type":"Feature","geometry":{"type":"Point","coordinates":[-77.5319092534608,38.7065396991072]}},{"properties":{"NAME":"Broad Run Golf and Practice Facility","CITY":"Bristow","ZIP":"20136","MAIL_ADD":"10201 Golf Academy Drive","TYPE":"Public","id":"311","distance":8.21494315424698},"type":"Feature","geometry":{"type":"Point","coordinates":[-77.5340118521213,38.7317466320537]}},{"properties":{"NAME":"Manassas Hills Golf Course","CITY":"Manassas","ZIP":"20111","MAIL_ADD":"7800 Willow Pond Court","TYPE":"Public","id":"339","distance":3.10209422010695},"type":"Feature","geometry":{"type":"Point","coordinates":[-77.4372278949257,38.7359788085756]}},{"properties":{"NAME":"Prince William Golf Course","CITY":"Nokesville","ZIP":"20181","MAIL_ADD":"14631 Vint Hill Road","TYPE":"Public","id":"39","distance":2.93326481677652},"type":"Feature","geometry":{"type":"Point","coordinates":[-77.6305162790831,38.7476217591152]}},{"properties":{"NAME":"Burke Lake Golf Course","CITY":"Fairfax Station","ZIP":"22039","MAIL_ADD":"7315 Ox Road","TYPE":"Public","id":"38","distance":6.61751801023463},"type":"Feature","geometry":{"type":"Point","coordinates":[-77.3092847029084,38.7652733919008]}},{"properties":{"NAME":"General's Ridge Golf Course","CITY":"Manassas","ZIP":"20111","MAIL_ADD":"9701 Manassas Drive","TYPE":"Public","id":"37","distance":1.67147691071595},"type":"Feature","geometry":{"type":"Point","coordinates":[-77.4272338433579,38.7737676014129]}},{"properties":{"NAME":"Robert Trent Jones Golf Club","CITY":"Lake Manassas","ZIP":"20155","MAIL_ADD":"One Turtle Point Drive","TYPE":"Private","id":"35","distance":3.72070320812612},"type":"Feature","geometry":{"type":"Point","coordinates":[-77.633499146427,38.7784189010701]}},{"properties":{"NAME":"Stonewall Golf Club","CITY":"Gainesville","ZIP":"20155","MAIL_ADD":"15601 Turtle Point Drive","TYPE":"Public","id":"282","distance":2.69969261095209},"type":"Feature","geometry":{"type":"Point","coordinates":[-77.649276077902,38.778841883157]}},{"properties":{"NAME":"Virginia Oaks Golf Course","CITY":"Gainesville","ZIP":"20155","MAIL_ADD":"7950 Virginia Oaks Drive","TYPE":"Public","id":"33","distance":4.78154703175249},"type":"Feature","geometry":{"type":"Point","coordinates":[-77.6191087219821,38.7838492728601]}},{"properties":{"NAME":"Westfields Golf Club","CITY":"Clifton","ZIP":"20124","MAIL_ADD":"13940 Balmoral Greens Avenue","TYPE":"Semi-Private","id":"31","distance":2.32538943371398},"type":"Feature","geometry":{"type":"Point","coordinates":[-77.4233313321674,38.7939372297905]}},{"properties":{"NAME":"Bryce Resort","CITY":"Basye","ZIP":"22810","MAIL_ADD":"Route 263 West","TYPE":"Resort","id":"261","distance":4.14850400069651},"type":"Feature","geometry":{"type":"Point","coordinates":[-78.7674351007085,38.8171524539334]}},{"properties":{"NAME":"Heritage Hunt Golf and Country Club","CITY":"Gainesville","ZIP":"20155","MAIL_ADD":"6901 Arthur Hills Drive","TYPE":"Private","id":"300","distance":6.50616005593148},"type":"Feature","geometry":{"type":"Point","coordinates":[-77.5981689202949,38.8183338315633]}},{"properties":{"NAME":"Twin Lakes Golf Course","CITY":"Clifton","ZIP":"20124","MAIL_ADD":"6201 Union Mill Road","TYPE":"Public","id":"30","distance":3.83363146350735},"type":"Feature","geometry":{"type":"Point","coordinates":[-77.4041080922708,38.8214373018753]}},{"properties":{"NAME":"Country Club of Fairfax","CITY":"Fairfax","ZIP":"22030","MAIL_ADD":"5110 Ox Road","TYPE":"Private","id":"28","distance":6.80200993467963},"type":"Feature","geometry":{"type":"Point","coordinates":[-77.3243143938898,38.8225433764383]}},{"properties":{"NAME":"Piedmont Club","CITY":"Haymarket","ZIP":"20169","MAIL_ADD":"14655 Piedmont Vista Drive","TYPE":"Private","id":"299","distance":4.96262523484766},"type":"Feature","geometry":{"type":"Point","coordinates":[-77.6199529712496,38.8236632345322]}},{"properties":{"NAME":"Virginia Golf Center and Academy","CITY":"Clifton","ZIP":"20124","MAIL_ADD":"5801 Clifton Road","TYPE":"Public","id":"29","distance":4.36947100463014},"type":"Feature","geometry":{"type":"Point","coordinates":[-77.3990116479108,38.82874185668]}},{"properties":{"NAME":"Dominion Valley Country Club","CITY":"Haymarket","ZIP":"20169","MAIL_ADD":"15200 Arnold Palmer Drive","TYPE":"Private","id":"338","distance":3.34241570021214},"type":"Feature","geometry":{"type":"Point","coordinates":[-77.6413133281634,38.8355185115171]}},{"properties":{"NAME":"Chantilly National Golf Course and Country Club","CITY":"Centreville","ZIP":"20120","MAIL_ADD":"14901 Braddock Road","TYPE":"Private","id":"24","distance":7.92709151352318},"type":"Feature","geometry":{"type":"Point","coordinates":[-77.4675307595686,38.8624071384057]}},{"properties":{"NAME":"Penderbrook Golf Course","CITY":"Fairfax","ZIP":"22033","MAIL_ADD":"3700 Golf Trail Lane","TYPE":"Semi-Private","id":"22","distance":8.0182282548838},"type":"Feature","geometry":{"type":"Point","coordinates":[-77.3590624299522,38.8728979116493]}},{"properties":{"NAME":"Oak Marr Golf Course","CITY":"Oakton","ZIP":"22124","MAIL_ADD":"3200 Jermantown Road","TYPE":"Public","id":"21","distance":9.81734960226557},"type":"Feature","geometry":{"type":"Point","coordinates":[-77.3159444589282,38.8766039303721]}},{"properties":{"NAME":"Bull Run Golf Club","CITY":"Haymarket","ZIP":"20169","MAIL_ADD":"3520 James Madison Highway","TYPE":"Public","id":"19","distance":2.86795725320304},"type":"Feature","geometry":{"type":"Point","coordinates":[-77.6421232558079,38.8797254720822]}},{"properties":{"NAME":"Fair Oaks Golf Park","CITY":"Fairfax","ZIP":"22033","MAIL_ADD":"12908 Lee Jackson Memorial Hwy","TYPE":"Public","id":"20","distance":7.98765197582832},"type":"Feature","geometry":{"type":"Point","coordinates":[-77.3908664972684,38.8806519929013]}},{"properties":{"NAME":"Evergreen Country Club","CITY":"Haymarket","ZIP":"20169","MAIL_ADD":"15900 Berkeley Drive","TYPE":"Private","id":"18","distance":1.4651839103834},"type":"Feature","geometry":{"type":"Point","coordinates":[-77.6623149031206,38.8822641267203]}},{"properties":{"NAME":"Pleasant Valley Golf Course","CITY":"Chantilly","ZIP":"20151","MAIL_ADD":"4715 Pleasant Valley Road","TYPE":"Semi-Private","id":"16","distance":9.75591670464228},"type":"Feature","geometry":{"type":"Point","coordinates":[-77.4764792481065,38.8876895617356]}},{"properties":{"NAME":"International Country Club","CITY":"Fairfax","ZIP":"22033","MAIL_ADD":"13200 Lee Jackson Highway","TYPE":"Private","id":"15","distance":8.47028532663663},"type":"Feature","geometry":{"type":"Point","coordinates":[-77.3989344492081,38.888477980041]}},{"properties":{"NAME":"South Riding Golf Club","CITY":"South Riding","ZIP":"20152","MAIL_ADD":"43137 Golf View Drive","TYPE":"Semi-Private","id":"280","distance":9.26322736339286},"type":"Feature","geometry":{"type":"Point","coordinates":[-77.5117927390983,38.9030115864765]}},{"properties":{"NAME":"Front Royal Country Club","CITY":"Front Royal","ZIP":"22630","MAIL_ADD":"PO Box 1260","TYPE":"Public","id":"266","distance":7.87367910844835},"type":"Feature","geometry":{"type":"Point","coordinates":[-78.1841372009463,38.9602796080281]}},{"properties":{"NAME":"Jackson's Chase at Pine Hills","CITY":"Front Royal","ZIP":"22630","MAIL_ADD":"65 Jackson's Chase Drive","TYPE":"Public","id":"329","distance":9.80761354016508},"type":"Feature","geometry":{"type":"Point","coordinates":[-78.2231218947122,38.9847681666577]}},{"properties":{"NAME":"Bowling Green Country Club","CITY":"Front Royal","ZIP":"22630","MAIL_ADD":"838 Bowling Green Road","TYPE":"Public","id":"268","distance":6.57245339718305},"type":"Feature","geometry":{"type":"Point","coordinates":[-78.1229514089942,38.9867168602922]}},{"properties":{"NAME":"Blue Ridge Shadows Golf Club","CITY":"Front Royal","ZIP":"22630","MAIL_ADD":"456 Shadows Drive","TYPE":"Public","id":"347","distance":9.71034079654692},"type":"Feature","geometry":{"type":"Point","coordinates":[-78.1867124763592,38.9890974150583]}},{"properties":{"NAME":"The Ritz-Carlton Golf Club Creighton Farms","CITY":"Aldie","ZIP":"20105","MAIL_ADD":"22616 James Monroe Highway","TYPE":"Private","id":"362","distance":0.299217733522273},"type":"Feature","geometry":{"type":"Point","coordinates":[-77.6149888414306,38.9913402808696]}},{"properties":{"NAME":"Brambleton Regional Park and Golf Course","CITY":"Ashburn","ZIP":"20147","MAIL_ADD":"42180 Ryan Road","TYPE":"Public","id":"10","distance":5.38522169843754},"type":"Feature","geometry":{"type":"Point","coordinates":[-77.5399072192644,38.9921640156683]}},{"properties":{"NAME":"Shenandoah Valley Golf Club","CITY":"Front Royal","ZIP":"22630","MAIL_ADD":"134 Golf Club Circle","TYPE":"Semi-Private","id":"267","distance":7.13242088717235},"type":"Feature","geometry":{"type":"Point","coordinates":[-78.1291865818565,38.9922744085085]}},{"properties":{"NAME":"Belmont Country Club","CITY":"Ashburn","ZIP":"20147","MAIL_ADD":"43880 Russell Branch Parkway","TYPE":"Private","id":"278","distance":8.06501040751561},"type":"Feature","geometry":{"type":"Point","coordinates":[-77.4948654958259,39.0646050673967]}},{"properties":{"NAME":"Millwood Country Club","CITY":"Boyce","ZIP":"22620","MAIL_ADD":"P.O. Box 127","TYPE":"Private","id":"166","distance":9.49622708257568},"type":"Feature","geometry":{"type":"Point","coordinates":[-78.052341303109,39.0779694898612]}},{"properties":{"NAME":"Lansdowne Golf Club","CITY":"Leesburg","ZIP":"20176","MAIL_ADD":"44050 Woodbridge Parkway","TYPE":"Resort","id":"6","distance":7.68318792634109},"type":"Feature","geometry":{"type":"Point","coordinates":[-77.4769327912345,39.0788141612395]}},{"properties":{"NAME":"Goose Creek Golf Course","CITY":"Leesburg","ZIP":"22075","MAIL_ADD":"43001 Golf Club Road","TYPE":"Public","id":"5","distance":6.29073488145084},"type":"Feature","geometry":{"type":"Point","coordinates":[-77.5136431135248,39.0822322686903]}},{"properties":{"NAME":"Westpark Golf Club","CITY":"Leesburg","ZIP":"20175","MAIL_ADD":"59 Clubhouse Diver SW","TYPE":"Semi-Private","id":"277","distance":1.28876119552141},"type":"Feature","geometry":{"type":"Point","coordinates":[-77.5883304209184,39.1013758823362]}},{"properties":{"NAME":"River Creek Club","CITY":"Leesburg","ZIP":"20176","MAIL_ADD":"43730 Olympic Boulevard","TYPE":"Private","id":"4","distance":5.49340833283681},"type":"Feature","geometry":{"type":"Point","coordinates":[-77.49410266272,39.1067830690108]}},{"properties":{"NAME":"Stoneleigh Golf Course","CITY":"Round Hill","ZIP":"20141","MAIL_ADD":"35271 Prestwick Street","TYPE":"Semi-Private","id":"3","distance":7.46257590131601},"type":"Feature","geometry":{"type":"Point","coordinates":[-77.7856468611488,39.1217314986214]}},{"properties":{"NAME":"Loudoun Golf  and Country Club","CITY":"Purcellville","ZIP":"20134","MAIL_ADD":"P.O. Box 189","TYPE":"Private","id":"2","distance":5.37882967564165},"type":"Feature","geometry":{"type":"Point","coordinates":[-77.7288668066081,39.1333706201017]}},{"properties":{"NAME":"Virginia National Golf Club","CITY":"Bluemont","ZIP":"20135","MAIL_ADD":"1400 Parker Lane","TYPE":"Private","id":"275","distance":0.793147642988648},"type":"Feature","geometry":{"type":"Point","coordinates":[-77.8704211284658,39.1378827176796]}},{"properties":{"NAME":"Golf Club of Virginia at Beacon Hill","CITY":"Leesburg","ZIP":"20176","MAIL_ADD":"17160 Cannondale Drive","TYPE":"Private","id":"316","distance":9.23679144144793},"type":"Feature","geometry":{"type":"Point","coordinates":[-77.5941816775062,39.1456874214348]}},{"properties":{"NAME":"Carper's Valley Golf Course","CITY":"Winchester","ZIP":"22602","MAIL_ADD":"1400 Millwood Pike","TYPE":"Public","id":"1","distance":9.77385953655251},"type":"Feature","geometry":{"type":"Point","coordinates":[-78.1437809545675,39.1510693705801]}},{"properties":{"NAME":"Raspberry Falls Golf and Hunt Club","CITY":"Leesburg","ZIP":"20176","MAIL_ADD":"41601 Raspbery Drive","TYPE":"Semi-Private","id":"276","distance":0.193297078741509},"type":"Feature","geometry":{"type":"Point","coordinates":[-77.5553625552421,39.1618755744054]}},{"properties":{"NAME":"Winchester Country Club","CITY":"Winchester","ZIP":"22602","MAIL_ADD":"P.O. Box 2076","TYPE":"Private","id":"0","distance":9.46621973134343},"type":"Feature","geometry":{"type":"Point","coordinates":[-78.1474774943716,39.1701980447579]}},{"properties":{"NAME":"Rock Harbor Golf Course","CITY":"Winchester","ZIP":"22602","MAIL_ADD":"365 Rock Harbor Drive","TYPE":"Semi-Private","id":"357","distance":5.32339138142196},"type":"Feature","geometry":{"type":"Point","coordinates":[-78.2095337603061,39.1821625531232]}}],"is_temporal":false,"author":{"url":"","metadata":"","contact_name":"","contact_address":"","source":"","contact_phone":""},"source":"","pagination":{"sort":null,"start":0,"total":185,"limit":1000000},"state":"complete","tags":"","published":"2014-08-14T15:07:45-04:00","id":210176}