{"type":"FeatureCollection","data_type":"Dataset","url_type":null,"permissions":[{"permissions":{"download":true,"view":true},"group_id":"everyone"}],"classification":null,"title":"Fortant Kosher Merlot","count":39,"stream_id":21028,"contributor":{"url":"http://geocommons.com/users/2024","name":"kunisawa"},"data_attributes":null,"calculation_params":null,"icon_link":null,"link":"http://geocommons.com/overlays/21028.json","extent":[-156.92,18.0193,-66.1839,48.5578],"geometry_types":["point"],"unique_name":null,"name":"Fortant Kosher Merlot","feature_count":39,"description":"","next_feature":null,"is_raster":false,"short_classification":"Y","stats":{"geo_score":{"max":1.0,"mean":0.966564102564103,"variance":0.00308341025641026,"stdev":0.0555284634796449,"min":0.857,"median":1.0},"num_searches":{"max":3.0,"mean":1.15384615384615,"variance":0.186234817813765,"stdev":0.431549322573637,"min":1.0,"median":1.0}},"features":[{"properties":{"city":"San Francisco","geo_score":1.0,"description":"Fortant Kosher Merlot","num_searches":3.0,"id":"a63c3kxf2qb8","geo_precision":"zip","source":"grappos.com","zipid":"94109","state":"CA"},"type":"Feature","geometry":{"type":"Point","coordinates":[-122.420782,37.795219]}},{"properties":{"city":"Concord","geo_score":1.0,"description":"Fortant Kosher Merlot","num_searches":1.0,"id":"a63c3kpr1ijf","geo_precision":"zip","source":"grappos.com","zipid":"94521","state":"CA"},"type":"Feature","geometry":{"type":"Point","coordinates":[-121.960045,37.951661]}},{"properties":{"city":"Stockton","geo_score":1.0,"description":"Fortant Kosher Merlot","num_searches":1.0,"id":"a63c3kqhmhx9","geo_precision":"zip","source":"grappos.com","zipid":"95219","state":"CA"},"type":"Feature","geometry":{"type":"Point","coordinates":[-121.455259,38.001613]}},{"properties":{"city":"Courtland","geo_score":0.868,"description":"Fortant Kosher Merlot","num_searches":1.0,"id":"a63c3kse6mph","geo_precision":"zip","source":"grappos.com","zipid":"95615","state":"CA"},"type":"Feature","geometry":{"type":"Point","coordinates":[-121.576066,38.319912]}},{"properties":{"city":"Rescue","geo_score":1.0,"description":"Fortant Kosher Merlot","num_searches":1.0,"id":"a63c3krf7x5e","geo_precision":"zip","source":"grappos.com","zipid":"95672","state":"CA"},"type":"Feature","geometry":{"type":"Point","coordinates":[-120.994305,38.718327]}},{"properties":{"city":"Palo Cedro","geo_score":1.0,"description":"Fortant Kosher Merlot","num_searches":1.0,"id":"a63c3kr16eg7","geo_precision":"zip","source":"grappos.com","zipid":"96073","state":"CA"},"type":"Feature","geometry":{"type":"Point","coordinates":[-122.201552,40.56844]}},{"properties":{"city":"Lanai City","geo_score":0.857,"description":"Fortant Kosher Merlot","num_searches":1.0,"id":"a63c3ku65dpg","geo_precision":"zip","source":"grappos.com","zipid":"96763","state":"HI"},"type":"Feature","geometry":{"type":"Point","coordinates":[-156.920278,20.839722]}},{"properties":{"city":"Denton","geo_score":1.0,"description":"Fortant Kosher Merlot","num_searches":1.0,"id":"a63c3kx56d11","geo_precision":"zip","source":"grappos.com","zipid":"66017","state":"KS"},"type":"Feature","geometry":{"type":"Point","coordinates":[-95.103098,39.70398]}},{"properties":{"city":"Haverhill","geo_score":0.937,"description":"Fortant Kosher Merlot","num_searches":2.0,"id":"a63c3kxvtpej","geo_precision":"zip","source":"grappos.com","zipid":"1835","state":"MA"},"type":"Feature","geometry":{"type":"Point","coordinates":[-71.103669,42.756757]}},{"properties":{"city":"South Deerfield","geo_score":1.0,"description":"Fortant Kosher Merlot","num_searches":1.0,"id":"a63c3ks3c5ar","geo_precision":"zip","source":"grappos.com","zipid":"1373","state":"MA"},"type":"Feature","geometry":{"type":"Point","coordinates":[-72.682346,42.464522]}},{"properties":{"city":"Groton","geo_score":1.0,"description":"Fortant Kosher Merlot","num_searches":1.0,"id":"a63c3kxrlqgj","geo_precision":"zip","source":"grappos.com","zipid":"1470","state":"MA"},"type":"Feature","geometry":{"type":"Point","coordinates":[-71.459405,42.446396]}},{"properties":{"city":"Linwood","geo_score":1.0,"description":"Fortant Kosher Merlot","num_searches":1.0,"id":"a63c3ku5brca","geo_precision":"zip","source":"grappos.com","zipid":"1525","state":"MA"},"type":"Feature","geometry":{"type":"Point","coordinates":[-71.896868,42.364807]}},{"properties":{"city":"Melrose","geo_score":0.857,"description":"Fortant Kosher Merlot","num_searches":1.0,"id":"a63c3kkmtje1","geo_precision":"zip","source":"grappos.com","zipid":"2176","state":"MA"},"type":"Feature","geometry":{"type":"Point","coordinates":[-71.068941,42.454263]}},{"properties":{"city":"Halifax","geo_score":1.0,"description":"Fortant Kosher Merlot","num_searches":1.0,"id":"a63c3ko21sl3","geo_precision":"zip","source":"grappos.com","zipid":"2338","state":"MA"},"type":"Feature","geometry":{"type":"Point","coordinates":[-70.860578,41.988351]}},{"properties":{"city":"Cummaquid","geo_score":1.0,"description":"Fortant Kosher Merlot","num_searches":1.0,"id":"a63c3ksmoofl","geo_precision":"zip","source":"grappos.com","zipid":"2637","state":"MA"},"type":"Feature","geometry":{"type":"Point","coordinates":[-70.277212,41.701438]}},{"properties":{"city":"Springfield","geo_score":0.909,"description":"Fortant Kosher Merlot","num_searches":1.0,"id":"a63c3kppuv7e","geo_precision":"zip","source":"grappos.com","zipid":"4487","state":"ME"},"type":"Feature","geometry":{"type":"Point","coordinates":[-68.081681,45.491731]}},{"properties":{"city":"Gilliam","geo_score":0.873,"description":"Fortant Kosher Merlot","num_searches":1.0,"id":"a63c3kt1u5h3","geo_precision":"zip","source":"grappos.com","zipid":"65330","state":"MO"},"type":"Feature","geometry":{"type":"Point","coordinates":[-92.948802,39.257805]}},{"properties":{"city":"Boss","geo_score":1.0,"description":"Fortant Kosher Merlot","num_searches":1.0,"id":"a63c3krhc52g","geo_precision":"zip","source":"grappos.com","zipid":"65440","state":"MO"},"type":"Feature","geometry":{"type":"Point","coordinates":[-91.652493,37.612779]}},{"properties":{"city":"Galena","geo_score":0.873,"description":"Fortant Kosher Merlot","num_searches":1.0,"id":"a63c3kppmemy","geo_precision":"zip","source":"grappos.com","zipid":"65656","state":"MO"},"type":"Feature","geometry":{"type":"Point","coordinates":[-93.370743,36.839781]}},{"properties":{"city":"Turners","geo_score":1.0,"description":"Fortant Kosher Merlot","num_searches":1.0,"id":"a63c3kqgjlhi","geo_precision":"zip","source":"grappos.com","zipid":"65765","state":"MO"},"type":"Feature","geometry":{"type":"Point","coordinates":[-93.343673,37.25807]}},{"properties":{"city":"Crete","geo_score":0.905,"description":"Fortant Kosher Merlot","num_searches":1.0,"id":"a63c3kjomcgy","geo_precision":"zip","source":"grappos.com","zipid":"68333","state":"NE"},"type":"Feature","geometry":{"type":"Point","coordinates":[-96.875304,40.588337]}},{"properties":{"city":"Greenfield","geo_score":1.0,"description":"Fortant Kosher Merlot","num_searches":1.0,"id":"a63c3ksh3661","geo_precision":"zip","source":"grappos.com","zipid":"3047","state":"NH"},"type":"Feature","geometry":{"type":"Point","coordinates":[-71.859087,42.929346]}},{"properties":{"city":"Franklin","geo_score":0.869,"description":"Fortant Kosher Merlot","num_searches":1.0,"id":"a63c3krryuw5","geo_precision":"zip","source":"grappos.com","zipid":"3235","state":"NH"},"type":"Feature","geometry":{"type":"Point","coordinates":[-71.654799,43.406466]}},{"properties":{"city":"Westmoreland","geo_score":1.0,"description":"Fortant Kosher Merlot","num_searches":1.0,"id":"a63c3kwrqdyc","geo_precision":"zip","source":"grappos.com","zipid":"3467","state":"NH"},"type":"Feature","geometry":{"type":"Point","coordinates":[-72.44256,42.973867]}},{"properties":{"city":"Riley","geo_score":1.0,"description":"Fortant Kosher Merlot","num_searches":2.0,"id":"a63c3kwvtlq2","geo_precision":"zip","source":"grappos.com","zipid":"97758","state":"OR"},"type":"Feature","geometry":{"type":"Point","coordinates":[-119.069624,43.019785]}},{"properties":{"city":"Yoncalla","geo_score":0.875,"description":"Fortant Kosher Merlot","num_searches":1.0,"id":"a63c3kthq58g","geo_precision":"zip","source":"grappos.com","zipid":"97499","state":"OR"},"type":"Feature","geometry":{"type":"Point","coordinates":[-123.360643,43.59873]}},{"properties":{"city":"Lexington","geo_score":0.873,"description":"Fortant Kosher Merlot","num_searches":1.0,"id":"a63c3kl5qf75","geo_precision":"zip","source":"grappos.com","zipid":"97839","state":"OR"},"type":"Feature","geometry":{"type":"Point","coordinates":[-119.68669,45.263467]}},{"properties":{"city":"Ciales","geo_score":1.0,"description":"Fortant Kosher Merlot","num_searches":2.0,"id":"a63c3kr4y2sf","geo_precision":"zip","source":"grappos.com","zipid":"638","state":"PR"},"type":"Feature","geometry":{"type":"Point","coordinates":[-66.472087,18.33616]}},{"properties":{"city":"San Antonio","geo_score":1.0,"description":"Fortant Kosher Merlot","num_searches":2.0,"id":"a63c3ksilmkp","geo_precision":"zip","source":"grappos.com","zipid":"690","state":"PR"},"type":"Feature","geometry":{"type":"Point","coordinates":[-67.139597,18.476196]}},{"properties":{"city":"Ponce","geo_score":1.0,"description":"Fortant Kosher Merlot","num_searches":1.0,"id":"a63c3kkt8m49","geo_precision":"zip","source":"grappos.com","zipid":"733","state":"PR"},"type":"Feature","geometry":{"type":"Point","coordinates":[-66.619165,18.019331]}},{"properties":{"city":"Bayamon","geo_score":1.0,"description":"Fortant Kosher Merlot","num_searches":1.0,"id":"a63c3ko8zt7f","geo_precision":"zip","source":"grappos.com","zipid":"957","state":"PR"},"type":"Feature","geometry":{"type":"Point","coordinates":[-66.183907,18.366645]}},{"properties":{"city":"Houston","geo_score":1.0,"description":"Fortant Kosher Merlot","num_searches":1.0,"id":"a63c3kpxfxj5","geo_precision":"zip","source":"grappos.com","zipid":"77222","state":"TX"},"type":"Feature","geometry":{"type":"Point","coordinates":[-95.434241,29.83399]}},{"properties":{"city":"Huntsville","geo_score":1.0,"description":"Fortant Kosher Merlot","num_searches":1.0,"id":"a63c3kkz21jn","geo_precision":"zip","source":"grappos.com","zipid":"77349","state":"TX"},"type":"Feature","geometry":{"type":"Point","coordinates":[-95.59527,30.78128]}},{"properties":{"city":"Bellevue","geo_score":1.0,"description":"Fortant Kosher Merlot","num_searches":1.0,"id":"a63c3kn1jzve","geo_precision":"zip","source":"grappos.com","zipid":"98005","state":"WA"},"type":"Feature","geometry":{"type":"Point","coordinates":[-122.178883,47.620471]}},{"properties":{"city":"Seattle","geo_score":1.0,"description":"Fortant Kosher Merlot","num_searches":1.0,"id":"a63c3kudq5iz","geo_precision":"zip","source":"grappos.com","zipid":"98111","state":"WA"},"type":"Feature","geometry":{"type":"Point","coordinates":[-121.803388,47.432251]}},{"properties":{"city":"Seattle","geo_score":1.0,"description":"Fortant Kosher Merlot","num_searches":1.0,"id":"a63c3kubow53","geo_precision":"zip","source":"grappos.com","zipid":"98146","state":"WA"},"type":"Feature","geometry":{"type":"Point","coordinates":[-121.803388,47.432251]}},{"properties":{"city":"Marblemount","geo_score":1.0,"description":"Fortant Kosher Merlot","num_searches":1.0,"id":"a63c3kprye4c","geo_precision":"zip","source":"grappos.com","zipid":"98267","state":"WA"},"type":"Feature","geometry":{"type":"Point","coordinates":[-121.47384,48.537813]}},{"properties":{"city":"Waldron","geo_score":1.0,"description":"Fortant Kosher Merlot","num_searches":1.0,"id":"a63c3kp7skcy","geo_precision":"zip","source":"grappos.com","zipid":"98297","state":"WA"},"type":"Feature","geometry":{"type":"Point","coordinates":[-122.983742,48.557824]}},{"properties":{"city":"Chewelah","geo_score":1.0,"description":"Fortant Kosher Merlot","num_searches":1.0,"id":"a63c3kn0lr4l","geo_precision":"zip","source":"grappos.com","zipid":"99109","state":"WA"},"type":"Feature","geometry":{"type":"Point","coordinates":[-117.739245,48.293181]}}],"is_temporal":false,"author":{"url":"","metadata":"","contact_name":"","contact_address":"","source":"","contact_phone":""},"source":"","pagination":{"sort":null,"start":0,"total":39,"limit":1000000},"state":"complete","tags":"","published":"2014-08-10T12:31:17-04:00","id":21028}