{"type":"FeatureCollection","data_type":"Dataset","url_type":null,"permissions":[{"permissions":{"download":true,"view":true},"group_id":"everyone"}],"classification":null,"title":"Fortant Kosher Chardonnay","count":36,"stream_id":21027,"contributor":{"url":"http://geocommons.com/users/2024","name":"kunisawa"},"data_attributes":null,"calculation_params":null,"icon_link":null,"link":"http://geocommons.com/overlays/21027.json","extent":[-124.108,18.3267,-66.0818,47.9909],"geometry_types":["point"],"unique_name":null,"name":"Fortant Kosher Chardonnay","feature_count":36,"description":"","next_feature":null,"is_raster":false,"short_classification":"Y","stats":{"geo_score":{"max":1.0,"mean":0.945555555555555,"variance":0.00383893968253968,"stdev":0.0619591775489288,"min":0.816,"median":1.0},"num_searches":{"max":2.0,"mean":1.05555555555556,"variance":0.053968253968254,"stdev":0.232310684145723,"min":1.0,"median":1.0}},"features":[{"properties":{"city":"San Francisco","geo_score":1.0,"description":"Fortant Kosher Chardonnay","num_searches":2.0,"id":"a65wlikx8k13","geo_precision":"zip","source":"grappos.com","zipid":"94109","state":"CA"},"type":"Feature","geometry":{"type":"Point","coordinates":[-122.420782,37.795219]}},{"properties":{"city":"Sunnyvale","geo_score":1.0,"description":"Fortant Kosher Chardonnay","num_searches":1.0,"id":"a65wliicmzut","geo_precision":"zip","source":"grappos.com","zipid":"94089","state":"CA"},"type":"Feature","geometry":{"type":"Point","coordinates":[-121.705327,37.189396]}},{"properties":{"city":"San Francisco","geo_score":1.0,"description":"Fortant Kosher Chardonnay","num_searches":1.0,"id":"a65wliimpc8s","geo_precision":"zip","source":"grappos.com","zipid":"94127","state":"CA"},"type":"Feature","geometry":{"type":"Point","coordinates":[-122.458632,37.73403]}},{"properties":{"city":"San Jose","geo_score":1.0,"description":"Fortant Kosher Chardonnay","num_searches":1.0,"id":"a65wlir7n5a4","geo_precision":"zip","source":"grappos.com","zipid":"95125","state":"CA"},"type":"Feature","geometry":{"type":"Point","coordinates":[-121.705327,37.189396]}},{"properties":{"city":"San Andreas","geo_score":0.922,"description":"Fortant Kosher Chardonnay","num_searches":1.0,"id":"a65wlik3mbr9","geo_precision":"zip","source":"grappos.com","zipid":"95249","state":"CA"},"type":"Feature","geometry":{"type":"Point","coordinates":[-120.609928,38.157975]}},{"properties":{"city":"Represa","geo_score":1.0,"description":"Fortant Kosher Chardonnay","num_searches":1.0,"id":"a65wlisib7sl","geo_precision":"zip","source":"grappos.com","zipid":"95671","state":"CA"},"type":"Feature","geometry":{"type":"Point","coordinates":[-121.444429,38.377411]}},{"properties":{"city":"Denver","geo_score":1.0,"description":"Fortant Kosher Chardonnay","num_searches":1.0,"id":"a65wlikus21d","geo_precision":"zip","source":"grappos.com","zipid":"80201","state":"CO"},"type":"Feature","geometry":{"type":"Point","coordinates":[-104.856808,39.726303]}},{"properties":{"city":"Dania","geo_score":0.929,"description":"Fortant Kosher Chardonnay","num_searches":1.0,"id":"a65wlior5je2","geo_precision":"zip","source":"grappos.com","zipid":"33004","state":"FL"},"type":"Feature","geometry":{"type":"Point","coordinates":[-80.143934,26.052311]}},{"properties":{"city":"Yale","geo_score":1.0,"description":"Fortant Kosher Chardonnay","num_searches":2.0,"id":"a65wlikfj9g4","geo_precision":"zip","source":"grappos.com","zipid":"62481","state":"IL"},"type":"Feature","geometry":{"type":"Point","coordinates":[-88.157258,39.121515]}},{"properties":{"city":"Kansas City","geo_score":1.0,"description":"Fortant Kosher Chardonnay","num_searches":1.0,"id":"a65wlilueiwc","geo_precision":"zip","source":"grappos.com","zipid":"66119","state":"KS"},"type":"Feature","geometry":{"type":"Point","coordinates":[-94.749538,39.096551]}},{"properties":{"city":"Worcester","geo_score":1.0,"description":"Fortant Kosher Chardonnay","num_searches":1.0,"id":"a65wlie7jtx6","geo_precision":"zip","source":"grappos.com","zipid":"1654","state":"MA"},"type":"Feature","geometry":{"type":"Point","coordinates":[-71.896868,42.364807]}},{"properties":{"city":"Edgecomb","geo_score":0.878,"description":"Fortant Kosher Chardonnay","num_searches":1.0,"id":"a65wlin0g962","geo_precision":"zip","source":"grappos.com","zipid":"4556","state":"ME"},"type":"Feature","geometry":{"type":"Point","coordinates":[-69.612269,44.003134]}},{"properties":{"city":"Comstock","geo_score":1.0,"description":"Fortant Kosher Chardonnay","num_searches":1.0,"id":"a65wliirkwso","geo_precision":"zip","source":"grappos.com","zipid":"56525","state":"MN"},"type":"Feature","geometry":{"type":"Point","coordinates":[-96.506156,46.890034]}},{"properties":{"city":"Polo","geo_score":0.871,"description":"Fortant Kosher Chardonnay","num_searches":1.0,"id":"a65wlitg7nsx","geo_precision":"zip","source":"grappos.com","zipid":"64671","state":"MO"},"type":"Feature","geometry":{"type":"Point","coordinates":[-93.957994,39.484455]}},{"properties":{"city":"Tuscumbia","geo_score":0.873,"description":"Fortant Kosher Chardonnay","num_searches":1.0,"id":"a65wlirl27st","geo_precision":"zip","source":"grappos.com","zipid":"65082","state":"MO"},"type":"Feature","geometry":{"type":"Point","coordinates":[-92.321012,38.242258]}},{"properties":{"city":"Moberly","geo_score":0.889,"description":"Fortant Kosher Chardonnay","num_searches":1.0,"id":"a65wlijl05y2","geo_precision":"zip","source":"grappos.com","zipid":"65270","state":"MO"},"type":"Feature","geometry":{"type":"Point","coordinates":[-92.44407,39.395036]}},{"properties":{"city":"Couch","geo_score":0.857,"description":"Fortant Kosher Chardonnay","num_searches":1.0,"id":"a65wlikw6c16","geo_precision":"zip","source":"grappos.com","zipid":"65690","state":"MO"},"type":"Feature","geometry":{"type":"Point","coordinates":[-91.215132,36.562839]}},{"properties":{"city":"Powell","geo_score":1.0,"description":"Fortant Kosher Chardonnay","num_searches":1.0,"id":"a65wlirypppx","geo_precision":"zip","source":"grappos.com","zipid":"65730","state":"MO"},"type":"Feature","geometry":{"type":"Point","coordinates":[-94.342802,36.632573]}},{"properties":{"city":"Tunas","geo_score":0.886,"description":"Fortant Kosher Chardonnay","num_searches":1.0,"id":"a65wlimjuc5z","geo_precision":"zip","source":"grappos.com","zipid":"65764","state":"MO"},"type":"Feature","geometry":{"type":"Point","coordinates":[-92.975463,37.74865]}},{"properties":{"city":"Willow Springs","geo_score":0.945,"description":"Fortant Kosher Chardonnay","num_searches":1.0,"id":"a65wlil9kxgl","geo_precision":"zip","source":"grappos.com","zipid":"65793","state":"MO"},"type":"Feature","geometry":{"type":"Point","coordinates":[-91.850427,37.108385]}},{"properties":{"city":"Ely","geo_score":0.918,"description":"Fortant Kosher Chardonnay","num_searches":1.0,"id":"a65wlip99amr","geo_precision":"zip","source":"grappos.com","zipid":"89315","state":"NV"},"type":"Feature","geometry":{"type":"Point","coordinates":[-114.869185,39.254939]}},{"properties":{"city":"Warren","geo_score":1.0,"description":"Fortant Kosher Chardonnay","num_searches":1.0,"id":"a65wlidxljjh","geo_precision":"zip","source":"grappos.com","zipid":"97053","state":"OR"},"type":"Feature","geometry":{"type":"Point","coordinates":[-122.874601,45.824213]}},{"properties":{"city":"Portland","geo_score":1.0,"description":"Fortant Kosher Chardonnay","num_searches":1.0,"id":"a65wlig86mqs","geo_precision":"zip","source":"grappos.com","zipid":"97215","state":"OR"},"type":"Feature","geometry":{"type":"Point","coordinates":[-122.599104,45.51894]}},{"properties":{"city":"Yachats","geo_score":0.881,"description":"Fortant Kosher Chardonnay","num_searches":1.0,"id":"a65wlio52ppx","geo_precision":"zip","source":"grappos.com","zipid":"97498","state":"OR"},"type":"Feature","geometry":{"type":"Point","coordinates":[-124.108453,44.232343]}},{"properties":{"city":"San Juan","geo_score":0.87,"description":"Fortant Kosher Chardonnay","num_searches":1.0,"id":"a65wlifvp9tp","geo_precision":"zip","source":"grappos.com","zipid":"920","state":"PR"},"type":"Feature","geometry":{"type":"Point","coordinates":[-66.081833,18.411614]}},{"properties":{"city":"Bayamon","geo_score":1.0,"description":"Fortant Kosher Chardonnay","num_searches":1.0,"id":"a65wlife3z7d","geo_precision":"zip","source":"grappos.com","zipid":"956","state":"PR"},"type":"Feature","geometry":{"type":"Point","coordinates":[-66.174176,18.326702]}},{"properties":{"city":"Houston","geo_score":1.0,"description":"Fortant Kosher Chardonnay","num_searches":1.0,"id":"a65wlikxvmxj","geo_precision":"zip","source":"grappos.com","zipid":"77014","state":"TX"},"type":"Feature","geometry":{"type":"Point","coordinates":[-95.434241,29.83399]}},{"properties":{"city":"Houston","geo_score":1.0,"description":"Fortant Kosher Chardonnay","num_searches":1.0,"id":"a65wlij5akvw","geo_precision":"zip","source":"grappos.com","zipid":"77092","state":"TX"},"type":"Feature","geometry":{"type":"Point","coordinates":[-95.434241,29.83399]}},{"properties":{"city":"Houston","geo_score":0.883,"description":"Fortant Kosher Chardonnay","num_searches":1.0,"id":"a65wlimq671n","geo_precision":"zip","source":"grappos.com","zipid":"77221","state":"TX"},"type":"Feature","geometry":{"type":"Point","coordinates":[-95.351883,29.694397]}},{"properties":{"city":"Houston","geo_score":0.816,"description":"Fortant Kosher Chardonnay","num_searches":1.0,"id":"a65wlieixfy7","geo_precision":"city","source":"grappos.com","zipid":"77276","state":"TX"},"type":"Feature","geometry":{"type":"Point","coordinates":[-96.919704,29.845783]}},{"properties":{"city":"Bainbridge Island","geo_score":0.875,"description":"Fortant Kosher Chardonnay","num_searches":1.0,"id":"a65wlirrrecc","geo_precision":"zip","source":"grappos.com","zipid":"98110","state":"WA"},"type":"Feature","geometry":{"type":"Point","coordinates":[-122.575693,47.618985]}},{"properties":{"city":"Clinton","geo_score":0.89,"description":"Fortant Kosher Chardonnay","num_searches":1.0,"id":"a65wlils39sp","geo_precision":"zip","source":"grappos.com","zipid":"98236","state":"WA"},"type":"Feature","geometry":{"type":"Point","coordinates":[-122.480424,47.990926]}},{"properties":{"city":"Snohomish","geo_score":1.0,"description":"Fortant Kosher Chardonnay","num_searches":1.0,"id":"a65wlippvn74","geo_precision":"zip","source":"grappos.com","zipid":"98296","state":"WA"},"type":"Feature","geometry":{"type":"Point","coordinates":[-122.092025,47.857915]}},{"properties":{"city":"Lakewood","geo_score":1.0,"description":"Fortant Kosher Chardonnay","num_searches":1.0,"id":"a65wlieygml2","geo_precision":"zip","source":"grappos.com","zipid":"98498","state":"WA"},"type":"Feature","geometry":{"type":"Point","coordinates":[-122.548486,47.159149]}},{"properties":{"city":"Naches","geo_score":0.857,"description":"Fortant Kosher Chardonnay","num_searches":1.0,"id":"a65wlihvh0ob","geo_precision":"zip","source":"grappos.com","zipid":"98937","state":"WA"},"type":"Feature","geometry":{"type":"Point","coordinates":[-121.12508,46.664284]}},{"properties":{"city":"Liberty Lake","geo_score":1.0,"description":"Fortant Kosher Chardonnay","num_searches":1.0,"id":"a65wlitrg5er","geo_precision":"zip","source":"grappos.com","zipid":"99019","state":"WA"},"type":"Feature","geometry":{"type":"Point","coordinates":[-117.085845,47.651635]}}],"is_temporal":false,"author":{"url":"","metadata":"","contact_name":"","contact_address":"","source":"","contact_phone":""},"source":"","pagination":{"sort":null,"start":0,"total":36,"limit":1000000},"state":"complete","tags":"","published":"2014-08-10T12:31:17-04:00","id":21027}