{"type":"FeatureCollection","data_type":"Dataset","url_type":null,"permissions":[{"permissions":{"download":true,"view":true},"group_id":"everyone"}],"classification":null,"title":"Robert Skalli Chardonnay","count":46,"stream_id":21037,"contributor":{"url":"http://geocommons.com/users/2024","name":"kunisawa"},"data_attributes":null,"calculation_params":null,"icon_link":null,"link":"http://geocommons.com/overlays/21037.json","extent":[-124.198,18.2795,-66.0605,48.0904],"geometry_types":["point"],"unique_name":null,"name":"Robert Skalli Chardonnay","feature_count":46,"description":"","next_feature":null,"is_raster":false,"short_classification":"Y","stats":{"geo_score":{"max":1.0,"mean":0.974804347826087,"variance":0.0021982497584541,"stdev":0.0468854962483507,"min":0.869,"median":1.0},"num_searches":{"max":8.0,"mean":1.76086956521739,"variance":1.87487922705314,"stdev":1.36926229300786,"min":1.0,"median":1.0}},"features":[{"properties":{"city":"Perry","geo_score":1.0,"description":"Robert Skalli Chardonnay","num_searches":1.0,"id":"a63qr0krv4hv","geo_precision":"zip","source":"grappos.com","zipid":"72125","state":"AR"},"type":"Feature","geometry":{"type":"Point","coordinates":[-92.795821,35.044346]}},{"properties":{"city":"San Francisco","geo_score":1.0,"description":"Robert Skalli Chardonnay","num_searches":3.0,"id":"a63qr0bg64s5","geo_precision":"zip","source":"grappos.com","zipid":"94109","state":"CA"},"type":"Feature","geometry":{"type":"Point","coordinates":[-122.420782,37.795219]}},{"properties":{"city":"Altadena","geo_score":1.0,"description":"Robert Skalli Chardonnay","num_searches":2.0,"id":"a63qr0gl30pa","geo_precision":"zip","source":"grappos.com","zipid":"91001","state":"CA"},"type":"Feature","geometry":{"type":"Point","coordinates":[-118.298662,33.786594]}},{"properties":{"city":"Studio City","geo_score":1.0,"description":"Robert Skalli Chardonnay","num_searches":2.0,"id":"a63qr0encs8y","geo_precision":"zip","source":"grappos.com","zipid":"91604","state":"CA"},"type":"Feature","geometry":{"type":"Point","coordinates":[-118.298662,33.786594]}},{"properties":{"city":"Eureka","geo_score":0.883,"description":"Robert Skalli Chardonnay","num_searches":2.0,"id":"a63qr0gvvy13","geo_precision":"zip","source":"grappos.com","zipid":"95501","state":"CA"},"type":"Feature","geometry":{"type":"Point","coordinates":[-124.197839,40.743182]}},{"properties":{"city":"Los Angeles","geo_score":1.0,"description":"Robert Skalli Chardonnay","num_searches":1.0,"id":"a63qr0b6bkd4","geo_precision":"zip","source":"grappos.com","zipid":"90093","state":"CA"},"type":"Feature","geometry":{"type":"Point","coordinates":[-118.298662,33.786594]}},{"properties":{"city":"Patterson","geo_score":0.905,"description":"Robert Skalli Chardonnay","num_searches":1.0,"id":"a63qr0eveg4k","geo_precision":"zip","source":"grappos.com","zipid":"95363","state":"CA"},"type":"Feature","geometry":{"type":"Point","coordinates":[-121.179381,37.56382]}},{"properties":{"city":"Sutter Creek","geo_score":0.935,"description":"Robert Skalli Chardonnay","num_searches":1.0,"id":"a63qr0cfy7ka","geo_precision":"zip","source":"grappos.com","zipid":"95685","state":"CA"},"type":"Feature","geometry":{"type":"Point","coordinates":[-120.801603,38.378246]}},{"properties":{"city":"Denver","geo_score":1.0,"description":"Robert Skalli Chardonnay","num_searches":2.0,"id":"a63qr0ds57ly","geo_precision":"zip","source":"grappos.com","zipid":"80201","state":"CO"},"type":"Feature","geometry":{"type":"Point","coordinates":[-104.856808,39.726303]}},{"properties":{"city":"Miami","geo_score":1.0,"description":"Robert Skalli Chardonnay","num_searches":2.0,"id":"a63qr07zlx41","geo_precision":"zip","source":"grappos.com","zipid":"33101","state":"FL"},"type":"Feature","geometry":{"type":"Point","coordinates":[-80.193659,25.774266]}},{"properties":{"city":"Oskaloosa","geo_score":1.0,"description":"Robert Skalli Chardonnay","num_searches":1.0,"id":"a63qr0ae2odg","geo_precision":"zip","source":"grappos.com","zipid":"66066","state":"KS"},"type":"Feature","geometry":{"type":"Point","coordinates":[-95.356589,39.255747]}},{"properties":{"city":"Kansas City","geo_score":1.0,"description":"Robert Skalli Chardonnay","num_searches":1.0,"id":"a63qr0hq867q","geo_precision":"zip","source":"grappos.com","zipid":"66103","state":"KS"},"type":"Feature","geometry":{"type":"Point","coordinates":[-94.628184,39.066804]}},{"properties":{"city":"Wichita","geo_score":1.0,"description":"Robert Skalli Chardonnay","num_searches":1.0,"id":"a63qr0mbzn3n","geo_precision":"zip","source":"grappos.com","zipid":"67235","state":"KS"},"type":"Feature","geometry":{"type":"Point","coordinates":[-97.499024,37.714891]}},{"properties":{"city":"Loreauville","geo_score":0.896,"description":"Robert Skalli Chardonnay","num_searches":1.0,"id":"a63qr0lr0o36","geo_precision":"zip","source":"grappos.com","zipid":"70552","state":"LA"},"type":"Feature","geometry":{"type":"Point","coordinates":[-91.736782,30.062424]}},{"properties":{"city":"Andover","geo_score":1.0,"description":"Robert Skalli Chardonnay","num_searches":1.0,"id":"a63qr0m3il13","geo_precision":"zip","source":"grappos.com","zipid":"1812","state":"MA"},"type":"Feature","geometry":{"type":"Point","coordinates":[-71.184202,42.647191]}},{"properties":{"city":"West Chop","geo_score":1.0,"description":"Robert Skalli Chardonnay","num_searches":1.0,"id":"a63qr0dxce4i","geo_precision":"zip","source":"grappos.com","zipid":"2573","state":"MA"},"type":"Feature","geometry":{"type":"Point","coordinates":[-70.602807,41.480111]}},{"properties":{"city":"Georgetown","geo_score":1.0,"description":"Robert Skalli Chardonnay","num_searches":4.0,"id":"a63qr0ajoqg9","geo_precision":"zip","source":"grappos.com","zipid":"21930","state":"MD"},"type":"Feature","geometry":{"type":"Point","coordinates":[-75.880217,39.361779]}},{"properties":{"city":"Olamon","geo_score":1.0,"description":"Robert Skalli Chardonnay","num_searches":2.0,"id":"a63qr0hjlmn1","geo_precision":"zip","source":"grappos.com","zipid":"4467","state":"ME"},"type":"Feature","geometry":{"type":"Point","coordinates":[-68.647416,45.519867]}},{"properties":{"city":"Boothbay Harbor","geo_score":0.878,"description":"Robert Skalli Chardonnay","num_searches":1.0,"id":"a63qr08nykoy","geo_precision":"zip","source":"grappos.com","zipid":"4538","state":"ME"},"type":"Feature","geometry":{"type":"Point","coordinates":[-69.621713,43.853138]}},{"properties":{"city":"Audubon","geo_score":1.0,"description":"Robert Skalli Chardonnay","num_searches":1.0,"id":"a63qr0k90xoj","geo_precision":"zip","source":"grappos.com","zipid":"56511","state":"MN"},"type":"Feature","geometry":{"type":"Point","coordinates":[-95.995824,46.850852]}},{"properties":{"city":"Auburn","geo_score":1.0,"description":"Robert Skalli Chardonnay","num_searches":1.0,"id":"a63qr07i4muk","geo_precision":"zip","source":"grappos.com","zipid":"3032","state":"NH"},"type":"Feature","geometry":{"type":"Point","coordinates":[-71.343576,42.989151]}},{"properties":{"city":"New York","geo_score":1.0,"description":"Robert Skalli Chardonnay","num_searches":3.0,"id":"a63qr08j8lop","geo_precision":"zip","source":"grappos.com","zipid":"10001","state":"NY"},"type":"Feature","geometry":{"type":"Point","coordinates":[-73.996328,40.750422]}},{"properties":{"city":"Portland","geo_score":1.0,"description":"Robert Skalli Chardonnay","num_searches":2.0,"id":"a63qr0d1to47","geo_precision":"zip","source":"grappos.com","zipid":"97210","state":"OR"},"type":"Feature","geometry":{"type":"Point","coordinates":[-122.732358,45.547339]}},{"properties":{"city":"Culver","geo_score":1.0,"description":"Robert Skalli Chardonnay","num_searches":2.0,"id":"a63qr0cupzs3","geo_precision":"zip","source":"grappos.com","zipid":"97734","state":"OR"},"type":"Feature","geometry":{"type":"Point","coordinates":[-121.267976,44.499106]}},{"properties":{"city":"Crescent Lake","geo_score":0.943,"description":"Robert Skalli Chardonnay","num_searches":1.0,"id":"a63qr0kh6hct","geo_precision":"zip","source":"grappos.com","zipid":"97425","state":"OR"},"type":"Feature","geometry":{"type":"Point","coordinates":[-121.944196,43.52818]}},{"properties":{"city":"Mapleton","geo_score":0.869,"description":"Robert Skalli Chardonnay","num_searches":1.0,"id":"a63qr0lxmsyh","geo_precision":"zip","source":"grappos.com","zipid":"97453","state":"OR"},"type":"Feature","geometry":{"type":"Point","coordinates":[-123.880944,44.065676]}},{"properties":{"city":"San Juan","geo_score":1.0,"description":"Robert Skalli Chardonnay","num_searches":3.0,"id":"a63qr0gsqka0","geo_precision":"zip","source":"grappos.com","zipid":"908","state":"PR"},"type":"Feature","geometry":{"type":"Point","coordinates":[-66.060533,18.410462]}},{"properties":{"city":"Angeles","geo_score":1.0,"description":"Robert Skalli Chardonnay","num_searches":1.0,"id":"a63qr0drhz7a","geo_precision":"zip","source":"grappos.com","zipid":"611","state":"PR"},"type":"Feature","geometry":{"type":"Point","coordinates":[-66.80217,18.279531]}},{"properties":{"city":"San Juan","geo_score":1.0,"description":"Robert Skalli Chardonnay","num_searches":1.0,"id":"a63qr0je4r5k","geo_precision":"zip","source":"grappos.com","zipid":"935","state":"PR"},"type":"Feature","geometry":{"type":"Point","coordinates":[-66.060533,18.410462]}},{"properties":{"city":"Dallas","geo_score":1.0,"description":"Robert Skalli Chardonnay","num_searches":8.0,"id":"a63qr0j8a2z8","geo_precision":"zip","source":"grappos.com","zipid":"75202","state":"TX"},"type":"Feature","geometry":{"type":"Point","coordinates":[-96.777626,32.767268]}},{"properties":{"city":"Houston","geo_score":0.878,"description":"Robert Skalli Chardonnay","num_searches":6.0,"id":"a63qr0h2cmsl","geo_precision":"zip","source":"grappos.com","zipid":"77002","state":"TX"},"type":"Feature","geometry":{"type":"Point","coordinates":[-95.302435,29.91189]}},{"properties":{"city":"Dallas","geo_score":1.0,"description":"Robert Skalli Chardonnay","num_searches":2.0,"id":"a63qr0dnylt3","geo_precision":"zip","source":"grappos.com","zipid":"75201","state":"TX"},"type":"Feature","geometry":{"type":"Point","coordinates":[-96.790329,32.781179]}},{"properties":{"city":"Houston","geo_score":1.0,"description":"Robert Skalli Chardonnay","num_searches":2.0,"id":"a63qr0kin6kw","geo_precision":"zip","source":"grappos.com","zipid":"77080","state":"TX"},"type":"Feature","geometry":{"type":"Point","coordinates":[-95.434241,29.83399]}},{"properties":{"city":"Clute","geo_score":0.875,"description":"Robert Skalli Chardonnay","num_searches":2.0,"id":"a63qr0h0jk3i","geo_precision":"zip","source":"grappos.com","zipid":"77531","state":"TX"},"type":"Feature","geometry":{"type":"Point","coordinates":[-95.40994,29.056079]}},{"properties":{"city":"Houston","geo_score":0.898,"description":"Robert Skalli Chardonnay","num_searches":1.0,"id":"a63qr0k9jrks","geo_precision":"zip","source":"grappos.com","zipid":"77028","state":"TX"},"type":"Feature","geometry":{"type":"Point","coordinates":[-95.128264,29.868001]}},{"properties":{"city":"Houston","geo_score":1.0,"description":"Robert Skalli Chardonnay","num_searches":1.0,"id":"a63qr0mecug7","geo_precision":"zip","source":"grappos.com","zipid":"77054","state":"TX"},"type":"Feature","geometry":{"type":"Point","coordinates":[-95.391466,29.67543]}},{"properties":{"city":"Houston","geo_score":1.0,"description":"Robert Skalli Chardonnay","num_searches":1.0,"id":"a63qr0mjcfzf","geo_precision":"zip","source":"grappos.com","zipid":"77207","state":"TX"},"type":"Feature","geometry":{"type":"Point","coordinates":[-95.434241,29.83399]}},{"properties":{"city":"Katy","geo_score":1.0,"description":"Robert Skalli Chardonnay","num_searches":1.0,"id":"a63qr0dsdcsi","geo_precision":"zip","source":"grappos.com","zipid":"77492","state":"TX"},"type":"Feature","geometry":{"type":"Point","coordinates":[-95.434241,29.83399]}},{"properties":{"city":"El Paso","geo_score":1.0,"description":"Robert Skalli Chardonnay","num_searches":1.0,"id":"a63qr0mk8xne","geo_precision":"zip","source":"grappos.com","zipid":"88567","state":"TX"},"type":"Feature","geometry":{"type":"Point","coordinates":[-106.299987,31.694842]}},{"properties":{"city":"Leesburg","geo_score":1.0,"description":"Robert Skalli Chardonnay","num_searches":3.0,"id":"a63qr070f4o9","geo_precision":"zip","source":"grappos.com","zipid":"20176","state":"VA"},"type":"Feature","geometry":{"type":"Point","coordinates":[-77.603458,39.119727]}},{"properties":{"city":"Preston","geo_score":1.0,"description":"Robert Skalli Chardonnay","num_searches":1.0,"id":"a63qr0emzchd","geo_precision":"zip","source":"grappos.com","zipid":"98050","state":"WA"},"type":"Feature","geometry":{"type":"Point","coordinates":[-121.931195,47.536015]}},{"properties":{"city":"Granite Falls","geo_score":0.881,"description":"Robert Skalli Chardonnay","num_searches":1.0,"id":"a63qr0mbvljc","geo_precision":"zip","source":"grappos.com","zipid":"98252","state":"WA"},"type":"Feature","geometry":{"type":"Point","coordinates":[-121.777349,48.090382]}},{"properties":{"city":"Buena","geo_score":1.0,"description":"Robert Skalli Chardonnay","num_searches":1.0,"id":"a63qr0ai94f9","geo_precision":"zip","source":"grappos.com","zipid":"98921","state":"WA"},"type":"Feature","geometry":{"type":"Point","coordinates":[-120.315141,46.421218]}},{"properties":{"city":"Zillah","geo_score":1.0,"description":"Robert Skalli Chardonnay","num_searches":1.0,"id":"a63qr08ebboe","geo_precision":"zip","source":"grappos.com","zipid":"98953","state":"WA"},"type":"Feature","geometry":{"type":"Point","coordinates":[-120.231713,46.419838]}},{"properties":{"city":"Sprague","geo_score":1.0,"description":"Robert Skalli Chardonnay","num_searches":1.0,"id":"a63qr0chy2td","geo_precision":"zip","source":"grappos.com","zipid":"99032","state":"WA"},"type":"Feature","geometry":{"type":"Point","coordinates":[-117.977732,47.299844]}},{"properties":{"city":"Miami","geo_score":1.0,"description":"Robert Skalli Chardonnay","num_searches":2.0,"id":"a63qr0k0mqrk","geo_precision":"zip","source":"grappos.com","zipid":"25134","state":"WV"},"type":"Feature","geometry":{"type":"Point","coordinates":[-81.554655,38.296818]}}],"is_temporal":false,"author":{"url":"","metadata":"","contact_name":"","contact_address":"","source":"","contact_phone":""},"source":"","pagination":{"sort":null,"start":0,"total":46,"limit":1000000},"state":"complete","tags":"","published":"2014-08-10T12:31:27-04:00","id":21037}