{"type":"FeatureCollection","data_type":"Dataset","url_type":null,"permissions":[{"permissions":{"download":true,"view":true},"group_id":"everyone"}],"classification":null,"title":"St. Supery Chardonnay","count":69,"stream_id":21040,"contributor":{"url":"http://geocommons.com/users/2024","name":"kunisawa"},"data_attributes":null,"calculation_params":null,"icon_link":null,"link":"http://geocommons.com/overlays/21040.json","extent":[-158.001,17.9985,-66.2648,48.6106],"geometry_types":["point"],"unique_name":null,"name":"St. Supery Chardonnay","feature_count":69,"description":"","next_feature":null,"is_raster":false,"short_classification":"Y","stats":{"geo_score":{"max":1.0,"mean":0.954202898550724,"variance":0.00344984057971015,"stdev":0.0587353435310474,"min":0.857,"median":1.0},"num_searches":{"max":8.0,"mean":1.79710144927536,"variance":2.45822676896846,"stdev":1.56787332682473,"min":1.0,"median":1.0}},"features":[{"properties":{"city":"Mesa","geo_score":0.857,"description":"St. Supery Chardonnay","num_searches":1.0,"id":"a66uoohq4pa5","geo_precision":"zip","source":"grappos.com","zipid":"85207","state":"AZ"},"type":"Feature","geometry":{"type":"Point","coordinates":[-111.651247,33.413381]}},{"properties":{"city":"Cave Creek","geo_score":0.968,"description":"St. Supery Chardonnay","num_searches":1.0,"id":"a66uookq153n","geo_precision":"zip","source":"grappos.com","zipid":"85331","state":"AZ"},"type":"Feature","geometry":{"type":"Point","coordinates":[-111.816813,33.911706]}},{"properties":{"city":"Sierra Vista","geo_score":0.878,"description":"St. Supery Chardonnay","num_searches":1.0,"id":"a66uootwlkdo","geo_precision":"zip","source":"grappos.com","zipid":"85635","state":"AZ"},"type":"Feature","geometry":{"type":"Point","coordinates":[-110.271469,31.550095]}},{"properties":{"city":"Tucson","geo_score":0.893,"description":"St. Supery Chardonnay","num_searches":1.0,"id":"a66uooisvbaq","geo_precision":"zip","source":"grappos.com","zipid":"85715","state":"AZ"},"type":"Feature","geometry":{"type":"Point","coordinates":[-110.858699,32.259242]}},{"properties":{"city":"Los Angeles","geo_score":1.0,"description":"St. Supery Chardonnay","num_searches":8.0,"id":"a66uooka5vut","geo_precision":"zip","source":"grappos.com","zipid":"90010","state":"CA"},"type":"Feature","geometry":{"type":"Point","coordinates":[-118.298662,33.786594]}},{"properties":{"city":"San Francisco","geo_score":1.0,"description":"St. Supery Chardonnay","num_searches":4.0,"id":"a66uoonvye7x","geo_precision":"zip","source":"grappos.com","zipid":"94109","state":"CA"},"type":"Feature","geometry":{"type":"Point","coordinates":[-122.420782,37.795219]}},{"properties":{"city":"Burlingame","geo_score":0.869,"description":"St. Supery Chardonnay","num_searches":3.0,"id":"a66uoohxr7db","geo_precision":"zip","source":"grappos.com","zipid":"94010","state":"CA"},"type":"Feature","geometry":{"type":"Point","coordinates":[-122.379416,37.574103]}},{"properties":{"city":"Auburn","geo_score":0.881,"description":"St. Supery Chardonnay","num_searches":3.0,"id":"a66uootmw8d9","geo_precision":"zip","source":"grappos.com","zipid":"95603","state":"CA"},"type":"Feature","geometry":{"type":"Point","coordinates":[-121.123558,38.89101]}},{"properties":{"city":"South San Francisco","geo_score":0.908,"description":"St. Supery Chardonnay","num_searches":2.0,"id":"a66uoojqbeue","geo_precision":"zip","source":"grappos.com","zipid":"94080","state":"CA"},"type":"Feature","geometry":{"type":"Point","coordinates":[-122.411361,37.638546]}},{"properties":{"city":"San Francisco","geo_score":1.0,"description":"St. Supery Chardonnay","num_searches":2.0,"id":"a66uoohf4jd5","geo_precision":"zip","source":"grappos.com","zipid":"94104","state":"CA"},"type":"Feature","geometry":{"type":"Point","coordinates":[-122.401732,37.790728]}},{"properties":{"city":"Los Angeles","geo_score":1.0,"description":"St. Supery Chardonnay","num_searches":1.0,"id":"a66uooogryhw","geo_precision":"zip","source":"grappos.com","zipid":"90006","state":"CA"},"type":"Feature","geometry":{"type":"Point","coordinates":[-118.298662,33.786594]}},{"properties":{"city":"Los Angeles","geo_score":0.857,"description":"St. Supery Chardonnay","num_searches":1.0,"id":"a66uoonm0h5l","geo_precision":"zip","source":"grappos.com","zipid":"90063","state":"CA"},"type":"Feature","geometry":{"type":"Point","coordinates":[-118.18285,34.050012]}},{"properties":{"city":"Santa Monica","geo_score":1.0,"description":"St. Supery Chardonnay","num_searches":1.0,"id":"a66uooqquval","geo_precision":"zip","source":"grappos.com","zipid":"90401","state":"CA"},"type":"Feature","geometry":{"type":"Point","coordinates":[-118.298662,33.786594]}},{"properties":{"city":"Irvine","geo_score":1.0,"description":"St. Supery Chardonnay","num_searches":1.0,"id":"a66uoog8br35","geo_precision":"zip","source":"grappos.com","zipid":"92612","state":"CA"},"type":"Feature","geometry":{"type":"Point","coordinates":[-117.782805,33.615525]}},{"properties":{"city":"Huntington Beach","geo_score":1.0,"description":"St. Supery Chardonnay","num_searches":1.0,"id":"a66uoop4a8gk","geo_precision":"zip","source":"grappos.com","zipid":"92648","state":"CA"},"type":"Feature","geometry":{"type":"Point","coordinates":[-117.769442,33.640302]}},{"properties":{"city":"Soledad","geo_score":0.878,"description":"St. Supery Chardonnay","num_searches":1.0,"id":"a66uooq4jv2v","geo_precision":"zip","source":"grappos.com","zipid":"93960","state":"CA"},"type":"Feature","geometry":{"type":"Point","coordinates":[-121.21159,36.354966]}},{"properties":{"city":"San Francisco","geo_score":1.0,"description":"St. Supery Chardonnay","num_searches":1.0,"id":"a66uoosyx52o","geo_precision":"zip","source":"grappos.com","zipid":"94106","state":"CA"},"type":"Feature","geometry":{"type":"Point","coordinates":[-122.727802,37.784827]}},{"properties":{"city":"San Francisco","geo_score":1.0,"description":"St. Supery Chardonnay","num_searches":1.0,"id":"a66uookrjhyd","geo_precision":"zip","source":"grappos.com","zipid":"94111","state":"CA"},"type":"Feature","geometry":{"type":"Point","coordinates":[-122.405331,37.773579]}},{"properties":{"city":"San Francisco","geo_score":1.0,"description":"St. Supery Chardonnay","num_searches":1.0,"id":"a66uootza6h8","geo_precision":"zip","source":"grappos.com","zipid":"94114","state":"CA"},"type":"Feature","geometry":{"type":"Point","coordinates":[-122.439332,37.758279]}},{"properties":{"city":"Fairfax","geo_score":0.878,"description":"St. Supery Chardonnay","num_searches":1.0,"id":"a66uoonb6zhv","geo_precision":"zip","source":"grappos.com","zipid":"94930","state":"CA"},"type":"Feature","geometry":{"type":"Point","coordinates":[-122.590813,37.990757]}},{"properties":{"city":"Fair Oaks","geo_score":1.0,"description":"St. Supery Chardonnay","num_searches":1.0,"id":"a66uoofhyhyz","geo_precision":"zip","source":"grappos.com","zipid":"95628","state":"CA"},"type":"Feature","geometry":{"type":"Point","coordinates":[-121.260709,38.655263]}},{"properties":{"city":"Newcastle","geo_score":1.0,"description":"St. Supery Chardonnay","num_searches":1.0,"id":"a66uoot6139a","geo_precision":"zip","source":"grappos.com","zipid":"95658","state":"CA"},"type":"Feature","geometry":{"type":"Point","coordinates":[-120.971166,39.038217]}},{"properties":{"city":"Orlando","geo_score":1.0,"description":"St. Supery Chardonnay","num_searches":7.0,"id":"a66uooh0q0oz","geo_precision":"zip","source":"grappos.com","zipid":"32819","state":"FL"},"type":"Feature","geometry":{"type":"Point","coordinates":[-81.46784,28.452157]}},{"properties":{"city":"Kula","geo_score":0.9,"description":"St. Supery Chardonnay","num_searches":7.0,"id":"a66uooqn0sw8","geo_precision":"zip","source":"grappos.com","zipid":"96790","state":"HI"},"type":"Feature","geometry":{"type":"Point","coordinates":[-156.401111,20.649167]}},{"properties":{"city":"Mililani","geo_score":0.952,"description":"St. Supery Chardonnay","num_searches":1.0,"id":"a66uoofs86da","geo_precision":"zip","source":"grappos.com","zipid":"96789","state":"HI"},"type":"Feature","geometry":{"type":"Point","coordinates":[-158.001111,21.45]}},{"properties":{"city":"Honolulu","geo_score":1.0,"description":"St. Supery Chardonnay","num_searches":1.0,"id":"a66uoont2led","geo_precision":"zip","source":"grappos.com","zipid":"96817","state":"HI"},"type":"Feature","geometry":{"type":"Point","coordinates":[-157.922303,21.65098]}},{"properties":{"city":"Naperville","geo_score":1.0,"description":"St. Supery Chardonnay","num_searches":1.0,"id":"a66uook8tq64","geo_precision":"zip","source":"grappos.com","zipid":"60564","state":"IL"},"type":"Feature","geometry":{"type":"Point","coordinates":[-88.201424,41.681479]}},{"properties":{"city":"Wichita","geo_score":1.0,"description":"St. Supery Chardonnay","num_searches":1.0,"id":"a66uooirc7xq","geo_precision":"zip","source":"grappos.com","zipid":"67201","state":"KS"},"type":"Feature","geometry":{"type":"Point","coordinates":[-97.258997,37.651974]}},{"properties":{"city":"Ellsworth","geo_score":1.0,"description":"St. Supery Chardonnay","num_searches":1.0,"id":"a66uoof8aox0","geo_precision":"zip","source":"grappos.com","zipid":"67439","state":"KS"},"type":"Feature","geometry":{"type":"Point","coordinates":[-98.205437,38.696579]}},{"properties":{"city":"Covington","geo_score":0.857,"description":"St. Supery Chardonnay","num_searches":1.0,"id":"a66uoop2xyju","geo_precision":"zip","source":"grappos.com","zipid":"41011","state":"KY"},"type":"Feature","geometry":{"type":"Point","coordinates":[-84.532165,39.071449]}},{"properties":{"city":"Andover","geo_score":0.948,"description":"St. Supery Chardonnay","num_searches":1.0,"id":"a66uoooabbb1","geo_precision":"zip","source":"grappos.com","zipid":"1810","state":"MA"},"type":"Feature","geometry":{"type":"Point","coordinates":[-71.158391,42.661203]}},{"properties":{"city":"Seal Cove","geo_score":1.0,"description":"St. Supery Chardonnay","num_searches":1.0,"id":"a66uool9wequ","geo_precision":"zip","source":"grappos.com","zipid":"4674","state":"ME"},"type":"Feature","geometry":{"type":"Point","coordinates":[-68.391481,44.641873]}},{"properties":{"city":"Forest Lake","geo_score":1.0,"description":"St. Supery Chardonnay","num_searches":1.0,"id":"a66uoofnrje6","geo_precision":"zip","source":"grappos.com","zipid":"55025","state":"MN"},"type":"Feature","geometry":{"type":"Point","coordinates":[-92.949266,45.246466]}},{"properties":{"city":"Minneapolis","geo_score":0.857,"description":"St. Supery Chardonnay","num_searches":1.0,"id":"a66uooufpwoh","geo_precision":"zip","source":"grappos.com","zipid":"55420","state":"MN"},"type":"Feature","geometry":{"type":"Point","coordinates":[-93.29828,44.840798]}},{"properties":{"city":"Young America","geo_score":1.0,"description":"St. Supery Chardonnay","num_searches":1.0,"id":"a66uookuq1xs","geo_precision":"zip","source":"grappos.com","zipid":"55551","state":"MN"},"type":"Feature","geometry":{"type":"Point","coordinates":[-93.766524,44.805487]}},{"properties":{"city":"Rochester","geo_score":0.873,"description":"St. Supery Chardonnay","num_searches":1.0,"id":"a66uoot98pqv","geo_precision":"zip","source":"grappos.com","zipid":"55904","state":"MN"},"type":"Feature","geometry":{"type":"Point","coordinates":[-92.409895,43.923853]}},{"properties":{"city":"Portsmouth","geo_score":1.0,"description":"St. Supery Chardonnay","num_searches":1.0,"id":"a66uooibgeha","geo_precision":"zip","source":"grappos.com","zipid":"3803","state":"NH"},"type":"Feature","geometry":{"type":"Point","coordinates":[-71.444752,42.92703]}},{"properties":{"city":"Sparks","geo_score":1.0,"description":"St. Supery Chardonnay","num_searches":4.0,"id":"a66uool6k2kb","geo_precision":"zip","source":"grappos.com","zipid":"89436","state":"NV"},"type":"Feature","geometry":{"type":"Point","coordinates":[-119.659053,39.651879]}},{"properties":{"city":"New York","geo_score":1.0,"description":"St. Supery Chardonnay","num_searches":4.0,"id":"a66uoollh73q","geo_precision":"zip","source":"grappos.com","zipid":"10001","state":"NY"},"type":"Feature","geometry":{"type":"Point","coordinates":[-73.996328,40.750422]}},{"properties":{"city":"Albert","geo_score":1.0,"description":"St. Supery Chardonnay","num_searches":2.0,"id":"a66uoonmg78a","geo_precision":"zip","source":"grappos.com","zipid":"73001","state":"OK"},"type":"Feature","geometry":{"type":"Point","coordinates":[-98.357423,35.203206]}},{"properties":{"city":"Hobart","geo_score":0.918,"description":"St. Supery Chardonnay","num_searches":1.0,"id":"a66uoolqlsrz","geo_precision":"zip","source":"grappos.com","zipid":"73651","state":"OK"},"type":"Feature","geometry":{"type":"Point","coordinates":[-98.990352,35.047557]}},{"properties":{"city":"Broken Arrow","geo_score":1.0,"description":"St. Supery Chardonnay","num_searches":1.0,"id":"a66uoohm0mtz","geo_precision":"zip","source":"grappos.com","zipid":"74011","state":"OK"},"type":"Feature","geometry":{"type":"Point","coordinates":[-95.818064,35.986399]}},{"properties":{"city":"Carlton","geo_score":1.0,"description":"St. Supery Chardonnay","num_searches":5.0,"id":"a66uoou5sclp","geo_precision":"zip","source":"grappos.com","zipid":"97111","state":"OR"},"type":"Feature","geometry":{"type":"Point","coordinates":[-123.218624,45.282393]}},{"properties":{"city":"Mcminnville","geo_score":0.87,"description":"St. Supery Chardonnay","num_searches":4.0,"id":"a66uoor8ly1a","geo_precision":"zip","source":"grappos.com","zipid":"97128","state":"OR"},"type":"Feature","geometry":{"type":"Point","coordinates":[-123.144827,45.238172]}},{"properties":{"city":"Marylhurst","geo_score":1.0,"description":"St. Supery Chardonnay","num_searches":1.0,"id":"a66uooga6gwe","geo_precision":"zip","source":"grappos.com","zipid":"97036","state":"OR"},"type":"Feature","geometry":{"type":"Point","coordinates":[-122.259861,45.173284]}},{"properties":{"city":"Portland","geo_score":1.0,"description":"St. Supery Chardonnay","num_searches":1.0,"id":"a66uooke0k3l","geo_precision":"zip","source":"grappos.com","zipid":"97207","state":"OR"},"type":"Feature","geometry":{"type":"Point","coordinates":[-122.711117,45.480324]}},{"properties":{"city":"Eugene","geo_score":0.881,"description":"St. Supery Chardonnay","num_searches":1.0,"id":"a66uoou20wpe","geo_precision":"zip","source":"grappos.com","zipid":"97401","state":"OR"},"type":"Feature","geometry":{"type":"Point","coordinates":[-123.16509,44.113457]}},{"properties":{"city":"Lowell","geo_score":1.0,"description":"St. Supery Chardonnay","num_searches":1.0,"id":"a66uookcfph2","geo_precision":"zip","source":"grappos.com","zipid":"97452","state":"OR"},"type":"Feature","geometry":{"type":"Point","coordinates":[-122.694091,43.885422]}},{"properties":{"city":"Pittsburgh","geo_score":0.871,"description":"St. Supery Chardonnay","num_searches":2.0,"id":"a66uoofr1xbw","geo_precision":"zip","source":"grappos.com","zipid":"15237","state":"PA"},"type":"Feature","geometry":{"type":"Point","coordinates":[-80.036445,40.555068]}},{"properties":{"city":"Anasco","geo_score":0.881,"description":"St. Supery Chardonnay","num_searches":4.0,"id":"a66uoog1z7a6","geo_precision":"zip","source":"grappos.com","zipid":"610","state":"PR"},"type":"Feature","geometry":{"type":"Point","coordinates":[-67.189903,18.284395]}},{"properties":{"city":"Salinas","geo_score":1.0,"description":"St. Supery Chardonnay","num_searches":1.0,"id":"a66uoofbkisu","geo_precision":"zip","source":"grappos.com","zipid":"751","state":"PR"},"type":"Feature","geometry":{"type":"Point","coordinates":[-66.264825,17.99852]}},{"properties":{"city":"Houston","geo_score":1.0,"description":"St. Supery Chardonnay","num_searches":2.0,"id":"a66uoolmsbvt","geo_precision":"zip","source":"grappos.com","zipid":"77001","state":"TX"},"type":"Feature","geometry":{"type":"Point","coordinates":[-95.309789,29.813142]}},{"properties":{"city":"Channelview","geo_score":1.0,"description":"St. Supery Chardonnay","num_searches":2.0,"id":"a66uoorzuw7c","geo_precision":"zip","source":"grappos.com","zipid":"77530","state":"TX"},"type":"Feature","geometry":{"type":"Point","coordinates":[-95.434241,29.83399]}},{"properties":{"city":"Paris","geo_score":0.886,"description":"St. Supery Chardonnay","num_searches":1.0,"id":"a66uoom5aiun","geo_precision":"zip","source":"grappos.com","zipid":"75460","state":"TX"},"type":"Feature","geometry":{"type":"Point","coordinates":[-95.450231,33.456498]}},{"properties":{"city":"Old Ocean","geo_score":1.0,"description":"St. Supery Chardonnay","num_searches":1.0,"id":"a66uooopuv1n","geo_precision":"zip","source":"grappos.com","zipid":"77463","state":"TX"},"type":"Feature","geometry":{"type":"Point","coordinates":[-95.791554,29.130819]}},{"properties":{"city":"Austin","geo_score":1.0,"description":"St. Supery Chardonnay","num_searches":1.0,"id":"a66uoou8vam4","geo_precision":"zip","source":"grappos.com","zipid":"78727","state":"TX"},"type":"Feature","geometry":{"type":"Point","coordinates":[-97.719678,30.427402]}},{"properties":{"city":"Arlington","geo_score":1.0,"description":"St. Supery Chardonnay","num_searches":1.0,"id":"a66uooirzqpi","geo_precision":"zip","source":"grappos.com","zipid":"22201","state":"VA"},"type":"Feature","geometry":{"type":"Point","coordinates":[-77.099113,38.885484]}},{"properties":{"city":"Alexandria","geo_score":1.0,"description":"St. Supery Chardonnay","num_searches":1.0,"id":"a66uoogk7hk8","geo_precision":"zip","source":"grappos.com","zipid":"22301","state":"VA"},"type":"Feature","geometry":{"type":"Point","coordinates":[-77.079622,38.823062]}},{"properties":{"city":"Roanoke","geo_score":0.886,"description":"St. Supery Chardonnay","num_searches":1.0,"id":"a66uoohikq70","geo_precision":"zip","source":"grappos.com","zipid":"24014","state":"VA"},"type":"Feature","geometry":{"type":"Point","coordinates":[-79.92837,37.231805]}},{"properties":{"city":"Issaquah","geo_score":0.857,"description":"St. Supery Chardonnay","num_searches":4.0,"id":"a66uoohsv4fe","geo_precision":"zip","source":"grappos.com","zipid":"98027","state":"WA"},"type":"Feature","geometry":{"type":"Point","coordinates":[-121.907615,47.505102]}},{"properties":{"city":"Redmond","geo_score":0.905,"description":"St. Supery Chardonnay","num_searches":3.0,"id":"a66uooo130j4","geo_precision":"zip","source":"grappos.com","zipid":"98052","state":"WA"},"type":"Feature","geometry":{"type":"Point","coordinates":[-122.150402,47.693432]}},{"properties":{"city":"Sumner","geo_score":0.875,"description":"St. Supery Chardonnay","num_searches":2.0,"id":"a66uool42ac6","geo_precision":"zip","source":"grappos.com","zipid":"98352","state":"WA"},"type":"Feature","geometry":{"type":"Point","coordinates":[-122.236506,47.139824]}},{"properties":{"city":"Olympia","geo_score":1.0,"description":"St. Supery Chardonnay","num_searches":2.0,"id":"a66uoom5mc2s","geo_precision":"zip","source":"grappos.com","zipid":"98513","state":"WA"},"type":"Feature","geometry":{"type":"Point","coordinates":[-122.743016,46.993897]}},{"properties":{"city":"Pacific","geo_score":1.0,"description":"St. Supery Chardonnay","num_searches":1.0,"id":"a66uoom9q6s5","geo_precision":"zip","source":"grappos.com","zipid":"98047","state":"WA"},"type":"Feature","geometry":{"type":"Point","coordinates":[-121.803388,47.432251]}},{"properties":{"city":"Blakely Island","geo_score":1.0,"description":"St. Supery Chardonnay","num_searches":1.0,"id":"a66uoogsej1g","geo_precision":"zip","source":"grappos.com","zipid":"98222","state":"WA"},"type":"Feature","geometry":{"type":"Point","coordinates":[-122.921551,48.610644]}},{"properties":{"city":"Omak","geo_score":0.875,"description":"St. Supery Chardonnay","num_searches":1.0,"id":"a66uoostebt0","geo_precision":"zip","source":"grappos.com","zipid":"98841","state":"WA"},"type":"Feature","geometry":{"type":"Point","coordinates":[-119.237261,48.360433]}},{"properties":{"city":"Electric City","geo_score":1.0,"description":"St. Supery Chardonnay","num_searches":1.0,"id":"a66uoojrptuh","geo_precision":"zip","source":"grappos.com","zipid":"99123","state":"WA"},"type":"Feature","geometry":{"type":"Point","coordinates":[-119.042562,47.913065]}},{"properties":{"city":"Sun Prairie","geo_score":0.881,"description":"St. Supery Chardonnay","num_searches":1.0,"id":"a66uookpm0h5","geo_precision":"zip","source":"grappos.com","zipid":"53590","state":"WI"},"type":"Feature","geometry":{"type":"Point","coordinates":[-89.212336,43.266658]}},{"properties":{"city":"Miami","geo_score":1.0,"description":"St. Supery Chardonnay","num_searches":1.0,"id":"a66uoonbv1is","geo_precision":"zip","source":"grappos.com","zipid":"25134","state":"WV"},"type":"Feature","geometry":{"type":"Point","coordinates":[-81.554655,38.296818]}}],"is_temporal":false,"author":{"url":"","metadata":"","contact_name":"","contact_address":"","source":"","contact_phone":""},"source":"","pagination":{"sort":null,"start":0,"total":69,"limit":1000000},"state":"complete","tags":"","published":"2014-08-10T12:31:32-04:00","id":21040}