{"type":"FeatureCollection","data_type":"Dataset","url_type":null,"permissions":[{"permissions":{"download":true,"view":true},"group_id":"everyone"}],"classification":null,"title":"St. Supery Sauvignon Blanc","count":236,"stream_id":21047,"contributor":{"url":"http://geocommons.com/users/2024","name":"kunisawa"},"data_attributes":null,"calculation_params":null,"icon_link":null,"link":"http://geocommons.com/overlays/21047.json","extent":[-157.922,18.103,-66.0498,48.8296],"geometry_types":["point"],"unique_name":null,"name":"St. Supery Sauvignon Blanc","feature_count":236,"description":"","next_feature":null,"is_raster":false,"short_classification":"Y","stats":{"geo_score":{"max":1.0,"mean":0.956377118644068,"variance":0.00341296781464118,"stdev":0.058420611214204,"min":0.857,"median":1.0},"num_searches":{"max":50.0,"mean":1.97881355932203,"variance":12.5740173097728,"stdev":3.54598608426102,"min":1.0,"median":1.0}},"features":[{"properties":{"city":"Phoenix","geo_score":0.857,"description":"St. Supery Sauvignon Blanc","num_searches":1.0,"id":"a66unug0pt66","geo_precision":"zip","source":"grappos.com","zipid":"85027","state":"AZ"},"type":"Feature","geometry":{"type":"Point","coordinates":[-112.135991,33.915869]}},{"properties":{"city":"Tucson","geo_score":0.893,"description":"St. Supery Sauvignon Blanc","num_searches":1.0,"id":"a66unujlnar9","geo_precision":"zip","source":"grappos.com","zipid":"85715","state":"AZ"},"type":"Feature","geometry":{"type":"Point","coordinates":[-110.858699,32.259242]}},{"properties":{"city":"San Francisco","geo_score":1.0,"description":"St. Supery Sauvignon Blanc","num_searches":12.0,"id":"a66unueus2zr","geo_precision":"zip","source":"grappos.com","zipid":"94109","state":"CA"},"type":"Feature","geometry":{"type":"Point","coordinates":[-122.420782,37.795219]}},{"properties":{"city":"San Jose","geo_score":1.0,"description":"St. Supery Sauvignon Blanc","num_searches":9.0,"id":"a66unu8h1o02","geo_precision":"zip","source":"grappos.com","zipid":"95101","state":"CA"},"type":"Feature","geometry":{"type":"Point","coordinates":[-121.705327,37.189396]}},{"properties":{"city":"Santa Monica","geo_score":1.0,"description":"St. Supery Sauvignon Blanc","num_searches":7.0,"id":"a66unuevc4yk","geo_precision":"zip","source":"grappos.com","zipid":"90401","state":"CA"},"type":"Feature","geometry":{"type":"Point","coordinates":[-118.298662,33.786594]}},{"properties":{"city":"San Francisco","geo_score":1.0,"description":"St. Supery Sauvignon Blanc","num_searches":6.0,"id":"a66unujrdf2i","geo_precision":"zip","source":"grappos.com","zipid":"94101","state":"CA"},"type":"Feature","geometry":{"type":"Point","coordinates":[-122.727802,37.784827]}},{"properties":{"city":"Napa","geo_score":0.883,"description":"St. Supery Sauvignon Blanc","num_searches":6.0,"id":"a66unuc7g4yz","geo_precision":"zip","source":"grappos.com","zipid":"94558","state":"CA"},"type":"Feature","geometry":{"type":"Point","coordinates":[-122.224975,38.535185]}},{"properties":{"city":"San Anselmo","geo_score":1.0,"description":"St. Supery Sauvignon Blanc","num_searches":6.0,"id":"a66unudqh3yi","geo_precision":"zip","source":"grappos.com","zipid":"94960","state":"CA"},"type":"Feature","geometry":{"type":"Point","coordinates":[-122.59184,37.986473]}},{"properties":{"city":"Soledad","geo_score":0.878,"description":"St. Supery Sauvignon Blanc","num_searches":4.0,"id":"a66unuh0rrov","geo_precision":"zip","source":"grappos.com","zipid":"93960","state":"CA"},"type":"Feature","geometry":{"type":"Point","coordinates":[-121.21159,36.354966]}},{"properties":{"city":"Napa","geo_score":0.893,"description":"St. Supery Sauvignon Blanc","num_searches":4.0,"id":"a66unucipdmi","geo_precision":"zip","source":"grappos.com","zipid":"94559","state":"CA"},"type":"Feature","geometry":{"type":"Point","coordinates":[-122.320809,38.340747]}},{"properties":{"city":"Granite Bay","geo_score":1.0,"description":"St. Supery Sauvignon Blanc","num_searches":4.0,"id":"a66unuhmrd8l","geo_precision":"zip","source":"grappos.com","zipid":"95746","state":"CA"},"type":"Feature","geometry":{"type":"Point","coordinates":[-121.183436,38.756614]}},{"properties":{"city":"Clovis","geo_score":1.0,"description":"St. Supery Sauvignon Blanc","num_searches":3.0,"id":"a66unu7gvznj","geo_precision":"zip","source":"grappos.com","zipid":"93611","state":"CA"},"type":"Feature","geometry":{"type":"Point","coordinates":[-119.592146,36.832583]}},{"properties":{"city":"San Francisco","geo_score":1.0,"description":"St. Supery Sauvignon Blanc","num_searches":3.0,"id":"a66unu9swm4p","geo_precision":"zip","source":"grappos.com","zipid":"94104","state":"CA"},"type":"Feature","geometry":{"type":"Point","coordinates":[-122.401732,37.790728]}},{"properties":{"city":"Oakland","geo_score":1.0,"description":"St. Supery Sauvignon Blanc","num_searches":3.0,"id":"a66unugezkxn","geo_precision":"zip","source":"grappos.com","zipid":"94601","state":"CA"},"type":"Feature","geometry":{"type":"Point","coordinates":[-122.223779,37.786027]}},{"properties":{"city":"Olema","geo_score":0.929,"description":"St. Supery Sauvignon Blanc","num_searches":3.0,"id":"a66unucnskke","geo_precision":"zip","source":"grappos.com","zipid":"94950","state":"CA"},"type":"Feature","geometry":{"type":"Point","coordinates":[-122.759434,38.0502]}},{"properties":{"city":"Santa Rosa","geo_score":0.889,"description":"St. Supery Sauvignon Blanc","num_searches":3.0,"id":"a66unuf7tpiw","geo_precision":"zip","source":"grappos.com","zipid":"95401","state":"CA"},"type":"Feature","geometry":{"type":"Point","coordinates":[-122.851937,38.48519]}},{"properties":{"city":"Palm Springs","geo_score":1.0,"description":"St. Supery Sauvignon Blanc","num_searches":2.0,"id":"a66unuc6lj47","geo_precision":"zip","source":"grappos.com","zipid":"92264","state":"CA"},"type":"Feature","geometry":{"type":"Point","coordinates":[-116.511883,33.797145]}},{"properties":{"city":"Rancho Mirage","geo_score":1.0,"description":"St. Supery Sauvignon Blanc","num_searches":2.0,"id":"a66unu8n4js5","geo_precision":"zip","source":"grappos.com","zipid":"92270","state":"CA"},"type":"Feature","geometry":{"type":"Point","coordinates":[-116.431961,33.703598]}},{"properties":{"city":"Paso Robles","geo_score":0.878,"description":"St. Supery Sauvignon Blanc","num_searches":2.0,"id":"a66unua0zxfb","geo_precision":"zip","source":"grappos.com","zipid":"93446","state":"CA"},"type":"Feature","geometry":{"type":"Point","coordinates":[-120.507661,35.659137]}},{"properties":{"city":"Saint Helena","geo_score":0.857,"description":"St. Supery Sauvignon Blanc","num_searches":2.0,"id":"a66unu6m6oan","geo_precision":"zip","source":"grappos.com","zipid":"94574","state":"CA"},"type":"Feature","geometry":{"type":"Point","coordinates":[-122.481647,38.517964]}},{"properties":{"city":"Los Angeles","geo_score":0.871,"description":"St. Supery Sauvignon Blanc","num_searches":1.0,"id":"a66unubigbjb","geo_precision":"zip","source":"grappos.com","zipid":"90002","state":"CA"},"type":"Feature","geometry":{"type":"Point","coordinates":[-118.237305,33.960214]}},{"properties":{"city":"Santa Monica","geo_score":1.0,"description":"St. Supery Sauvignon Blanc","num_searches":1.0,"id":"a66unuchqyl4","geo_precision":"zip","source":"grappos.com","zipid":"90404","state":"CA"},"type":"Feature","geometry":{"type":"Point","coordinates":[-118.298662,33.786594]}},{"properties":{"city":"Pasadena","geo_score":1.0,"description":"St. Supery Sauvignon Blanc","num_searches":1.0,"id":"a66unugbmukr","geo_precision":"zip","source":"grappos.com","zipid":"91101","state":"CA"},"type":"Feature","geometry":{"type":"Point","coordinates":[-118.298662,33.786594]}},{"properties":{"city":"Pasadena","geo_score":1.0,"description":"St. Supery Sauvignon Blanc","num_searches":1.0,"id":"a66unu9qn3ff","geo_precision":"zip","source":"grappos.com","zipid":"91115","state":"CA"},"type":"Feature","geometry":{"type":"Point","coordinates":[-118.298662,33.786594]}},{"properties":{"city":"Thousand Oaks","geo_score":0.876,"description":"St. Supery Sauvignon Blanc","num_searches":1.0,"id":"a66unucpte7k","geo_precision":"zip","source":"grappos.com","zipid":"91360","state":"CA"},"type":"Feature","geometry":{"type":"Point","coordinates":[-118.805647,34.145839]}},{"properties":{"city":"Thousand Oaks","geo_score":1.0,"description":"St. Supery Sauvignon Blanc","num_searches":1.0,"id":"a66unujsvg6c","geo_precision":"zip","source":"grappos.com","zipid":"91362","state":"CA"},"type":"Feature","geometry":{"type":"Point","coordinates":[-118.823177,34.194756]}},{"properties":{"city":"Studio City","geo_score":1.0,"description":"St. Supery Sauvignon Blanc","num_searches":1.0,"id":"a66unufnit32","geo_precision":"zip","source":"grappos.com","zipid":"91604","state":"CA"},"type":"Feature","geometry":{"type":"Point","coordinates":[-118.298662,33.786594]}},{"properties":{"city":"Valley Village","geo_score":0.929,"description":"St. Supery Sauvignon Blanc","num_searches":1.0,"id":"a66unuh3gevw","geo_precision":"zip","source":"grappos.com","zipid":"91607","state":"CA"},"type":"Feature","geometry":{"type":"Point","coordinates":[-118.298662,33.786594]}},{"properties":{"city":"Claremont","geo_score":1.0,"description":"St. Supery Sauvignon Blanc","num_searches":1.0,"id":"a66unu3psttv","geo_precision":"zip","source":"grappos.com","zipid":"91711","state":"CA"},"type":"Feature","geometry":{"type":"Point","coordinates":[-118.298662,33.786594]}},{"properties":{"city":"San Diego","geo_score":1.0,"description":"St. Supery Sauvignon Blanc","num_searches":1.0,"id":"a66unuenbw8m","geo_precision":"zip","source":"grappos.com","zipid":"92132","state":"CA"},"type":"Feature","geometry":{"type":"Point","coordinates":[-117.138414,32.643703]}},{"properties":{"city":"North Palm Springs","geo_score":1.0,"description":"St. Supery Sauvignon Blanc","num_searches":1.0,"id":"a66unud7ahj6","geo_precision":"zip","source":"grappos.com","zipid":"92258","state":"CA"},"type":"Feature","geometry":{"type":"Point","coordinates":[-116.549645,33.924967]}},{"properties":{"city":"Fontana","geo_score":1.0,"description":"St. Supery Sauvignon Blanc","num_searches":1.0,"id":"a66unuci4v2k","geo_precision":"zip","source":"grappos.com","zipid":"92334","state":"CA"},"type":"Feature","geometry":{"type":"Point","coordinates":[-115.967051,34.839964]}},{"properties":{"city":"Huntington Beach","geo_score":1.0,"description":"St. Supery Sauvignon Blanc","num_searches":1.0,"id":"a66unua1bx9m","geo_precision":"zip","source":"grappos.com","zipid":"92646","state":"CA"},"type":"Feature","geometry":{"type":"Point","coordinates":[-117.769442,33.640302]}},{"properties":{"city":"Laguna Beach","geo_score":0.868,"description":"St. Supery Sauvignon Blanc","num_searches":1.0,"id":"a66unu7tp40s","geo_precision":"zip","source":"grappos.com","zipid":"92651","state":"CA"},"type":"Feature","geometry":{"type":"Point","coordinates":[-117.754221,33.548359]}},{"properties":{"city":"Anaheim","geo_score":1.0,"description":"St. Supery Sauvignon Blanc","num_searches":1.0,"id":"a66unud7p4ci","geo_precision":"zip","source":"grappos.com","zipid":"92803","state":"CA"},"type":"Feature","geometry":{"type":"Point","coordinates":[-117.769442,33.640302]}},{"properties":{"city":"Santa Barbara","geo_score":0.881,"description":"St. Supery Sauvignon Blanc","num_searches":1.0,"id":"a66unu5548wa","geo_precision":"zip","source":"grappos.com","zipid":"93108","state":"CA"},"type":"Feature","geometry":{"type":"Point","coordinates":[-119.632075,34.436663]}},{"properties":{"city":"Los Banos","geo_score":0.893,"description":"St. Supery Sauvignon Blanc","num_searches":1.0,"id":"a66unuiv6j7e","geo_precision":"zip","source":"grappos.com","zipid":"93635","state":"CA"},"type":"Feature","geometry":{"type":"Point","coordinates":[-120.92603,37.097444]}},{"properties":{"city":"Sunnyvale","geo_score":1.0,"description":"St. Supery Sauvignon Blanc","num_searches":1.0,"id":"a66unuk1q9xw","geo_precision":"zip","source":"grappos.com","zipid":"94089","state":"CA"},"type":"Feature","geometry":{"type":"Point","coordinates":[-121.705327,37.189396]}},{"properties":{"city":"San Francisco","geo_score":1.0,"description":"St. Supery Sauvignon Blanc","num_searches":1.0,"id":"a66unujno1fq","geo_precision":"zip","source":"grappos.com","zipid":"94105","state":"CA"},"type":"Feature","geometry":{"type":"Point","coordinates":[-122.395631,37.789595]}},{"properties":{"city":"San Francisco","geo_score":1.0,"description":"St. Supery Sauvignon Blanc","num_searches":1.0,"id":"a66unuclerpi","geo_precision":"zip","source":"grappos.com","zipid":"94107","state":"CA"},"type":"Feature","geometry":{"type":"Point","coordinates":[-122.393681,37.769029]}},{"properties":{"city":"San Francisco","geo_score":1.0,"description":"St. Supery Sauvignon Blanc","num_searches":1.0,"id":"a66unu8f3s96","geo_precision":"zip","source":"grappos.com","zipid":"94111","state":"CA"},"type":"Feature","geometry":{"type":"Point","coordinates":[-122.405331,37.773579]}},{"properties":{"city":"San Francisco","geo_score":1.0,"description":"St. Supery Sauvignon Blanc","num_searches":1.0,"id":"a66unub76875","geo_precision":"zip","source":"grappos.com","zipid":"94117","state":"CA"},"type":"Feature","geometry":{"type":"Point","coordinates":[-122.443882,37.769079]}},{"properties":{"city":"San Mateo","geo_score":1.0,"description":"St. Supery Sauvignon Blanc","num_searches":1.0,"id":"a66unuikxycd","geo_precision":"zip","source":"grappos.com","zipid":"94401","state":"CA"},"type":"Feature","geometry":{"type":"Point","coordinates":[-122.32253,37.573485]}},{"properties":{"city":"Oakland","geo_score":1.0,"description":"St. Supery Sauvignon Blanc","num_searches":1.0,"id":"a66unuad7i5a","geo_precision":"zip","source":"grappos.com","zipid":"94606","state":"CA"},"type":"Feature","geometry":{"type":"Point","coordinates":[-122.243979,37.789927]}},{"properties":{"city":"Boulder Creek","geo_score":0.881,"description":"St. Supery Sauvignon Blanc","num_searches":1.0,"id":"a66unuguvpsd","geo_precision":"zip","source":"grappos.com","zipid":"95006","state":"CA"},"type":"Feature","geometry":{"type":"Point","coordinates":[-122.136076,37.151335]}},{"properties":{"city":"Camino","geo_score":1.0,"description":"St. Supery Sauvignon Blanc","num_searches":1.0,"id":"a66unu40jtmo","geo_precision":"zip","source":"grappos.com","zipid":"95709","state":"CA"},"type":"Feature","geometry":{"type":"Point","coordinates":[-120.693072,38.745549]}},{"properties":{"city":"Sacramento","geo_score":1.0,"description":"St. Supery Sauvignon Blanc","num_searches":1.0,"id":"a66unuiujz07","geo_precision":"zip","source":"grappos.com","zipid":"95814","state":"CA"},"type":"Feature","geometry":{"type":"Point","coordinates":[-121.480905,38.579055]}},{"properties":{"city":"Sacramento","geo_score":0.893,"description":"St. Supery Sauvignon Blanc","num_searches":1.0,"id":"a66unughk3am","geo_precision":"zip","source":"grappos.com","zipid":"95826","state":"CA"},"type":"Feature","geometry":{"type":"Point","coordinates":[-121.334673,38.528796]}},{"properties":{"city":"Denver","geo_score":1.0,"description":"St. Supery Sauvignon Blanc","num_searches":7.0,"id":"a66unu6ibbxc","geo_precision":"zip","source":"grappos.com","zipid":"80201","state":"CO"},"type":"Feature","geometry":{"type":"Point","coordinates":[-104.856808,39.726303]}},{"properties":{"city":"Boulder","geo_score":1.0,"description":"St. Supery Sauvignon Blanc","num_searches":3.0,"id":"a66unu9g26av","geo_precision":"zip","source":"grappos.com","zipid":"80304","state":"CO"},"type":"Feature","geometry":{"type":"Point","coordinates":[-105.369797,40.114114]}},{"properties":{"city":"Littleton","geo_score":0.889,"description":"St. Supery Sauvignon Blanc","num_searches":1.0,"id":"a66unuhfnou8","geo_precision":"zip","source":"grappos.com","zipid":"80124","state":"CO"},"type":"Feature","geometry":{"type":"Point","coordinates":[-104.861962,39.531381]}},{"properties":{"city":"Denver","geo_score":1.0,"description":"St. Supery Sauvignon Blanc","num_searches":1.0,"id":"a66unucnttwo","geo_precision":"zip","source":"fbapp","zipid":"80202","state":"CO"},"type":"Feature","geometry":{"type":"Point","coordinates":[-104.996553,39.760189]}},{"properties":{"city":"Denver","geo_score":1.0,"description":"St. Supery Sauvignon Blanc","num_searches":1.0,"id":"a66unu9bayf1","geo_precision":"zip","source":"grappos.com","zipid":"80210","state":"CO"},"type":"Feature","geometry":{"type":"Point","coordinates":[-104.964186,39.701677]}},{"properties":{"city":"Boulder","geo_score":0.886,"description":"St. Supery Sauvignon Blanc","num_searches":1.0,"id":"a66unu6w9vku","geo_precision":"zip","source":"grappos.com","zipid":"80302","state":"CO"},"type":"Feature","geometry":{"type":"Point","coordinates":[-105.390827,40.038875]}},{"properties":{"city":"Manchester","geo_score":0.87,"description":"St. Supery Sauvignon Blanc","num_searches":3.0,"id":"a66unudnqdkc","geo_precision":"zip","source":"grappos.com","zipid":"6040","state":"CT"},"type":"Feature","geometry":{"type":"Point","coordinates":[-72.421195,41.864542]}},{"properties":{"city":"Enfield","geo_score":0.867,"description":"St. Supery Sauvignon Blanc","num_searches":1.0,"id":"a66unu48dxug","geo_precision":"zip","source":"grappos.com","zipid":"6082","state":"CT"},"type":"Feature","geometry":{"type":"Point","coordinates":[-72.571477,41.962597]}},{"properties":{"city":"Washington","geo_score":1.0,"description":"St. Supery Sauvignon Blanc","num_searches":11.0,"id":"a66unu6eaxwt","geo_precision":"zip","source":"grappos.com","zipid":"20002","state":"DC"},"type":"Feature","geometry":{"type":"Point","coordinates":[-76.982147,38.908218]}},{"properties":{"city":"Washington","geo_score":0.893,"description":"St. Supery Sauvignon Blanc","num_searches":2.0,"id":"a66unuabln9f","geo_precision":"zip","source":"grappos.com","zipid":"20001","state":"DC"},"type":"Feature","geometry":{"type":"Point","coordinates":[-77.011365,38.916778]}},{"properties":{"city":"Washington","geo_score":1.0,"description":"St. Supery Sauvignon Blanc","num_searches":2.0,"id":"a66unuhf9jdk","geo_precision":"zip","source":"grappos.com","zipid":"20206","state":"DC"},"type":"Feature","geometry":{"type":"Point","coordinates":[-77.014647,38.893311]}},{"properties":{"city":"Washington","geo_score":1.0,"description":"St. Supery Sauvignon Blanc","num_searches":2.0,"id":"a66unugzhvzq","geo_precision":"zip","source":"grappos.com","zipid":"20402","state":"DC"},"type":"Feature","geometry":{"type":"Point","coordinates":[-77.014647,38.893311]}},{"properties":{"city":"Washington","geo_score":1.0,"description":"St. Supery Sauvignon Blanc","num_searches":2.0,"id":"a66unuf8n6i0","geo_precision":"zip","source":"grappos.com","zipid":"20433","state":"DC"},"type":"Feature","geometry":{"type":"Point","coordinates":[-77.041976,38.899996]}},{"properties":{"city":"Washington","geo_score":1.0,"description":"St. Supery Sauvignon Blanc","num_searches":2.0,"id":"a66unueb1dvd","geo_precision":"zip","source":"grappos.com","zipid":"20546","state":"DC"},"type":"Feature","geometry":{"type":"Point","coordinates":[-77.021092,38.890976]}},{"properties":{"city":"Washington","geo_score":1.0,"description":"St. Supery Sauvignon Blanc","num_searches":2.0,"id":"a66unuh3jza5","geo_precision":"zip","source":"grappos.com","zipid":"20597","state":"DC"},"type":"Feature","geometry":{"type":"Point","coordinates":[-77.014647,38.893311]}},{"properties":{"city":"Washington","geo_score":1.0,"description":"St. Supery Sauvignon Blanc","num_searches":1.0,"id":"a66unub8q38g","geo_precision":"zip","source":"grappos.com","zipid":"20006","state":"DC"},"type":"Feature","geometry":{"type":"Point","coordinates":[-77.041248,38.897131]}},{"properties":{"city":"Washington","geo_score":1.0,"description":"St. Supery Sauvignon Blanc","num_searches":1.0,"id":"a66unu48uyv1","geo_precision":"zip","source":"grappos.com","zipid":"20015","state":"DC"},"type":"Feature","geometry":{"type":"Point","coordinates":[-77.070949,38.96926]}},{"properties":{"city":"Washington","geo_score":1.0,"description":"St. Supery Sauvignon Blanc","num_searches":1.0,"id":"a66unufd8wjo","geo_precision":"zip","source":"grappos.com","zipid":"20029","state":"DC"},"type":"Feature","geometry":{"type":"Point","coordinates":[-77.014647,38.893311]}},{"properties":{"city":"Washington","geo_score":1.0,"description":"St. Supery Sauvignon Blanc","num_searches":1.0,"id":"a66unucm1wz8","geo_precision":"zip","source":"grappos.com","zipid":"20042","state":"DC"},"type":"Feature","geometry":{"type":"Point","coordinates":[-77.014647,38.893311]}},{"properties":{"city":"Washington","geo_score":1.0,"description":"St. Supery Sauvignon Blanc","num_searches":1.0,"id":"a66unucitk39","geo_precision":"zip","source":"grappos.com","zipid":"20044","state":"DC"},"type":"Feature","geometry":{"type":"Point","coordinates":[-77.014647,38.893311]}},{"properties":{"city":"Washington","geo_score":1.0,"description":"St. Supery Sauvignon Blanc","num_searches":1.0,"id":"a66unu5y7m3p","geo_precision":"zip","source":"grappos.com","zipid":"20059","state":"DC"},"type":"Feature","geometry":{"type":"Point","coordinates":[-77.014647,38.893311]}},{"properties":{"city":"Washington","geo_score":1.0,"description":"St. Supery Sauvignon Blanc","num_searches":1.0,"id":"a66unu3yh6ha","geo_precision":"zip","source":"grappos.com","zipid":"20067","state":"DC"},"type":"Feature","geometry":{"type":"Point","coordinates":[-77.014647,38.893311]}},{"properties":{"city":"Washington","geo_score":1.0,"description":"St. Supery Sauvignon Blanc","num_searches":1.0,"id":"a66unuedwcc9","geo_precision":"zip","source":"grappos.com","zipid":"20068","state":"DC"},"type":"Feature","geometry":{"type":"Point","coordinates":[-77.014647,38.893311]}},{"properties":{"city":"Washington","geo_score":1.0,"description":"St. Supery Sauvignon Blanc","num_searches":1.0,"id":"a66unufjjscc","geo_precision":"zip","source":"grappos.com","zipid":"20088","state":"DC"},"type":"Feature","geometry":{"type":"Point","coordinates":[-77.014647,38.893311]}},{"properties":{"city":"Washington","geo_score":1.0,"description":"St. Supery Sauvignon Blanc","num_searches":1.0,"id":"a66unu7klkl1","geo_precision":"zip","source":"grappos.com","zipid":"20212","state":"DC"},"type":"Feature","geometry":{"type":"Point","coordinates":[-77.014647,38.893311]}},{"properties":{"city":"Washington","geo_score":1.0,"description":"St. Supery Sauvignon Blanc","num_searches":1.0,"id":"a66unufvw15q","geo_precision":"zip","source":"grappos.com","zipid":"20228","state":"DC"},"type":"Feature","geometry":{"type":"Point","coordinates":[-77.014647,38.893311]}},{"properties":{"city":"Washington","geo_score":1.0,"description":"St. Supery Sauvignon Blanc","num_searches":1.0,"id":"a66unufzj1k4","geo_precision":"zip","source":"grappos.com","zipid":"20229","state":"DC"},"type":"Feature","geometry":{"type":"Point","coordinates":[-77.014647,38.893311]}},{"properties":{"city":"Washington","geo_score":1.0,"description":"St. Supery Sauvignon Blanc","num_searches":1.0,"id":"a66unuddxfy6","geo_precision":"zip","source":"grappos.com","zipid":"20244","state":"DC"},"type":"Feature","geometry":{"type":"Point","coordinates":[-77.014647,38.893311]}},{"properties":{"city":"Washington","geo_score":1.0,"description":"St. Supery Sauvignon Blanc","num_searches":1.0,"id":"a66unu7tk6sm","geo_precision":"zip","source":"grappos.com","zipid":"20268","state":"DC"},"type":"Feature","geometry":{"type":"Point","coordinates":[-77.014647,38.893311]}},{"properties":{"city":"Washington","geo_score":1.0,"description":"St. Supery Sauvignon Blanc","num_searches":1.0,"id":"a66unudvtgiw","geo_precision":"zip","source":"grappos.com","zipid":"20289","state":"DC"},"type":"Feature","geometry":{"type":"Point","coordinates":[-77.014647,38.893311]}},{"properties":{"city":"Washington","geo_score":1.0,"description":"St. Supery Sauvignon Blanc","num_searches":1.0,"id":"a66unud8e3hd","geo_precision":"zip","source":"grappos.com","zipid":"20303","state":"DC"},"type":"Feature","geometry":{"type":"Point","coordinates":[-77.014647,38.893311]}},{"properties":{"city":"Washington","geo_score":1.0,"description":"St. Supery Sauvignon Blanc","num_searches":1.0,"id":"a66unudd6fy3","geo_precision":"zip","source":"grappos.com","zipid":"20389","state":"DC"},"type":"Feature","geometry":{"type":"Point","coordinates":[-77.014647,38.893311]}},{"properties":{"city":"Washington","geo_score":1.0,"description":"St. Supery Sauvignon Blanc","num_searches":1.0,"id":"a66unu8hnkwo","geo_precision":"zip","source":"grappos.com","zipid":"20392","state":"DC"},"type":"Feature","geometry":{"type":"Point","coordinates":[-77.014647,38.893311]}},{"properties":{"city":"Washington","geo_score":1.0,"description":"St. Supery Sauvignon Blanc","num_searches":1.0,"id":"a66unuenu0fr","geo_precision":"zip","source":"grappos.com","zipid":"20409","state":"DC"},"type":"Feature","geometry":{"type":"Point","coordinates":[-77.014647,38.893311]}},{"properties":{"city":"Washington","geo_score":1.0,"description":"St. Supery Sauvignon Blanc","num_searches":1.0,"id":"a66unuifgfak","geo_precision":"zip","source":"grappos.com","zipid":"20416","state":"DC"},"type":"Feature","geometry":{"type":"Point","coordinates":[-77.014647,38.893311]}},{"properties":{"city":"Washington","geo_score":1.0,"description":"St. Supery Sauvignon Blanc","num_searches":1.0,"id":"a66unubd6yf6","geo_precision":"zip","source":"grappos.com","zipid":"20439","state":"DC"},"type":"Feature","geometry":{"type":"Point","coordinates":[-77.014647,38.893311]}},{"properties":{"city":"Washington","geo_score":1.0,"description":"St. Supery Sauvignon Blanc","num_searches":1.0,"id":"a66unu98xstv","geo_precision":"zip","source":"grappos.com","zipid":"20444","state":"DC"},"type":"Feature","geometry":{"type":"Point","coordinates":[-77.014647,38.893311]}},{"properties":{"city":"Washington","geo_score":1.0,"description":"St. Supery Sauvignon Blanc","num_searches":1.0,"id":"a66unu7fxiry","geo_precision":"zip","source":"grappos.com","zipid":"20470","state":"DC"},"type":"Feature","geometry":{"type":"Point","coordinates":[-77.014647,38.893311]}},{"properties":{"city":"Washington","geo_score":1.0,"description":"St. Supery Sauvignon Blanc","num_searches":1.0,"id":"a66unubpfoe3","geo_precision":"zip","source":"grappos.com","zipid":"20504","state":"DC"},"type":"Feature","geometry":{"type":"Point","coordinates":[-77.014647,38.893311]}},{"properties":{"city":"Washington","geo_score":0.857,"description":"St. Supery Sauvignon Blanc","num_searches":1.0,"id":"a66unu915rxe","geo_precision":"city","source":"grappos.com","zipid":"20511","state":"DC"},"type":"Feature","geometry":{"type":"Point","coordinates":[-77.036366,38.895112]}},{"properties":{"city":"Washington","geo_score":1.0,"description":"St. Supery Sauvignon Blanc","num_searches":1.0,"id":"a66unuawht61","geo_precision":"zip","source":"grappos.com","zipid":"20524","state":"DC"},"type":"Feature","geometry":{"type":"Point","coordinates":[-77.032601,38.902414]}},{"properties":{"city":"Washington","geo_score":1.0,"description":"St. Supery Sauvignon Blanc","num_searches":1.0,"id":"a66unu48tgrl","geo_precision":"zip","source":"grappos.com","zipid":"20531","state":"DC"},"type":"Feature","geometry":{"type":"Point","coordinates":[-77.021848,38.893761]}},{"properties":{"city":"Washington","geo_score":1.0,"description":"St. Supery Sauvignon Blanc","num_searches":1.0,"id":"a66unuigxraz","geo_precision":"zip","source":"grappos.com","zipid":"20538","state":"DC"},"type":"Feature","geometry":{"type":"Point","coordinates":[-77.014647,38.893311]}},{"properties":{"city":"Washington","geo_score":1.0,"description":"St. Supery Sauvignon Blanc","num_searches":1.0,"id":"a66unuas27ax","geo_precision":"zip","source":"grappos.com","zipid":"20541","state":"DC"},"type":"Feature","geometry":{"type":"Point","coordinates":[-77.004663,38.887405]}},{"properties":{"city":"Washington","geo_score":1.0,"description":"St. Supery Sauvignon Blanc","num_searches":1.0,"id":"a66unuk11mge","geo_precision":"zip","source":"grappos.com","zipid":"20554","state":"DC"},"type":"Feature","geometry":{"type":"Point","coordinates":[-77.014647,38.893311]}},{"properties":{"city":"Washington","geo_score":1.0,"description":"St. Supery Sauvignon Blanc","num_searches":1.0,"id":"a66unubp8fgd","geo_precision":"zip","source":"grappos.com","zipid":"20572","state":"DC"},"type":"Feature","geometry":{"type":"Point","coordinates":[-77.014647,38.893311]}},{"properties":{"city":"Washington","geo_score":1.0,"description":"St. Supery Sauvignon Blanc","num_searches":1.0,"id":"a66unuedocth","geo_precision":"zip","source":"grappos.com","zipid":"20585","state":"DC"},"type":"Feature","geometry":{"type":"Point","coordinates":[-77.014647,38.893311]}},{"properties":{"city":"Washington","geo_score":0.857,"description":"St. Supery Sauvignon Blanc","num_searches":1.0,"id":"a66unuato38d","geo_precision":"city","source":"grappos.com","zipid":"56972","state":"DC"},"type":"Feature","geometry":{"type":"Point","coordinates":[-77.036366,38.895112]}},{"properties":{"city":"West Palm Beach","geo_score":0.923,"description":"St. Supery Sauvignon Blanc","num_searches":5.0,"id":"a66unujdppwe","geo_precision":"zip","source":"grappos.com","zipid":"33401","state":"FL"},"type":"Feature","geometry":{"type":"Point","coordinates":[-80.098098,26.702565]}},{"properties":{"city":"Orlando","geo_score":1.0,"description":"St. Supery Sauvignon Blanc","num_searches":3.0,"id":"a66unuj7zatv","geo_precision":"zip","source":"grappos.com","zipid":"32801","state":"FL"},"type":"Feature","geometry":{"type":"Point","coordinates":[-81.373291,28.545179]}},{"properties":{"city":"Orlando","geo_score":0.878,"description":"St. Supery Sauvignon Blanc","num_searches":1.0,"id":"a66unufagl6n","geo_precision":"zip","source":"grappos.com","zipid":"32802","state":"FL"},"type":"Feature","geometry":{"type":"Point","coordinates":[-81.565907,28.388619]}},{"properties":{"city":"Fort Lauderdale","geo_score":1.0,"description":"St. Supery Sauvignon Blanc","num_searches":1.0,"id":"a66unubhw8pb","geo_precision":"zip","source":"grappos.com","zipid":"33322","state":"FL"},"type":"Feature","geometry":{"type":"Point","coordinates":[-80.331401,26.118845]}},{"properties":{"city":"Atlanta","geo_score":0.94,"description":"St. Supery Sauvignon Blanc","num_searches":3.0,"id":"a66unuhlj1jz","geo_precision":"zip","source":"grappos.com","zipid":"30319","state":"GA"},"type":"Feature","geometry":{"type":"Point","coordinates":[-84.336592,33.865103]}},{"properties":{"city":"Buckhead","geo_score":0.857,"description":"St. Supery Sauvignon Blanc","num_searches":3.0,"id":"a66unub9hip7","geo_precision":"zip","source":"grappos.com","zipid":"30625","state":"GA"},"type":"Feature","geometry":{"type":"Point","coordinates":[-83.306828,33.544294]}},{"properties":{"city":"Atlanta","geo_score":1.0,"description":"St. Supery Sauvignon Blanc","num_searches":1.0,"id":"a66unu4pl4gd","geo_precision":"zip","source":"grappos.com","zipid":"30302","state":"GA"},"type":"Feature","geometry":{"type":"Point","coordinates":[-84.47405,33.844371]}},{"properties":{"city":"Kaneohe","geo_score":0.898,"description":"St. Supery Sauvignon Blanc","num_searches":1.0,"id":"a66unu7ttqjq","geo_precision":"zip","source":"grappos.com","zipid":"96744","state":"HI"},"type":"Feature","geometry":{"type":"Point","coordinates":[-157.855,21.500556]}},{"properties":{"city":"Honolulu","geo_score":1.0,"description":"St. Supery Sauvignon Blanc","num_searches":1.0,"id":"a66unua4vuab","geo_precision":"zip","source":"grappos.com","zipid":"96817","state":"HI"},"type":"Feature","geometry":{"type":"Point","coordinates":[-157.922303,21.65098]}},{"properties":{"city":"Boise","geo_score":1.0,"description":"St. Supery Sauvignon Blanc","num_searches":1.0,"id":"a66unu4vmxi2","geo_precision":"zip","source":"grappos.com","zipid":"83728","state":"ID"},"type":"Feature","geometry":{"type":"Point","coordinates":[-116.243984,43.459855]}},{"properties":{"city":"Chicago","geo_score":0.857,"description":"St. Supery Sauvignon Blanc","num_searches":3.0,"id":"a66unu7148wx","geo_precision":"city","source":"grappos.com","zipid":"60290","state":"IL"},"type":"Feature","geometry":{"type":"Point","coordinates":[-87.650052,41.850033]}},{"properties":{"city":"Chicago","geo_score":1.0,"description":"St. Supery Sauvignon Blanc","num_searches":3.0,"id":"a66unuf8lmgd","geo_precision":"zip","source":"grappos.com","zipid":"60605","state":"IL"},"type":"Feature","geometry":{"type":"Point","coordinates":[-87.68732,41.811929]}},{"properties":{"city":"Naperville","geo_score":1.0,"description":"St. Supery Sauvignon Blanc","num_searches":2.0,"id":"a66unugxugpc","geo_precision":"zip","source":"grappos.com","zipid":"60564","state":"IL"},"type":"Feature","geometry":{"type":"Point","coordinates":[-88.201424,41.681479]}},{"properties":{"city":"Chicago","geo_score":1.0,"description":"St. Supery Sauvignon Blanc","num_searches":2.0,"id":"a66unubnbucf","geo_precision":"zip","source":"grappos.com","zipid":"60601","state":"IL"},"type":"Feature","geometry":{"type":"Point","coordinates":[-87.68732,41.811929]}},{"properties":{"city":"Godfrey","geo_score":0.857,"description":"St. Supery Sauvignon Blanc","num_searches":2.0,"id":"a66unujtby04","geo_precision":"zip","source":"grappos.com","zipid":"62035","state":"IL"},"type":"Feature","geometry":{"type":"Point","coordinates":[-90.245945,38.936992]}},{"properties":{"city":"Evanston","geo_score":1.0,"description":"St. Supery Sauvignon Blanc","num_searches":1.0,"id":"a66unubeoquo","geo_precision":"zip","source":"fbapp","zipid":"60201","state":"IL"},"type":"Feature","geometry":{"type":"Point","coordinates":[-87.702155,42.049148]}},{"properties":{"city":"Hickory Hills","geo_score":1.0,"description":"St. Supery Sauvignon Blanc","num_searches":1.0,"id":"a66unuaepipj","geo_precision":"zip","source":"grappos.com","zipid":"60457","state":"IL"},"type":"Feature","geometry":{"type":"Point","coordinates":[-87.68732,41.811929]}},{"properties":{"city":"Naperville","geo_score":0.857,"description":"St. Supery Sauvignon Blanc","num_searches":1.0,"id":"a66unubh8sdq","geo_precision":"zip","source":"grappos.com","zipid":"60540","state":"IL"},"type":"Feature","geometry":{"type":"Point","coordinates":[-88.232846,41.744752]}},{"properties":{"city":"Chicago","geo_score":1.0,"description":"St. Supery Sauvignon Blanc","num_searches":1.0,"id":"a66unug9cov5","geo_precision":"zip","source":"grappos.com","zipid":"60603","state":"IL"},"type":"Feature","geometry":{"type":"Point","coordinates":[-87.72596,42.055179]}},{"properties":{"city":"Chicago","geo_score":1.0,"description":"St. Supery Sauvignon Blanc","num_searches":1.0,"id":"a66unucuty9n","geo_precision":"zip","source":"fbapp","zipid":"60613","state":"IL"},"type":"Feature","geometry":{"type":"Point","coordinates":[-87.68732,41.811929]}},{"properties":{"city":"Chicago","geo_score":1.0,"description":"St. Supery Sauvignon Blanc","num_searches":1.0,"id":"a66unu60dsln","geo_precision":"zip","source":"grappos.com","zipid":"60620","state":"IL"},"type":"Feature","geometry":{"type":"Point","coordinates":[-87.68732,41.811929]}},{"properties":{"city":"Sterling","geo_score":0.875,"description":"St. Supery Sauvignon Blanc","num_searches":1.0,"id":"a66unu9e6s1y","geo_precision":"zip","source":"grappos.com","zipid":"61081","state":"IL"},"type":"Feature","geometry":{"type":"Point","coordinates":[-89.667888,41.88753]}},{"properties":{"city":"Mount Vernon","geo_score":0.869,"description":"St. Supery Sauvignon Blanc","num_searches":1.0,"id":"a66unuh5qlbf","geo_precision":"zip","source":"grappos.com","zipid":"62864","state":"IL"},"type":"Feature","geometry":{"type":"Point","coordinates":[-88.867007,38.327827]}},{"properties":{"city":"Louisburg","geo_score":1.0,"description":"St. Supery Sauvignon Blanc","num_searches":1.0,"id":"a66unufw3fwg","geo_precision":"zip","source":"grappos.com","zipid":"66053","state":"KS"},"type":"Feature","geometry":{"type":"Point","coordinates":[-94.689876,38.587195]}},{"properties":{"city":"Overland Park","geo_score":0.857,"description":"St. Supery Sauvignon Blanc","num_searches":1.0,"id":"a66unue33pht","geo_precision":"zip","source":"grappos.com","zipid":"66210","state":"KS"},"type":"Feature","geometry":{"type":"Point","coordinates":[-94.714336,38.927256]}},{"properties":{"city":"Elk City","geo_score":1.0,"description":"St. Supery Sauvignon Blanc","num_searches":1.0,"id":"a66unubeh8nx","geo_precision":"zip","source":"grappos.com","zipid":"67344","state":"KS"},"type":"Feature","geometry":{"type":"Point","coordinates":[-95.908001,37.288869]}},{"properties":{"city":"Aimwell","geo_score":1.0,"description":"St. Supery Sauvignon Blanc","num_searches":4.0,"id":"a66unufgozfu","geo_precision":"zip","source":"grappos.com","zipid":"71401","state":"LA"},"type":"Feature","geometry":{"type":"Point","coordinates":[-91.77941,31.596272]}},{"properties":{"city":"Grand Coteau","geo_score":1.0,"description":"St. Supery Sauvignon Blanc","num_searches":1.0,"id":"a66unujy15em","geo_precision":"zip","source":"grappos.com","zipid":"70541","state":"LA"},"type":"Feature","geometry":{"type":"Point","coordinates":[-92.031178,30.417402]}},{"properties":{"city":"Kaplan","geo_score":0.857,"description":"St. Supery Sauvignon Blanc","num_searches":1.0,"id":"a66unu5j1d1e","geo_precision":"zip","source":"grappos.com","zipid":"70548","state":"LA"},"type":"Feature","geometry":{"type":"Point","coordinates":[-92.242906,30.084927]}},{"properties":{"city":"Braintree","geo_score":0.949,"description":"St. Supery Sauvignon Blanc","num_searches":5.0,"id":"a66unue5l5hv","geo_precision":"zip","source":"grappos.com","zipid":"2184","state":"MA"},"type":"Feature","geometry":{"type":"Point","coordinates":[-70.999492,42.2001]}},{"properties":{"city":"Amherst","geo_score":0.871,"description":"St. Supery Sauvignon Blanc","num_searches":2.0,"id":"a66unuhybexl","geo_precision":"zip","source":"grappos.com","zipid":"1002","state":"MA"},"type":"Feature","geometry":{"type":"Point","coordinates":[-72.470364,42.377868]}},{"properties":{"city":"Milton","geo_score":0.929,"description":"St. Supery Sauvignon Blanc","num_searches":2.0,"id":"a66unub8lxqb","geo_precision":"zip","source":"grappos.com","zipid":"2186","state":"MA"},"type":"Feature","geometry":{"type":"Point","coordinates":[-71.080051,42.254266]}},{"properties":{"city":"West Hyannisport","geo_score":1.0,"description":"St. Supery Sauvignon Blanc","num_searches":2.0,"id":"a66unu53j6so","geo_precision":"zip","source":"grappos.com","zipid":"2672","state":"MA"},"type":"Feature","geometry":{"type":"Point","coordinates":[-70.323307,41.635635]}},{"properties":{"city":"New Braintree","geo_score":1.0,"description":"St. Supery Sauvignon Blanc","num_searches":1.0,"id":"a66unuevcw0q","geo_precision":"zip","source":"grappos.com","zipid":"1531","state":"MA"},"type":"Feature","geometry":{"type":"Point","coordinates":[-72.128644,42.320938]}},{"properties":{"city":"Boston","geo_score":1.0,"description":"St. Supery Sauvignon Blanc","num_searches":1.0,"id":"a66unu52fa57","geo_precision":"zip","source":"grappos.com","zipid":"2108","state":"MA"},"type":"Feature","geometry":{"type":"Point","coordinates":[-71.102446,42.353806]}},{"properties":{"city":"Melrose","geo_score":0.857,"description":"St. Supery Sauvignon Blanc","num_searches":1.0,"id":"a66unuc5b3x2","geo_precision":"zip","source":"grappos.com","zipid":"2176","state":"MA"},"type":"Feature","geometry":{"type":"Point","coordinates":[-71.068941,42.454263]}},{"properties":{"city":"Quincy","geo_score":1.0,"description":"St. Supery Sauvignon Blanc","num_searches":1.0,"id":"a66unu5193bk","geo_precision":"zip","source":"grappos.com","zipid":"2269","state":"MA"},"type":"Feature","geometry":{"type":"Point","coordinates":[-71.08923,42.180048]}},{"properties":{"city":"Silver Spring","geo_score":0.857,"description":"St. Supery Sauvignon Blanc","num_searches":1.0,"id":"a66unuff7wcl","geo_precision":"zip","source":"grappos.com","zipid":"20902","state":"MD"},"type":"Feature","geometry":{"type":"Point","coordinates":[-77.060256,39.045665]}},{"properties":{"city":"Sullivan","geo_score":0.945,"description":"St. Supery Sauvignon Blanc","num_searches":1.0,"id":"a66unu5e3e27","geo_precision":"zip","source":"grappos.com","zipid":"4664","state":"ME"},"type":"Feature","geometry":{"type":"Point","coordinates":[-68.243071,44.540633]}},{"properties":{"city":"Kalamazoo","geo_score":0.869,"description":"St. Supery Sauvignon Blanc","num_searches":3.0,"id":"a66unu7k53hv","geo_precision":"zip","source":"grappos.com","zipid":"49001","state":"MI"},"type":"Feature","geometry":{"type":"Point","coordinates":[-85.686672,42.201152]}},{"properties":{"city":"Bloomfield Hills","geo_score":0.944,"description":"St. Supery Sauvignon Blanc","num_searches":2.0,"id":"a66unuc1uu1y","geo_precision":"zip","source":"grappos.com","zipid":"48301","state":"MI"},"type":"Feature","geometry":{"type":"Point","coordinates":[-83.273418,42.575599]}},{"properties":{"city":"Kalamazoo","geo_score":1.0,"description":"St. Supery Sauvignon Blanc","num_searches":2.0,"id":"a66unue79lj3","geo_precision":"zip","source":"grappos.com","zipid":"49009","state":"MI"},"type":"Feature","geometry":{"type":"Point","coordinates":[-85.592635,42.299211]}},{"properties":{"city":"Clarkston","geo_score":0.929,"description":"St. Supery Sauvignon Blanc","num_searches":1.0,"id":"a66unuiej861","geo_precision":"zip","source":"grappos.com","zipid":"48346","state":"MI"},"type":"Feature","geometry":{"type":"Point","coordinates":[-83.420585,42.73443]}},{"properties":{"city":"Dayton","geo_score":1.0,"description":"St. Supery Sauvignon Blanc","num_searches":1.0,"id":"a66unucr0kxt","geo_precision":"zip","source":"grappos.com","zipid":"55327","state":"MN"},"type":"Feature","geometry":{"type":"Point","coordinates":[-93.482833,45.201514]}},{"properties":{"city":"Minneapolis","geo_score":1.0,"description":"St. Supery Sauvignon Blanc","num_searches":1.0,"id":"a66unu9peenr","geo_precision":"zip","source":"grappos.com","zipid":"55447","state":"MN"},"type":"Feature","geometry":{"type":"Point","coordinates":[-93.487482,45.003335]}},{"properties":{"city":"Sebeka","geo_score":0.857,"description":"St. Supery Sauvignon Blanc","num_searches":1.0,"id":"a66unuabgubt","geo_precision":"zip","source":"grappos.com","zipid":"56477","state":"MN"},"type":"Feature","geometry":{"type":"Point","coordinates":[-95.257808,46.680238]}},{"properties":{"city":"Elizabeth","geo_score":1.0,"description":"St. Supery Sauvignon Blanc","num_searches":1.0,"id":"a66unueh81re","geo_precision":"zip","source":"grappos.com","zipid":"56533","state":"MN"},"type":"Feature","geometry":{"type":"Point","coordinates":[-96.132614,46.380324]}},{"properties":{"city":"Moorhead","geo_score":1.0,"description":"St. Supery Sauvignon Blanc","num_searches":1.0,"id":"a66unued24km","geo_precision":"zip","source":"grappos.com","zipid":"56563","state":"MN"},"type":"Feature","geometry":{"type":"Point","coordinates":[-96.506156,46.890034]}},{"properties":{"city":"Kansas City","geo_score":0.869,"description":"St. Supery Sauvignon Blanc","num_searches":4.0,"id":"a66unuf8v61j","geo_precision":"zip","source":"grappos.com","zipid":"64118","state":"MO"},"type":"Feature","geometry":{"type":"Point","coordinates":[-94.5644,39.196947]}},{"properties":{"city":"Saint Louis","geo_score":0.857,"description":"St. Supery Sauvignon Blanc","num_searches":1.0,"id":"a66unuk1hngf","geo_precision":"zip","source":"grappos.com","zipid":"63123","state":"MO"},"type":"Feature","geometry":{"type":"Point","coordinates":[-90.30956,38.553108]}},{"properties":{"city":"Independence","geo_score":0.881,"description":"St. Supery Sauvignon Blanc","num_searches":1.0,"id":"a66unu913z21","geo_precision":"zip","source":"grappos.com","zipid":"64052","state":"MO"},"type":"Feature","geometry":{"type":"Point","coordinates":[-94.456063,39.086949]}},{"properties":{"city":"Kansas City","geo_score":1.0,"description":"St. Supery Sauvignon Blanc","num_searches":1.0,"id":"a66unuk1t187","geo_precision":"zip","source":"grappos.com","zipid":"64101","state":"MO"},"type":"Feature","geometry":{"type":"Point","coordinates":[-94.598583,39.102404]}},{"properties":{"city":"Kansas City","geo_score":1.0,"description":"St. Supery Sauvignon Blanc","num_searches":1.0,"id":"a66unu9vg5ic","geo_precision":"zip","source":"grappos.com","zipid":"64108","state":"MO"},"type":"Feature","geometry":{"type":"Point","coordinates":[-94.584133,39.083804]}},{"properties":{"city":"Rocheport","geo_score":0.868,"description":"St. Supery Sauvignon Blanc","num_searches":1.0,"id":"a66unufblm0a","geo_precision":"zip","source":"grappos.com","zipid":"65279","state":"MO"},"type":"Feature","geometry":{"type":"Point","coordinates":[-92.483793,39.06226]}},{"properties":{"city":"Verona","geo_score":0.879,"description":"St. Supery Sauvignon Blanc","num_searches":1.0,"id":"a66unugskzuv","geo_precision":"zip","source":"grappos.com","zipid":"65769","state":"MO"},"type":"Feature","geometry":{"type":"Point","coordinates":[-93.791591,36.896449]}},{"properties":{"city":"Charlotte","geo_score":1.0,"description":"St. Supery Sauvignon Blanc","num_searches":1.0,"id":"a66unuk3d4ti","geo_precision":"zip","source":"grappos.com","zipid":"28201","state":"NC"},"type":"Feature","geometry":{"type":"Point","coordinates":[-80.804151,35.26002]}},{"properties":{"city":"South Hampton","geo_score":1.0,"description":"St. Supery Sauvignon Blanc","num_searches":2.0,"id":"a66unubyjs6b","geo_precision":"zip","source":"grappos.com","zipid":"3827","state":"NH"},"type":"Feature","geometry":{"type":"Point","coordinates":[-70.962556,42.880923]}},{"properties":{"city":"Manchester","geo_score":1.0,"description":"St. Supery Sauvignon Blanc","num_searches":1.0,"id":"a66unui5l0ob","geo_precision":"zip","source":"grappos.com","zipid":"3107","state":"NH"},"type":"Feature","geometry":{"type":"Point","coordinates":[-71.653939,42.952124]}},{"properties":{"city":"Littleton","geo_score":1.0,"description":"St. Supery Sauvignon Blanc","num_searches":1.0,"id":"a66unu4dk8so","geo_precision":"zip","source":"grappos.com","zipid":"3561","state":"NH"},"type":"Feature","geometry":{"type":"Point","coordinates":[-71.877638,44.335289]}},{"properties":{"city":"Piermont","geo_score":1.0,"description":"St. Supery Sauvignon Blanc","num_searches":1.0,"id":"a66unu8ygnfl","geo_precision":"zip","source":"grappos.com","zipid":"3779","state":"NH"},"type":"Feature","geometry":{"type":"Point","coordinates":[-72.062132,43.948343]}},{"properties":{"city":"Cherry Hill","geo_score":1.0,"description":"St. Supery Sauvignon Blanc","num_searches":2.0,"id":"a66unueox56s","geo_precision":"zip","source":"grappos.com","zipid":"8034","state":"NJ"},"type":"Feature","geometry":{"type":"Point","coordinates":[-75.035015,39.899962]}},{"properties":{"city":"Wayne","geo_score":0.873,"description":"St. Supery Sauvignon Blanc","num_searches":1.0,"id":"a66unu4iq5so","geo_precision":"zip","source":"grappos.com","zipid":"7470","state":"NJ"},"type":"Feature","geometry":{"type":"Point","coordinates":[-74.262092,40.991764]}},{"properties":{"city":"Sparks","geo_score":1.0,"description":"St. Supery Sauvignon Blanc","num_searches":2.0,"id":"a66unub6o848","geo_precision":"zip","source":"grappos.com","zipid":"89436","state":"NV"},"type":"Feature","geometry":{"type":"Point","coordinates":[-119.659053,39.651879]}},{"properties":{"city":"Stateline","geo_score":0.905,"description":"St. Supery Sauvignon Blanc","num_searches":2.0,"id":"a66unu7mo4br","geo_precision":"zip","source":"grappos.com","zipid":"89449","state":"NV"},"type":"Feature","geometry":{"type":"Point","coordinates":[-119.948238,39.036297]}},{"properties":{"city":"New York","geo_score":1.0,"description":"St. Supery Sauvignon Blanc","num_searches":8.0,"id":"a66unu5m0k8c","geo_precision":"zip","source":"grappos.com","zipid":"10001","state":"NY"},"type":"Feature","geometry":{"type":"Point","coordinates":[-73.996328,40.750422]}},{"properties":{"city":"Holtsville","geo_score":1.0,"description":"St. Supery Sauvignon Blanc","num_searches":4.0,"id":"a66unuia9ekd","geo_precision":"zip","source":"grappos.com","zipid":"501","state":"NY"},"type":"Feature","geometry":{"type":"Point","coordinates":[-72.637078,40.922326]}},{"properties":{"city":"New York","geo_score":1.0,"description":"St. Supery Sauvignon Blanc","num_searches":4.0,"id":"a66unuat49ro","geo_precision":"zip","source":"grappos.com","zipid":"10014","state":"NY"},"type":"Feature","geometry":{"type":"Point","coordinates":[-74.005095,40.738088]}},{"properties":{"city":"Port Chester","geo_score":0.87,"description":"St. Supery Sauvignon Blanc","num_searches":3.0,"id":"a66unugf5807","geo_precision":"zip","source":"grappos.com","zipid":"10573","state":"NY"},"type":"Feature","geometry":{"type":"Point","coordinates":[-73.683462,41.019264]}},{"properties":{"city":"Brooklyn","geo_score":0.886,"description":"St. Supery Sauvignon Blanc","num_searches":3.0,"id":"a66unuavtiaj","geo_precision":"zip","source":"grappos.com","zipid":"11222","state":"NY"},"type":"Feature","geometry":{"type":"Point","coordinates":[-73.950971,40.723713]}},{"properties":{"city":"Corning","geo_score":0.857,"description":"St. Supery Sauvignon Blanc","num_searches":2.0,"id":"a66unu8n2vka","geo_precision":"zip","source":"grappos.com","zipid":"14830","state":"NY"},"type":"Feature","geometry":{"type":"Point","coordinates":[-77.063858,42.081185]}},{"properties":{"city":"New York","geo_score":1.0,"description":"St. Supery Sauvignon Blanc","num_searches":1.0,"id":"a66unudtnzik","geo_precision":"zip","source":"grappos.com","zipid":"10002","state":"NY"},"type":"Feature","geometry":{"type":"Point","coordinates":[-73.986427,40.718758]}},{"properties":{"city":"New York","geo_score":1.0,"description":"St. Supery Sauvignon Blanc","num_searches":1.0,"id":"a66unu9nfqmx","geo_precision":"zip","source":"grappos.com","zipid":"10005","state":"NY"},"type":"Feature","geometry":{"type":"Point","coordinates":[-74.008654,40.706903]}},{"properties":{"city":"New York","geo_score":1.0,"description":"St. Supery Sauvignon Blanc","num_searches":1.0,"id":"a66unuco9lml","geo_precision":"zip","source":"grappos.com","zipid":"10024","state":"NY"},"type":"Feature","geometry":{"type":"Point","coordinates":[-73.965653,40.80813]}},{"properties":{"city":"New York","geo_score":1.0,"description":"St. Supery Sauvignon Blanc","num_searches":1.0,"id":"a66unubg7jyr","geo_precision":"zip","source":"grappos.com","zipid":"10025","state":"NY"},"type":"Feature","geometry":{"type":"Point","coordinates":[-73.967778,40.798664]}},{"properties":{"city":"New York","geo_score":1.0,"description":"St. Supery Sauvignon Blanc","num_searches":1.0,"id":"a66unu56dtzl","geo_precision":"zip","source":"grappos.com","zipid":"10028","state":"NY"},"type":"Feature","geometry":{"type":"Point","coordinates":[-73.953914,40.776629]}},{"properties":{"city":"Albany","geo_score":0.867,"description":"St. Supery Sauvignon Blanc","num_searches":1.0,"id":"a66unu3ya1ld","geo_precision":"zip","source":"grappos.com","zipid":"12208","state":"NY"},"type":"Feature","geometry":{"type":"Point","coordinates":[-73.845956,42.670079]}},{"properties":{"city":"Columbus","geo_score":1.0,"description":"St. Supery Sauvignon Blanc","num_searches":3.0,"id":"a66unuhlggho","geo_precision":"zip","source":"grappos.com","zipid":"43215","state":"OH"},"type":"Feature","geometry":{"type":"Point","coordinates":[-82.877131,39.891745]}},{"properties":{"city":"Amherst","geo_score":0.94,"description":"St. Supery Sauvignon Blanc","num_searches":2.0,"id":"a66unuj8onhg","geo_precision":"zip","source":"grappos.com","zipid":"44001","state":"OH"},"type":"Feature","geometry":{"type":"Point","coordinates":[-82.253769,41.355879]}},{"properties":{"city":"Solon","geo_score":0.886,"description":"St. Supery Sauvignon Blanc","num_searches":1.0,"id":"a66unue3c7t7","geo_precision":"zip","source":"grappos.com","zipid":"44139","state":"OH"},"type":"Feature","geometry":{"type":"Point","coordinates":[-81.46956,41.361721]}},{"properties":{"city":"Stow","geo_score":0.871,"description":"St. Supery Sauvignon Blanc","num_searches":1.0,"id":"a66unuedfnlb","geo_precision":"zip","source":"grappos.com","zipid":"44224","state":"OH"},"type":"Feature","geometry":{"type":"Point","coordinates":[-81.454279,41.158945]}},{"properties":{"city":"Dill City","geo_score":1.0,"description":"St. Supery Sauvignon Blanc","num_searches":1.0,"id":"a66unub386nr","geo_precision":"zip","source":"grappos.com","zipid":"73641","state":"OK"},"type":"Feature","geometry":{"type":"Point","coordinates":[-99.150331,35.224845]}},{"properties":{"city":"Portland","geo_score":1.0,"description":"St. Supery Sauvignon Blanc","num_searches":3.0,"id":"a66unu78b73s","geo_precision":"zip","source":"grappos.com","zipid":"97209","state":"OR"},"type":"Feature","geometry":{"type":"Point","coordinates":[-122.683826,45.53199]}},{"properties":{"city":"Portland","geo_score":0.875,"description":"St. Supery Sauvignon Blanc","num_searches":3.0,"id":"a66unu8dcgy0","geo_precision":"zip","source":"grappos.com","zipid":"97224","state":"OR"},"type":"Feature","geometry":{"type":"Point","coordinates":[-122.758986,45.446507]}},{"properties":{"city":"Portland","geo_score":1.0,"description":"St. Supery Sauvignon Blanc","num_searches":2.0,"id":"a66unu7s77l0","geo_precision":"zip","source":"grappos.com","zipid":"97201","state":"OR"},"type":"Feature","geometry":{"type":"Point","coordinates":[-122.693157,45.498931]}},{"properties":{"city":"Crater Lake","geo_score":1.0,"description":"St. Supery Sauvignon Blanc","num_searches":2.0,"id":"a66unua4w00m","geo_precision":"zip","source":"grappos.com","zipid":"97604","state":"OR"},"type":"Feature","geometry":{"type":"Point","coordinates":[-121.987076,42.733365]}},{"properties":{"city":"Beavercreek","geo_score":0.868,"description":"St. Supery Sauvignon Blanc","num_searches":1.0,"id":"a66unufgw71c","geo_precision":"zip","source":"grappos.com","zipid":"97004","state":"OR"},"type":"Feature","geometry":{"type":"Point","coordinates":[-122.430086,45.235678]}},{"properties":{"city":"Portland","geo_score":1.0,"description":"St. Supery Sauvignon Blanc","num_searches":1.0,"id":"a66unujusanx","geo_precision":"zip","source":"fbapp","zipid":"97213","state":"OR"},"type":"Feature","geometry":{"type":"Point","coordinates":[-122.599751,45.53909]}},{"properties":{"city":"Portland","geo_score":0.893,"description":"St. Supery Sauvignon Blanc","num_searches":1.0,"id":"a66unuisnljt","geo_precision":"zip","source":"grappos.com","zipid":"97217","state":"OR"},"type":"Feature","geometry":{"type":"Point","coordinates":[-122.681486,45.581784]}},{"properties":{"city":"Portland","geo_score":0.889,"description":"St. Supery Sauvignon Blanc","num_searches":1.0,"id":"a66unuh0cdq2","geo_precision":"zip","source":"grappos.com","zipid":"97229","state":"OR"},"type":"Feature","geometry":{"type":"Point","coordinates":[-122.769543,45.517618]}},{"properties":{"city":"Blue River","geo_score":0.888,"description":"St. Supery Sauvignon Blanc","num_searches":1.0,"id":"a66unu766sj4","geo_precision":"zip","source":"grappos.com","zipid":"97413","state":"OR"},"type":"Feature","geometry":{"type":"Point","coordinates":[-122.163947,44.175124]}},{"properties":{"city":"Scottsburg","geo_score":0.857,"description":"St. Supery Sauvignon Blanc","num_searches":1.0,"id":"a66unu5sebz2","geo_precision":"zip","source":"grappos.com","zipid":"97473","state":"OR"},"type":"Feature","geometry":{"type":"Point","coordinates":[-123.798434,43.67484]}},{"properties":{"city":"Medford","geo_score":1.0,"description":"St. Supery Sauvignon Blanc","num_searches":1.0,"id":"a66unuh56pau","geo_precision":"zip","source":"grappos.com","zipid":"97504","state":"OR"},"type":"Feature","geometry":{"type":"Point","coordinates":[-122.793659,42.322392]}},{"properties":{"city":"Langhorne","geo_score":0.914,"description":"St. Supery Sauvignon Blanc","num_searches":3.0,"id":"a66unud7z303","geo_precision":"zip","source":"grappos.com","zipid":"19047","state":"PA"},"type":"Feature","geometry":{"type":"Point","coordinates":[-74.888777,40.192331]}},{"properties":{"city":"Pittsburgh","geo_score":1.0,"description":"St. Supery Sauvignon Blanc","num_searches":2.0,"id":"a66unu513pqv","geo_precision":"zip","source":"grappos.com","zipid":"15222","state":"PA"},"type":"Feature","geometry":{"type":"Point","coordinates":[-80.024817,40.434436]}},{"properties":{"city":"Allentown","geo_score":0.929,"description":"St. Supery Sauvignon Blanc","num_searches":2.0,"id":"a66unu8aa210","geo_precision":"zip","source":"grappos.com","zipid":"18102","state":"PA"},"type":"Feature","geometry":{"type":"Point","coordinates":[-75.577686,40.648707]}},{"properties":{"city":"Allenport","geo_score":1.0,"description":"St. Supery Sauvignon Blanc","num_searches":1.0,"id":"a66unujs7g9z","geo_precision":"zip","source":"grappos.com","zipid":"15412","state":"PA"},"type":"Feature","geometry":{"type":"Point","coordinates":[-79.849887,40.095888]}},{"properties":{"city":"Allentown","geo_score":0.857,"description":"St. Supery Sauvignon Blanc","num_searches":1.0,"id":"a66unuetowx0","geo_precision":"zip","source":"grappos.com","zipid":"18106","state":"PA"},"type":"Feature","geometry":{"type":"Point","coordinates":[-75.552963,40.566764]}},{"properties":{"city":"Ambler","geo_score":0.873,"description":"St. Supery Sauvignon Blanc","num_searches":1.0,"id":"a66unubth5ab","geo_precision":"zip","source":"grappos.com","zipid":"19002","state":"PA"},"type":"Feature","geometry":{"type":"Point","coordinates":[-75.192953,40.178442]}},{"properties":{"city":"Drexel Hill","geo_score":0.9,"description":"St. Supery Sauvignon Blanc","num_searches":1.0,"id":"a66unu8s379i","geo_precision":"zip","source":"grappos.com","zipid":"19026","state":"PA"},"type":"Feature","geometry":{"type":"Point","coordinates":[-75.286852,39.935668]}},{"properties":{"city":"Edgemont","geo_score":1.0,"description":"St. Supery Sauvignon Blanc","num_searches":1.0,"id":"a66unu5cqwuf","geo_precision":"zip","source":"grappos.com","zipid":"19028","state":"PA"},"type":"Feature","geometry":{"type":"Point","coordinates":[-75.405987,39.934047]}},{"properties":{"city":"Bayamon","geo_score":1.0,"description":"St. Supery Sauvignon Blanc","num_searches":3.0,"id":"a66unuefx7o2","geo_precision":"zip","source":"grappos.com","zipid":"961","state":"PR"},"type":"Feature","geometry":{"type":"Point","coordinates":[-66.168651,18.413195]}},{"properties":{"city":"Florida","geo_score":1.0,"description":"St. Supery Sauvignon Blanc","num_searches":2.0,"id":"a66unudg2rpk","geo_precision":"zip","source":"grappos.com","zipid":"650","state":"PR"},"type":"Feature","geometry":{"type":"Point","coordinates":[-66.562311,18.360125]}},{"properties":{"city":"Cayey","geo_score":1.0,"description":"St. Supery Sauvignon Blanc","num_searches":1.0,"id":"a66unuhdnp2t","geo_precision":"zip","source":"grappos.com","zipid":"737","state":"PR"},"type":"Feature","geometry":{"type":"Point","coordinates":[-66.139274,18.102967]}},{"properties":{"city":"La Plata","geo_score":1.0,"description":"St. Supery Sauvignon Blanc","num_searches":1.0,"id":"a66unu6ri55j","geo_precision":"zip","source":"grappos.com","zipid":"786","state":"PR"},"type":"Feature","geometry":{"type":"Point","coordinates":[-66.268717,18.128092]}},{"properties":{"city":"San Juan","geo_score":1.0,"description":"St. Supery Sauvignon Blanc","num_searches":1.0,"id":"a66unubcmkhl","geo_precision":"zip","source":"grappos.com","zipid":"925","state":"PR"},"type":"Feature","geometry":{"type":"Point","coordinates":[-66.049773,18.401055]}},{"properties":{"city":"Newport","geo_score":0.948,"description":"St. Supery Sauvignon Blanc","num_searches":1.0,"id":"a66unu660k1s","geo_precision":"zip","source":"grappos.com","zipid":"2840","state":"RI"},"type":"Feature","geometry":{"type":"Point","coordinates":[-71.28752,41.515786]}},{"properties":{"city":"Sevierville","geo_score":0.883,"description":"St. Supery Sauvignon Blanc","num_searches":2.0,"id":"a66unuhrjwf2","geo_precision":"zip","source":"grappos.com","zipid":"37876","state":"TN"},"type":"Feature","geometry":{"type":"Point","coordinates":[-82.133182,36.220671]}},{"properties":{"city":"Knoxville","geo_score":0.949,"description":"St. Supery Sauvignon Blanc","num_searches":1.0,"id":"a66unudb8w05","geo_precision":"zip","source":"grappos.com","zipid":"37917","state":"TN"},"type":"Feature","geometry":{"type":"Point","coordinates":[-83.912407,36.002027]}},{"properties":{"city":"Memphis","geo_score":0.871,"description":"St. Supery Sauvignon Blanc","num_searches":1.0,"id":"a66unuckepyj","geo_precision":"zip","source":"grappos.com","zipid":"38118","state":"TN"},"type":"Feature","geometry":{"type":"Point","coordinates":[-89.897866,35.020648]}},{"properties":{"city":"Memphis","geo_score":0.893,"description":"St. Supery Sauvignon Blanc","num_searches":1.0,"id":"a66unu6vcv8j","geo_precision":"zip","source":"grappos.com","zipid":"38119","state":"TN"},"type":"Feature","geometry":{"type":"Point","coordinates":[-89.907866,35.148701]}},{"properties":{"city":"Dallas","geo_score":1.0,"description":"St. Supery Sauvignon Blanc","num_searches":50.0,"id":"a66unuai9yjr","geo_precision":"zip","source":"grappos.com","zipid":"75201","state":"TX"},"type":"Feature","geometry":{"type":"Point","coordinates":[-96.790329,32.781179]}},{"properties":{"city":"Dallas","geo_score":1.0,"description":"St. Supery Sauvignon Blanc","num_searches":8.0,"id":"a66unucczlef","geo_precision":"zip","source":"grappos.com","zipid":"75210","state":"TX"},"type":"Feature","geometry":{"type":"Point","coordinates":[-96.750478,32.769479]}},{"properties":{"city":"Dallas","geo_score":1.0,"description":"St. Supery Sauvignon Blanc","num_searches":4.0,"id":"a66unu92pb62","geo_precision":"zip","source":"grappos.com","zipid":"75202","state":"TX"},"type":"Feature","geometry":{"type":"Point","coordinates":[-96.777626,32.767268]}},{"properties":{"city":"Fort Worth","geo_score":0.879,"description":"St. Supery Sauvignon Blanc","num_searches":2.0,"id":"a66unuf4v1aq","geo_precision":"zip","source":"grappos.com","zipid":"76107","state":"TX"},"type":"Feature","geometry":{"type":"Point","coordinates":[-97.41363,32.744852]}},{"properties":{"city":"Plano","geo_score":1.0,"description":"St. Supery Sauvignon Blanc","num_searches":1.0,"id":"a66unub9msh7","geo_precision":"zip","source":"grappos.com","zipid":"75093","state":"TX"},"type":"Feature","geometry":{"type":"Point","coordinates":[-96.805055,33.032674]}},{"properties":{"city":"Paris","geo_score":1.0,"description":"St. Supery Sauvignon Blanc","num_searches":1.0,"id":"a66unuj4q4ru","geo_precision":"zip","source":"grappos.com","zipid":"75461","state":"TX"},"type":"Feature","geometry":{"type":"Point","coordinates":[-95.460797,33.663213]}},{"properties":{"city":"Fort Worth","geo_score":1.0,"description":"St. Supery Sauvignon Blanc","num_searches":1.0,"id":"a66unug6imuz","geo_precision":"zip","source":"grappos.com","zipid":"76101","state":"TX"},"type":"Feature","geometry":{"type":"Point","coordinates":[-97.291484,32.771419]}},{"properties":{"city":"Houston","geo_score":1.0,"description":"St. Supery Sauvignon Blanc","num_searches":1.0,"id":"a66unu8ayb7d","geo_precision":"zip","source":"grappos.com","zipid":"77010","state":"TX"},"type":"Feature","geometry":{"type":"Point","coordinates":[-95.434241,29.83399]}},{"properties":{"city":"Houston","geo_score":1.0,"description":"St. Supery Sauvignon Blanc","num_searches":1.0,"id":"a66unu7tymde","geo_precision":"zip","source":"grappos.com","zipid":"77071","state":"TX"},"type":"Feature","geometry":{"type":"Point","coordinates":[-95.434241,29.83399]}},{"properties":{"city":"Kingwood","geo_score":1.0,"description":"St. Supery Sauvignon Blanc","num_searches":1.0,"id":"a66unuak5u0j","geo_precision":"zip","source":"grappos.com","zipid":"77325","state":"TX"},"type":"Feature","geometry":{"type":"Point","coordinates":[-95.261044,30.033553]}},{"properties":{"city":"Corpus Christi","geo_score":1.0,"description":"St. Supery Sauvignon Blanc","num_searches":1.0,"id":"a66unuiit5o7","geo_precision":"zip","source":"grappos.com","zipid":"78414","state":"TX"},"type":"Feature","geometry":{"type":"Point","coordinates":[-97.373419,27.667387]}},{"properties":{"city":"Austin","geo_score":1.0,"description":"St. Supery Sauvignon Blanc","num_searches":1.0,"id":"a66unudzj3uf","geo_precision":"zip","source":"grappos.com","zipid":"78726","state":"TX"},"type":"Feature","geometry":{"type":"Point","coordinates":[-97.843801,30.427124]}},{"properties":{"city":"Park City","geo_score":0.87,"description":"St. Supery Sauvignon Blanc","num_searches":1.0,"id":"a66unui6exdf","geo_precision":"zip","source":"grappos.com","zipid":"84060","state":"UT"},"type":"Feature","geometry":{"type":"Point","coordinates":[-111.543811,40.694394]}},{"properties":{"city":"Dumfries","geo_score":0.875,"description":"St. Supery Sauvignon Blanc","num_searches":6.0,"id":"a66unue0b639","geo_precision":"zip","source":"grappos.com","zipid":"22025","state":"VA"},"type":"Feature","geometry":{"type":"Point","coordinates":[-77.902218,38.960388]}},{"properties":{"city":"Mc Lean","geo_score":1.0,"description":"St. Supery Sauvignon Blanc","num_searches":1.0,"id":"a66unu4dirvz","geo_precision":"zip","source":"grappos.com","zipid":"22102","state":"VA"},"type":"Feature","geometry":{"type":"Point","coordinates":[-77.229496,38.953033]}},{"properties":{"city":"Arlington","geo_score":1.0,"description":"St. Supery Sauvignon Blanc","num_searches":1.0,"id":"a66unu5vpxwb","geo_precision":"zip","source":"grappos.com","zipid":"22201","state":"VA"},"type":"Feature","geometry":{"type":"Point","coordinates":[-77.099113,38.885484]}},{"properties":{"city":"Winchester","geo_score":1.0,"description":"St. Supery Sauvignon Blanc","num_searches":1.0,"id":"a66unu61tkne","geo_precision":"zip","source":"grappos.com","zipid":"22602","state":"VA"},"type":"Feature","geometry":{"type":"Point","coordinates":[-78.268988,39.150074]}},{"properties":{"city":"Issaquah","geo_score":0.857,"description":"St. Supery Sauvignon Blanc","num_searches":4.0,"id":"a66unu6wbpsu","geo_precision":"zip","source":"grappos.com","zipid":"98027","state":"WA"},"type":"Feature","geometry":{"type":"Point","coordinates":[-121.907615,47.505102]}},{"properties":{"city":"Puyallup","geo_score":0.857,"description":"St. Supery Sauvignon Blanc","num_searches":2.0,"id":"a66unu63od5t","geo_precision":"zip","source":"grappos.com","zipid":"98371","state":"WA"},"type":"Feature","geometry":{"type":"Point","coordinates":[-122.557075,47.401764]}},{"properties":{"city":"Kirkland","geo_score":0.905,"description":"St. Supery Sauvignon Blanc","num_searches":1.0,"id":"a66unubpezvq","geo_precision":"zip","source":"grappos.com","zipid":"98034","state":"WA"},"type":"Feature","geometry":{"type":"Point","coordinates":[-122.179569,47.727043]}},{"properties":{"city":"Seattle","geo_score":1.0,"description":"St. Supery Sauvignon Blanc","num_searches":1.0,"id":"a66unuixxgml","geo_precision":"zip","source":"grappos.com","zipid":"98101","state":"WA"},"type":"Feature","geometry":{"type":"Point","coordinates":[-121.803388,47.432251]}},{"properties":{"city":"Seattle","geo_score":0.857,"description":"St. Supery Sauvignon Blanc","num_searches":1.0,"id":"a66unufzku05","geo_precision":"zip","source":"grappos.com","zipid":"98107","state":"WA"},"type":"Feature","geometry":{"type":"Point","coordinates":[-122.387351,47.675931]}},{"properties":{"city":"Seattle","geo_score":0.905,"description":"St. Supery Sauvignon Blanc","num_searches":1.0,"id":"a66unu5vt12w","geo_precision":"zip","source":"grappos.com","zipid":"98155","state":"WA"},"type":"Feature","geometry":{"type":"Point","coordinates":[-122.333736,47.463155]}},{"properties":{"city":"Darrington","geo_score":1.0,"description":"St. Supery Sauvignon Blanc","num_searches":1.0,"id":"a66unue84d5i","geo_precision":"zip","source":"grappos.com","zipid":"98241","state":"WA"},"type":"Feature","geometry":{"type":"Point","coordinates":[-121.589209,48.239542]}},{"properties":{"city":"Olympia","geo_score":1.0,"description":"St. Supery Sauvignon Blanc","num_searches":1.0,"id":"a66unu9g1lmg","geo_precision":"zip","source":"grappos.com","zipid":"98504","state":"WA"},"type":"Feature","geometry":{"type":"Point","coordinates":[-122.702393,46.978118]}},{"properties":{"city":"Camas","geo_score":0.898,"description":"St. Supery Sauvignon Blanc","num_searches":1.0,"id":"a66unu5ikq01","geo_precision":"zip","source":"fbapp","zipid":"98607","state":"WA"},"type":"Feature","geometry":{"type":"Point","coordinates":[-122.388425,45.582063]}},{"properties":{"city":"Mead","geo_score":0.886,"description":"St. Supery Sauvignon Blanc","num_searches":1.0,"id":"a66unu6i0ex3","geo_precision":"zip","source":"grappos.com","zipid":"99021","state":"WA"},"type":"Feature","geometry":{"type":"Point","coordinates":[-117.2291,47.802118]}},{"properties":{"city":"Colville","geo_score":0.875,"description":"St. Supery Sauvignon Blanc","num_searches":1.0,"id":"a66unubiu7rt","geo_precision":"zip","source":"grappos.com","zipid":"99114","state":"WA"},"type":"Feature","geometry":{"type":"Point","coordinates":[-117.650533,48.829635]}},{"properties":{"city":"Brownsville","geo_score":0.87,"description":"St. Supery Sauvignon Blanc","num_searches":1.0,"id":"a66unuf7sjs4","geo_precision":"zip","source":"grappos.com","zipid":"53006","state":"WI"},"type":"Feature","geometry":{"type":"Point","coordinates":[-88.504826,43.594715]}},{"properties":{"city":"Delavan","geo_score":0.875,"description":"St. Supery Sauvignon Blanc","num_searches":1.0,"id":"a66unuaidxky","geo_precision":"zip","source":"grappos.com","zipid":"53115","state":"WI"},"type":"Feature","geometry":{"type":"Point","coordinates":[-88.749273,42.714734]}}],"is_temporal":false,"author":{"url":"","metadata":"","contact_name":"","contact_address":"","source":"","contact_phone":""},"source":"","pagination":{"sort":null,"start":0,"total":236,"limit":1000000},"state":"complete","tags":"","published":"2014-08-10T12:31:45-04:00","id":21047}