{"type":"FeatureCollection","data_type":"Dataset","url_type":null,"permissions":[{"permissions":{"download":true,"view":true},"group_id":"everyone"}],"classification":null,"title":"St. Supery Merlot","count":88,"stream_id":21044,"contributor":{"url":"http://geocommons.com/users/2024","name":"kunisawa"},"data_attributes":null,"calculation_params":null,"icon_link":null,"link":"http://geocommons.com/overlays/21044.json","extent":[-157.922,18.2933,-66.0681,48.9398],"geometry_types":["point"],"unique_name":null,"name":"St. Supery Merlot","feature_count":88,"description":"","next_feature":null,"is_raster":false,"short_classification":"Y","stats":{"geo_score":{"max":1.0,"mean":0.949363636363637,"variance":0.00356713061650992,"stdev":0.0597254603708496,"min":0.857,"median":1.0},"num_searches":{"max":11.0,"mean":1.69318181818182,"variance":2.65190700104494,"stdev":1.62846768498639,"min":1.0,"median":1.0}},"features":[{"properties":{"city":"San Francisco","geo_score":1.0,"description":"St. Supery Merlot","num_searches":11.0,"id":"a66untn08afi","geo_precision":"zip","source":"grappos.com","zipid":"94109","state":"CA"},"type":"Feature","geometry":{"type":"Point","coordinates":[-122.420782,37.795219]}},{"properties":{"city":"Oakland","geo_score":1.0,"description":"St. Supery Merlot","num_searches":9.0,"id":"a66untmw3l28","geo_precision":"zip","source":"grappos.com","zipid":"94601","state":"CA"},"type":"Feature","geometry":{"type":"Point","coordinates":[-122.223779,37.786027]}},{"properties":{"city":"Corona","geo_score":1.0,"description":"St. Supery Merlot","num_searches":5.0,"id":"a66untirc744","geo_precision":"zip","source":"grappos.com","zipid":"92879","state":"CA"},"type":"Feature","geometry":{"type":"Point","coordinates":[-116.055617,33.752886]}},{"properties":{"city":"Yucca Valley","geo_score":1.0,"description":"St. Supery Merlot","num_searches":4.0,"id":"a66untm9vud9","geo_precision":"zip","source":"grappos.com","zipid":"92284","state":"CA"},"type":"Feature","geometry":{"type":"Point","coordinates":[-115.896753,34.451263]}},{"properties":{"city":"Santa Rosa","geo_score":0.889,"description":"St. Supery Merlot","num_searches":4.0,"id":"a66untgd5wg9","geo_precision":"zip","source":"grappos.com","zipid":"95401","state":"CA"},"type":"Feature","geometry":{"type":"Point","coordinates":[-122.851937,38.48519]}},{"properties":{"city":"Norco","geo_score":1.0,"description":"St. Supery Merlot","num_searches":3.0,"id":"a66untes28py","geo_precision":"zip","source":"grappos.com","zipid":"92860","state":"CA"},"type":"Feature","geometry":{"type":"Point","coordinates":[-116.055617,33.752886]}},{"properties":{"city":"Big Sur","geo_score":0.881,"description":"St. Supery Merlot","num_searches":3.0,"id":"a66untkparbf","geo_precision":"zip","source":"grappos.com","zipid":"93920","state":"CA"},"type":"Feature","geometry":{"type":"Point","coordinates":[-121.764398,36.228297]}},{"properties":{"city":"Long Beach","geo_score":1.0,"description":"St. Supery Merlot","num_searches":2.0,"id":"a66unt7b0nu6","geo_precision":"zip","source":"grappos.com","zipid":"90802","state":"CA"},"type":"Feature","geometry":{"type":"Point","coordinates":[-118.201101,33.756024]}},{"properties":{"city":"Pasadena","geo_score":1.0,"description":"St. Supery Merlot","num_searches":2.0,"id":"a66unt6l44om","geo_precision":"zip","source":"grappos.com","zipid":"91106","state":"CA"},"type":"Feature","geometry":{"type":"Point","coordinates":[-118.298662,33.786594]}},{"properties":{"city":"Paso Robles","geo_score":0.878,"description":"St. Supery Merlot","num_searches":2.0,"id":"a66untf1vx62","geo_precision":"zip","source":"grappos.com","zipid":"93446","state":"CA"},"type":"Feature","geometry":{"type":"Point","coordinates":[-120.507661,35.659137]}},{"properties":{"city":"Monterey","geo_score":1.0,"description":"St. Supery Merlot","num_searches":2.0,"id":"a66untffbpg9","geo_precision":"zip","source":"grappos.com","zipid":"93942","state":"CA"},"type":"Feature","geometry":{"type":"Point","coordinates":[-121.132928,36.35433]}},{"properties":{"city":"Mill Valley","geo_score":0.933,"description":"St. Supery Merlot","num_searches":2.0,"id":"a66untkqdp3e","geo_precision":"zip","source":"grappos.com","zipid":"94941","state":"CA"},"type":"Feature","geometry":{"type":"Point","coordinates":[-122.545809,37.879649]}},{"properties":{"city":"Whittier","geo_score":0.945,"description":"St. Supery Merlot","num_searches":1.0,"id":"a66untk9u04r","geo_precision":"zip","source":"grappos.com","zipid":"90605","state":"CA"},"type":"Feature","geometry":{"type":"Point","coordinates":[-118.041733,33.960846]}},{"properties":{"city":"West Covina","geo_score":1.0,"description":"St. Supery Merlot","num_searches":1.0,"id":"a66untlmuzfb","geo_precision":"zip","source":"grappos.com","zipid":"91792","state":"CA"},"type":"Feature","geometry":{"type":"Point","coordinates":[-118.298662,33.786594]}},{"properties":{"city":"Huntington Beach","geo_score":1.0,"description":"St. Supery Merlot","num_searches":1.0,"id":"a66unthye5vu","geo_precision":"zip","source":"grappos.com","zipid":"92648","state":"CA"},"type":"Feature","geometry":{"type":"Point","coordinates":[-117.769442,33.640302]}},{"properties":{"city":"Santa Barbara","geo_score":0.888,"description":"St. Supery Merlot","num_searches":1.0,"id":"a66unte75ip1","geo_precision":"zip","source":"grappos.com","zipid":"93101","state":"CA"},"type":"Feature","geometry":{"type":"Point","coordinates":[-119.990975,34.5861]}},{"properties":{"city":"Redwood City","geo_score":1.0,"description":"St. Supery Merlot","num_searches":1.0,"id":"a66untgjndjy","geo_precision":"zip","source":"grappos.com","zipid":"94064","state":"CA"},"type":"Feature","geometry":{"type":"Point","coordinates":[-122.334825,37.381144]}},{"properties":{"city":"Sunnyvale","geo_score":1.0,"description":"St. Supery Merlot","num_searches":1.0,"id":"a66untdgw8lq","geo_precision":"zip","source":"grappos.com","zipid":"94085","state":"CA"},"type":"Feature","geometry":{"type":"Point","coordinates":[-122.026548,37.385697]}},{"properties":{"city":"Sunnyvale","geo_score":1.0,"description":"St. Supery Merlot","num_searches":1.0,"id":"a66untiap18a","geo_precision":"zip","source":"grappos.com","zipid":"94086","state":"CA"},"type":"Feature","geometry":{"type":"Point","coordinates":[-121.705327,37.189396]}},{"properties":{"city":"San Francisco","geo_score":1.0,"description":"St. Supery Merlot","num_searches":1.0,"id":"a66unt6sgay6","geo_precision":"zip","source":"grappos.com","zipid":"94104","state":"CA"},"type":"Feature","geometry":{"type":"Point","coordinates":[-122.401732,37.790728]}},{"properties":{"city":"San Francisco","geo_score":1.0,"description":"St. Supery Merlot","num_searches":1.0,"id":"a66unt8dsi6i","geo_precision":"zip","source":"grappos.com","zipid":"94111","state":"CA"},"type":"Feature","geometry":{"type":"Point","coordinates":[-122.405331,37.773579]}},{"properties":{"city":"San Francisco","geo_score":1.0,"description":"St. Supery Merlot","num_searches":1.0,"id":"a66untb6frjw","geo_precision":"zip","source":"grappos.com","zipid":"94117","state":"CA"},"type":"Feature","geometry":{"type":"Point","coordinates":[-122.443882,37.769079]}},{"properties":{"city":"San Francisco","geo_score":1.0,"description":"St. Supery Merlot","num_searches":1.0,"id":"a66unt6tl020","geo_precision":"zip","source":"grappos.com","zipid":"94118","state":"CA"},"type":"Feature","geometry":{"type":"Point","coordinates":[-122.459982,37.778779]}},{"properties":{"city":"Brentwood","geo_score":1.0,"description":"St. Supery Merlot","num_searches":1.0,"id":"a66untbgjh4u","geo_precision":"zip","source":"grappos.com","zipid":"94513","state":"CA"},"type":"Feature","geometry":{"type":"Point","coordinates":[-121.843071,37.912274]}},{"properties":{"city":"Napa","geo_score":0.893,"description":"St. Supery Merlot","num_searches":1.0,"id":"a66untko60ch","geo_precision":"zip","source":"grappos.com","zipid":"94559","state":"CA"},"type":"Feature","geometry":{"type":"Point","coordinates":[-122.320809,38.340747]}},{"properties":{"city":"San Rafael","geo_score":1.0,"description":"St. Supery Merlot","num_searches":1.0,"id":"a66unt9rvp3z","geo_precision":"zip","source":"fbapp","zipid":"94901","state":"CA"},"type":"Feature","geometry":{"type":"Point","coordinates":[-122.504286,37.970948]}},{"properties":{"city":"Forest Knolls","geo_score":1.0,"description":"St. Supery Merlot","num_searches":1.0,"id":"a66untcy9kk9","geo_precision":"zip","source":"grappos.com","zipid":"94933","state":"CA"},"type":"Feature","geometry":{"type":"Point","coordinates":[-122.690302,38.015803]}},{"properties":{"city":"Auburn","geo_score":0.881,"description":"St. Supery Merlot","num_searches":1.0,"id":"a66untdrelhj","geo_precision":"zip","source":"grappos.com","zipid":"95603","state":"CA"},"type":"Feature","geometry":{"type":"Point","coordinates":[-121.123558,38.89101]}},{"properties":{"city":"Vacaville","geo_score":0.889,"description":"St. Supery Merlot","num_searches":1.0,"id":"a66unthfc8w2","geo_precision":"zip","source":"grappos.com","zipid":"95688","state":"CA"},"type":"Feature","geometry":{"type":"Point","coordinates":[-121.943022,38.444631]}},{"properties":{"city":"Pollock Pines","geo_score":0.881,"description":"St. Supery Merlot","num_searches":1.0,"id":"a66untjncmes","geo_precision":"zip","source":"grappos.com","zipid":"95726","state":"CA"},"type":"Feature","geometry":{"type":"Point","coordinates":[-120.529925,38.760181]}},{"properties":{"city":"Chico","geo_score":1.0,"description":"St. Supery Merlot","num_searches":1.0,"id":"a66untljslmi","geo_precision":"zip","source":"grappos.com","zipid":"95929","state":"CA"},"type":"Feature","geometry":{"type":"Point","coordinates":[-121.801215,39.731406]}},{"properties":{"city":"Boulder","geo_score":1.0,"description":"St. Supery Merlot","num_searches":4.0,"id":"a66unt8bjx92","geo_precision":"zip","source":"grappos.com","zipid":"80304","state":"CO"},"type":"Feature","geometry":{"type":"Point","coordinates":[-105.369797,40.114114]}},{"properties":{"city":"Denver","geo_score":1.0,"description":"St. Supery Merlot","num_searches":1.0,"id":"a66unti7v135","geo_precision":"zip","source":"grappos.com","zipid":"80203","state":"CO"},"type":"Feature","geometry":{"type":"Point","coordinates":[-104.970331,39.729205]}},{"properties":{"city":"Orlando","geo_score":1.0,"description":"St. Supery Merlot","num_searches":2.0,"id":"a66unta1srm2","geo_precision":"zip","source":"grappos.com","zipid":"32826","state":"FL"},"type":"Feature","geometry":{"type":"Point","coordinates":[-81.34349,28.510802]}},{"properties":{"city":"Lakeland","geo_score":1.0,"description":"St. Supery Merlot","num_searches":2.0,"id":"a66untfr06mk","geo_precision":"zip","source":"grappos.com","zipid":"33809","state":"FL"},"type":"Feature","geometry":{"type":"Point","coordinates":[-81.959132,28.176194]}},{"properties":{"city":"Jacksonville","geo_score":0.881,"description":"St. Supery Merlot","num_searches":1.0,"id":"a66unti6jc5x","geo_precision":"zip","source":"grappos.com","zipid":"32223","state":"FL"},"type":"Feature","geometry":{"type":"Point","coordinates":[-81.578701,30.206074]}},{"properties":{"city":"Hilo","geo_score":0.878,"description":"St. Supery Merlot","num_searches":1.0,"id":"a66unt6lglys","geo_precision":"zip","source":"grappos.com","zipid":"96720","state":"HI"},"type":"Feature","geometry":{"type":"Point","coordinates":[-155.095,19.744722]}},{"properties":{"city":"Kaneohe","geo_score":0.898,"description":"St. Supery Merlot","num_searches":1.0,"id":"a66untjo27p1","geo_precision":"zip","source":"grappos.com","zipid":"96744","state":"HI"},"type":"Feature","geometry":{"type":"Point","coordinates":[-157.855,21.500556]}},{"properties":{"city":"Honolulu","geo_score":1.0,"description":"St. Supery Merlot","num_searches":1.0,"id":"a66untfkjezu","geo_precision":"zip","source":"grappos.com","zipid":"96817","state":"HI"},"type":"Feature","geometry":{"type":"Point","coordinates":[-157.922303,21.65098]}},{"properties":{"city":"Gurnee","geo_score":0.889,"description":"St. Supery Merlot","num_searches":2.0,"id":"a66unthnvudo","geo_precision":"zip","source":"grappos.com","zipid":"60031","state":"IL"},"type":"Feature","geometry":{"type":"Point","coordinates":[-87.903406,42.290023]}},{"properties":{"city":"Naperville","geo_score":1.0,"description":"St. Supery Merlot","num_searches":1.0,"id":"a66untgz6ail","geo_precision":"zip","source":"grappos.com","zipid":"60564","state":"IL"},"type":"Feature","geometry":{"type":"Point","coordinates":[-88.201424,41.681479]}},{"properties":{"city":"Godfrey","geo_score":0.857,"description":"St. Supery Merlot","num_searches":1.0,"id":"a66untiw7ubp","geo_precision":"zip","source":"grappos.com","zipid":"62035","state":"IL"},"type":"Feature","geometry":{"type":"Point","coordinates":[-90.245945,38.936992]}},{"properties":{"city":"Falun","geo_score":1.0,"description":"St. Supery Merlot","num_searches":1.0,"id":"a66untfkpj5v","geo_precision":"zip","source":"grappos.com","zipid":"67442","state":"KS"},"type":"Feature","geometry":{"type":"Point","coordinates":[-97.787364,38.69098]}},{"properties":{"city":"Metairie","geo_score":1.0,"description":"St. Supery Merlot","num_searches":1.0,"id":"a66untg4ui3m","geo_precision":"zip","source":"grappos.com","zipid":"70001","state":"LA"},"type":"Feature","geometry":{"type":"Point","coordinates":[-90.161821,29.984643]}},{"properties":{"city":"Slidell","geo_score":1.0,"description":"St. Supery Merlot","num_searches":1.0,"id":"a66unti7880w","geo_precision":"zip","source":"grappos.com","zipid":"70461","state":"LA"},"type":"Feature","geometry":{"type":"Point","coordinates":[-89.712618,30.24974]}},{"properties":{"city":"Mamou","geo_score":1.0,"description":"St. Supery Merlot","num_searches":1.0,"id":"a66untjo94ck","geo_precision":"zip","source":"grappos.com","zipid":"70554","state":"LA"},"type":"Feature","geometry":{"type":"Point","coordinates":[-92.425103,30.714716]}},{"properties":{"city":"Charlton Depot","geo_score":1.0,"description":"St. Supery Merlot","num_searches":2.0,"id":"a66untm4ak2e","geo_precision":"zip","source":"grappos.com","zipid":"1509","state":"MA"},"type":"Feature","geometry":{"type":"Point","coordinates":[-71.896868,42.364807]}},{"properties":{"city":"Lake Pleasant","geo_score":1.0,"description":"St. Supery Merlot","num_searches":1.0,"id":"a66untgtnkny","geo_precision":"zip","source":"grappos.com","zipid":"1347","state":"MA"},"type":"Feature","geometry":{"type":"Point","coordinates":[-72.518104,42.556558]}},{"properties":{"city":"Westminster","geo_score":0.896,"description":"St. Supery Merlot","num_searches":1.0,"id":"a66unt8rh7bd","geo_precision":"zip","source":"grappos.com","zipid":"1441","state":"MA"},"type":"Feature","geometry":{"type":"Point","coordinates":[-71.896868,42.364807]}},{"properties":{"city":"Rutland","geo_score":0.875,"description":"St. Supery Merlot","num_searches":1.0,"id":"a66untgy4gm4","geo_precision":"zip","source":"grappos.com","zipid":"1543","state":"MA"},"type":"Feature","geometry":{"type":"Point","coordinates":[-71.955908,42.337591]}},{"properties":{"city":"Malden","geo_score":0.875,"description":"St. Supery Merlot","num_searches":1.0,"id":"a66untjje2sq","geo_precision":"zip","source":"grappos.com","zipid":"2148","state":"MA"},"type":"Feature","geometry":{"type":"Point","coordinates":[-71.074497,42.434818]}},{"properties":{"city":"Saint Paul","geo_score":1.0,"description":"St. Supery Merlot","num_searches":1.0,"id":"a66untmmpoae","geo_precision":"zip","source":"grappos.com","zipid":"55105","state":"MN"},"type":"Feature","geometry":{"type":"Point","coordinates":[-93.16097,44.934515]}},{"properties":{"city":"Eden Prairie","geo_score":0.857,"description":"St. Supery Merlot","num_searches":1.0,"id":"a66untdqpu9s","geo_precision":"zip","source":"fbapp","zipid":"55344","state":"MN"},"type":"Feature","geometry":{"type":"Point","coordinates":[-93.428008,44.971353]}},{"properties":{"city":"Virginia","geo_score":1.0,"description":"St. Supery Merlot","num_searches":1.0,"id":"a66unth52sc9","geo_precision":"zip","source":"grappos.com","zipid":"55777","state":"MN"},"type":"Feature","geometry":{"type":"Point","coordinates":[-92.442797,47.640367]}},{"properties":{"city":"Saint Peters","geo_score":0.902,"description":"St. Supery Merlot","num_searches":1.0,"id":"a66untd8dqkg","geo_precision":"zip","source":"grappos.com","zipid":"63376","state":"MO"},"type":"Feature","geometry":{"type":"Point","coordinates":[-90.661514,38.760608]}},{"properties":{"city":"Humansville","geo_score":1.0,"description":"St. Supery Merlot","num_searches":1.0,"id":"a66untdgtlmw","geo_precision":"zip","source":"grappos.com","zipid":"65674","state":"MO"},"type":"Feature","geometry":{"type":"Point","coordinates":[-93.554646,37.729288]}},{"properties":{"city":"Springfield","geo_score":1.0,"description":"St. Supery Merlot","num_searches":1.0,"id":"a66untmyo5rk","geo_precision":"zip","source":"grappos.com","zipid":"65898","state":"MO"},"type":"Feature","geometry":{"type":"Point","coordinates":[-93.295137,37.180349]}},{"properties":{"city":"Charlotte","geo_score":0.889,"description":"St. Supery Merlot","num_searches":1.0,"id":"a66untg0pd9s","geo_precision":"zip","source":"grappos.com","zipid":"28203","state":"NC"},"type":"Feature","geometry":{"type":"Point","coordinates":[-80.961463,35.171532]}},{"properties":{"city":"Fayetteville","geo_score":1.0,"description":"St. Supery Merlot","num_searches":1.0,"id":"a66untfh0gzm","geo_precision":"zip","source":"grappos.com","zipid":"28314","state":"NC"},"type":"Feature","geometry":{"type":"Point","coordinates":[-79.011328,35.05425]}},{"properties":{"city":"Nashua","geo_score":0.878,"description":"St. Supery Merlot","num_searches":3.0,"id":"a66untcj57nk","geo_precision":"zip","source":"grappos.com","zipid":"3060","state":"NH"},"type":"Feature","geometry":{"type":"Point","coordinates":[-71.555069,42.80481]}},{"properties":{"city":"Morristown","geo_score":0.884,"description":"St. Supery Merlot","num_searches":2.0,"id":"a66untgmastq","geo_precision":"zip","source":"grappos.com","zipid":"7960","state":"NJ"},"type":"Feature","geometry":{"type":"Point","coordinates":[-74.527101,40.805656]}},{"properties":{"city":"Las Vegas","geo_score":0.857,"description":"St. Supery Merlot","num_searches":1.0,"id":"a66unt9pra5f","geo_precision":"zip","source":"grappos.com","zipid":"87701","state":"NM"},"type":"Feature","geometry":{"type":"Point","coordinates":[-104.691379,35.534767]}},{"properties":{"city":"Las Cruces","geo_score":0.876,"description":"St. Supery Merlot","num_searches":1.0,"id":"a66untb8ry6z","geo_precision":"zip","source":"grappos.com","zipid":"88001","state":"NM"},"type":"Feature","geometry":{"type":"Point","coordinates":[-106.854065,32.41467]}},{"properties":{"city":"Las Vegas","geo_score":1.0,"description":"St. Supery Merlot","num_searches":1.0,"id":"a66untjooc4u","geo_precision":"zip","source":"grappos.com","zipid":"89101","state":"NV"},"type":"Feature","geometry":{"type":"Point","coordinates":[-115.10647,36.17372]}},{"properties":{"city":"Briarcliff Manor","geo_score":0.876,"description":"St. Supery Merlot","num_searches":6.0,"id":"a66untaudf5i","geo_precision":"zip","source":"grappos.com","zipid":"10510","state":"NY"},"type":"Feature","geometry":{"type":"Point","coordinates":[-73.818745,41.133151]}},{"properties":{"city":"Brooklyn","geo_score":0.873,"description":"St. Supery Merlot","num_searches":3.0,"id":"a66unt91qlg3","geo_precision":"zip","source":"grappos.com","zipid":"11214","state":"NY"},"type":"Feature","geometry":{"type":"Point","coordinates":[-74.004306,40.604549]}},{"properties":{"city":"Carrier","geo_score":1.0,"description":"St. Supery Merlot","num_searches":1.0,"id":"a66unteh5d3o","geo_precision":"zip","source":"grappos.com","zipid":"73727","state":"OK"},"type":"Feature","geometry":{"type":"Point","coordinates":[-97.782595,36.379072]}},{"properties":{"city":"Beaverton","geo_score":1.0,"description":"St. Supery Merlot","num_searches":1.0,"id":"a66untif6otg","geo_precision":"zip","source":"grappos.com","zipid":"97075","state":"OR"},"type":"Feature","geometry":{"type":"Point","coordinates":[-123.114725,45.548616]}},{"properties":{"city":"Toledo","geo_score":0.857,"description":"St. Supery Merlot","num_searches":1.0,"id":"a66untgn4pz8","geo_precision":"zip","source":"grappos.com","zipid":"97391","state":"OR"},"type":"Feature","geometry":{"type":"Point","coordinates":[-123.879558,44.619563]}},{"properties":{"city":"Creswell","geo_score":0.875,"description":"St. Supery Merlot","num_searches":1.0,"id":"a66unt9seoa1","geo_precision":"zip","source":"grappos.com","zipid":"97426","state":"OR"},"type":"Feature","geometry":{"type":"Point","coordinates":[-123.039803,43.854013]}},{"properties":{"city":"Marcola","geo_score":1.0,"description":"St. Supery Merlot","num_searches":1.0,"id":"a66unt7nnxq6","geo_precision":"zip","source":"grappos.com","zipid":"97454","state":"OR"},"type":"Feature","geometry":{"type":"Point","coordinates":[-122.812544,44.212732]}},{"properties":{"city":"Milton Freewater","geo_score":0.876,"description":"St. Supery Merlot","num_searches":1.0,"id":"a66untkcr84w","geo_precision":"zip","source":"grappos.com","zipid":"97862","state":"OR"},"type":"Feature","geometry":{"type":"Point","coordinates":[-118.402189,45.962357]}},{"properties":{"city":"Jamieson","geo_score":1.0,"description":"St. Supery Merlot","num_searches":1.0,"id":"a66untcfluru","geo_precision":"zip","source":"grappos.com","zipid":"97909","state":"OR"},"type":"Feature","geometry":{"type":"Point","coordinates":[-117.481258,44.216093]}},{"properties":{"city":"Las Marias","geo_score":1.0,"description":"St. Supery Merlot","num_searches":3.0,"id":"a66untadqeas","geo_precision":"zip","source":"grappos.com","zipid":"670","state":"PR"},"type":"Feature","geometry":{"type":"Point","coordinates":[-67.146291,18.293284]}},{"properties":{"city":"Arecibo","geo_score":0.917,"description":"St. Supery Merlot","num_searches":1.0,"id":"a66unt89hk9y","geo_precision":"zip","source":"grappos.com","zipid":"612","state":"PR"},"type":"Feature","geometry":{"type":"Point","coordinates":[-66.713786,18.448557]}},{"properties":{"city":"San Juan","geo_score":1.0,"description":"St. Supery Merlot","num_searches":1.0,"id":"a66untdtuiuj","geo_precision":"zip","source":"grappos.com","zipid":"909","state":"PR"},"type":"Feature","geometry":{"type":"Point","coordinates":[-66.068133,18.443384]}},{"properties":{"city":"Houston","geo_score":0.883,"description":"St. Supery Merlot","num_searches":2.0,"id":"a66unt7sm96s","geo_precision":"zip","source":"grappos.com","zipid":"77029","state":"TX"},"type":"Feature","geometry":{"type":"Point","coordinates":[-95.233823,29.76745]}},{"properties":{"city":"Crosby","geo_score":0.878,"description":"St. Supery Merlot","num_searches":2.0,"id":"a66untdjt6qp","geo_precision":"zip","source":"grappos.com","zipid":"77532","state":"TX"},"type":"Feature","geometry":{"type":"Point","coordinates":[-95.062985,29.879945]}},{"properties":{"city":"Houston","geo_score":1.0,"description":"St. Supery Merlot","num_searches":1.0,"id":"a66unt71t3mm","geo_precision":"zip","source":"grappos.com","zipid":"77293","state":"TX"},"type":"Feature","geometry":{"type":"Point","coordinates":[-95.434241,29.83399]}},{"properties":{"city":"Gainesville","geo_score":1.0,"description":"St. Supery Merlot","num_searches":1.0,"id":"a66unt7tigdk","geo_precision":"zip","source":"grappos.com","zipid":"20155","state":"VA"},"type":"Feature","geometry":{"type":"Point","coordinates":[-77.621613,38.815714]}},{"properties":{"city":"Alexandria","geo_score":0.896,"description":"St. Supery Merlot","num_searches":1.0,"id":"a66unth7pg4b","geo_precision":"zip","source":"grappos.com","zipid":"22302","state":"VA"},"type":"Feature","geometry":{"type":"Point","coordinates":[-77.079422,38.837057]}},{"properties":{"city":"Mill Creek","geo_score":0.873,"description":"St. Supery Merlot","num_searches":4.0,"id":"a66untatxfz5","geo_precision":"zip","source":"grappos.com","zipid":"98082","state":"WA"},"type":"Feature","geometry":{"type":"Point","coordinates":[-121.803388,47.432251]}},{"properties":{"city":"Seattle","geo_score":1.0,"description":"St. Supery Merlot","num_searches":1.0,"id":"a66untf6st5n","geo_precision":"zip","source":"grappos.com","zipid":"98174","state":"WA"},"type":"Feature","geometry":{"type":"Point","coordinates":[-121.803388,47.432251]}},{"properties":{"city":"Everett","geo_score":1.0,"description":"St. Supery Merlot","num_searches":1.0,"id":"a66untkn00uf","geo_precision":"zip","source":"grappos.com","zipid":"98208","state":"WA"},"type":"Feature","geometry":{"type":"Point","coordinates":[-122.190392,47.897284]}},{"properties":{"city":"Blaine","geo_score":0.876,"description":"St. Supery Merlot","num_searches":1.0,"id":"a66untjncem5","geo_precision":"zip","source":"grappos.com","zipid":"98230","state":"WA"},"type":"Feature","geometry":{"type":"Point","coordinates":[-122.757122,48.939833]}},{"properties":{"city":"Greenbank","geo_score":1.0,"description":"St. Supery Merlot","num_searches":1.0,"id":"a66unta7mj2w","geo_precision":"zip","source":"grappos.com","zipid":"98253","state":"WA"},"type":"Feature","geometry":{"type":"Point","coordinates":[-122.57612,48.100424]}},{"properties":{"city":"Tacoma","geo_score":0.857,"description":"St. Supery Merlot","num_searches":1.0,"id":"a66unt8eabua","geo_precision":"zip","source":"grappos.com","zipid":"98412","state":"WA"},"type":"Feature","geometry":{"type":"Point","coordinates":[-122.433456,47.180933]}},{"properties":{"city":"Vancouver","geo_score":0.857,"description":"St. Supery Merlot","num_searches":1.0,"id":"a66untgs64px","geo_precision":"zip","source":"grappos.com","zipid":"98685","state":"WA"},"type":"Feature","geometry":{"type":"Point","coordinates":[-122.707321,45.70956]}}],"is_temporal":false,"author":{"url":"","metadata":"","contact_name":"","contact_address":"","source":"","contact_phone":""},"source":"","pagination":{"sort":null,"start":0,"total":88,"limit":1000000},"state":"complete","tags":"","published":"2014-08-10T12:31:39-04:00","id":21044}