{"type":"FeatureCollection","data_type":"Dataset","url_type":null,"permissions":[{"permissions":{"download":true,"view":true},"group_id":"everyone"}],"classification":null,"title":"Fortant","count":276,"stream_id":21050,"contributor":{"url":"http://geocommons.com/users/2024","name":"kunisawa"},"data_attributes":null,"calculation_params":null,"icon_link":null,"link":"http://geocommons.com/overlays/21050.json","extent":[-159.31,17.9923,-66.058,48.719],"geometry_types":["point"],"unique_name":null,"name":"Fortant","feature_count":276,"description":"","next_feature":null,"is_raster":false,"short_classification":"Y","stats":{"geo_score":{"max":1.0,"mean":0.956202898550724,"variance":0.00358486050065875,"stdev":0.0598737045843896,"min":0.802,"median":1.0},"num_searches":{"max":6.0,"mean":1.19565217391304,"variance":0.29612648221344,"stdev":0.544175047400595,"min":1.0,"median":1.0}},"features":[{"properties":{"city":"Thida","zip":"72165","geo_score":1.0,"description":"Fortant Cabernet Sauvignon","num_searches":1.0,"id":"a69defo6s8qw","geo_precision":"zip","source":"grappos.com","state":"AR"},"type":"Feature","geometry":{"type":"Point","coordinates":[-91.453861,35.576231]}},{"properties":{"city":"San Francisco","zip":"94109","geo_score":1.0,"description":"Fortant Cabernet Sauvignon","num_searches":5.0,"id":"a69defkkpkhm","geo_precision":"zip","source":"grappos.com","state":"CA"},"type":"Feature","geometry":{"type":"Point","coordinates":[-122.420782,37.795219]}},{"properties":{"city":"Cardiff By The Sea","zip":"92007","geo_score":1.0,"description":"Fortant Cabernet Sauvignon","num_searches":1.0,"id":"a69defmuu5lu","geo_precision":"zip","source":"grappos.com","state":"CA"},"type":"Feature","geometry":{"type":"Point","coordinates":[-117.274469,33.023042]}},{"properties":{"city":"Richmond","zip":"94804","geo_score":1.0,"description":"Fortant Cabernet Sauvignon","num_searches":1.0,"id":"a69defo4yfg2","geo_precision":"zip","source":"grappos.com","state":"CA"},"type":"Feature","geometry":{"type":"Point","coordinates":[-122.344381,37.925174]}},{"properties":{"city":"San Jose","zip":"95115","geo_score":1.0,"description":"Fortant Cabernet Sauvignon","num_searches":1.0,"id":"a69defn38ywm","geo_precision":"zip","source":"grappos.com","state":"CA"},"type":"Feature","geometry":{"type":"Point","coordinates":[-121.705327,37.189396]}},{"properties":{"city":"Holt","zip":"95234","geo_score":1.0,"description":"Fortant Cabernet Sauvignon","num_searches":1.0,"id":"a69defwu1kgj","geo_precision":"zip","source":"grappos.com","state":"CA"},"type":"Feature","geometry":{"type":"Point","coordinates":[-121.253872,37.889849]}},{"properties":{"city":"Vacaville","zip":"95687","geo_score":1.0,"description":"Fortant Cabernet Sauvignon","num_searches":1.0,"id":"a69defjn4bno","geo_precision":"zip","source":"grappos.com","state":"CA"},"type":"Feature","geometry":{"type":"Point","coordinates":[-121.912773,38.35056]}},{"properties":{"city":"Sacramento","zip":"95822","geo_score":1.0,"description":"Fortant Cabernet Sauvignon","num_searches":1.0,"id":"a69defmhh5sp","geo_precision":"zip","source":"grappos.com","state":"CA"},"type":"Feature","geometry":{"type":"Point","coordinates":[-121.497716,38.511356]}},{"properties":{"city":"Vina","zip":"96092","geo_score":1.0,"description":"Fortant Cabernet Sauvignon","num_searches":1.0,"id":"a69defjev1u1","geo_precision":"zip","source":"grappos.com","state":"CA"},"type":"Feature","geometry":{"type":"Point","coordinates":[-122.025047,39.927203]}},{"properties":{"city":"South Lake Tahoe","zip":"96154","geo_score":1.0,"description":"Fortant Cabernet Sauvignon","num_searches":1.0,"id":"a69defk4dpid","geo_precision":"zip","source":"grappos.com","state":"CA"},"type":"Feature","geometry":{"type":"Point","coordinates":[-120.0188,38.87529]}},{"properties":{"city":"Aurora","zip":"80016","geo_score":0.857,"description":"Fortant Cabernet Sauvignon","num_searches":1.0,"id":"a69defxncc8j","geo_precision":"zip","source":"grappos.com","state":"CO"},"type":"Feature","geometry":{"type":"Point","coordinates":[-104.792475,39.591655]}},{"properties":{"city":"Brooklyn","zip":"6234","geo_score":1.0,"description":"Fortant Cabernet Sauvignon","num_searches":1.0,"id":"a69defvh86gs","geo_precision":"zip","source":"grappos.com","state":"CT"},"type":"Feature","geometry":{"type":"Point","coordinates":[-71.983412,41.847758]}},{"properties":{"city":"Kealia","zip":"96751","geo_score":0.875,"description":"Fortant Cabernet Sauvignon","num_searches":1.0,"id":"a69defuuipgu","geo_precision":"zip","source":"grappos.com","state":"HI"},"type":"Feature","geometry":{"type":"Point","coordinates":[-159.31,22.110833]}},{"properties":{"city":"Paia","zip":"96779","geo_score":0.881,"description":"Fortant Cabernet Sauvignon","num_searches":1.0,"id":"a69defnsnkx4","geo_precision":"zip","source":"grappos.com","state":"HI"},"type":"Feature","geometry":{"type":"Point","coordinates":[-156.374167,20.906667]}},{"properties":{"city":"Chicago","zip":"60290","geo_score":0.857,"description":"Fortant Cabernet Sauvignon","num_searches":2.0,"id":"a69defrmf63h","geo_precision":"city","source":"grappos.com","state":"IL"},"type":"Feature","geometry":{"type":"Point","coordinates":[-87.650052,41.850033]}},{"properties":{"city":"Naperville","zip":"60540","geo_score":0.857,"description":"Fortant Cabernet Sauvignon","num_searches":1.0,"id":"a69defxy282o","geo_precision":"zip","source":"grappos.com","state":"IL"},"type":"Feature","geometry":{"type":"Point","coordinates":[-88.232846,41.744752]}},{"properties":{"city":"Hillsdale","zip":"66036","geo_score":1.0,"description":"Fortant Cabernet Sauvignon","num_searches":1.0,"id":"a69defsu5t36","geo_precision":"zip","source":"grappos.com","state":"KS"},"type":"Feature","geometry":{"type":"Point","coordinates":[-94.852061,38.658068]}},{"properties":{"city":"Ozawkie","zip":"66070","geo_score":1.0,"description":"Fortant Cabernet Sauvignon","num_searches":1.0,"id":"a69defjvndhw","geo_precision":"zip","source":"grappos.com","state":"KS"},"type":"Feature","geometry":{"type":"Point","coordinates":[-95.456501,39.17715]}},{"properties":{"city":"Wichita","zip":"67204","geo_score":0.889,"description":"Fortant Cabernet Sauvignon","num_searches":1.0,"id":"a69defjm1y89","geo_precision":"zip","source":"grappos.com","state":"KS"},"type":"Feature","geometry":{"type":"Point","coordinates":[-97.350044,37.775846]}},{"properties":{"city":"Simpson","zip":"67478","geo_score":1.0,"description":"Fortant Cabernet Sauvignon","num_searches":1.0,"id":"a69defthgebn","geo_precision":"zip","source":"grappos.com","state":"KS"},"type":"Feature","geometry":{"type":"Point","coordinates":[-97.932764,39.385112]}},{"properties":{"city":"Millers Falls","zip":"1349","geo_score":1.0,"description":"Fortant Cabernet Sauvignon","num_searches":1.0,"id":"a69defx0nm3d","geo_precision":"zip","source":"grappos.com","state":"MA"},"type":"Feature","geometry":{"type":"Point","coordinates":[-72.492588,42.582031]}},{"properties":{"city":"Fayville","zip":"1745","geo_score":0.857,"description":"Fortant Cabernet Sauvignon","num_searches":1.0,"id":"a69defpuszj5","geo_precision":"zip","source":"grappos.com","state":"MA"},"type":"Feature","geometry":{"type":"Point","coordinates":[-71.524509,42.30565]}},{"properties":{"city":"North Marshfield","zip":"2059","geo_score":1.0,"description":"Fortant Cabernet Sauvignon","num_searches":1.0,"id":"a69defw9rem2","geo_precision":"zip","source":"grappos.com","state":"MA"},"type":"Feature","geometry":{"type":"Point","coordinates":[-70.701357,41.970474]}},{"properties":{"city":"Boston","zip":"2205","geo_score":1.0,"description":"Fortant Cabernet Sauvignon","num_searches":1.0,"id":"a69defp6y5og","geo_precision":"zip","source":"grappos.com","state":"MA"},"type":"Feature","geometry":{"type":"Point","coordinates":[-71.053877,42.350334]}},{"properties":{"city":"Willard","zip":"65781","geo_score":1.0,"description":"Fortant Cabernet Sauvignon","num_searches":2.0,"id":"a69defpq3fa5","geo_precision":"zip","source":"grappos.com","state":"MO"},"type":"Feature","geometry":{"type":"Point","coordinates":[-93.315876,37.348973]}},{"properties":{"city":"Eminence","zip":"65466","geo_score":0.952,"description":"Fortant Cabernet Sauvignon","num_searches":1.0,"id":"a69defvupsqq","geo_precision":"zip","source":"grappos.com","state":"MO"},"type":"Feature","geometry":{"type":"Point","coordinates":[-91.37458,37.140327]}},{"properties":{"city":"Solo","zip":"65564","geo_score":1.0,"description":"Fortant Cabernet Sauvignon","num_searches":1.0,"id":"a69defuvqakr","geo_precision":"zip","source":"grappos.com","state":"MO"},"type":"Feature","geometry":{"type":"Point","coordinates":[-91.962351,37.242824]}},{"properties":{"city":"South Greenfield","zip":"65752","geo_score":0.876,"description":"Fortant Cabernet Sauvignon","num_searches":1.0,"id":"a69defkgqejd","geo_precision":"zip","source":"grappos.com","state":"MO"},"type":"Feature","geometry":{"type":"Point","coordinates":[-93.834099,37.327272]}},{"properties":{"city":"Springfield","zip":"65899","geo_score":1.0,"description":"Fortant Cabernet Sauvignon","num_searches":1.0,"id":"a69defr1jzdq","geo_precision":"zip","source":"grappos.com","state":"MO"},"type":"Feature","geometry":{"type":"Point","coordinates":[-93.259586,37.181498]}},{"properties":{"city":"Southern Pines","zip":"28387","geo_score":0.868,"description":"Fortant Cabernet Sauvignon","num_searches":1.0,"id":"a69defyytzfk","geo_precision":"zip","source":"grappos.com","state":"NC"},"type":"Feature","geometry":{"type":"Point","coordinates":[-79.355585,35.20738]}},{"properties":{"city":"Elmwood","zip":"68349","geo_score":1.0,"description":"Fortant Cabernet Sauvignon","num_searches":2.0,"id":"a69defqhihg0","geo_precision":"zip","source":"grappos.com","state":"NE"},"type":"Feature","geometry":{"type":"Point","coordinates":[-96.323714,40.834419]}},{"properties":{"city":"Wilmot","zip":"3287","geo_score":0.943,"description":"Fortant Cabernet Sauvignon","num_searches":1.0,"id":"a69defxzo0is","geo_precision":"zip","source":"grappos.com","state":"NH"},"type":"Feature","geometry":{"type":"Point","coordinates":[-71.895082,43.417853]}},{"properties":{"city":"Georges Mills","zip":"3751","geo_score":1.0,"description":"Fortant Cabernet Sauvignon","num_searches":1.0,"id":"a69defn60dz4","geo_precision":"zip","source":"grappos.com","state":"NH"},"type":"Feature","geometry":{"type":"Point","coordinates":[-72.063675,43.44872]}},{"properties":{"city":"Alton","zip":"3809","geo_score":0.937,"description":"Fortant Cabernet Sauvignon","num_searches":1.0,"id":"a69defkx6jmh","geo_precision":"zip","source":"grappos.com","state":"NH"},"type":"Feature","geometry":{"type":"Point","coordinates":[-71.19979,43.518135]}},{"properties":{"city":"Hachita","zip":"88040","geo_score":1.0,"description":"Fortant Cabernet Sauvignon","num_searches":1.0,"id":"a69defwdvb67","geo_precision":"zip","source":"grappos.com","state":"NM"},"type":"Feature","geometry":{"type":"Point","coordinates":[-108.331605,31.890411]}},{"properties":{"city":"Las Vegas","zip":"89147","geo_score":1.0,"description":"Fortant Cabernet Sauvignon","num_searches":1.0,"id":"a69defopcwvq","geo_precision":"zip","source":"grappos.com","state":"NV"},"type":"Feature","geometry":{"type":"Point","coordinates":[-115.243814,36.159421]}},{"properties":{"city":"Portland","zip":"97210","geo_score":1.0,"description":"Fortant Cabernet Sauvignon","num_searches":2.0,"id":"a69defy79qb1","geo_precision":"zip","source":"grappos.com","state":"OR"},"type":"Feature","geometry":{"type":"Point","coordinates":[-122.732358,45.547339]}},{"properties":{"city":"Dayville","zip":"97825","geo_score":1.0,"description":"Fortant Cabernet Sauvignon","num_searches":1.0,"id":"a69defl64tpy","geo_precision":"zip","source":"grappos.com","state":"OR"},"type":"Feature","geometry":{"type":"Point","coordinates":[-119.533402,44.465268]}},{"properties":{"city":"Arecibo","zip":"613","geo_score":1.0,"description":"Fortant Cabernet Sauvignon","num_searches":2.0,"id":"a69defwkknd7","geo_precision":"zip","source":"grappos.com","state":"PR"},"type":"Feature","geometry":{"type":"Point","coordinates":[-66.732732,18.458093]}},{"properties":{"city":"Daisetta","zip":"77533","geo_score":1.0,"description":"Fortant Cabernet Sauvignon","num_searches":2.0,"id":"a69defv3ga1z","geo_precision":"zip","source":"grappos.com","state":"TX"},"type":"Feature","geometry":{"type":"Point","coordinates":[-94.856128,30.105083]}},{"properties":{"city":"Bellingham","zip":"98225","geo_score":0.952,"description":"Fortant Cabernet Sauvignon","num_searches":2.0,"id":"a69defvh2m4o","geo_precision":"zip","source":"grappos.com","state":"WA"},"type":"Feature","geometry":{"type":"Point","coordinates":[-122.489892,48.718997]}},{"properties":{"city":"Silverdale","zip":"98383","geo_score":0.87,"description":"Fortant Cabernet Sauvignon","num_searches":2.0,"id":"a69defu12ygh","geo_precision":"zip","source":"grappos.com","state":"WA"},"type":"Feature","geometry":{"type":"Point","coordinates":[-122.740432,47.693982]}},{"properties":{"city":"Chattaroy","zip":"99003","geo_score":0.873,"description":"Fortant Cabernet Sauvignon","num_searches":2.0,"id":"a69defysgfez","geo_precision":"zip","source":"grappos.com","state":"WA"},"type":"Feature","geometry":{"type":"Point","coordinates":[-117.331606,47.96684]}},{"properties":{"city":"Federal Way","zip":"98023","geo_score":1.0,"description":"Fortant Cabernet Sauvignon","num_searches":1.0,"id":"a69defxg1ltn","geo_precision":"zip","source":"grappos.com","state":"WA"},"type":"Feature","geometry":{"type":"Point","coordinates":[-122.240337,47.775627]}},{"properties":{"city":"Federal Way","zip":"98093","geo_score":1.0,"description":"Fortant Cabernet Sauvignon","num_searches":1.0,"id":"a69deflqcqhl","geo_precision":"zip","source":"grappos.com","state":"WA"},"type":"Feature","geometry":{"type":"Point","coordinates":[-122.113791,47.311041]}},{"properties":{"city":"Seattle","zip":"98129","geo_score":1.0,"description":"Fortant Cabernet Sauvignon","num_searches":1.0,"id":"a69defqcby9b","geo_precision":"zip","source":"grappos.com","state":"WA"},"type":"Feature","geometry":{"type":"Point","coordinates":[-121.803388,47.432251]}},{"properties":{"city":"Sedro Woolley","zip":"98284","geo_score":0.893,"description":"Fortant Cabernet Sauvignon","num_searches":1.0,"id":"a69defrwl3cb","geo_precision":"zip","source":"grappos.com","state":"WA"},"type":"Feature","geometry":{"type":"Point","coordinates":[-122.280714,48.492052]}},{"properties":{"city":"Glenwood","zip":"98619","geo_score":0.875,"description":"Fortant Cabernet Sauvignon","num_searches":1.0,"id":"a69defsol9a8","geo_precision":"zip","source":"grappos.com","state":"WA"},"type":"Feature","geometry":{"type":"Point","coordinates":[-121.380078,45.944011]}},{"properties":{"city":"Cowiche","zip":"98923","geo_score":1.0,"description":"Fortant Cabernet Sauvignon","num_searches":1.0,"id":"a69defwdw949","geo_precision":"zip","source":"grappos.com","state":"WA"},"type":"Feature","geometry":{"type":"Point","coordinates":[-120.753007,46.678192]}},{"properties":{"city":"Tumtum","zip":"99034","geo_score":1.0,"description":"Fortant Cabernet Sauvignon","num_searches":1.0,"id":"a69defs6jfms","geo_precision":"zip","source":"grappos.com","state":"WA"},"type":"Feature","geometry":{"type":"Point","coordinates":[-117.753629,47.894108]}},{"properties":{"city":"San Francisco","zip":"94109","geo_score":1.0,"description":"Fortant Chardonnay","num_searches":3.0,"id":"a69defq4frir","geo_precision":"zip","source":"grappos.com","state":"CA"},"type":"Feature","geometry":{"type":"Point","coordinates":[-122.420782,37.795219]}},{"properties":{"city":"Byron","zip":"94514","geo_score":0.869,"description":"Fortant Chardonnay","num_searches":2.0,"id":"a69defvaiugz","geo_precision":"zip","source":"grappos.com","state":"CA"},"type":"Feature","geometry":{"type":"Point","coordinates":[-121.600229,37.908536]}},{"properties":{"city":"Pasadena","zip":"91101","geo_score":1.0,"description":"Fortant Chardonnay","num_searches":1.0,"id":"a69defp9wjqg","geo_precision":"zip","source":"grappos.com","state":"CA"},"type":"Feature","geometry":{"type":"Point","coordinates":[-118.298662,33.786594]}},{"properties":{"city":"Fort Bragg","zip":"95437","geo_score":0.881,"description":"Fortant Chardonnay","num_searches":1.0,"id":"a69defqfout9","geo_precision":"zip","source":"grappos.com","state":"CA"},"type":"Feature","geometry":{"type":"Point","coordinates":[-123.690569,39.441]}},{"properties":{"city":"Hidden Valley Lake","zip":"95467","geo_score":0.875,"description":"Fortant Chardonnay","num_searches":1.0,"id":"a69defrittlh","geo_precision":"zip","source":"grappos.com","state":"CA"},"type":"Feature","geometry":{"type":"Point","coordinates":[-123.779468,39.944315]}},{"properties":{"city":"Whitmore","zip":"96096","geo_score":1.0,"description":"Fortant Chardonnay","num_searches":1.0,"id":"a69defvxfkxz","geo_precision":"zip","source":"grappos.com","state":"CA"},"type":"Feature","geometry":{"type":"Point","coordinates":[-121.86265,40.575131]}},{"properties":{"city":"Denver","zip":"80201","geo_score":1.0,"description":"Fortant Chardonnay","num_searches":1.0,"id":"a69defrogjf5","geo_precision":"zip","source":"grappos.com","state":"CO"},"type":"Feature","geometry":{"type":"Point","coordinates":[-104.856808,39.726303]}},{"properties":{"city":"Rehoboth Beach","zip":"19971","geo_score":0.89,"description":"Fortant Chardonnay","num_searches":1.0,"id":"a69defvb1az5","geo_precision":"zip","source":"grappos.com","state":"DE"},"type":"Feature","geometry":{"type":"Point","coordinates":[-75.08157,38.695945]}},{"properties":{"city":"Miami","zip":"33145","geo_score":1.0,"description":"Fortant Chardonnay","num_searches":1.0,"id":"a69defuv3ux2","geo_precision":"zip","source":"grappos.com","state":"FL"},"type":"Feature","geometry":{"type":"Point","coordinates":[-80.193659,25.774266]}},{"properties":{"city":"Kansas City","zip":"66111","geo_score":0.87,"description":"Fortant Chardonnay","num_searches":2.0,"id":"a69defz17m5e","geo_precision":"zip","source":"grappos.com","state":"KS"},"type":"Feature","geometry":{"type":"Point","coordinates":[-94.801629,39.062504]}},{"properties":{"city":"New Orleans","zip":"70139","geo_score":1.0,"description":"Fortant Chardonnay","num_searches":1.0,"id":"a69defu4uumn","geo_precision":"zip","source":"grappos.com","state":"LA"},"type":"Feature","geometry":{"type":"Point","coordinates":[-89.882564,30.032997]}},{"properties":{"city":"Dracut","zip":"1826","geo_score":0.886,"description":"Fortant Chardonnay","num_searches":1.0,"id":"a69defkqppc5","geo_precision":"zip","source":"grappos.com","state":"MA"},"type":"Feature","geometry":{"type":"Point","coordinates":[-71.366174,42.704257]}},{"properties":{"city":"Hawley","zip":"56549","geo_score":0.881,"description":"Fortant Chardonnay","num_searches":1.0,"id":"a69defrtqkpc","geo_precision":"zip","source":"grappos.com","state":"MN"},"type":"Feature","geometry":{"type":"Point","coordinates":[-96.238118,46.739958]}},{"properties":{"city":"Redby","zip":"56670","geo_score":1.0,"description":"Fortant Chardonnay","num_searches":1.0,"id":"a69defncutwx","geo_precision":"zip","source":"grappos.com","state":"MN"},"type":"Feature","geometry":{"type":"Point","coordinates":[-95.008708,47.974989]}},{"properties":{"city":"Saint Thomas","zip":"65076","geo_score":1.0,"description":"Fortant Chardonnay","num_searches":1.0,"id":"a69defoo6nuu","geo_precision":"zip","source":"grappos.com","state":"MO"},"type":"Feature","geometry":{"type":"Point","coordinates":[-92.317745,38.421857]}},{"properties":{"city":"Hartshorn","zip":"65479","geo_score":1.0,"description":"Fortant Chardonnay","num_searches":1.0,"id":"a69defqcax15","geo_precision":"zip","source":"grappos.com","state":"MO"},"type":"Feature","geometry":{"type":"Point","coordinates":[-91.73234,37.307074]}},{"properties":{"city":"Pittsburg","zip":"65724","geo_score":0.857,"description":"Fortant Chardonnay","num_searches":1.0,"id":"a69defw02mbi","geo_precision":"zip","source":"grappos.com","state":"MO"},"type":"Feature","geometry":{"type":"Point","coordinates":[-93.261862,37.876701]}},{"properties":{"city":"Stotts City","zip":"65756","geo_score":1.0,"description":"Fortant Chardonnay","num_searches":1.0,"id":"a69deftd5rab","geo_precision":"zip","source":"grappos.com","state":"MO"},"type":"Feature","geometry":{"type":"Point","coordinates":[-93.995261,37.104238]}},{"properties":{"city":"Southern Pines","zip":"28387","geo_score":0.868,"description":"Fortant Chardonnay","num_searches":1.0,"id":"a69defp58zf1","geo_precision":"zip","source":"grappos.com","state":"NC"},"type":"Feature","geometry":{"type":"Point","coordinates":[-79.355585,35.20738]}},{"properties":{"city":"Woodstock","zip":"3293","geo_score":1.0,"description":"Fortant Chardonnay","num_searches":1.0,"id":"a69defuwu5pp","geo_precision":"zip","source":"grappos.com","state":"NH"},"type":"Feature","geometry":{"type":"Point","coordinates":[-71.840883,43.967542]}},{"properties":{"city":"New York","zip":"10002","geo_score":1.0,"description":"Fortant Chardonnay","num_searches":1.0,"id":"a69defv7jjy7","geo_precision":"zip","source":"grappos.com","state":"NY"},"type":"Feature","geometry":{"type":"Point","coordinates":[-73.986427,40.718758]}},{"properties":{"city":"Madras","zip":"97741","geo_score":0.871,"description":"Fortant Chardonnay","num_searches":2.0,"id":"a69defq2at7q","geo_precision":"zip","source":"grappos.com","state":"OR"},"type":"Feature","geometry":{"type":"Point","coordinates":[-120.943098,44.805402]}},{"properties":{"city":"Corvallis","zip":"97331","geo_score":1.0,"description":"Fortant Chardonnay","num_searches":1.0,"id":"a69defmsgjop","geo_precision":"zip","source":"grappos.com","state":"OR"},"type":"Feature","geometry":{"type":"Point","coordinates":[-123.278957,44.565613]}},{"properties":{"city":"Eugene","zip":"97402","geo_score":1.0,"description":"Fortant Chardonnay","num_searches":1.0,"id":"a69defrtj627","geo_precision":"zip","source":"grappos.com","state":"OR"},"type":"Feature","geometry":{"type":"Point","coordinates":[-123.073186,44.033642]}},{"properties":{"city":"Boqueron","zip":"622","geo_score":1.0,"description":"Fortant Chardonnay","num_searches":1.0,"id":"a69defy7mnk3","geo_precision":"zip","source":"grappos.com","state":"PR"},"type":"Feature","geometry":{"type":"Point","coordinates":[-67.187318,17.998531]}},{"properties":{"city":"Caguas","zip":"726","geo_score":1.0,"description":"Fortant Chardonnay","num_searches":1.0,"id":"a69defl9dler","geo_precision":"zip","source":"grappos.com","state":"PR"},"type":"Feature","geometry":{"type":"Point","coordinates":[-66.058033,18.212965]}},{"properties":{"city":"Toa Baja","zip":"950","geo_score":1.0,"description":"Fortant Chardonnay","num_searches":1.0,"id":"a69defx6eu4l","geo_precision":"zip","source":"grappos.com","state":"PR"},"type":"Feature","geometry":{"type":"Point","coordinates":[-66.196503,18.457761]}},{"properties":{"city":"Houston","zip":"77243","geo_score":1.0,"description":"Fortant Chardonnay","num_searches":1.0,"id":"a69defkx1jpb","geo_precision":"zip","source":"grappos.com","state":"TX"},"type":"Feature","geometry":{"type":"Point","coordinates":[-95.434241,29.83399]}},{"properties":{"city":"Rock Island","zip":"77470","geo_score":1.0,"description":"Fortant Chardonnay","num_searches":1.0,"id":"a69defnd49mn","geo_precision":"zip","source":"grappos.com","state":"TX"},"type":"Feature","geometry":{"type":"Point","coordinates":[-96.524899,29.60466]}},{"properties":{"city":"Pasadena","zip":"77502","geo_score":1.0,"description":"Fortant Chardonnay","num_searches":1.0,"id":"a69defx2s4sm","geo_precision":"zip","source":"grappos.com","state":"TX"},"type":"Feature","geometry":{"type":"Point","coordinates":[-95.202911,29.678179]}},{"properties":{"city":"Devers","zip":"77538","geo_score":1.0,"description":"Fortant Chardonnay","num_searches":1.0,"id":"a69defsjlj0f","geo_precision":"zip","source":"grappos.com","state":"TX"},"type":"Feature","geometry":{"type":"Point","coordinates":[-94.723055,29.990724]}},{"properties":{"city":"Renton","zip":"98056","geo_score":0.889,"description":"Fortant Chardonnay","num_searches":2.0,"id":"a69deflaj3eg","geo_precision":"zip","source":"grappos.com","state":"WA"},"type":"Feature","geometry":{"type":"Point","coordinates":[-122.206789,47.520655]}},{"properties":{"city":"Spanaway","zip":"98387","geo_score":0.857,"description":"Fortant Chardonnay","num_searches":2.0,"id":"a69defpyvb9j","geo_precision":"zip","source":"grappos.com","state":"WA"},"type":"Feature","geometry":{"type":"Point","coordinates":[-122.409009,47.063988]}},{"properties":{"city":"North Lakewood","zip":"98259","geo_score":0.868,"description":"Fortant Chardonnay","num_searches":1.0,"id":"a69defwmp3ku","geo_precision":"zip","source":"grappos.com","state":"WA"},"type":"Feature","geometry":{"type":"Point","coordinates":[-122.202079,47.978985]}},{"properties":{"city":"Grandview","zip":"98930","geo_score":1.0,"description":"Fortant Chardonnay","num_searches":1.0,"id":"a69defkgrr79","geo_precision":"zip","source":"grappos.com","state":"WA"},"type":"Feature","geometry":{"type":"Point","coordinates":[-120.312088,46.45594]}},{"properties":{"city":"Milwaukee","zip":"53202","geo_score":1.0,"description":"Fortant Chardonnay","num_searches":1.0,"id":"a69defpo1sik","geo_precision":"zip","source":"grappos.com","state":"WI"},"type":"Feature","geometry":{"type":"Point","coordinates":[-87.894734,43.043213]}},{"properties":{"city":"Santa Monica","zip":"90401","geo_score":1.0,"description":"Fortant Kosher Cabernet Sauvignon","num_searches":2.0,"id":"a69defmv9ccr","geo_precision":"zip","source":"grappos.com","state":"CA"},"type":"Feature","geometry":{"type":"Point","coordinates":[-118.298662,33.786594]}},{"properties":{"city":"San Francisco","zip":"94109","geo_score":1.0,"description":"Fortant Kosher Cabernet Sauvignon","num_searches":2.0,"id":"a69deftl035j","geo_precision":"zip","source":"grappos.com","state":"CA"},"type":"Feature","geometry":{"type":"Point","coordinates":[-122.420782,37.795219]}},{"properties":{"city":"Hayward","zip":"94542","geo_score":0.875,"description":"Fortant Kosher Cabernet Sauvignon","num_searches":2.0,"id":"a69defnqxyzw","geo_precision":"zip","source":"grappos.com","state":"CA"},"type":"Feature","geometry":{"type":"Point","coordinates":[-122.045795,37.678542]}},{"properties":{"city":"Hollister","zip":"95024","geo_score":1.0,"description":"Fortant Kosher Cabernet Sauvignon","num_searches":1.0,"id":"a69defsgrq85","geo_precision":"zip","source":"grappos.com","state":"CA"},"type":"Feature","geometry":{"type":"Point","coordinates":[-121.411909,36.85443]}},{"properties":{"city":"Santa Rosa","zip":"95407","geo_score":0.873,"description":"Fortant Kosher Cabernet Sauvignon","num_searches":1.0,"id":"a69defvollh7","geo_precision":"zip","source":"grappos.com","state":"CA"},"type":"Feature","geometry":{"type":"Point","coordinates":[-122.714154,38.367136]}},{"properties":{"city":"Dunnigan","zip":"95937","geo_score":1.0,"description":"Fortant Kosher Cabernet Sauvignon","num_searches":1.0,"id":"a69defp943fh","geo_precision":"zip","source":"grappos.com","state":"CA"},"type":"Feature","geometry":{"type":"Point","coordinates":[-122.057921,38.835384]}},{"properties":{"city":"Dania","zip":"33004","geo_score":0.929,"description":"Fortant Kosher Cabernet Sauvignon","num_searches":1.0,"id":"a69defp32g1a","geo_precision":"zip","source":"grappos.com","state":"FL"},"type":"Feature","geometry":{"type":"Point","coordinates":[-80.143934,26.052311]}},{"properties":{"city":"Miami","zip":"33145","geo_score":1.0,"description":"Fortant Kosher Cabernet Sauvignon","num_searches":1.0,"id":"a69defsbi7ni","geo_precision":"zip","source":"grappos.com","state":"FL"},"type":"Feature","geometry":{"type":"Point","coordinates":[-80.193659,25.774266]}},{"properties":{"city":"Honomu","zip":"96728","geo_score":1.0,"description":"Fortant Kosher Cabernet Sauvignon","num_searches":1.0,"id":"a69defo3ar7f","geo_precision":"zip","source":"grappos.com","state":"HI"},"type":"Feature","geometry":{"type":"Point","coordinates":[-155.438015,19.593456]}},{"properties":{"city":"Blue Mound","zip":"66010","geo_score":1.0,"description":"Fortant Kosher Cabernet Sauvignon","num_searches":1.0,"id":"a69defxadaae","geo_precision":"zip","source":"grappos.com","state":"KS"},"type":"Feature","geometry":{"type":"Point","coordinates":[-95.007693,38.089756]}},{"properties":{"city":"Gypsum","zip":"67448","geo_score":1.0,"description":"Fortant Kosher Cabernet Sauvignon","num_searches":1.0,"id":"a69defw388qp","geo_precision":"zip","source":"grappos.com","state":"KS"},"type":"Feature","geometry":{"type":"Point","coordinates":[-97.492119,38.710913]}},{"properties":{"city":"Lafayette","zip":"70502","geo_score":1.0,"description":"Fortant Kosher Cabernet Sauvignon","num_searches":1.0,"id":"a69defnjnmif","geo_precision":"zip","source":"grappos.com","state":"LA"},"type":"Feature","geometry":{"type":"Point","coordinates":[-92.026969,30.319799]}},{"properties":{"city":"Lake Providence","zip":"71254","geo_score":0.878,"description":"Fortant Kosher Cabernet Sauvignon","num_searches":1.0,"id":"a69defj3iu3c","geo_precision":"zip","source":"grappos.com","state":"LA"},"type":"Feature","geometry":{"type":"Point","coordinates":[-91.225666,32.884294]}},{"properties":{"city":"Jonesville","zip":"71343","geo_score":0.857,"description":"Fortant Kosher Cabernet Sauvignon","num_searches":1.0,"id":"a69defl6343z","geo_precision":"zip","source":"grappos.com","state":"LA"},"type":"Feature","geometry":{"type":"Point","coordinates":[-91.995963,31.547397]}},{"properties":{"city":"South Lee","zip":"1260","geo_score":1.0,"description":"Fortant Kosher Cabernet Sauvignon","num_searches":2.0,"id":"a69defyzod6v","geo_precision":"zip","source":"grappos.com","state":"MA"},"type":"Feature","geometry":{"type":"Point","coordinates":[-73.313274,42.286586]}},{"properties":{"city":"Northfield","zip":"1360","geo_score":0.959,"description":"Fortant Kosher Cabernet Sauvignon","num_searches":1.0,"id":"a69defj1fl52","geo_precision":"zip","source":"grappos.com","state":"MA"},"type":"Feature","geometry":{"type":"Point","coordinates":[-72.438421,42.69314]}},{"properties":{"city":"Marlborough","zip":"1752","geo_score":1.0,"description":"Fortant Kosher Cabernet Sauvignon","num_searches":1.0,"id":"a69deflb9xuq","geo_precision":"zip","source":"grappos.com","state":"MA"},"type":"Feature","geometry":{"type":"Point","coordinates":[-71.459405,42.446396]}},{"properties":{"city":"Dunstable","zip":"1827","geo_score":1.0,"description":"Fortant Kosher Cabernet Sauvignon","num_searches":1.0,"id":"a69defs8h9qh","geo_precision":"zip","source":"grappos.com","state":"MA"},"type":"Feature","geometry":{"type":"Point","coordinates":[-71.459405,42.446396]}},{"properties":{"city":"Plymouth","zip":"2362","geo_score":1.0,"description":"Fortant Kosher Cabernet Sauvignon","num_searches":1.0,"id":"a69defyfgzus","geo_precision":"zip","source":"grappos.com","state":"MA"},"type":"Feature","geometry":{"type":"Point","coordinates":[-70.701357,41.970474]}},{"properties":{"city":"Passadumkeag","zip":"4475","geo_score":1.0,"description":"Fortant Kosher Cabernet Sauvignon","num_searches":1.0,"id":"a69defxaqxf9","geo_precision":"zip","source":"grappos.com","state":"ME"},"type":"Feature","geometry":{"type":"Point","coordinates":[-68.618775,45.040668]}},{"properties":{"city":"Jonesport","zip":"4649","geo_score":0.956,"description":"Fortant Kosher Cabernet Sauvignon","num_searches":1.0,"id":"a69defz4dphi","geo_precision":"zip","source":"grappos.com","state":"ME"},"type":"Feature","geometry":{"type":"Point","coordinates":[-67.621105,44.528968]}},{"properties":{"city":"Lockwood","zip":"65682","geo_score":0.857,"description":"Fortant Kosher Cabernet Sauvignon","num_searches":2.0,"id":"a69defn1x2q4","geo_precision":"zip","source":"grappos.com","state":"MO"},"type":"Feature","geometry":{"type":"Point","coordinates":[-94.022719,37.507823]}},{"properties":{"city":"Butler","zip":"64730","geo_score":0.857,"description":"Fortant Kosher Cabernet Sauvignon","num_searches":1.0,"id":"a69defq5qrzi","geo_precision":"zip","source":"grappos.com","state":"MO"},"type":"Feature","geometry":{"type":"Point","coordinates":[-94.495787,38.266968]}},{"properties":{"city":"Summersville","zip":"65571","geo_score":0.869,"description":"Fortant Kosher Cabernet Sauvignon","num_searches":1.0,"id":"a69defn4u8p6","geo_precision":"zip","source":"grappos.com","state":"MO"},"type":"Feature","geometry":{"type":"Point","coordinates":[-91.658754,37.091996]}},{"properties":{"city":"Strafford","zip":"65757","geo_score":1.0,"description":"Fortant Kosher Cabernet Sauvignon","num_searches":1.0,"id":"a69defjzahbs","geo_precision":"zip","source":"grappos.com","state":"MO"},"type":"Feature","geometry":{"type":"Point","coordinates":[-93.307207,37.310494]}},{"properties":{"city":"Chester","zip":"68327","geo_score":1.0,"description":"Fortant Kosher Cabernet Sauvignon","num_searches":1.0,"id":"a69defru2whv","geo_precision":"zip","source":"grappos.com","state":"NE"},"type":"Feature","geometry":{"type":"Point","coordinates":[-97.617985,40.00937]}},{"properties":{"city":"North Las Vegas","zip":"89087","geo_score":0.802,"description":"Fortant Kosher Cabernet Sauvignon","num_searches":1.0,"id":"a69defqgy17l","geo_precision":"city","source":"grappos.com","state":"NV"},"type":"Feature","geometry":{"type":"Point","coordinates":[-115.137223,36.174971]}},{"properties":{"city":"Dillard","zip":"97432","geo_score":1.0,"description":"Fortant Kosher Cabernet Sauvignon","num_searches":2.0,"id":"a69defmdgz5m","geo_precision":"zip","source":"grappos.com","state":"OR"},"type":"Feature","geometry":{"type":"Point","coordinates":[-123.418068,43.113502]}},{"properties":{"city":"Haines","zip":"97833","geo_score":0.873,"description":"Fortant Kosher Cabernet Sauvignon","num_searches":2.0,"id":"a69defzil7pr","geo_precision":"zip","source":"grappos.com","state":"OR"},"type":"Feature","geometry":{"type":"Point","coordinates":[-118.035774,44.914032]}},{"properties":{"city":"Westlake","zip":"97493","geo_score":0.875,"description":"Fortant Kosher Cabernet Sauvignon","num_searches":1.0,"id":"a69defxh7zc2","geo_precision":"zip","source":"grappos.com","state":"OR"},"type":"Feature","geometry":{"type":"Point","coordinates":[-124.035392,43.927899]}},{"properties":{"city":"Houston","zip":"77009","geo_score":1.0,"description":"Fortant Kosher Cabernet Sauvignon","num_searches":1.0,"id":"a69defugjgnn","geo_precision":"zip","source":"grappos.com","state":"TX"},"type":"Feature","geometry":{"type":"Point","coordinates":[-95.434241,29.83399]}},{"properties":{"city":"Houston","zip":"77035","geo_score":1.0,"description":"Fortant Kosher Cabernet Sauvignon","num_searches":1.0,"id":"a69defo20qpx","geo_precision":"zip","source":"grappos.com","state":"TX"},"type":"Feature","geometry":{"type":"Point","coordinates":[-95.434241,29.83399]}},{"properties":{"city":"Houston","zip":"77061","geo_score":1.0,"description":"Fortant Kosher Cabernet Sauvignon","num_searches":1.0,"id":"a69defrcwbsc","geo_precision":"zip","source":"grappos.com","state":"TX"},"type":"Feature","geometry":{"type":"Point","coordinates":[-95.28316,29.65688]}},{"properties":{"city":"Houston","zip":"77087","geo_score":1.0,"description":"Fortant Kosher Cabernet Sauvignon","num_searches":1.0,"id":"a69defv641w4","geo_precision":"zip","source":"grappos.com","state":"TX"},"type":"Feature","geometry":{"type":"Point","coordinates":[-95.297913,29.676829]}},{"properties":{"city":"Steilacoom","zip":"98388","geo_score":1.0,"description":"Fortant Kosher Cabernet Sauvignon","num_searches":2.0,"id":"a69defvb4imf","geo_precision":"zip","source":"grappos.com","state":"WA"},"type":"Feature","geometry":{"type":"Point","coordinates":[-122.331781,47.132671]}},{"properties":{"city":"Bucoda","zip":"98530","geo_score":1.0,"description":"Fortant Kosher Cabernet Sauvignon","num_searches":1.0,"id":"a69defud11zr","geo_precision":"zip","source":"grappos.com","state":"WA"},"type":"Feature","geometry":{"type":"Point","coordinates":[-122.871798,46.798216]}},{"properties":{"city":"Elk","zip":"99009","geo_score":1.0,"description":"Fortant Kosher Cabernet Sauvignon","num_searches":1.0,"id":"a69defs4w5f8","geo_precision":"zip","source":"grappos.com","state":"WA"},"type":"Feature","geometry":{"type":"Point","coordinates":[-117.26615,47.992362]}},{"properties":{"city":"Addy","zip":"99101","geo_score":1.0,"description":"Fortant Kosher Cabernet Sauvignon","num_searches":1.0,"id":"a69defjw828i","geo_precision":"zip","source":"grappos.com","state":"WA"},"type":"Feature","geometry":{"type":"Point","coordinates":[-117.957926,48.336378]}},{"properties":{"city":"Milwaukee","zip":"53211","geo_score":0.857,"description":"Fortant Kosher Cabernet Sauvignon","num_searches":1.0,"id":"a69defmk1xga","geo_precision":"zip","source":"grappos.com","state":"WI"},"type":"Feature","geometry":{"type":"Point","coordinates":[-87.887585,43.089179]}},{"properties":{"city":"San Francisco","zip":"94109","geo_score":1.0,"description":"Fortant Kosher Chardonnay","num_searches":2.0,"id":"a69defsr1ajz","geo_precision":"zip","source":"grappos.com","state":"CA"},"type":"Feature","geometry":{"type":"Point","coordinates":[-122.420782,37.795219]}},{"properties":{"city":"Sunnyvale","zip":"94089","geo_score":1.0,"description":"Fortant Kosher Chardonnay","num_searches":1.0,"id":"a69defwyoaoe","geo_precision":"zip","source":"grappos.com","state":"CA"},"type":"Feature","geometry":{"type":"Point","coordinates":[-121.705327,37.189396]}},{"properties":{"city":"San Francisco","zip":"94127","geo_score":1.0,"description":"Fortant Kosher Chardonnay","num_searches":1.0,"id":"a69defq7ghlu","geo_precision":"zip","source":"grappos.com","state":"CA"},"type":"Feature","geometry":{"type":"Point","coordinates":[-122.458632,37.73403]}},{"properties":{"city":"San Jose","zip":"95125","geo_score":1.0,"description":"Fortant Kosher Chardonnay","num_searches":1.0,"id":"a69defw83853","geo_precision":"zip","source":"grappos.com","state":"CA"},"type":"Feature","geometry":{"type":"Point","coordinates":[-121.705327,37.189396]}},{"properties":{"city":"San Andreas","zip":"95249","geo_score":0.922,"description":"Fortant Kosher Chardonnay","num_searches":1.0,"id":"a69defkw1plf","geo_precision":"zip","source":"grappos.com","state":"CA"},"type":"Feature","geometry":{"type":"Point","coordinates":[-120.609928,38.157975]}},{"properties":{"city":"Represa","zip":"95671","geo_score":1.0,"description":"Fortant Kosher Chardonnay","num_searches":1.0,"id":"a69deflumu11","geo_precision":"zip","source":"grappos.com","state":"CA"},"type":"Feature","geometry":{"type":"Point","coordinates":[-121.444429,38.377411]}},{"properties":{"city":"Denver","zip":"80201","geo_score":1.0,"description":"Fortant Kosher Chardonnay","num_searches":1.0,"id":"a69defzie9xr","geo_precision":"zip","source":"grappos.com","state":"CO"},"type":"Feature","geometry":{"type":"Point","coordinates":[-104.856808,39.726303]}},{"properties":{"city":"Dania","zip":"33004","geo_score":0.929,"description":"Fortant Kosher Chardonnay","num_searches":1.0,"id":"a69deftnmlyx","geo_precision":"zip","source":"grappos.com","state":"FL"},"type":"Feature","geometry":{"type":"Point","coordinates":[-80.143934,26.052311]}},{"properties":{"city":"Yale","zip":"62481","geo_score":1.0,"description":"Fortant Kosher Chardonnay","num_searches":2.0,"id":"a69defx9soei","geo_precision":"zip","source":"grappos.com","state":"IL"},"type":"Feature","geometry":{"type":"Point","coordinates":[-88.157258,39.121515]}},{"properties":{"city":"Kansas City","zip":"66119","geo_score":1.0,"description":"Fortant Kosher Chardonnay","num_searches":1.0,"id":"a69defyhx4vd","geo_precision":"zip","source":"grappos.com","state":"KS"},"type":"Feature","geometry":{"type":"Point","coordinates":[-94.749538,39.096551]}},{"properties":{"city":"Worcester","zip":"1654","geo_score":1.0,"description":"Fortant Kosher Chardonnay","num_searches":1.0,"id":"a69defw37dfa","geo_precision":"zip","source":"grappos.com","state":"MA"},"type":"Feature","geometry":{"type":"Point","coordinates":[-71.896868,42.364807]}},{"properties":{"city":"Edgecomb","zip":"4556","geo_score":0.878,"description":"Fortant Kosher Chardonnay","num_searches":1.0,"id":"a69defqslen3","geo_precision":"zip","source":"grappos.com","state":"ME"},"type":"Feature","geometry":{"type":"Point","coordinates":[-69.612269,44.003134]}},{"properties":{"city":"Comstock","zip":"56525","geo_score":1.0,"description":"Fortant Kosher Chardonnay","num_searches":1.0,"id":"a69defkuu3dy","geo_precision":"zip","source":"grappos.com","state":"MN"},"type":"Feature","geometry":{"type":"Point","coordinates":[-96.506156,46.890034]}},{"properties":{"city":"Polo","zip":"64671","geo_score":0.871,"description":"Fortant Kosher Chardonnay","num_searches":1.0,"id":"a69defwk2ogv","geo_precision":"zip","source":"grappos.com","state":"MO"},"type":"Feature","geometry":{"type":"Point","coordinates":[-93.957994,39.484455]}},{"properties":{"city":"Tuscumbia","zip":"65082","geo_score":0.873,"description":"Fortant Kosher Chardonnay","num_searches":1.0,"id":"a69defxh06zy","geo_precision":"zip","source":"grappos.com","state":"MO"},"type":"Feature","geometry":{"type":"Point","coordinates":[-92.321012,38.242258]}},{"properties":{"city":"Moberly","zip":"65270","geo_score":0.889,"description":"Fortant Kosher Chardonnay","num_searches":1.0,"id":"a69defq3lsit","geo_precision":"zip","source":"grappos.com","state":"MO"},"type":"Feature","geometry":{"type":"Point","coordinates":[-92.44407,39.395036]}},{"properties":{"city":"Couch","zip":"65690","geo_score":0.857,"description":"Fortant Kosher Chardonnay","num_searches":1.0,"id":"a69defl6kcyz","geo_precision":"zip","source":"grappos.com","state":"MO"},"type":"Feature","geometry":{"type":"Point","coordinates":[-91.215132,36.562839]}},{"properties":{"city":"Powell","zip":"65730","geo_score":1.0,"description":"Fortant Kosher Chardonnay","num_searches":1.0,"id":"a69deftnj0fq","geo_precision":"zip","source":"grappos.com","state":"MO"},"type":"Feature","geometry":{"type":"Point","coordinates":[-94.342802,36.632573]}},{"properties":{"city":"Tunas","zip":"65764","geo_score":0.886,"description":"Fortant Kosher Chardonnay","num_searches":1.0,"id":"a69defuvkrua","geo_precision":"zip","source":"grappos.com","state":"MO"},"type":"Feature","geometry":{"type":"Point","coordinates":[-92.975463,37.74865]}},{"properties":{"city":"Willow Springs","zip":"65793","geo_score":0.945,"description":"Fortant Kosher Chardonnay","num_searches":1.0,"id":"a69defv6vjq6","geo_precision":"zip","source":"grappos.com","state":"MO"},"type":"Feature","geometry":{"type":"Point","coordinates":[-91.850427,37.108385]}},{"properties":{"city":"Ely","zip":"89315","geo_score":0.918,"description":"Fortant Kosher Chardonnay","num_searches":1.0,"id":"a69defjlcjq5","geo_precision":"zip","source":"grappos.com","state":"NV"},"type":"Feature","geometry":{"type":"Point","coordinates":[-114.869185,39.254939]}},{"properties":{"city":"Warren","zip":"97053","geo_score":1.0,"description":"Fortant Kosher Chardonnay","num_searches":1.0,"id":"a69defmddirn","geo_precision":"zip","source":"grappos.com","state":"OR"},"type":"Feature","geometry":{"type":"Point","coordinates":[-122.874601,45.824213]}},{"properties":{"city":"Portland","zip":"97215","geo_score":1.0,"description":"Fortant Kosher Chardonnay","num_searches":1.0,"id":"a69deflewni5","geo_precision":"zip","source":"grappos.com","state":"OR"},"type":"Feature","geometry":{"type":"Point","coordinates":[-122.599104,45.51894]}},{"properties":{"city":"Yachats","zip":"97498","geo_score":0.881,"description":"Fortant Kosher Chardonnay","num_searches":1.0,"id":"a69defmlnnmo","geo_precision":"zip","source":"grappos.com","state":"OR"},"type":"Feature","geometry":{"type":"Point","coordinates":[-124.108453,44.232343]}},{"properties":{"city":"San Juan","zip":"920","geo_score":0.87,"description":"Fortant Kosher Chardonnay","num_searches":1.0,"id":"a69defroo634","geo_precision":"zip","source":"grappos.com","state":"PR"},"type":"Feature","geometry":{"type":"Point","coordinates":[-66.081833,18.411614]}},{"properties":{"city":"Bayamon","zip":"956","geo_score":1.0,"description":"Fortant Kosher Chardonnay","num_searches":1.0,"id":"a69defmutlpb","geo_precision":"zip","source":"grappos.com","state":"PR"},"type":"Feature","geometry":{"type":"Point","coordinates":[-66.174176,18.326702]}},{"properties":{"city":"Houston","zip":"77014","geo_score":1.0,"description":"Fortant Kosher Chardonnay","num_searches":1.0,"id":"a69defqvad6m","geo_precision":"zip","source":"grappos.com","state":"TX"},"type":"Feature","geometry":{"type":"Point","coordinates":[-95.434241,29.83399]}},{"properties":{"city":"Houston","zip":"77092","geo_score":1.0,"description":"Fortant Kosher Chardonnay","num_searches":1.0,"id":"a69defqbwg3y","geo_precision":"zip","source":"grappos.com","state":"TX"},"type":"Feature","geometry":{"type":"Point","coordinates":[-95.434241,29.83399]}},{"properties":{"city":"Houston","zip":"77221","geo_score":0.883,"description":"Fortant Kosher Chardonnay","num_searches":1.0,"id":"a69defy8tzwh","geo_precision":"zip","source":"grappos.com","state":"TX"},"type":"Feature","geometry":{"type":"Point","coordinates":[-95.351883,29.694397]}},{"properties":{"city":"Houston","zip":"77276","geo_score":0.816,"description":"Fortant Kosher Chardonnay","num_searches":1.0,"id":"a69defpqjblk","geo_precision":"city","source":"grappos.com","state":"TX"},"type":"Feature","geometry":{"type":"Point","coordinates":[-96.919704,29.845783]}},{"properties":{"city":"Bainbridge Island","zip":"98110","geo_score":0.875,"description":"Fortant Kosher Chardonnay","num_searches":1.0,"id":"a69defx3rjcf","geo_precision":"zip","source":"grappos.com","state":"WA"},"type":"Feature","geometry":{"type":"Point","coordinates":[-122.575693,47.618985]}},{"properties":{"city":"Clinton","zip":"98236","geo_score":0.89,"description":"Fortant Kosher Chardonnay","num_searches":1.0,"id":"a69defte57mm","geo_precision":"zip","source":"grappos.com","state":"WA"},"type":"Feature","geometry":{"type":"Point","coordinates":[-122.480424,47.990926]}},{"properties":{"city":"Snohomish","zip":"98296","geo_score":1.0,"description":"Fortant Kosher Chardonnay","num_searches":1.0,"id":"a69defwrgp4y","geo_precision":"zip","source":"grappos.com","state":"WA"},"type":"Feature","geometry":{"type":"Point","coordinates":[-122.092025,47.857915]}},{"properties":{"city":"Lakewood","zip":"98498","geo_score":1.0,"description":"Fortant Kosher Chardonnay","num_searches":1.0,"id":"a69defv0qz3g","geo_precision":"zip","source":"grappos.com","state":"WA"},"type":"Feature","geometry":{"type":"Point","coordinates":[-122.548486,47.159149]}},{"properties":{"city":"Naches","zip":"98937","geo_score":0.857,"description":"Fortant Kosher Chardonnay","num_searches":1.0,"id":"a69deflbb19h","geo_precision":"zip","source":"grappos.com","state":"WA"},"type":"Feature","geometry":{"type":"Point","coordinates":[-121.12508,46.664284]}},{"properties":{"city":"Liberty Lake","zip":"99019","geo_score":1.0,"description":"Fortant Kosher Chardonnay","num_searches":1.0,"id":"a69defttzxf2","geo_precision":"zip","source":"grappos.com","state":"WA"},"type":"Feature","geometry":{"type":"Point","coordinates":[-117.085845,47.651635]}},{"properties":{"city":"San Francisco","zip":"94109","geo_score":1.0,"description":"Fortant Kosher Merlot","num_searches":3.0,"id":"a69deftplqq7","geo_precision":"zip","source":"grappos.com","state":"CA"},"type":"Feature","geometry":{"type":"Point","coordinates":[-122.420782,37.795219]}},{"properties":{"city":"Concord","zip":"94521","geo_score":1.0,"description":"Fortant Kosher Merlot","num_searches":1.0,"id":"a69defkccvbc","geo_precision":"zip","source":"grappos.com","state":"CA"},"type":"Feature","geometry":{"type":"Point","coordinates":[-121.960045,37.951661]}},{"properties":{"city":"Stockton","zip":"95219","geo_score":1.0,"description":"Fortant Kosher Merlot","num_searches":1.0,"id":"a69defu8uydm","geo_precision":"zip","source":"grappos.com","state":"CA"},"type":"Feature","geometry":{"type":"Point","coordinates":[-121.455259,38.001613]}},{"properties":{"city":"Courtland","zip":"95615","geo_score":0.868,"description":"Fortant Kosher Merlot","num_searches":1.0,"id":"a69defsdly4m","geo_precision":"zip","source":"grappos.com","state":"CA"},"type":"Feature","geometry":{"type":"Point","coordinates":[-121.576066,38.319912]}},{"properties":{"city":"Rescue","zip":"95672","geo_score":1.0,"description":"Fortant Kosher Merlot","num_searches":1.0,"id":"a69deflmtdru","geo_precision":"zip","source":"grappos.com","state":"CA"},"type":"Feature","geometry":{"type":"Point","coordinates":[-120.994305,38.718327]}},{"properties":{"city":"Palo Cedro","zip":"96073","geo_score":1.0,"description":"Fortant Kosher Merlot","num_searches":1.0,"id":"a69defrmx19m","geo_precision":"zip","source":"grappos.com","state":"CA"},"type":"Feature","geometry":{"type":"Point","coordinates":[-122.201552,40.56844]}},{"properties":{"city":"Lanai City","zip":"96763","geo_score":0.857,"description":"Fortant Kosher Merlot","num_searches":1.0,"id":"a69defw2qtnc","geo_precision":"zip","source":"grappos.com","state":"HI"},"type":"Feature","geometry":{"type":"Point","coordinates":[-156.920278,20.839722]}},{"properties":{"city":"Denton","zip":"66017","geo_score":1.0,"description":"Fortant Kosher Merlot","num_searches":1.0,"id":"a69defopd0fh","geo_precision":"zip","source":"grappos.com","state":"KS"},"type":"Feature","geometry":{"type":"Point","coordinates":[-95.103098,39.70398]}},{"properties":{"city":"Haverhill","zip":"1835","geo_score":0.937,"description":"Fortant Kosher Merlot","num_searches":2.0,"id":"a69defptszq7","geo_precision":"zip","source":"grappos.com","state":"MA"},"type":"Feature","geometry":{"type":"Point","coordinates":[-71.103669,42.756757]}},{"properties":{"city":"South Deerfield","zip":"1373","geo_score":1.0,"description":"Fortant Kosher Merlot","num_searches":1.0,"id":"a69defl39krl","geo_precision":"zip","source":"grappos.com","state":"MA"},"type":"Feature","geometry":{"type":"Point","coordinates":[-72.682346,42.464522]}},{"properties":{"city":"Groton","zip":"1470","geo_score":1.0,"description":"Fortant Kosher Merlot","num_searches":1.0,"id":"a69defrlr5i5","geo_precision":"zip","source":"grappos.com","state":"MA"},"type":"Feature","geometry":{"type":"Point","coordinates":[-71.459405,42.446396]}},{"properties":{"city":"Linwood","zip":"1525","geo_score":1.0,"description":"Fortant Kosher Merlot","num_searches":1.0,"id":"a69defpqxbqg","geo_precision":"zip","source":"grappos.com","state":"MA"},"type":"Feature","geometry":{"type":"Point","coordinates":[-71.896868,42.364807]}},{"properties":{"city":"Melrose","zip":"2176","geo_score":0.857,"description":"Fortant Kosher Merlot","num_searches":1.0,"id":"a69defqljxyk","geo_precision":"zip","source":"grappos.com","state":"MA"},"type":"Feature","geometry":{"type":"Point","coordinates":[-71.068941,42.454263]}},{"properties":{"city":"Halifax","zip":"2338","geo_score":1.0,"description":"Fortant Kosher Merlot","num_searches":1.0,"id":"a69deftmcxl1","geo_precision":"zip","source":"grappos.com","state":"MA"},"type":"Feature","geometry":{"type":"Point","coordinates":[-70.860578,41.988351]}},{"properties":{"city":"Cummaquid","zip":"2637","geo_score":1.0,"description":"Fortant Kosher Merlot","num_searches":1.0,"id":"a69defkygvpl","geo_precision":"zip","source":"grappos.com","state":"MA"},"type":"Feature","geometry":{"type":"Point","coordinates":[-70.277212,41.701438]}},{"properties":{"city":"Springfield","zip":"4487","geo_score":0.909,"description":"Fortant Kosher Merlot","num_searches":1.0,"id":"a69defrjj4u0","geo_precision":"zip","source":"grappos.com","state":"ME"},"type":"Feature","geometry":{"type":"Point","coordinates":[-68.081681,45.491731]}},{"properties":{"city":"Gilliam","zip":"65330","geo_score":0.873,"description":"Fortant Kosher Merlot","num_searches":1.0,"id":"a69defkf4phb","geo_precision":"zip","source":"grappos.com","state":"MO"},"type":"Feature","geometry":{"type":"Point","coordinates":[-92.948802,39.257805]}},{"properties":{"city":"Boss","zip":"65440","geo_score":1.0,"description":"Fortant Kosher Merlot","num_searches":1.0,"id":"a69defky8tup","geo_precision":"zip","source":"grappos.com","state":"MO"},"type":"Feature","geometry":{"type":"Point","coordinates":[-91.652493,37.612779]}},{"properties":{"city":"Galena","zip":"65656","geo_score":0.873,"description":"Fortant Kosher Merlot","num_searches":1.0,"id":"a69defxvj50p","geo_precision":"zip","source":"grappos.com","state":"MO"},"type":"Feature","geometry":{"type":"Point","coordinates":[-93.370743,36.839781]}},{"properties":{"city":"Turners","zip":"65765","geo_score":1.0,"description":"Fortant Kosher Merlot","num_searches":1.0,"id":"a69deflidiaq","geo_precision":"zip","source":"grappos.com","state":"MO"},"type":"Feature","geometry":{"type":"Point","coordinates":[-93.343673,37.25807]}},{"properties":{"city":"Crete","zip":"68333","geo_score":0.905,"description":"Fortant Kosher Merlot","num_searches":1.0,"id":"a69defora5y8","geo_precision":"zip","source":"grappos.com","state":"NE"},"type":"Feature","geometry":{"type":"Point","coordinates":[-96.875304,40.588337]}},{"properties":{"city":"Greenfield","zip":"3047","geo_score":1.0,"description":"Fortant Kosher Merlot","num_searches":1.0,"id":"a69defmfbg77","geo_precision":"zip","source":"grappos.com","state":"NH"},"type":"Feature","geometry":{"type":"Point","coordinates":[-71.859087,42.929346]}},{"properties":{"city":"Franklin","zip":"3235","geo_score":0.869,"description":"Fortant Kosher Merlot","num_searches":1.0,"id":"a69defphblqt","geo_precision":"zip","source":"grappos.com","state":"NH"},"type":"Feature","geometry":{"type":"Point","coordinates":[-71.654799,43.406466]}},{"properties":{"city":"Westmoreland","zip":"3467","geo_score":1.0,"description":"Fortant Kosher Merlot","num_searches":1.0,"id":"a69defs9stm9","geo_precision":"zip","source":"grappos.com","state":"NH"},"type":"Feature","geometry":{"type":"Point","coordinates":[-72.44256,42.973867]}},{"properties":{"city":"Riley","zip":"97758","geo_score":1.0,"description":"Fortant Kosher Merlot","num_searches":2.0,"id":"a69defvboc3t","geo_precision":"zip","source":"grappos.com","state":"OR"},"type":"Feature","geometry":{"type":"Point","coordinates":[-119.069624,43.019785]}},{"properties":{"city":"Yoncalla","zip":"97499","geo_score":0.875,"description":"Fortant Kosher Merlot","num_searches":1.0,"id":"a69defvgtj2t","geo_precision":"zip","source":"grappos.com","state":"OR"},"type":"Feature","geometry":{"type":"Point","coordinates":[-123.360643,43.59873]}},{"properties":{"city":"Lexington","zip":"97839","geo_score":0.873,"description":"Fortant Kosher Merlot","num_searches":1.0,"id":"a69defz86djp","geo_precision":"zip","source":"grappos.com","state":"OR"},"type":"Feature","geometry":{"type":"Point","coordinates":[-119.68669,45.263467]}},{"properties":{"city":"Ciales","zip":"638","geo_score":1.0,"description":"Fortant Kosher Merlot","num_searches":2.0,"id":"a69defn3u2c5","geo_precision":"zip","source":"grappos.com","state":"PR"},"type":"Feature","geometry":{"type":"Point","coordinates":[-66.472087,18.33616]}},{"properties":{"city":"San Antonio","zip":"690","geo_score":1.0,"description":"Fortant Kosher Merlot","num_searches":2.0,"id":"a69defucra8o","geo_precision":"zip","source":"grappos.com","state":"PR"},"type":"Feature","geometry":{"type":"Point","coordinates":[-67.139597,18.476196]}},{"properties":{"city":"Ponce","zip":"733","geo_score":1.0,"description":"Fortant Kosher Merlot","num_searches":1.0,"id":"a69defuy9ub9","geo_precision":"zip","source":"grappos.com","state":"PR"},"type":"Feature","geometry":{"type":"Point","coordinates":[-66.619165,18.019331]}},{"properties":{"city":"Bayamon","zip":"957","geo_score":1.0,"description":"Fortant Kosher Merlot","num_searches":1.0,"id":"a69defrywj2j","geo_precision":"zip","source":"grappos.com","state":"PR"},"type":"Feature","geometry":{"type":"Point","coordinates":[-66.183907,18.366645]}},{"properties":{"city":"Houston","zip":"77222","geo_score":1.0,"description":"Fortant Kosher Merlot","num_searches":1.0,"id":"a69defylxb7d","geo_precision":"zip","source":"grappos.com","state":"TX"},"type":"Feature","geometry":{"type":"Point","coordinates":[-95.434241,29.83399]}},{"properties":{"city":"Huntsville","zip":"77349","geo_score":1.0,"description":"Fortant Kosher Merlot","num_searches":1.0,"id":"a69defskwmli","geo_precision":"zip","source":"grappos.com","state":"TX"},"type":"Feature","geometry":{"type":"Point","coordinates":[-95.59527,30.78128]}},{"properties":{"city":"Bellevue","zip":"98005","geo_score":1.0,"description":"Fortant Kosher Merlot","num_searches":1.0,"id":"a69defo3g2lc","geo_precision":"zip","source":"grappos.com","state":"WA"},"type":"Feature","geometry":{"type":"Point","coordinates":[-122.178883,47.620471]}},{"properties":{"city":"Seattle","zip":"98111","geo_score":1.0,"description":"Fortant Kosher Merlot","num_searches":1.0,"id":"a69defln4eke","geo_precision":"zip","source":"grappos.com","state":"WA"},"type":"Feature","geometry":{"type":"Point","coordinates":[-121.803388,47.432251]}},{"properties":{"city":"Seattle","zip":"98146","geo_score":1.0,"description":"Fortant Kosher Merlot","num_searches":1.0,"id":"a69defszg2cz","geo_precision":"zip","source":"grappos.com","state":"WA"},"type":"Feature","geometry":{"type":"Point","coordinates":[-121.803388,47.432251]}},{"properties":{"city":"Marblemount","zip":"98267","geo_score":1.0,"description":"Fortant Kosher Merlot","num_searches":1.0,"id":"a69defpe1tvi","geo_precision":"zip","source":"grappos.com","state":"WA"},"type":"Feature","geometry":{"type":"Point","coordinates":[-121.47384,48.537813]}},{"properties":{"city":"Waldron","zip":"98297","geo_score":1.0,"description":"Fortant Kosher Merlot","num_searches":1.0,"id":"a69defrcvdc5","geo_precision":"zip","source":"grappos.com","state":"WA"},"type":"Feature","geometry":{"type":"Point","coordinates":[-122.983742,48.557824]}},{"properties":{"city":"Chewelah","zip":"99109","geo_score":1.0,"description":"Fortant Kosher Merlot","num_searches":1.0,"id":"a69defnt14j0","geo_precision":"zip","source":"grappos.com","state":"WA"},"type":"Feature","geometry":{"type":"Point","coordinates":[-117.739245,48.293181]}},{"properties":{"city":"San Francisco","zip":"94109","geo_score":1.0,"description":"Fortant Malbec","num_searches":1.0,"id":"a69defqv8l7r","geo_precision":"zip","source":"grappos.com","state":"CA"},"type":"Feature","geometry":{"type":"Point","coordinates":[-122.420782,37.795219]}},{"properties":{"city":"Oakland","zip":"94607","geo_score":1.0,"description":"Fortant Malbec","num_searches":1.0,"id":"a69deft1t1uj","geo_precision":"zip","source":"grappos.com","state":"CA"},"type":"Feature","geometry":{"type":"Point","coordinates":[-122.29878,37.807967]}},{"properties":{"city":"Altaville","zip":"95221","geo_score":1.0,"description":"Fortant Malbec","num_searches":1.0,"id":"a69defleg94k","geo_precision":"zip","source":"grappos.com","state":"CA"},"type":"Feature","geometry":{"type":"Point","coordinates":[-120.535316,38.092294]}},{"properties":{"city":"Davis Creek","zip":"96108","geo_score":0.87,"description":"Fortant Malbec","num_searches":1.0,"id":"a69defm8jl6v","geo_precision":"zip","source":"grappos.com","state":"CA"},"type":"Feature","geometry":{"type":"Point","coordinates":[-120.358289,41.902389]}},{"properties":{"city":"Clearview City","zip":"66019","geo_score":1.0,"description":"Fortant Malbec","num_searches":1.0,"id":"a69defwsxdeo","geo_precision":"zip","source":"grappos.com","state":"KS"},"type":"Feature","geometry":{"type":"Point","coordinates":[-95.003661,38.946041]}},{"properties":{"city":"Quitman","zip":"71268","geo_score":0.886,"description":"Fortant Malbec","num_searches":2.0,"id":"a69defqcftt1","geo_precision":"zip","source":"grappos.com","state":"LA"},"type":"Feature","geometry":{"type":"Point","coordinates":[-92.804043,32.331266]}},{"properties":{"city":"Westborough","zip":"1581","geo_score":1.0,"description":"Fortant Malbec","num_searches":1.0,"id":"a69defpe1mdi","geo_precision":"zip","source":"grappos.com","state":"MA"},"type":"Feature","geometry":{"type":"Point","coordinates":[-71.845865,42.255222]}},{"properties":{"city":"Cushing","zip":"4563","geo_score":0.89,"description":"Fortant Malbec","num_searches":1.0,"id":"a69defoazjpp","geo_precision":"zip","source":"grappos.com","state":"ME"},"type":"Feature","geometry":{"type":"Point","coordinates":[-69.283658,43.972305]}},{"properties":{"city":"Moorhead","zip":"56561","geo_score":1.0,"description":"Fortant Malbec","num_searches":2.0,"id":"a69defpvvib1","geo_precision":"zip","source":"grappos.com","state":"MN"},"type":"Feature","geometry":{"type":"Point","coordinates":[-96.506156,46.890034]}},{"properties":{"city":"Waubun","zip":"56589","geo_score":1.0,"description":"Fortant Malbec","num_searches":1.0,"id":"a69defva2xap","geo_precision":"zip","source":"grappos.com","state":"MN"},"type":"Feature","geometry":{"type":"Point","coordinates":[-95.939849,47.184343]}},{"properties":{"city":"Brunswick","zip":"65236","geo_score":0.87,"description":"Fortant Malbec","num_searches":1.0,"id":"a69defjmz0mo","geo_precision":"zip","source":"grappos.com","state":"MO"},"type":"Feature","geometry":{"type":"Point","coordinates":[-93.034919,39.51058]}},{"properties":{"city":"Cedarcreek","zip":"65627","geo_score":1.0,"description":"Fortant Malbec","num_searches":1.0,"id":"a69defkta8o7","geo_precision":"zip","source":"grappos.com","state":"MO"},"type":"Feature","geometry":{"type":"Point","coordinates":[-93.014906,36.560345]}},{"properties":{"city":"Golden","zip":"65658","geo_score":0.893,"description":"Fortant Malbec","num_searches":1.0,"id":"a69defovxran","geo_precision":"zip","source":"grappos.com","state":"MO"},"type":"Feature","geometry":{"type":"Point","coordinates":[-93.671859,36.575623]}},{"properties":{"city":"Macomb","zip":"65702","geo_score":1.0,"description":"Fortant Malbec","num_searches":1.0,"id":"a69defnn7em1","geo_precision":"zip","source":"grappos.com","state":"MO"},"type":"Feature","geometry":{"type":"Point","coordinates":[-92.535335,37.100803]}},{"properties":{"city":"Davey","zip":"68336","geo_score":1.0,"description":"Fortant Malbec","num_searches":1.0,"id":"a69defosiyh8","geo_precision":"zip","source":"grappos.com","state":"NE"},"type":"Feature","geometry":{"type":"Point","coordinates":[-96.699697,40.955071]}},{"properties":{"city":"Mcgrew","zip":"69353","geo_score":1.0,"description":"Fortant Malbec","num_searches":1.0,"id":"a69defsfqdeq","geo_precision":"zip","source":"grappos.com","state":"NE"},"type":"Feature","geometry":{"type":"Point","coordinates":[-103.416351,41.746944]}},{"properties":{"city":"Sanbornton","zip":"3269","geo_score":0.952,"description":"Fortant Malbec","num_searches":1.0,"id":"a69defq0j7ba","geo_precision":"zip","source":"grappos.com","state":"NH"},"type":"Feature","geometry":{"type":"Point","coordinates":[-71.609521,43.55202]}},{"properties":{"city":"Keene","zip":"3431","geo_score":0.857,"description":"Fortant Malbec","num_searches":1.0,"id":"a69defn7inir","geo_precision":"zip","source":"grappos.com","state":"NH"},"type":"Feature","geometry":{"type":"Point","coordinates":[-72.321198,43.017858]}},{"properties":{"city":"Dover","zip":"3822","geo_score":1.0,"description":"Fortant Malbec","num_searches":1.0,"id":"a69defp20du4","geo_precision":"zip","source":"grappos.com","state":"NH"},"type":"Feature","geometry":{"type":"Point","coordinates":[-71.028427,43.326734]}},{"properties":{"city":"La Joya","zip":"87028","geo_score":0.873,"description":"Fortant Malbec","num_searches":1.0,"id":"a69defnzoc21","geo_precision":"zip","source":"grappos.com","state":"NM"},"type":"Feature","geometry":{"type":"Point","coordinates":[-106.813637,34.382843]}},{"properties":{"city":"Mc Gill","zip":"89318","geo_score":0.857,"description":"Fortant Malbec","num_searches":1.0,"id":"a69defsqpcnf","geo_precision":"zip","source":"grappos.com","state":"NV"},"type":"Feature","geometry":{"type":"Point","coordinates":[-114.763905,39.406883]}},{"properties":{"city":"Enid","zip":"73702","geo_score":1.0,"description":"Fortant Malbec","num_searches":1.0,"id":"a69defl40hkj","geo_precision":"zip","source":"grappos.com","state":"OK"},"type":"Feature","geometry":{"type":"Point","coordinates":[-97.782595,36.379072]}},{"properties":{"city":"Roseburg","zip":"97470","geo_score":0.875,"description":"Fortant Malbec","num_searches":1.0,"id":"a69defngwk2w","geo_precision":"zip","source":"grappos.com","state":"OR"},"type":"Feature","geometry":{"type":"Point","coordinates":[-123.458968,43.247615]}},{"properties":{"city":"Guayama","zip":"784","geo_score":1.0,"description":"Fortant Malbec","num_searches":1.0,"id":"a69defj1kv4e","geo_precision":"zip","source":"grappos.com","state":"PR"},"type":"Feature","geometry":{"type":"Point","coordinates":[-66.139253,17.99229]}},{"properties":{"city":"Providence","zip":"2912","geo_score":1.0,"description":"Fortant Malbec","num_searches":1.0,"id":"a69defykjzhb","geo_precision":"zip","source":"grappos.com","state":"RI"},"type":"Feature","geometry":{"type":"Point","coordinates":[-71.397699,41.826737]}},{"properties":{"city":"Houston","zip":"77279","geo_score":1.0,"description":"Fortant Malbec","num_searches":1.0,"id":"a69defofvstp","geo_precision":"zip","source":"grappos.com","state":"TX"},"type":"Feature","geometry":{"type":"Point","coordinates":[-95.434241,29.83399]}},{"properties":{"city":"El Paso","zip":"88555","geo_score":1.0,"description":"Fortant Malbec","num_searches":1.0,"id":"a69defl4jr53","geo_precision":"zip","source":"grappos.com","state":"TX"},"type":"Feature","geometry":{"type":"Point","coordinates":[-106.299987,31.694842]}},{"properties":{"city":"Olympia","zip":"98501","geo_score":0.871,"description":"Fortant Malbec","num_searches":6.0,"id":"a69defyb8tp8","geo_precision":"zip","source":"grappos.com","state":"WA"},"type":"Feature","geometry":{"type":"Point","coordinates":[-122.774578,47.032596]}},{"properties":{"city":"Colfax","zip":"99111","geo_score":0.857,"description":"Fortant Malbec","num_searches":2.0,"id":"a69defk7dls1","geo_precision":"zip","source":"grappos.com","state":"WA"},"type":"Feature","geometry":{"type":"Point","coordinates":[-117.488523,46.917943]}},{"properties":{"city":"Marysville","zip":"98271","geo_score":0.871,"description":"Fortant Malbec","num_searches":1.0,"id":"a69defpxpwjw","geo_precision":"zip","source":"grappos.com","state":"WA"},"type":"Feature","geometry":{"type":"Point","coordinates":[-122.29181,48.068429]}},{"properties":{"city":"Ashford","zip":"98304","geo_score":0.875,"description":"Fortant Malbec","num_searches":1.0,"id":"a69defkfvdaa","geo_precision":"zip","source":"grappos.com","state":"WA"},"type":"Feature","geometry":{"type":"Point","coordinates":[-122.055941,46.756497]}},{"properties":{"city":"Pacific Beach","zip":"98571","geo_score":0.881,"description":"Fortant Malbec","num_searches":1.0,"id":"a69defo9mgnj","geo_precision":"zip","source":"grappos.com","state":"WA"},"type":"Feature","geometry":{"type":"Point","coordinates":[-124.167956,47.200918]}},{"properties":{"city":"Liberty Lake","zip":"99019","geo_score":1.0,"description":"Fortant Malbec","num_searches":1.0,"id":"a69defqunea9","geo_precision":"zip","source":"grappos.com","state":"WA"},"type":"Feature","geometry":{"type":"Point","coordinates":[-117.085845,47.651635]}},{"properties":{"city":"Prescott","zip":"86303","geo_score":0.886,"description":"Fortant Merlot","num_searches":1.0,"id":"a69defjdxeku","geo_precision":"zip","source":"grappos.com","state":"AZ"},"type":"Feature","geometry":{"type":"Point","coordinates":[-112.431279,34.475581]}},{"properties":{"city":"Los Angeles","zip":"90052","geo_score":1.0,"description":"Fortant Merlot","num_searches":2.0,"id":"a69defwwpy5i","geo_precision":"zip","source":"grappos.com","state":"CA"},"type":"Feature","geometry":{"type":"Point","coordinates":[-118.298662,33.786594]}},{"properties":{"city":"San Francisco","zip":"94109","geo_score":1.0,"description":"Fortant Merlot","num_searches":2.0,"id":"a69defmz0d3z","geo_precision":"zip","source":"grappos.com","state":"CA"},"type":"Feature","geometry":{"type":"Point","coordinates":[-122.420782,37.795219]}},{"properties":{"city":"Van Nuys","zip":"91496","geo_score":1.0,"description":"Fortant Merlot","num_searches":1.0,"id":"a69defl9f5io","geo_precision":"zip","source":"grappos.com","state":"CA"},"type":"Feature","geometry":{"type":"Point","coordinates":[-118.298662,33.786594]}},{"properties":{"city":"San Francisco","zip":"94129","geo_score":0.899,"description":"Fortant Merlot","num_searches":1.0,"id":"a69defo8f893","geo_precision":"zip","source":"grappos.com","state":"CA"},"type":"Feature","geometry":{"type":"Point","coordinates":[-122.473583,37.801596]}},{"properties":{"city":"Penngrove","zip":"94951","geo_score":1.0,"description":"Fortant Merlot","num_searches":1.0,"id":"a69deftgcxi1","geo_precision":"zip","source":"grappos.com","state":"CA"},"type":"Feature","geometry":{"type":"Point","coordinates":[-122.648346,38.315342]}},{"properties":{"city":"Acampo","zip":"95220","geo_score":0.857,"description":"Fortant Merlot","num_searches":1.0,"id":"a69defopy1o8","geo_precision":"zip","source":"grappos.com","state":"CA"},"type":"Feature","geometry":{"type":"Point","coordinates":[-121.268837,38.214639]}},{"properties":{"city":"Merced","zip":"95348","geo_score":1.0,"description":"Fortant Merlot","num_searches":1.0,"id":"a69defk2qtze","geo_precision":"zip","source":"grappos.com","state":"CA"},"type":"Feature","geometry":{"type":"Point","coordinates":[-120.50975,37.412623]}},{"properties":{"city":"Drytown","zip":"95699","geo_score":1.0,"description":"Fortant Merlot","num_searches":1.0,"id":"a69defp4ozzn","geo_precision":"zip","source":"grappos.com","state":"CA"},"type":"Feature","geometry":{"type":"Point","coordinates":[-120.845706,38.437001]}},{"properties":{"city":"Ocean View","zip":"96737","geo_score":1.0,"description":"Fortant Merlot","num_searches":1.0,"id":"a69defkl9s37","geo_precision":"zip","source":"grappos.com","state":"HI"},"type":"Feature","geometry":{"type":"Point","coordinates":[-155.725803,19.100167]}},{"properties":{"city":"Tonganoxie","zip":"66086","geo_score":0.886,"description":"Fortant Merlot","num_searches":1.0,"id":"a69defyunir5","geo_precision":"zip","source":"grappos.com","state":"KS"},"type":"Feature","geometry":{"type":"Point","coordinates":[-95.11997,39.051113]}},{"properties":{"city":"Wichita","zip":"67216","geo_score":0.875,"description":"Fortant Merlot","num_searches":1.0,"id":"a69defuir94a","geo_precision":"zip","source":"grappos.com","state":"KS"},"type":"Feature","geometry":{"type":"Point","coordinates":[-97.333934,37.520852]}},{"properties":{"city":"New Orleans","zip":"70113","geo_score":1.0,"description":"Fortant Merlot","num_searches":1.0,"id":"a69defuyle7c","geo_precision":"zip","source":"grappos.com","state":"LA"},"type":"Feature","geometry":{"type":"Point","coordinates":[-90.083172,29.943769]}},{"properties":{"city":"Lafayette","zip":"70509","geo_score":1.0,"description":"Fortant Merlot","num_searches":1.0,"id":"a69defw0ub2o","geo_precision":"zip","source":"grappos.com","state":"LA"},"type":"Feature","geometry":{"type":"Point","coordinates":[-92.000019,30.156506]}},{"properties":{"city":"Manchaug","zip":"1526","geo_score":1.0,"description":"Fortant Merlot","num_searches":2.0,"id":"a69defjjxrqi","geo_precision":"zip","source":"grappos.com","state":"MA"},"type":"Feature","geometry":{"type":"Point","coordinates":[-71.896868,42.364807]}},{"properties":{"city":"Sunderland","zip":"1375","geo_score":1.0,"description":"Fortant Merlot","num_searches":1.0,"id":"a69defs5yt76","geo_precision":"zip","source":"grappos.com","state":"MA"},"type":"Feature","geometry":{"type":"Point","coordinates":[-72.70094,42.565346]}},{"properties":{"city":"Groton","zip":"1471","geo_score":1.0,"description":"Fortant Merlot","num_searches":1.0,"id":"a69defkusnkq","geo_precision":"zip","source":"grappos.com","state":"MA"},"type":"Feature","geometry":{"type":"Point","coordinates":[-71.459405,42.446396]}},{"properties":{"city":"Boston","zip":"2133","geo_score":1.0,"description":"Fortant Merlot","num_searches":1.0,"id":"a69defyx3m7g","geo_precision":"zip","source":"grappos.com","state":"MA"},"type":"Feature","geometry":{"type":"Point","coordinates":[-70.919635,42.338947]}},{"properties":{"city":"Milbridge","zip":"4658","geo_score":0.857,"description":"Fortant Merlot","num_searches":1.0,"id":"a69deft1fwwc","geo_precision":"zip","source":"grappos.com","state":"ME"},"type":"Feature","geometry":{"type":"Point","coordinates":[-67.859167,44.507856]}},{"properties":{"city":"Dent","zip":"56528","geo_score":1.0,"description":"Fortant Merlot","num_searches":1.0,"id":"a69defpd0m9o","geo_precision":"zip","source":"grappos.com","state":"MN"},"type":"Feature","geometry":{"type":"Point","coordinates":[-95.728629,46.57101]}},{"properties":{"city":"Boonville","zip":"65233","geo_score":0.857,"description":"Fortant Merlot","num_searches":1.0,"id":"a69defnma6ex","geo_precision":"zip","source":"grappos.com","state":"MO"},"type":"Feature","geometry":{"type":"Point","coordinates":[-92.803247,38.848079]}},{"properties":{"city":"Mc Clurg","zip":"65701","geo_score":1.0,"description":"Fortant Merlot","num_searches":1.0,"id":"a69defphy5sc","geo_precision":"zip","source":"grappos.com","state":"MO"},"type":"Feature","geometry":{"type":"Point","coordinates":[-92.781063,36.702612]}},{"properties":{"city":"Goehner","zip":"68364","geo_score":1.0,"description":"Fortant Merlot","num_searches":1.0,"id":"a69deft26zpt","geo_precision":"zip","source":"grappos.com","state":"NE"},"type":"Feature","geometry":{"type":"Point","coordinates":[-97.196716,40.829068]}},{"properties":{"city":"Gilmanton","zip":"3237","geo_score":1.0,"description":"Fortant Merlot","num_searches":3.0,"id":"a69defok7ltk","geo_precision":"zip","source":"grappos.com","state":"NH"},"type":"Feature","geometry":{"type":"Point","coordinates":[-71.384213,43.414064]}},{"properties":{"city":"Greenville","zip":"3048","geo_score":0.871,"description":"Fortant Merlot","num_searches":1.0,"id":"a69defn4qtvc","geo_precision":"zip","source":"grappos.com","state":"NH"},"type":"Feature","geometry":{"type":"Point","coordinates":[-71.768963,42.743698]}},{"properties":{"city":"Lakewood","zip":"88254","geo_score":0.87,"description":"Fortant Merlot","num_searches":1.0,"id":"a69defnm613u","geo_precision":"zip","source":"grappos.com","state":"NM"},"type":"Feature","geometry":{"type":"Point","coordinates":[-104.421628,32.595114]}},{"properties":{"city":"Cordell","zip":"73632","geo_score":0.957,"description":"Fortant Merlot","num_searches":1.0,"id":"a69defnlbfvc","geo_precision":"zip","source":"grappos.com","state":"OK"},"type":"Feature","geometry":{"type":"Point","coordinates":[-98.981616,35.297283]}},{"properties":{"city":"Eugene","zip":"97440","geo_score":1.0,"description":"Fortant Merlot","num_searches":1.0,"id":"a69defu1r9p9","geo_precision":"zip","source":"grappos.com","state":"OR"},"type":"Feature","geometry":{"type":"Point","coordinates":[-122.99879,43.863845]}},{"properties":{"city":"Medford","zip":"97501","geo_score":0.873,"description":"Fortant Merlot","num_searches":1.0,"id":"a69defm3848p","geo_precision":"zip","source":"grappos.com","state":"OR"},"type":"Feature","geometry":{"type":"Point","coordinates":[-122.912821,42.451236]}},{"properties":{"city":"Utuado","zip":"641","geo_score":1.0,"description":"Fortant Merlot","num_searches":2.0,"id":"a69defy0ec6p","geo_precision":"zip","source":"grappos.com","state":"PR"},"type":"Feature","geometry":{"type":"Point","coordinates":[-66.698957,18.250027]}},{"properties":{"city":"Vega Alta","zip":"692","geo_score":1.0,"description":"Fortant Merlot","num_searches":1.0,"id":"a69defsv13u7","geo_precision":"zip","source":"grappos.com","state":"PR"},"type":"Feature","geometry":{"type":"Point","coordinates":[-66.338523,18.435818]}},{"properties":{"city":"North Providence","zip":"2911","geo_score":0.895,"description":"Fortant Merlot","num_searches":1.0,"id":"a69defmuj1dr","geo_precision":"zip","source":"grappos.com","state":"RI"},"type":"Feature","geometry":{"type":"Point","coordinates":[-71.445892,41.862322]}},{"properties":{"city":"Mereta","zip":"76940","geo_score":1.0,"description":"Fortant Merlot","num_searches":1.0,"id":"a69defkg9sao","geo_precision":"zip","source":"grappos.com","state":"TX"},"type":"Feature","geometry":{"type":"Point","coordinates":[-100.143724,31.480347]}},{"properties":{"city":"Houston","zip":"77042","geo_score":1.0,"description":"Fortant Merlot","num_searches":1.0,"id":"a69defvjeo1s","geo_precision":"zip","source":"grappos.com","state":"TX"},"type":"Feature","geometry":{"type":"Point","coordinates":[-95.434241,29.83399]}},{"properties":{"city":"Houston","zip":"77068","geo_score":1.0,"description":"Fortant Merlot","num_searches":1.0,"id":"a69defx10rr4","geo_precision":"zip","source":"grappos.com","state":"TX"},"type":"Feature","geometry":{"type":"Point","coordinates":[-95.434241,29.83399]}},{"properties":{"city":"Seattle","zip":"98112","geo_score":0.87,"description":"Fortant Merlot","num_searches":2.0,"id":"a69defmkov2t","geo_precision":"zip","source":"grappos.com","state":"WA"},"type":"Feature","geometry":{"type":"Point","coordinates":[-122.27957,47.634821]}},{"properties":{"city":"Port Hadlock","zip":"98339","geo_score":0.883,"description":"Fortant Merlot","num_searches":2.0,"id":"a69defssdukp","geo_precision":"zip","source":"grappos.com","state":"WA"},"type":"Feature","geometry":{"type":"Point","coordinates":[-122.772667,48.042036]}},{"properties":{"city":"Port Orchard","zip":"98367","geo_score":1.0,"description":"Fortant Merlot","num_searches":2.0,"id":"a69defvsjqrf","geo_precision":"zip","source":"grappos.com","state":"WA"},"type":"Feature","geometry":{"type":"Point","coordinates":[-122.650972,47.470651]}},{"properties":{"city":"Wilkeson","zip":"98396","geo_score":1.0,"description":"Fortant Merlot","num_searches":2.0,"id":"a69defz8i9r3","geo_precision":"zip","source":"grappos.com","state":"WA"},"type":"Feature","geometry":{"type":"Point","coordinates":[-122.037015,47.109524]}},{"properties":{"city":"Marysville","zip":"98270","geo_score":0.871,"description":"Fortant Merlot","num_searches":1.0,"id":"a69defpxcotf","geo_precision":"zip","source":"grappos.com","state":"WA"},"type":"Feature","geometry":{"type":"Point","coordinates":[-122.323201,48.091485]}},{"properties":{"city":"Appleton","zip":"98602","geo_score":1.0,"description":"Fortant Merlot","num_searches":1.0,"id":"a69defy5n170","geo_precision":"zip","source":"grappos.com","state":"WA"},"type":"Feature","geometry":{"type":"Point","coordinates":[-121.312852,45.850437]}},{"properties":{"city":"Parker","zip":"98939","geo_score":1.0,"description":"Fortant Merlot","num_searches":1.0,"id":"a69defsam89o","geo_precision":"zip","source":"grappos.com","state":"WA"},"type":"Feature","geometry":{"type":"Point","coordinates":[-120.694658,46.56451]}},{"properties":{"city":"Latah","zip":"99018","geo_score":1.0,"description":"Fortant Merlot","num_searches":1.0,"id":"a69defpsaczw","geo_precision":"zip","source":"grappos.com","state":"WA"},"type":"Feature","geometry":{"type":"Point","coordinates":[-117.139491,47.299889]}}],"is_temporal":false,"author":{"url":"","metadata":"","contact_name":"","contact_address":"","source":"","contact_phone":""},"source":"","pagination":{"sort":null,"start":0,"total":276,"limit":1000000},"state":"complete","tags":"","published":"2014-08-10T12:31:50-04:00","id":21050}