{"type":"FeatureCollection","data_type":"Dataset","url_type":null,"permissions":[{"permissions":{"download":true,"view":true},"group_id":"everyone"}],"classification":null,"title":"Fayette SFSP sites","count":5,"stream_id":210715,"contributor":{"url":"http://geocommons.com/users/32393","name":"eoliver88"},"data_attributes":null,"calculation_params":null,"icon_link":null,"link":"http://geocommons.com/overlays/210715.json","extent":[-85.1496,39.6386,-85.1158,39.6704],"geometry_types":["point"],"unique_name":null,"name":"Fayette SFSP sites","feature_count":5,"description":"","next_feature":null,"is_raster":false,"short_classification":"Y","stats":{},"features":[{"properties":{"city":"Connersville","name":"Regenstrief BGC","zip":"47331","geo_score":0.503,"id":"a62kqd3vilmz","geo_precision":"street","address":"825 N. Central Ave.","state":"IN"},"type":"Feature","geometry":{"type":"Point","coordinates":[-85.141474,39.638626]}},{"properties":{"city":"Connersville","name":"Conner Court","zip":"47331","geo_score":0.78,"id":"a62kqd8laxa8","geo_precision":"range","address":"1465 E SR 44","state":"IN"},"type":"Feature","geometry":{"type":"Point","coordinates":[-85.115769,39.639125]}},{"properties":{"city":"Connersville","name":"Park","zip":"47331","geo_score":0.787,"id":"a62kqdb5lgcd","geo_precision":"street","address":"2900 Park Rd.","state":"IN"},"type":"Feature","geometry":{"type":"Point","coordinates":[-85.129089,39.670383]}},{"properties":{"city":"Connersville","name":"Elephant Hill Mobile Home Park","zip":"47331","geo_score":0.843,"id":"a62kqda3faz4","geo_precision":"range","address":"1000 West 21st St.","state":"IN"},"type":"Feature","geometry":{"type":"Point","coordinates":[-85.14651,39.66009]}},{"properties":{"city":"Connersville","name":"Frazee Elementary","zip":"47331","geo_score":0.829,"id":"a62kqd904743","geo_precision":"range","address":"600 West 3rd Street","state":"IN"},"type":"Feature","geometry":{"type":"Point","coordinates":[-85.14962,39.640041]}}],"is_temporal":false,"author":{"url":"","metadata":"","contact_name":"","contact_address":"","source":"","contact_phone":""},"source":"","pagination":{"sort":null,"start":0,"total":5,"limit":1000000},"state":"complete","tags":"gfbeo","published":"2014-08-14T15:56:11-04:00","id":210715}