{"type":"FeatureCollection","data_type":"Dataset","url_type":null,"permissions":[{"permissions":{"download":true,"view":true},"group_id":"everyone"}],"classification":null,"title":"NEN_act_Heat","count":252,"stream_id":210798,"contributor":{"url":"http://geocommons.com/users/41131","name":"membership@chrie.org"},"data_attributes":null,"calculation_params":null,"icon_link":null,"link":"http://geocommons.com/overlays/210798.json","extent":[-87.0783,32.238,-68.7053,44.8387],"geometry_types":["point"],"unique_name":null,"name":"NEN_act_Heat","feature_count":252,"description":"","next_feature":null,"is_raster":false,"short_classification":"Y","stats":{},"features":[{"properties":{"zip":"08240-0195","geo_score":0.714,"id":"a67m80ld0a1d","geo_precision":"zip"},"type":"Feature","geometry":{"type":"Point","coordinates":[-74.554334,39.487717]}},{"properties":{"zip":"02903","geo_score":0.714,"id":"a67m80ow8634","geo_precision":"zip"},"type":"Feature","geometry":{"type":"Point","coordinates":[-71.4115,41.819459]}},{"properties":{"zip":"19122","geo_score":0.714,"id":"a67m80m8ys68","geo_precision":"zip"},"type":"Feature","geometry":{"type":"Point","coordinates":[-75.141271,39.977462]}},{"properties":{"zip":"23285-5622","geo_score":0.714,"id":"a67m80u19g56","geo_precision":"zip"},"type":"Feature","geometry":{"type":"Point","coordinates":[-77.493157,37.524246]}},{"properties":{"zip":"03824","geo_score":0.714,"id":"a67m80taw2k5","geo_precision":"zip"},"type":"Feature","geometry":{"type":"Point","coordinates":[-71.01145,43.12314]}},{"properties":{"zip":"17701","geo_score":0.714,"id":"a67m80gujqu1","geo_precision":"zip"},"type":"Feature","geometry":{"type":"Point","coordinates":[-77.057191,41.293688]}},{"properties":{"zip":"19063","geo_score":0.714,"id":"a67m80k2vf3w","geo_precision":"zip"},"type":"Feature","geometry":{"type":"Point","coordinates":[-75.421029,39.945944]}},{"properties":{"zip":"14109","geo_score":0.714,"id":"a67m80gpnmq5","geo_precision":"zip"},"type":"Feature","geometry":{"type":"Point","coordinates":[-78.830681,43.32684]}},{"properties":{"zip":"12538-1499","geo_score":0.714,"id":"a67m80i56nep","geo_precision":"zip"},"type":"Feature","geometry":{"type":"Point","coordinates":[-73.901525,41.76676]}},{"properties":{"zip":"02903","geo_score":0.714,"id":"a67m80ryja9h","geo_precision":"zip"},"type":"Feature","geometry":{"type":"Point","coordinates":[-71.4115,41.819459]}},{"properties":{"zip":"02215","geo_score":0.714,"id":"a67m80m3tlv1","geo_precision":"zip"},"type":"Feature","geometry":{"type":"Point","coordinates":[-71.107653,42.345079]}},{"properties":{"zip":"17701","geo_score":0.714,"id":"a67m80j5hkkr","geo_precision":"zip"},"type":"Feature","geometry":{"type":"Point","coordinates":[-77.057191,41.293688]}},{"properties":{"zip":"14623","geo_score":0.714,"id":"a67m80lf51mf","geo_precision":"zip"},"type":"Feature","geometry":{"type":"Point","coordinates":[-77.649074,43.082184]}},{"properties":{"zip":"19013-5792","geo_score":0.714,"id":"a67m80uo6jnv","geo_precision":"zip"},"type":"Feature","geometry":{"type":"Point","coordinates":[-75.427417,39.869556]}},{"properties":{"zip":"01040","geo_score":0.714,"id":"a67m80th0gmy","geo_precision":"zip"},"type":"Feature","geometry":{"type":"Point","coordinates":[-72.620368,42.191759]}},{"properties":{"zip":"24060","geo_score":0.714,"id":"a67m80ff00gx","geo_precision":"zip"},"type":"Feature","geometry":{"type":"Point","coordinates":[-80.275602,37.300131]}},{"properties":{"zip":"02903","geo_score":0.714,"id":"a67m80v28579","geo_precision":"zip"},"type":"Feature","geometry":{"type":"Point","coordinates":[-71.4115,41.819459]}},{"properties":{"zip":"01915","geo_score":0.714,"id":"a67m80fmzsey","geo_precision":"zip"},"type":"Feature","geometry":{"type":"Point","coordinates":[-70.886994,42.58065]}},{"properties":{"zip":"21804","geo_score":0.714,"id":"a67m80k64fxy","geo_precision":"zip"},"type":"Feature","geometry":{"type":"Point","coordinates":[-75.533782,38.350793]}},{"properties":{"zip":"19716","geo_score":0.714,"id":"a67m80qam7sh","geo_precision":"zip"},"type":"Feature","geometry":{"type":"Point","coordinates":[-75.597047,39.564499]}},{"properties":{"zip":"14853","geo_score":0.714,"id":"a67m80m3mhzp","geo_precision":"zip"},"type":"Feature","geometry":{"type":"Point","coordinates":[-76.483703,42.447373]}},{"properties":{"zip":"19013","geo_score":0.714,"id":"a67m80mzjm10","geo_precision":"zip"},"type":"Feature","geometry":{"type":"Point","coordinates":[-75.427417,39.869556]}},{"properties":{"zip":"14850","geo_score":0.714,"id":"a67m80v7j8gb","geo_precision":"zip"},"type":"Feature","geometry":{"type":"Point","coordinates":[-76.437994,42.455073]}},{"properties":{"zip":"21853","geo_score":0.714,"id":"a67m80g4c4d4","geo_precision":"zip"},"type":"Feature","geometry":{"type":"Point","coordinates":[-75.839931,38.187345]}},{"properties":{"zip":"18301","geo_score":0.714,"id":"a67m80lirrue","geo_precision":"zip"},"type":"Feature","geometry":{"type":"Point","coordinates":[-75.027675,41.078151]}},{"properties":{"zip":"02030","geo_score":0.714,"id":"a67m80uc0u4j","geo_precision":"zip"},"type":"Feature","geometry":{"type":"Point","coordinates":[-71.321447,42.245931]}},{"properties":{"zip":"23504","geo_score":0.714,"id":"a67m80i1uh9l","geo_precision":"zip"},"type":"Feature","geometry":{"type":"Point","coordinates":[-76.265762,36.877847]}},{"properties":{"zip":"17821","geo_score":0.714,"id":"a67m80ghkh3x","geo_precision":"zip"},"type":"Feature","geometry":{"type":"Point","coordinates":[-76.631621,41.116474]}},{"properties":{"zip":"22807","geo_score":0.714,"id":"a67m80ies19q","geo_precision":"zip"},"type":"Feature","geometry":{"type":"Point","coordinates":[-78.874173,38.440898]}},{"properties":{"zip":"21502","geo_score":0.714,"id":"a67m80qjhsvw","geo_precision":"zip"},"type":"Feature","geometry":{"type":"Point","coordinates":[-78.755852,39.632588]}},{"properties":{"zip":"06511","geo_score":0.714,"id":"a67m80fawf40","geo_precision":"zip"},"type":"Feature","geometry":{"type":"Point","coordinates":[-72.926046,41.310547]}},{"properties":{"zip":"14109-2012","geo_score":0.714,"id":"a67m80fospft","geo_precision":"zip"},"type":"Feature","geometry":{"type":"Point","coordinates":[-78.830681,43.32684]}},{"properties":{"zip":"16546","geo_score":0.714,"id":"a67m80fdrjer","geo_precision":"zip"},"type":"Feature","geometry":{"type":"Point","coordinates":[-80.064915,42.182748]}},{"properties":{"zip":"22102","geo_score":0.714,"id":"a67m80mnmvec","geo_precision":"zip"},"type":"Feature","geometry":{"type":"Point","coordinates":[-77.229496,38.953033]}},{"properties":{"zip":"10038","geo_score":0.714,"id":"a67m80tfacxm","geo_precision":"zip"},"type":"Feature","geometry":{"type":"Point","coordinates":[-74.003368,40.710223]}},{"properties":{"zip":"12901","geo_score":0.714,"id":"a67m80syrd5f","geo_precision":"zip"},"type":"Feature","geometry":{"type":"Point","coordinates":[-73.411801,44.722543]}},{"properties":{"zip":"19013","geo_score":0.714,"id":"a67m80hgt6ku","geo_precision":"zip"},"type":"Feature","geometry":{"type":"Point","coordinates":[-75.427417,39.869556]}},{"properties":{"zip":"10003","geo_score":0.714,"id":"a67m80g4ss81","geo_precision":"zip"},"type":"Feature","geometry":{"type":"Point","coordinates":[-73.988564,40.730223]}},{"properties":{"zip":"14220","geo_score":0.714,"id":"a67m80s0w6oz","geo_precision":"zip"},"type":"Feature","geometry":{"type":"Point","coordinates":[-78.823005,42.845908]}},{"properties":{"zip":"13753","geo_score":0.714,"id":"a67m80jzea5f","geo_precision":"zip"},"type":"Feature","geometry":{"type":"Point","coordinates":[-75.008219,42.299528]}},{"properties":{"zip":"02762","geo_score":0.714,"id":"a67m80fl5vod","geo_precision":"zip"},"type":"Feature","geometry":{"type":"Point","coordinates":[-71.308388,42.023155]}},{"properties":{"zip":"19121-3429","geo_score":0.714,"id":"a67m80mkbhs5","geo_precision":"zip"},"type":"Feature","geometry":{"type":"Point","coordinates":[-75.174172,39.983212]}},{"properties":{"zip":"18040","geo_score":0.714,"id":"a67m80nrx22b","geo_precision":"zip"},"type":"Feature","geometry":{"type":"Point","coordinates":[-75.20887,40.806206]}},{"properties":{"zip":"14853","geo_score":0.714,"id":"a67m80q004jy","geo_precision":"zip"},"type":"Feature","geometry":{"type":"Point","coordinates":[-76.483703,42.447373]}},{"properties":{"zip":"01915","geo_score":0.714,"id":"a67m80fzas5y","geo_precision":"zip"},"type":"Feature","geometry":{"type":"Point","coordinates":[-70.886994,42.58065]}},{"properties":{"zip":"01002","geo_score":0.714,"id":"a67m80rems9y","geo_precision":"zip"},"type":"Feature","geometry":{"type":"Point","coordinates":[-72.470364,42.377868]}},{"properties":{"zip":"17110-2999","geo_score":0.714,"id":"a67m80m9jrr8","geo_precision":"zip"},"type":"Feature","geometry":{"type":"Point","coordinates":[-76.904696,40.336199]}},{"properties":{"zip":"08330","geo_score":0.714,"id":"a67m80ptlqan","geo_precision":"zip"},"type":"Feature","geometry":{"type":"Point","coordinates":[-74.778776,39.515117]}},{"properties":{"zip":"22043","geo_score":0.714,"id":"a67m80ija177","geo_precision":"zip"},"type":"Feature","geometry":{"type":"Point","coordinates":[-77.200814,38.912889]}},{"properties":{"zip":"20059","geo_score":0.714,"id":"a67m80ji7ymt","geo_precision":"zip"},"type":"Feature","geometry":{"type":"Point","coordinates":[-77.014647,38.893311]}},{"properties":{"zip":"02903","geo_score":0.714,"id":"a67m80pg6shx","geo_precision":"zip"},"type":"Feature","geometry":{"type":"Point","coordinates":[-71.4115,41.819459]}},{"properties":{"zip":"02251","geo_score":0.0,"id":"a67m80gdy9ku","geo_precision":"unmatched"},"type":"Feature","geometry":null},{"properties":{"zip":"19716","geo_score":0.714,"id":"a67m80tfm7nx","geo_precision":"zip"},"type":"Feature","geometry":{"type":"Point","coordinates":[-75.597047,39.564499]}},{"properties":{"zip":"14020","geo_score":0.714,"id":"a67m80nwfx84","geo_precision":"zip"},"type":"Feature","geometry":{"type":"Point","coordinates":[-78.299463,42.979782]}},{"properties":{"zip":"08818-3050","geo_score":0.714,"id":"a67m80f6uuv5","geo_precision":"zip"},"type":"Feature","geometry":{"type":"Point","coordinates":[-74.367372,40.514271]}},{"properties":{"zip":"01003-9247","geo_score":0.714,"id":"a67m80omww96","geo_precision":"zip"},"type":"Feature","geometry":{"type":"Point","coordinates":[-72.63599,42.369562]}},{"properties":{"zip":"01002","geo_score":0.714,"id":"a67m80f5z8gd","geo_precision":"zip"},"type":"Feature","geometry":{"type":"Point","coordinates":[-72.470364,42.377868]}},{"properties":{"zip":"14853-6902","geo_score":0.714,"id":"a67m80mw1z9i","geo_precision":"zip"},"type":"Feature","geometry":{"type":"Point","coordinates":[-76.483703,42.447373]}},{"properties":{"zip":"19013","geo_score":0.714,"id":"a67m80mdorts","geo_precision":"zip"},"type":"Feature","geometry":{"type":"Point","coordinates":[-75.427417,39.869556]}},{"properties":{"zip":"21012","geo_score":0.714,"id":"a67m80fyncfw","geo_precision":"zip"},"type":"Feature","geometry":{"type":"Point","coordinates":[-76.510795,39.040389]}},{"properties":{"zip":"16802-1307","geo_score":0.714,"id":"a67m80u9pgqw","geo_precision":"zip"},"type":"Feature","geometry":{"type":"Point","coordinates":[-77.862339,40.799672]}},{"properties":{"zip":"19901","geo_score":0.714,"id":"a67m80u9drie","geo_precision":"zip"},"type":"Feature","geometry":{"type":"Point","coordinates":[-75.541313,39.173723]}},{"properties":{"zip":"10003","geo_score":0.714,"id":"a67m80gj0hxy","geo_precision":"zip"},"type":"Feature","geometry":{"type":"Point","coordinates":[-73.988564,40.730223]}},{"properties":{"zip":"24061-0429","geo_score":0.714,"id":"a67m80u5nciv","geo_precision":"zip"},"type":"Feature","geometry":{"type":"Point","coordinates":[-80.351482,37.179115]}},{"properties":{"zip":"18612-1090","geo_score":0.714,"id":"a67m80jnhcq0","geo_precision":"zip"},"type":"Feature","geometry":{"type":"Point","coordinates":[-76.060203,41.339247]}},{"properties":{"zip":"24061-0429","geo_score":0.714,"id":"a67m80v71rdw","geo_precision":"zip"},"type":"Feature","geometry":{"type":"Point","coordinates":[-80.351482,37.179115]}},{"properties":{"zip":"23284-2026","geo_score":0.714,"id":"a67m80m8icgv","geo_precision":"zip"},"type":"Feature","geometry":{"type":"Point","coordinates":[-77.451155,37.549446]}},{"properties":{"zip":"06514","geo_score":0.714,"id":"a67m80jrw7pa","geo_precision":"zip"},"type":"Feature","geometry":{"type":"Point","coordinates":[-72.908713,41.36343]}},{"properties":{"zip":"19122","geo_score":0.714,"id":"a67m80skd22c","geo_precision":"zip"},"type":"Feature","geometry":{"type":"Point","coordinates":[-75.141271,39.977462]}},{"properties":{"zip":"24061","geo_score":0.714,"id":"a67m80sm7o2y","geo_precision":"zip"},"type":"Feature","geometry":{"type":"Point","coordinates":[-80.351482,37.179115]}},{"properties":{"zip":"13820","geo_score":0.714,"id":"a67m80k0ssb3","geo_precision":"zip"},"type":"Feature","geometry":{"type":"Point","coordinates":[-75.093776,42.46869]}},{"properties":{"zip":"20058","geo_score":0.714,"id":"a67m80pyrpln","geo_precision":"zip"},"type":"Feature","geometry":{"type":"Point","coordinates":[-77.014647,38.893311]}},{"properties":{"zip":"01003","geo_score":0.714,"id":"a67m80h8x85p","geo_precision":"zip"},"type":"Feature","geometry":{"type":"Point","coordinates":[-72.63599,42.369562]}},{"properties":{"zip":"16802-1307","geo_score":0.714,"id":"a67m80r51prq","geo_precision":"zip"},"type":"Feature","geometry":{"type":"Point","coordinates":[-77.862339,40.799672]}},{"properties":{"zip":"12901-2681","geo_score":0.714,"id":"a67m80oviq46","geo_precision":"zip"},"type":"Feature","geometry":{"type":"Point","coordinates":[-73.411801,44.722543]}},{"properties":{"zip":"06045-1046","geo_score":0.714,"id":"a67m80p5d2rx","geo_precision":"zip"},"type":"Feature","geometry":{"type":"Point","coordinates":[-72.718832,41.791776]}},{"properties":{"zip":"07869-2086","geo_score":0.714,"id":"a67m80k602u2","geo_precision":"zip"},"type":"Feature","geometry":{"type":"Point","coordinates":[-74.54238,40.875933]}},{"properties":{"zip":"19716","geo_score":0.714,"id":"a67m80uab6qy","geo_precision":"zip"},"type":"Feature","geometry":{"type":"Point","coordinates":[-75.597047,39.564499]}},{"properties":{"zip":"14109-2012","geo_score":0.714,"id":"a67m80qsv4ls","geo_precision":"zip"},"type":"Feature","geometry":{"type":"Point","coordinates":[-78.830681,43.32684]}},{"properties":{"zip":"21853","geo_score":0.714,"id":"a67m80op73rb","geo_precision":"zip"},"type":"Feature","geometry":{"type":"Point","coordinates":[-75.839931,38.187345]}},{"properties":{"zip":"22807","geo_score":0.714,"id":"a67m80ik3g8o","geo_precision":"zip"},"type":"Feature","geometry":{"type":"Point","coordinates":[-78.874173,38.440898]}},{"properties":{"zip":"07666-1914","geo_score":0.714,"id":"a67m80mrgo3g","geo_precision":"zip"},"type":"Feature","geometry":{"type":"Point","coordinates":[-74.003194,40.902044]}},{"properties":{"zip":"15108-1189","geo_score":0.714,"id":"a67m80ogcwc9","geo_precision":"zip"},"type":"Feature","geometry":{"type":"Point","coordinates":[-80.19117,40.523123]}},{"properties":{"zip":"20850","geo_score":0.714,"id":"a67m80mf9bkj","geo_precision":"zip"},"type":"Feature","geometry":{"type":"Point","coordinates":[-77.204425,39.080664]}},{"properties":{"zip":"22003-3796","geo_score":0.714,"id":"a67m80rm13ba","geo_precision":"zip"},"type":"Feature","geometry":{"type":"Point","coordinates":[-77.255539,38.823168]}},{"properties":{"zip":"08270","geo_score":0.714,"id":"a67m80gvj8vl","geo_precision":"zip"},"type":"Feature","geometry":{"type":"Point","coordinates":[-74.792666,39.234837]}},{"properties":{"zip":"02903","geo_score":0.714,"id":"a67m80poxtup","geo_precision":"zip"},"type":"Feature","geometry":{"type":"Point","coordinates":[-71.4115,41.819459]}},{"properties":{"zip":"16802","geo_score":0.714,"id":"a67m80rmym6i","geo_precision":"zip"},"type":"Feature","geometry":{"type":"Point","coordinates":[-77.862339,40.799672]}},{"properties":{"zip":"14109","geo_score":0.714,"id":"a67m80higy57","geo_precision":"zip"},"type":"Feature","geometry":{"type":"Point","coordinates":[-78.830681,43.32684]}},{"properties":{"zip":"01002","geo_score":0.714,"id":"a67m80kepmaj","geo_precision":"zip"},"type":"Feature","geometry":{"type":"Point","coordinates":[-72.470364,42.377868]}},{"properties":{"zip":"02215","geo_score":0.714,"id":"a67m80ollh3d","geo_precision":"zip"},"type":"Feature","geometry":{"type":"Point","coordinates":[-71.107653,42.345079]}},{"properties":{"zip":"12305","geo_score":0.714,"id":"a67m80fmj6cs","geo_precision":"zip"},"type":"Feature","geometry":{"type":"Point","coordinates":[-73.943368,42.812776]}},{"properties":{"zip":"11439","geo_score":0.714,"id":"a67m80oourmv","geo_precision":"zip"},"type":"Feature","geometry":{"type":"Point","coordinates":[-73.790822,40.722008]}},{"properties":{"zip":"14853","geo_score":0.714,"id":"a67m80n2x7ub","geo_precision":"zip"},"type":"Feature","geometry":{"type":"Point","coordinates":[-76.483703,42.447373]}},{"properties":{"zip":"12204","geo_score":0.714,"id":"a67m80kvhngy","geo_precision":"zip"},"type":"Feature","geometry":{"type":"Point","coordinates":[-73.724564,42.692023]}},{"properties":{"zip":"16802-3905","geo_score":0.714,"id":"a67m80fbyu3a","geo_precision":"zip"},"type":"Feature","geometry":{"type":"Point","coordinates":[-77.862339,40.799672]}},{"properties":{"zip":"20058","geo_score":0.714,"id":"a67m80hhbkfb","geo_precision":"zip"},"type":"Feature","geometry":{"type":"Point","coordinates":[-77.014647,38.893311]}},{"properties":{"zip":"08240","geo_score":0.714,"id":"a67m80qe8dm1","geo_precision":"zip"},"type":"Feature","geometry":{"type":"Point","coordinates":[-74.554334,39.487717]}},{"properties":{"zip":"23806","geo_score":0.714,"id":"a67m80twz4o3","geo_precision":"zip"},"type":"Feature","geometry":{"type":"Point","coordinates":[-77.392784,37.204765]}},{"properties":{"zip":"07666","geo_score":0.714,"id":"a67m80oqmt4l","geo_precision":"zip"},"type":"Feature","geometry":{"type":"Point","coordinates":[-74.003194,40.902044]}},{"properties":{"zip":"20052","geo_score":0.714,"id":"a67m80qdnhvg","geo_precision":"zip"},"type":"Feature","geometry":{"type":"Point","coordinates":[-77.047899,38.90014]}},{"properties":{"zip":"16801","geo_score":0.714,"id":"a67m80mfknr2","geo_precision":"zip"},"type":"Feature","geometry":{"type":"Point","coordinates":[-77.825555,40.763396]}},{"properties":{"zip":"12538-1499","geo_score":0.714,"id":"a67m80vchagj","geo_precision":"zip"},"type":"Feature","geometry":{"type":"Point","coordinates":[-73.901525,41.76676]}},{"properties":{"zip":"14222","geo_score":0.714,"id":"a67m80hqfgq3","geo_precision":"zip"},"type":"Feature","geometry":{"type":"Point","coordinates":[-78.875007,42.918207]}},{"properties":{"zip":"14623","geo_score":0.714,"id":"a67m80hiputw","geo_precision":"zip"},"type":"Feature","geometry":{"type":"Point","coordinates":[-77.649074,43.082184]}},{"properties":{"zip":"12538","geo_score":0.714,"id":"a67m80rnj56w","geo_precision":"zip"},"type":"Feature","geometry":{"type":"Point","coordinates":[-73.901525,41.76676]}},{"properties":{"zip":"19104","geo_score":0.714,"id":"a67m80fopkph","geo_precision":"zip"},"type":"Feature","geometry":{"type":"Point","coordinates":[-75.19668,39.960912]}},{"properties":{"zip":"21093","geo_score":0.714,"id":"a67m80t5cc5z","geo_precision":"zip"},"type":"Feature","geometry":{"type":"Point","coordinates":[-76.601635,39.436495]}},{"properties":{"zip":"21044","geo_score":0.714,"id":"a67m80lcruwl","geo_precision":"zip"},"type":"Feature","geometry":{"type":"Point","coordinates":[-76.886642,39.234828]}},{"properties":{"zip":"18078","geo_score":0.714,"id":"a67m80jqf19l","geo_precision":"zip"},"type":"Feature","geometry":{"type":"Point","coordinates":[-75.645466,40.638429]}},{"properties":{"zip":"18020","geo_score":0.714,"id":"a67m80twuxom","geo_precision":"zip"},"type":"Feature","geometry":{"type":"Point","coordinates":[-75.334887,40.669251]}},{"properties":{"zip":"20058","geo_score":0.714,"id":"a67m80mc20hn","geo_precision":"zip"},"type":"Feature","geometry":{"type":"Point","coordinates":[-77.014647,38.893311]}},{"properties":{"zip":"14623","geo_score":0.714,"id":"a67m80n732mk","geo_precision":"zip"},"type":"Feature","geometry":{"type":"Point","coordinates":[-77.649074,43.082184]}},{"properties":{"zip":"07878","geo_score":0.714,"id":"a67m80lvp0yj","geo_precision":"zip"},"type":"Feature","geometry":{"type":"Point","coordinates":[-74.479878,40.87121]}},{"properties":{"zip":"02215","geo_score":0.714,"id":"a67m80nkd98a","geo_precision":"zip"},"type":"Feature","geometry":{"type":"Point","coordinates":[-71.107653,42.345079]}},{"properties":{"zip":"08078","geo_score":0.714,"id":"a67m80k8if1y","geo_precision":"zip"},"type":"Feature","geometry":{"type":"Point","coordinates":[-75.070672,39.850163]}},{"properties":{"zip":"15601-1548","geo_score":0.714,"id":"a67m80h6cg7e","geo_precision":"zip"},"type":"Feature","geometry":{"type":"Point","coordinates":[-79.548373,40.268681]}},{"properties":{"zip":"12970","geo_score":0.714,"id":"a67m80kzndyf","geo_precision":"zip"},"type":"Feature","geometry":{"type":"Point","coordinates":[-74.317958,44.552725]}},{"properties":{"zip":"08078","geo_score":0.714,"id":"a67m80m8hxz8","geo_precision":"zip"},"type":"Feature","geometry":{"type":"Point","coordinates":[-75.070672,39.850163]}},{"properties":{"zip":"19122","geo_score":0.714,"id":"a67m80ph96md","geo_precision":"zip"},"type":"Feature","geometry":{"type":"Point","coordinates":[-75.141271,39.977462]}},{"properties":{"zip":"12538-1499","geo_score":0.714,"id":"a67m80g5to62","geo_precision":"zip"},"type":"Feature","geometry":{"type":"Point","coordinates":[-73.901525,41.76676]}},{"properties":{"zip":"10003-7112","geo_score":0.714,"id":"a67m80v01sn3","geo_precision":"zip"},"type":"Feature","geometry":{"type":"Point","coordinates":[-73.988564,40.730223]}},{"properties":{"zip":"24062-9001","geo_score":0.714,"id":"a67m80ronc3e","geo_precision":"zip"},"type":"Feature","geometry":{"type":"Point","coordinates":[-80.395698,37.174227]}},{"properties":{"zip":"15705","geo_score":0.714,"id":"a67m80oz1eml","geo_precision":"zip"},"type":"Feature","geometry":{"type":"Point","coordinates":[-79.129445,40.640031]}},{"properties":{"zip":"15705","geo_score":0.714,"id":"a67m80ne0auu","geo_precision":"zip"},"type":"Feature","geometry":{"type":"Point","coordinates":[-79.129445,40.640031]}},{"properties":{"zip":"19013-5792","geo_score":0.714,"id":"a67m80ok6zue","geo_precision":"zip"},"type":"Feature","geometry":{"type":"Point","coordinates":[-75.427417,39.869556]}},{"properties":{"zip":"13820","geo_score":0.714,"id":"a67m80s5r19k","geo_precision":"zip"},"type":"Feature","geometry":{"type":"Point","coordinates":[-75.093776,42.46869]}},{"properties":{"zip":"14109","geo_score":0.714,"id":"a67m80h6edlh","geo_precision":"zip"},"type":"Feature","geometry":{"type":"Point","coordinates":[-78.830681,43.32684]}},{"properties":{"zip":"08078","geo_score":0.714,"id":"a67m80jq4oib","geo_precision":"zip"},"type":"Feature","geometry":{"type":"Point","coordinates":[-75.070672,39.850163]}},{"properties":{"zip":"08820","geo_score":0.714,"id":"a67m80l6hpxk","geo_precision":"zip"},"type":"Feature","geometry":{"type":"Point","coordinates":[-74.362616,40.576611]}},{"properties":{"zip":"08078","geo_score":0.714,"id":"a67m80mxvu1n","geo_precision":"zip"},"type":"Feature","geometry":{"type":"Point","coordinates":[-75.070672,39.850163]}},{"properties":{"zip":"23806","geo_score":0.714,"id":"a67m80rgsv9b","geo_precision":"zip"},"type":"Feature","geometry":{"type":"Point","coordinates":[-77.392784,37.204765]}},{"properties":{"zip":"19102","geo_score":0.714,"id":"a67m80o921b8","geo_precision":"zip"},"type":"Feature","geometry":{"type":"Point","coordinates":[-75.166472,39.952562]}},{"properties":{"zip":"14853","geo_score":0.714,"id":"a67m80tuz9zc","geo_precision":"zip"},"type":"Feature","geometry":{"type":"Point","coordinates":[-76.483703,42.447373]}},{"properties":{"zip":"01606","geo_score":0.714,"id":"a67m80oj0jqb","geo_precision":"zip"},"type":"Feature","geometry":{"type":"Point","coordinates":[-71.795349,42.307037]}},{"properties":{"zip":"14853","geo_score":0.714,"id":"a67m80vfb9tc","geo_precision":"zip"},"type":"Feature","geometry":{"type":"Point","coordinates":[-76.483703,42.447373]}},{"properties":{"zip":"19901","geo_score":0.714,"id":"a67m80fkm176","geo_precision":"zip"},"type":"Feature","geometry":{"type":"Point","coordinates":[-75.541313,39.173723]}},{"properties":{"zip":"16801-8814","geo_score":0.714,"id":"a67m80ills91","geo_precision":"zip"},"type":"Feature","geometry":{"type":"Point","coordinates":[-77.825555,40.763396]}},{"properties":{"zip":"15222","geo_score":0.714,"id":"a67m80gn6gb0","geo_precision":"zip"},"type":"Feature","geometry":{"type":"Point","coordinates":[-80.024817,40.434436]}},{"properties":{"zip":"12538","geo_score":0.714,"id":"a67m80letzhw","geo_precision":"zip"},"type":"Feature","geometry":{"type":"Point","coordinates":[-73.901525,41.76676]}},{"properties":{"zip":"20815","geo_score":0.714,"id":"a67m80omx0zl","geo_precision":"zip"},"type":"Feature","geometry":{"type":"Point","coordinates":[-77.096089,38.965944]}},{"properties":{"zip":"19122","geo_score":0.714,"id":"a67m80r8qn8v","geo_precision":"zip"},"type":"Feature","geometry":{"type":"Point","coordinates":[-75.141271,39.977462]}},{"properties":{"zip":"07666","geo_score":0.714,"id":"a67m80got7ro","geo_precision":"zip"},"type":"Feature","geometry":{"type":"Point","coordinates":[-74.003194,40.902044]}},{"properties":{"zip":"22807","geo_score":0.714,"id":"a67m80qudfy7","geo_precision":"zip"},"type":"Feature","geometry":{"type":"Point","coordinates":[-78.874173,38.440898]}},{"properties":{"zip":"18301","geo_score":0.714,"id":"a67m80nosirh","geo_precision":"zip"},"type":"Feature","geometry":{"type":"Point","coordinates":[-75.027675,41.078151]}},{"properties":{"zip":"21251","geo_score":0.714,"id":"a67m80o6ca1i","geo_precision":"zip"},"type":"Feature","geometry":{"type":"Point","coordinates":[-76.592139,39.438964]}},{"properties":{"zip":"19104","geo_score":0.714,"id":"a67m80rb686b","geo_precision":"zip"},"type":"Feature","geometry":{"type":"Point","coordinates":[-75.19668,39.960912]}},{"properties":{"zip":"03824","geo_score":0.714,"id":"a67m80ug94sd","geo_precision":"zip"},"type":"Feature","geometry":{"type":"Point","coordinates":[-71.01145,43.12314]}},{"properties":{"zip":"21853","geo_score":0.714,"id":"a67m80ixntgk","geo_precision":"zip"},"type":"Feature","geometry":{"type":"Point","coordinates":[-75.839931,38.187345]}},{"properties":{"zip":"01003-9247","geo_score":0.714,"id":"a67m80k07p2e","geo_precision":"zip"},"type":"Feature","geometry":{"type":"Point","coordinates":[-72.63599,42.369562]}},{"properties":{"zip":"16701-2898","geo_score":0.714,"id":"a67m80lylsu2","geo_precision":"zip"},"type":"Feature","geometry":{"type":"Point","coordinates":[-78.53169,41.942842]}},{"properties":{"zip":"01915","geo_score":0.714,"id":"a67m80jquuvp","geo_precision":"zip"},"type":"Feature","geometry":{"type":"Point","coordinates":[-70.886994,42.58065]}},{"properties":{"zip":"19716","geo_score":0.714,"id":"a67m80kpn3fp","geo_precision":"zip"},"type":"Feature","geometry":{"type":"Point","coordinates":[-75.597047,39.564499]}},{"properties":{"zip":"19122","geo_score":0.714,"id":"a67m80qcbrgd","geo_precision":"zip"},"type":"Feature","geometry":{"type":"Point","coordinates":[-75.141271,39.977462]}},{"properties":{"zip":"14109-2012","geo_score":0.714,"id":"a67m80r47chl","geo_precision":"zip"},"type":"Feature","geometry":{"type":"Point","coordinates":[-78.830681,43.32684]}},{"properties":{"zip":"22043","geo_score":0.714,"id":"a67m80ptkrbj","geo_precision":"zip"},"type":"Feature","geometry":{"type":"Point","coordinates":[-77.200814,38.912889]}},{"properties":{"zip":"17110-2999","geo_score":0.714,"id":"a67m80i2qoib","geo_precision":"zip"},"type":"Feature","geometry":{"type":"Point","coordinates":[-76.904696,40.336199]}},{"properties":{"zip":"01915","geo_score":0.714,"id":"a67m80og1agb","geo_precision":"zip"},"type":"Feature","geometry":{"type":"Point","coordinates":[-70.886994,42.58065]}},{"properties":{"zip":"12970","geo_score":0.714,"id":"a67m80fgbsvd","geo_precision":"zip"},"type":"Feature","geometry":{"type":"Point","coordinates":[-74.317958,44.552725]}},{"properties":{"zip":"12538","geo_score":0.714,"id":"a67m80hn4mj4","geo_precision":"zip"},"type":"Feature","geometry":{"type":"Point","coordinates":[-73.901525,41.76676]}},{"properties":{"zip":"03824","geo_score":0.714,"id":"a67m80o6h01g","geo_precision":"zip"},"type":"Feature","geometry":{"type":"Point","coordinates":[-71.01145,43.12314]}},{"properties":{"zip":"23806","geo_score":0.714,"id":"a67m80ffpbrx","geo_precision":"zip"},"type":"Feature","geometry":{"type":"Point","coordinates":[-77.392784,37.204765]}},{"properties":{"zip":"23806","geo_score":0.714,"id":"a67m80hervb2","geo_precision":"zip"},"type":"Feature","geometry":{"type":"Point","coordinates":[-77.392784,37.204765]}},{"properties":{"zip":"02721","geo_score":0.714,"id":"a67m80hlz9d1","geo_precision":"zip"},"type":"Feature","geometry":{"type":"Point","coordinates":[-71.153648,41.678895]}},{"properties":{"zip":"15632","geo_score":0.714,"id":"a67m80j2trhu","geo_precision":"zip"},"type":"Feature","geometry":{"type":"Point","coordinates":[-79.614766,40.476734]}},{"properties":{"zip":"20906","geo_score":0.714,"id":"a67m80mivx58","geo_precision":"zip"},"type":"Feature","geometry":{"type":"Point","coordinates":[-77.041089,39.095386]}},{"properties":{"zip":"01970","geo_score":0.714,"id":"a67m80iul6i9","geo_precision":"zip"},"type":"Feature","geometry":{"type":"Point","coordinates":[-70.892549,42.511207]}},{"properties":{"zip":"19711","geo_score":0.714,"id":"a67m80fi8mze","geo_precision":"zip"},"type":"Feature","geometry":{"type":"Point","coordinates":[-75.716322,39.689001]}},{"properties":{"zip":"20058","geo_score":0.714,"id":"a67m80tutwh7","geo_precision":"zip"},"type":"Feature","geometry":{"type":"Point","coordinates":[-77.014647,38.893311]}},{"properties":{"zip":"21853","geo_score":0.714,"id":"a67m80jbduwk","geo_precision":"zip"},"type":"Feature","geometry":{"type":"Point","coordinates":[-75.839931,38.187345]}},{"properties":{"zip":"20850","geo_score":0.714,"id":"a67m80hwtowk","geo_precision":"zip"},"type":"Feature","geometry":{"type":"Point","coordinates":[-77.204425,39.080664]}},{"properties":{"zip":"20850","geo_score":0.714,"id":"a67m80jvdg10","geo_precision":"zip"},"type":"Feature","geometry":{"type":"Point","coordinates":[-77.204425,39.080664]}},{"properties":{"zip":"20170","geo_score":0.714,"id":"a67m80ophakv","geo_precision":"zip"},"type":"Feature","geometry":{"type":"Point","coordinates":[-77.367457,38.983887]}},{"properties":{"zip":"20058","geo_score":0.714,"id":"a67m80iwydt2","geo_precision":"zip"},"type":"Feature","geometry":{"type":"Point","coordinates":[-77.014647,38.893311]}},{"properties":{"zip":"08078","geo_score":0.714,"id":"a67m80mkaztm","geo_precision":"zip"},"type":"Feature","geometry":{"type":"Point","coordinates":[-75.070672,39.850163]}},{"properties":{"zip":"03824","geo_score":0.714,"id":"a67m80im8u2g","geo_precision":"zip"},"type":"Feature","geometry":{"type":"Point","coordinates":[-71.01145,43.12314]}},{"properties":{"zip":"10003","geo_score":0.714,"id":"a67m80j3afad","geo_precision":"zip"},"type":"Feature","geometry":{"type":"Point","coordinates":[-73.988564,40.730223]}},{"properties":{"zip":"02903","geo_score":0.714,"id":"a67m80opt61w","geo_precision":"zip"},"type":"Feature","geometry":{"type":"Point","coordinates":[-71.4115,41.819459]}},{"properties":{"zip":"01970","geo_score":0.714,"id":"a67m80uxaeda","geo_precision":"zip"},"type":"Feature","geometry":{"type":"Point","coordinates":[-70.892549,42.511207]}},{"properties":{"zip":"08225","geo_score":0.714,"id":"a67m80foiz52","geo_precision":"zip"},"type":"Feature","geometry":{"type":"Point","coordinates":[-74.572227,39.421922]}},{"properties":{"zip":"13244","geo_score":0.714,"id":"a67m80v3frny","geo_precision":"zip"},"type":"Feature","geometry":{"type":"Point","coordinates":[-76.139646,43.037716]}},{"properties":{"zip":"14853","geo_score":0.714,"id":"a67m80qgd3we","geo_precision":"zip"},"type":"Feature","geometry":{"type":"Point","coordinates":[-76.483703,42.447373]}},{"properties":{"zip":"14853","geo_score":0.714,"id":"a67m80vgunh9","geo_precision":"zip"},"type":"Feature","geometry":{"type":"Point","coordinates":[-76.483703,42.447373]}},{"properties":{"zip":"07306","geo_score":0.714,"id":"a67m80s36spo","geo_precision":"zip"},"type":"Feature","geometry":{"type":"Point","coordinates":[-74.068685,40.734951]}},{"properties":{"zip":"07666","geo_score":0.714,"id":"a67m80sf86e0","geo_precision":"zip"},"type":"Feature","geometry":{"type":"Point","coordinates":[-74.003194,40.902044]}},{"properties":{"zip":"02459","geo_score":0.714,"id":"a67m80o2lii5","geo_precision":"zip"},"type":"Feature","geometry":{"type":"Point","coordinates":[-71.183298,42.334146]}},{"properties":{"zip":"06050-4010","geo_score":0.714,"id":"a67m80g5ul3x","geo_precision":"zip"},"type":"Feature","geometry":{"type":"Point","coordinates":[-72.778391,41.666049]}},{"properties":{"zip":"07666","geo_score":0.714,"id":"a67m80rw6czp","geo_precision":"zip"},"type":"Feature","geometry":{"type":"Point","coordinates":[-74.003194,40.902044]}},{"properties":{"zip":"12401","geo_score":0.714,"id":"a67m80oe4996","geo_precision":"zip"},"type":"Feature","geometry":{"type":"Point","coordinates":[-74.004583,41.909815]}},{"properties":{"zip":"14109","geo_score":0.714,"id":"a67m80p2vy6z","geo_precision":"zip"},"type":"Feature","geometry":{"type":"Point","coordinates":[-78.830681,43.32684]}},{"properties":{"zip":"14853","geo_score":0.714,"id":"a67m80kpuve1","geo_precision":"zip"},"type":"Feature","geometry":{"type":"Point","coordinates":[-76.483703,42.447373]}},{"properties":{"zip":"19013-1106","geo_score":0.714,"id":"a67m80g9m8d5","geo_precision":"zip"},"type":"Feature","geometry":{"type":"Point","coordinates":[-75.427417,39.869556]}},{"properties":{"zip":"08078","geo_score":0.714,"id":"a67m80gifwxd","geo_precision":"zip"},"type":"Feature","geometry":{"type":"Point","coordinates":[-75.070672,39.850163]}},{"properties":{"zip":"02215","geo_score":0.714,"id":"a67m80jb8rqv","geo_precision":"zip"},"type":"Feature","geometry":{"type":"Point","coordinates":[-71.107653,42.345079]}},{"properties":{"zip":"02215","geo_score":0.714,"id":"a67m80uxlip5","geo_precision":"zip"},"type":"Feature","geometry":{"type":"Point","coordinates":[-71.107653,42.345079]}},{"properties":{"zip":"04401","geo_score":0.714,"id":"a67m80vcb189","geo_precision":"zip"},"type":"Feature","geometry":{"type":"Point","coordinates":[-68.705312,44.838681]}},{"properties":{"zip":"19130","geo_score":0.714,"id":"a67m80gq7jw7","geo_precision":"zip"},"type":"Feature","geometry":{"type":"Point","coordinates":[-75.169671,40.001161]}},{"properties":{"zip":"19104","geo_score":0.714,"id":"a67m80o8j9jb","geo_precision":"zip"},"type":"Feature","geometry":{"type":"Point","coordinates":[-75.19668,39.960912]}},{"properties":{"zip":"15227","geo_score":0.714,"id":"a67m80pdh5dr","geo_precision":"zip"},"type":"Feature","geometry":{"type":"Point","coordinates":[-79.990886,40.361181]}},{"properties":{"zip":"05764-1078","geo_score":0.714,"id":"a67m80lobn5g","geo_precision":"zip"},"type":"Feature","geometry":{"type":"Point","coordinates":[-73.235942,43.475626]}},{"properties":{"zip":"29910","geo_score":0.714,"id":"a67m80qg17ge","geo_precision":"zip"},"type":"Feature","geometry":{"type":"Point","coordinates":[-80.964277,32.237978]}},{"properties":{"zip":"08078","geo_score":0.714,"id":"a67m80ryjkwe","geo_precision":"zip"},"type":"Feature","geometry":{"type":"Point","coordinates":[-75.070672,39.850163]}},{"properties":{"zip":"19107","geo_score":0.714,"id":"a67m80o2n81o","geo_precision":"zip"},"type":"Feature","geometry":{"type":"Point","coordinates":[-75.162871,39.962612]}},{"properties":{"zip":"19107","geo_score":0.714,"id":"a67m80mx1b2q","geo_precision":"zip"},"type":"Feature","geometry":{"type":"Point","coordinates":[-75.162871,39.962612]}},{"properties":{"zip":"02903","geo_score":0.714,"id":"a67m80inhj8y","geo_precision":"zip"},"type":"Feature","geometry":{"type":"Point","coordinates":[-71.4115,41.819459]}},{"properties":{"zip":"10595","geo_score":0.714,"id":"a67m80gicrq8","geo_precision":"zip"},"type":"Feature","geometry":{"type":"Point","coordinates":[-73.829301,41.081485]}},{"properties":{"zip":"26506","geo_score":0.714,"id":"a67m80sjy9gk","geo_precision":"zip"},"type":"Feature","geometry":{"type":"Point","coordinates":[-79.962669,39.645276]}},{"properties":{"zip":"24153","geo_score":0.714,"id":"a67m80nfrddb","geo_precision":"zip"},"type":"Feature","geometry":{"type":"Point","coordinates":[-80.14143,37.249023]}},{"properties":{"zip":"20716","geo_score":0.714,"id":"a67m80o5kala","geo_precision":"zip"},"type":"Feature","geometry":{"type":"Point","coordinates":[-76.742746,38.925112]}},{"properties":{"zip":"22807","geo_score":0.714,"id":"a67m80ujs610","geo_precision":"zip"},"type":"Feature","geometry":{"type":"Point","coordinates":[-78.874173,38.440898]}},{"properties":{"zip":"03106-1045","geo_score":0.714,"id":"a67m80lzs1xb","geo_precision":"zip"},"type":"Feature","geometry":{"type":"Point","coordinates":[-71.435345,43.026473]}},{"properties":{"zip":"08505","geo_score":0.714,"id":"a67m80kx4xko","geo_precision":"zip"},"type":"Feature","geometry":{"type":"Point","coordinates":[-74.704604,40.178443]}},{"properties":{"zip":"08078","geo_score":0.714,"id":"a67m80f29a3r","geo_precision":"zip"},"type":"Feature","geometry":{"type":"Point","coordinates":[-75.070672,39.850163]}},{"properties":{"zip":"H2X 3P1","geo_score":0.0,"id":"a67m80ls74fe","geo_precision":"unmatched"},"type":"Feature","geometry":null},{"properties":{"zip":"12538","geo_score":0.714,"id":"a67m80k7jpar","geo_precision":"zip"},"type":"Feature","geometry":{"type":"Point","coordinates":[-73.901525,41.76676]}},{"properties":{"zip":"20817","geo_score":0.714,"id":"a67m80mxusqu","geo_precision":"zip"},"type":"Feature","geometry":{"type":"Point","coordinates":[-77.149702,39.019276]}},{"properties":{"zip":"04101","geo_score":0.714,"id":"a67m80pqwr0s","geo_precision":"zip"},"type":"Feature","geometry":{"type":"Point","coordinates":[-70.281438,43.673415]}},{"properties":{"zip":"04101","geo_score":0.714,"id":"a67m80v11mgj","geo_precision":"zip"},"type":"Feature","geometry":{"type":"Point","coordinates":[-70.281438,43.673415]}},{"properties":{"zip":"06605","geo_score":0.714,"id":"a67m80psc1vh","geo_precision":"zip"},"type":"Feature","geometry":{"type":"Point","coordinates":[-73.216557,41.162573]}},{"properties":{"zip":"12901","geo_score":0.714,"id":"a67m80lx8393","geo_precision":"zip"},"type":"Feature","geometry":{"type":"Point","coordinates":[-73.411801,44.722543]}},{"properties":{"zip":"08078","geo_score":0.714,"id":"a67m80sjn7uw","geo_precision":"zip"},"type":"Feature","geometry":{"type":"Point","coordinates":[-75.070672,39.850163]}},{"properties":{"zip":"10801","geo_score":0.714,"id":"a67m80tb4rzi","geo_precision":"zip"},"type":"Feature","geometry":{"type":"Point","coordinates":[-73.801401,41.035123]}},{"properties":{"zip":"14623","geo_score":0.714,"id":"a67m80qzh1ik","geo_precision":"zip"},"type":"Feature","geometry":{"type":"Point","coordinates":[-77.649074,43.082184]}},{"properties":{"zip":"14623","geo_score":0.714,"id":"a67m80rxo6cw","geo_precision":"zip"},"type":"Feature","geometry":{"type":"Point","coordinates":[-77.649074,43.082184]}},{"properties":{"zip":"14623","geo_score":0.714,"id":"a67m80gjf7zt","geo_precision":"zip"},"type":"Feature","geometry":{"type":"Point","coordinates":[-77.649074,43.082184]}},{"properties":{"zip":"14623","geo_score":0.714,"id":"a67m80kpmh73","geo_precision":"zip"},"type":"Feature","geometry":{"type":"Point","coordinates":[-77.649074,43.082184]}},{"properties":{"zip":"14623","geo_score":0.714,"id":"a67m80g74201","geo_precision":"zip"},"type":"Feature","geometry":{"type":"Point","coordinates":[-77.649074,43.082184]}},{"properties":{"zip":"01003-9247","geo_score":0.714,"id":"a67m80n6bsj2","geo_precision":"zip"},"type":"Feature","geometry":{"type":"Point","coordinates":[-72.63599,42.369562]}},{"properties":{"zip":"46385","geo_score":0.714,"id":"a67m80s4li6b","geo_precision":"zip"},"type":"Feature","geometry":{"type":"Point","coordinates":[-87.078309,41.470567]}},{"properties":{"zip":"19004","geo_score":0.714,"id":"a67m80skr3yk","geo_precision":"zip"},"type":"Feature","geometry":{"type":"Point","coordinates":[-75.215458,40.00539]}},{"properties":{"zip":"18066","geo_score":0.714,"id":"a67m80gij1xx","geo_precision":"zip"},"type":"Feature","geometry":{"type":"Point","coordinates":[-75.723524,40.63315]}},{"properties":{"zip":"C1A 4P3","geo_score":0.0,"id":"a67m80g1eo9e","geo_precision":"unmatched"},"type":"Feature","geometry":null},{"properties":{"zip":"04101","geo_score":0.714,"id":"a67m80fgst4q","geo_precision":"zip"},"type":"Feature","geometry":{"type":"Point","coordinates":[-70.281438,43.673415]}},{"properties":{"zip":"N1G2W1","geo_score":0.0,"id":"a67m80kbvtne","geo_precision":"unmatched"},"type":"Feature","geometry":null},{"properties":{"zip":"22043","geo_score":0.714,"id":"a67m80v9h3pq","geo_precision":"zip"},"type":"Feature","geometry":{"type":"Point","coordinates":[-77.200814,38.912889]}},{"properties":{"zip":"19104","geo_score":0.714,"id":"a67m80nvmnzm","geo_precision":"zip"},"type":"Feature","geometry":{"type":"Point","coordinates":[-75.19668,39.960912]}},{"properties":{"zip":"19146","geo_score":0.714,"id":"a67m80spqjd5","geo_precision":"zip"},"type":"Feature","geometry":{"type":"Point","coordinates":[-75.175822,39.945112]}},{"properties":{"zip":"02215","geo_score":0.714,"id":"a67m80t4tsoz","geo_precision":"zip"},"type":"Feature","geometry":{"type":"Point","coordinates":[-71.107653,42.345079]}},{"properties":{"zip":"02903","geo_score":0.714,"id":"a67m80k94q7b","geo_precision":"zip"},"type":"Feature","geometry":{"type":"Point","coordinates":[-71.4115,41.819459]}},{"properties":{"zip":"10023","geo_score":0.714,"id":"a67m80hc51qu","geo_precision":"zip"},"type":"Feature","geometry":{"type":"Point","coordinates":[-73.982213,40.776765]}},{"properties":{"zip":"07470","geo_score":0.714,"id":"a67m80uwikzc","geo_precision":"zip"},"type":"Feature","geometry":{"type":"Point","coordinates":[-74.262092,40.991764]}},{"properties":{"zip":"02703","geo_score":0.714,"id":"a67m80m613ir","geo_precision":"zip"},"type":"Feature","geometry":{"type":"Point","coordinates":[-71.307831,41.908433]}},{"properties":{"zip":"04401","geo_score":0.714,"id":"a67m80sojz1m","geo_precision":"zip"},"type":"Feature","geometry":{"type":"Point","coordinates":[-68.705312,44.838681]}},{"properties":{"zip":"05656","geo_score":0.714,"id":"a67m80s79e0e","geo_precision":"zip"},"type":"Feature","geometry":{"type":"Point","coordinates":[-72.661508,44.640051]}},{"properties":{"zip":"19107","geo_score":0.714,"id":"a67m80snrfj4","geo_precision":"zip"},"type":"Feature","geometry":{"type":"Point","coordinates":[-75.162871,39.962612]}},{"properties":{"zip":"02771","geo_score":0.714,"id":"a67m80lbuedb","geo_precision":"zip"},"type":"Feature","geometry":{"type":"Point","coordinates":[-71.330054,41.889267]}},{"properties":{"zip":"26241","geo_score":0.714,"id":"a67m80pw4q19","geo_precision":"zip"},"type":"Feature","geometry":{"type":"Point","coordinates":[-79.869791,38.907329]}},{"properties":{"zip":"12901","geo_score":0.714,"id":"a67m80q2hl0t","geo_precision":"zip"},"type":"Feature","geometry":{"type":"Point","coordinates":[-73.411801,44.722543]}},{"properties":{"zip":"20058","geo_score":0.714,"id":"a67m80h8vgfg","geo_precision":"zip"},"type":"Feature","geometry":{"type":"Point","coordinates":[-77.014647,38.893311]}},{"properties":{"zip":"15705","geo_score":0.714,"id":"a67m80t5edbi","geo_precision":"zip"},"type":"Feature","geometry":{"type":"Point","coordinates":[-79.129445,40.640031]}},{"properties":{"zip":"C1A 1E9","geo_score":0.0,"id":"a67m80js2wiz","geo_precision":"unmatched"},"type":"Feature","geometry":null},{"properties":{"zip":"01040","geo_score":0.714,"id":"a67m80j439wb","geo_precision":"zip"},"type":"Feature","geometry":{"type":"Point","coordinates":[-72.620368,42.191759]}}],"is_temporal":false,"author":{"url":"","metadata":null,"contact_name":null,"contact_address":null,"source":null,"contact_phone":null},"source":"","pagination":{"sort":null,"start":0,"total":252,"limit":1000000},"state":"complete","tags":"","published":"2014-08-14T16:08:11-04:00","id":210798}