{"type":"FeatureCollection","data_type":"Dataset","url_type":null,"permissions":[{"permissions":{"download":true,"view":true},"group_id":"everyone"}],"classification":null,"title":"120228_NWS_Tornado_Reports","count":25,"stream_id":210872,"contributor":{"url":"http://geocommons.com/users/1842","name":"geomatt1"},"data_attributes":null,"calculation_params":null,"icon_link":null,"link":"http://geocommons.com/overlays/210872.json","extent":[-100.62,36.63,-88.55,41.55],"geometry_types":["point"],"unique_name":null,"name":"120228_NWS_Tornado_Reports","feature_count":25,"description":"Tornado Reports from February 28, 2012","next_feature":null,"is_raster":false,"short_classification":"Y","stats":{"lon":{"max":-88.55,"mean":-93.9552,"variance":11.958601,"stdev":3.4581210215954,"min":-100.62,"median":-93.22},"time":{"max":2338,"mean":908.92,"variance":440295.16,"stdev":663.547405992971,"min":43,"median":713},"lat":{"max":41.55,"mean":38.162,"variance":2.1423,"stdev":1.46365979653743,"min":36.63,"median":37.66}},"features":[{"properties":{"lon":-100.49,"comments":"TORNADO TOUCHED DOWN 21 MILES NORTHEAST OF NORTH PLATTE IN RURAL LINCOLN COUNTY. THE TORNADO TRAVELED NORTHEAST","time":2213,"county":"LINCOLN","column_9":"LIFTED BRIEFLY THEN CONTINUED NORTHEAST FOR SIX MINUTES (LBF)","f-scale":"UNK","id":"a6367ndzpq2u","lat":41.35,"state":"NE","location":"21 NE NORTH PLATTE"},"type":"Feature","geometry":{"type":"Point","coordinates":[-100.49,41.35]}},{"properties":{"lon":-100.62,"comments":"OFF DUTY NWS EMPLOYEE REPORTED A TORNADO 9 MILES WSW OF GANDY. (LBF)","time":2213,"county":"LOGAN","column_9":null,"f-scale":"UNK","id":"a6367nokg7vn","lat":41.42,"state":"NE","location":"9 WSW GANDY"},"type":"Feature","geometry":{"type":"Point","coordinates":[-100.62,41.42]}},{"properties":{"lon":-97.98,"comments":"EF0 TORNADO TRACKED FOR TWO MILES FROM 5 MILES SOUTHEAST OF RANDALL TO 6 MILES EAST-SOUTHEAST OF RANDALL. ONE FARM STRUCK...WITH DAMAGE INCLUDING METAL ROOF TORN OFF OU (GID)","time":2328,"county":"JEWELL","column_9":null,"f-scale":"UNK","id":"a6367nl4i626","lat":39.59,"state":"KS","location":"5 SE RANDALL"},"type":"Feature","geometry":{"type":"Point","coordinates":[-97.98,39.59]}},{"properties":{"lon":-97.91,"comments":"EF0 TORNADO CONFIRMED IN FAR NORTHWEST CLOUD COUNTY VIA DAMAGE REPORTS FROM SURVEY TEAM AND MULTIPLE PUBLIC REPORTS. TORNADO LIKELY ENTERED FROM THE JEWELL-CLOUD COUNTY (TOP)","time":2338,"county":"CLOUD","column_9":null,"f-scale":"UNK","id":"a6367nt27fhg","lat":39.64,"state":"KS","location":"4 NW JAMESTOWN"},"type":"Feature","geometry":{"type":"Point","coordinates":[-97.91,39.64]}},{"properties":{"lon":-97.96,"comments":"STORM CHASER REPORTED A TORNADO LASTING ABOUT 5 MINUTES FROM 643 TO 648 PM. (ICT)","time":43,"county":"RENO","column_9":null,"f-scale":"UNK","id":"a6367ndaqoc4","lat":37.99,"state":"KS","location":"6 SSW HUTCHINSON"},"type":"Feature","geometry":{"type":"Point","coordinates":[-97.96,37.99]}},{"properties":{"lon":-98.61,"comments":"EF0 BRIEF TORNADO IN A FIELD NEAR INTERSECTION OF 809 RD AND 493 AVE. SPOTTER WITNESSED THE TORNADO FROM ONE HALF MILE AWAY AND THE TORNADO DESTROYED A PIVOT IN THE FIE (GID)","time":100,"county":"GREELEY","column_9":null,"f-scale":"UNK","id":"a6367no3q7aq","lat":41.55,"state":"NE","location":"4 W GREELEY"},"type":"Feature","geometry":{"type":"Point","coordinates":[-98.61,41.55]}},{"properties":{"lon":-95.96,"comments":"PRELIMINARY INFORMATION FROM INCIDENT COMMAND...POSSIBLE TORNADO...1 CRITICAL INJURY...SEVERAL MINOR INJURIES...NUMEROUS HOMES DESTROYED...ALL PEOPLE ACCOUNTED FOR IN T (TOP)","time":302,"county":"WABAUNSEE","column_9":null,"f-scale":"UNK","id":"a6367nkh3sse","lat":38.79,"state":"KS","location":"HARVEYVILLE"},"type":"Feature","geometry":{"type":"Point","coordinates":[-95.96,38.79]}},{"properties":{"lon":-95.36,"comments":"EF0 TORNADO CONFIRMED BY DOUGLAS COUNTY EMERGENCY MANAGEMENT SURVEY AND OTHER PUBLIC REPORTS. PATH OF TORNADO FROM 4 S GLOBE IN NORTHERN FRANKLIN COUNTY...TO 1.5 S WORD (TOP)","time":411,"county":"DOUGLAS","column_9":null,"f-scale":"UNK","id":"a6367nouk0d4","lat":38.75,"state":"KS","location":"3 SE GLOBE"},"type":"Feature","geometry":{"type":"Point","coordinates":[-95.36,38.75]}},{"properties":{"lon":-94.09,"comments":"TREES DOWN. (SGF)","time":515,"county":"BARTON","column_9":null,"f-scale":"UNK","id":"a6367npdlmch","lat":37.59,"state":"MO","location":"5 WSW JERICO SPRINGS"},"type":"Feature","geometry":{"type":"Point","coordinates":[-94.09,37.59]}},{"properties":{"lon":-93.12,"comments":"1 HOUSE DESTROYED ALONG WITH 3 TURKEY BARNS. DAMAGE ALONG WILDLIFE RD. (SGF)","time":556,"county":"DALLAS","column_9":null,"f-scale":"UNK","id":"a6367np32m8r","lat":37.62,"state":"MO","location":"2 SW BUFFALO"},"type":"Feature","geometry":{"type":"Point","coordinates":[-93.12,37.62]}},{"properties":{"lon":-93.22,"comments":"A NWS SURVEY INDICATED THAT AN EF-1 TORNADO TOUCHED DOWN NEAR THE POLK AND DALLAS COUNTY LINE. ANOTHER LSR WILL HAVE MORE DETAILS ON THIS TRACK INTO DALLAS COUNTY. (SGF)","time":558,"county":"POLK","column_9":null,"f-scale":"UNK","id":"a6367ng02jbr","lat":37.56,"state":"MO","location":"4 SSE HALF WAY"},"type":"Feature","geometry":{"type":"Point","coordinates":[-93.22,37.56]}},{"properties":{"lon":-93.15,"comments":"*** 1 FATAL","time":600,"county":"DALLAS","column_9":"12 INJ *** THIS TORNADO MOVED FROM POLK INTO DALLAS COUNTY FROM 1 MILE NORTH NORTHWEST OF FOOSE TO 2 MILES EAST OF BUFFALO. (SGF)","f-scale":"UNK","id":"a6367nf1vq2l","lat":37.57,"state":"MO","location":"1 NNW FOOSE"},"type":"Feature","geometry":{"type":"Point","coordinates":[-93.15,37.57]}},{"properties":{"lon":-92.81,"comments":"*** 1 INJ *** AN EF-1 MAGNITUDE TORNADO TRACKED FROM 2 MILES NORTHWEST OF PHILLIPSBURG TO 1 MILE SOUTHEAST OF LEBANON SEVERAL HOMES WERE DAMAGED AND TREES UPROOTED. ONE (SGF)","time":618,"county":"LACLEDE","column_9":null,"f-scale":"UNK","id":"a6367niekbjz","lat":37.57,"state":"MO","location":"2 NW PHILLIPSBURG"},"type":"Feature","geometry":{"type":"Point","coordinates":[-92.81,37.57]}},{"properties":{"lon":-92.84,"comments":"A BRIEF TORNADO TOUCHDOWN DAMAGED AROUND 20 RECREATIONAL VEHICLES AND AN ANTIQUE SHOP. (SGF)","time":622,"county":"LACLEDE","column_9":null,"f-scale":"UNK","id":"a6367nqurusn","lat":37.72,"state":"MO","location":"1 SE BENNETT SPRINGS"},"type":"Feature","geometry":{"type":"Point","coordinates":[-92.84,37.72]}},{"properties":{"lon":-92.69,"comments":"(SGF)","time":625,"county":"LACLEDE","column_9":null,"f-scale":"UNK","id":"a6367nhsu2bt","lat":37.66,"state":"MO","location":"2 SW LEBANON"},"type":"Feature","geometry":{"type":"Point","coordinates":[-92.69,37.66]}},{"properties":{"lon":-92.69,"comments":"TORNADO ON THE GROUND JUST SW OF LEBANON (SGF)","time":628,"county":"LACLEDE","column_9":null,"f-scale":"UNK","id":"a6367nk57el3","lat":37.66,"state":"MO","location":"2 SW LEBANON"},"type":"Feature","geometry":{"type":"Point","coordinates":[-92.69,37.66]}},{"properties":{"lon":-93.44,"comments":"*** 35 INJ *** AN EF-2 TORNADO TRACKED FROM FROM NEAR KIMBERLING CITY NEAR JOE BALD ROAD TO 2 MILES ESE OF KISSEE MILLS IN TANEY COUNTY. ESTIMATED MAX WIND SPEEDS OF 12 (SGF)","time":713,"county":"STONE","column_9":null,"f-scale":"UNK","id":"a6367nehsg35","lat":36.63,"state":"MO","location":"1 WSW KIMBERLING CITY"},"type":"Feature","geometry":{"type":"Point","coordinates":[-93.44,36.63]}},{"properties":{"lon":-93.22,"comments":"MULTIPLE TREES REPORTED DOWN. GAS STATION REPORTED DAMAGED. MULTIPLE SERVICE POLES REPORTED DOWN. (SGF)","time":723,"county":"TANEY","column_9":null,"f-scale":"UNK","id":"a6367np2202j","lat":36.64,"state":"MO","location":"BRANSON"},"type":"Feature","geometry":{"type":"Point","coordinates":[-93.22,36.64]}},{"properties":{"lon":-93.22,"comments":"CAPRI MOTOR INN DAMAGED. WALL OF RESTAURANT DOWN. SIGN DOWN. HIGHWWAY PATROL REPORTS POWERLINES DOWN ACROSS HIGHWAY. (SGF)","time":724,"county":"TANEY","column_9":null,"f-scale":"UNK","id":"a6367nj2pl25","lat":36.64,"state":"MO","location":"BRANSON"},"type":"Feature","geometry":{"type":"Point","coordinates":[-93.22,36.64]}},{"properties":{"lon":-93.42,"comments":"20 HOMES DESTROYED. 20 DAMAGED. (SGF)","time":729,"county":"STONE","column_9":null,"f-scale":"UNK","id":"a6367nnve9zj","lat":36.63,"state":"MO","location":"KIMBERLING CITY"},"type":"Feature","geometry":{"type":"Point","coordinates":[-93.42,36.63]}},{"properties":{"lon":-90.2,"comments":"*** 1 INJ *** 3 HOMES DAMAGED... AT LEAST ONE WITH A ROOF MISSING AND THE OTHERS WITH SIDING REMOVED. ANOTHER ROOF REMOVED FROM BARN. SEVERAL TREES DOWNED WITH DIAMETER (LSX)","time":911,"county":"MADISON","column_9":null,"f-scale":"UNK","id":"a6367nlb8car","lat":37.43,"state":"MO","location":"2 W MARQUAND"},"type":"Feature","geometry":{"type":"Point","coordinates":[-90.2,37.43]}},{"properties":{"lon":-90.04,"comments":"6-8 HOMES HAVE ROOF DAMAGE ALONG HIGHWAY 72. 10 LARGER BARNS DESTROYED OVER A 5 MILE AREA. TREE DAMAGE IS WIDESPREAD. NUMEROUS POWER POLES DOWN. (PAH)","time":925,"county":"BOLLINGER","column_9":null,"f-scale":"UNK","id":"a6367nq84e91","lat":37.44,"state":"MO","location":"PATTON"},"type":"Feature","geometry":{"type":"Point","coordinates":[-90.04,37.44]}},{"properties":{"lon":-88.58,"comments":"CONFIRMED TORNADO BY TRAINED SPOTTER. APPROACHING THE SOUTH SIDE OF HARRISBURG. (PAH)","time":1056,"county":"SALINE","column_9":null,"f-scale":"UNK","id":"a6367neo1f61","lat":37.72,"state":"IL","location":"2 SW HARRISBURG"},"type":"Feature","geometry":{"type":"Point","coordinates":[-88.58,37.72]}},{"properties":{"lon":-88.71,"comments":"OFFICE OF EM REPORTING TORNADO NEAR METROPOLIS ILLINOIS. SEEING POWER FLASHES FROM TRANSFORMERS ALSO. (PAH)","time":1135,"county":"MASSAC","column_9":null,"f-scale":"UNK","id":"a6367nnjovm0","lat":37.15,"state":"IL","location":"METROPOLIS"},"type":"Feature","geometry":{"type":"Point","coordinates":[-88.71,37.15]}},{"properties":{"lon":-88.55,"comments":"SOUTHEAST PORTION OF TOWN EXPERIENCED MAJOR DAMAGE. POSSIBLE ONE DEATH BUT NO COMFIRMED. SEARCH AND RESCUE IN PROCESS AT THIS TIME. (PAH)","time":1137,"county":"SALINE","column_9":null,"f-scale":"UNK","id":"a6367niu7xfs","lat":37.74,"state":"IL","location":"HARRISBURG"},"type":"Feature","geometry":{"type":"Point","coordinates":[-88.55,37.74]}}],"is_temporal":false,"author":{"url":"http://www.spc.noaa.gov/climo/reports/120228_rpts.html","metadata":null,"contact_name":null,"contact_address":null,"source":null,"contact_phone":null},"source":"http://www.spc.noaa.gov/climo/reports/120228_rpts.html","pagination":{"sort":null,"start":0,"total":25,"limit":1000000},"state":"complete","tags":"","published":"2014-08-14T16:14:54-04:00","id":210872}