{"type":"FeatureCollection","data_type":"Dataset","url_type":null,"permissions":[{"permissions":{"download":true,"view":true},"group_id":"everyone"}],"classification":null,"title":"today_filtered_hail","count":22,"stream_id":211081,"contributor":{"url":"http://geocommons.com/users/28467","name":"bheberto"},"data_attributes":null,"calculation_params":null,"icon_link":null,"link":"http://geocommons.com/overlays/211081.json","extent":[-91.95,36.62,-82.56,39.86],"geometry_types":["point"],"unique_name":null,"name":"today_filtered_hail","feature_count":22,"description":"","next_feature":null,"is_raster":false,"short_classification":"Y","stats":{"lon":{"max":-82.56,"mean":-88.3,"variance":4.49687619047619,"stdev":2.12058392677022,"min":-91.95,"median":-88.0},"size":{"max":175,"mean":142.045454545455,"variance":1392.04545454545,"stdev":37.3101253622318,"min":100,"median":175},"time":{"max":"1620/12/31 23:59:56 -0456","mean":"1409/09/06 22:54:28 -0456","variance":1.96288396196629e+19,"stdev":4430444630.01886,"min":"1208/12/31 23:59:56 -0456","median":"1445/12/31 23:59:56 -0456"},"lat":{"max":39.86,"mean":39.18,"variance":0.472523809523811,"stdev":0.687403672905383,"min":36.62,"median":39.34}},"features":[{"properties":{"lon":-90.32,"size":175,"comments":"(LSX)","time":{"end_time":"1210/01/01 00:00:00 -0456","original":"1209","granularity":"year","time":"1209/01/01 00:00:00 -0456"},"county":"ST. LOUIS","id":"a62fnpoqnqhk","lat":38.81,"state":"MO","location":"1 N FLORISSANT"},"type":"Feature","geometry":{"type":"Point","coordinates":[-90.32,38.81]}},{"properties":{"lon":-91.95,"size":175,"comments":"(LSX)","time":{"end_time":"1217/01/01 00:00:00 -0456","original":"1216","granularity":"year","time":"1216/01/01 00:00:00 -0456"},"county":"CALLAWAY","id":"a62fnpk6vq4i","lat":38.85,"state":"MO","location":"FULTON"},"type":"Feature","geometry":{"type":"Point","coordinates":[-91.95,38.85]}},{"properties":{"lon":-90.05,"size":175,"comments":"(LSX)","time":{"end_time":"1225/01/01 00:00:00 -0456","original":"1224","granularity":"year","time":"1224/01/01 00:00:00 -0456"},"county":"MADISON","id":"a62fnpo9zidw","lat":38.9,"state":"IL","location":"BETHALTO"},"type":"Feature","geometry":{"type":"Point","coordinates":[-90.05,38.9]}},{"properties":{"lon":-91.51,"size":100,"comments":"(LSX)","time":{"end_time":"1244/01/01 00:00:00 -0456","original":"1243","granularity":"year","time":"1243/01/01 00:00:00 -0456"},"county":"MONTGOMERY","id":"a62fnpmqs9lc","lat":38.98,"state":"MO","location":"MONTGOMERY CITY"},"type":"Feature","geometry":{"type":"Point","coordinates":[-91.51,38.98]}},{"properties":{"lon":-89.67,"size":100,"comments":"(LSX)","time":{"end_time":"1247/01/01 00:00:00 -0456","original":"1246","granularity":"year","time":"1246/01/01 00:00:00 -0456"},"county":"MADISON","id":"a62fnpn96bkn","lat":38.97,"state":"IL","location":"NEW DOUGLAS"},"type":"Feature","geometry":{"type":"Point","coordinates":[-89.67,38.97]}},{"properties":{"lon":-90.58,"size":125,"comments":"(LSX)","time":{"end_time":"1252/01/01 00:00:00 -0456","original":"1251","granularity":"year","time":"1251/01/01 00:00:00 -0456"},"county":"ST. CHARLES","id":"a62fnpkagajk","lat":38.75,"state":"MO","location":"HARVESTER"},"type":"Feature","geometry":{"type":"Point","coordinates":[-90.58,38.75]}},{"properties":{"lon":-89.39,"size":100,"comments":"(LSX)","time":{"end_time":"1304/01/01 00:00:00 -0456","original":"1303","granularity":"year","time":"1303/01/01 00:00:00 -0456"},"county":"MONTGOMERY","id":"a62fnppkmpj3","lat":39.09,"state":"IL","location":"COFFEEN"},"type":"Feature","geometry":{"type":"Point","coordinates":[-89.39,39.09]}},{"properties":{"lon":-89.29,"size":100,"comments":"(LSX)","time":{"end_time":"1311/01/01 00:00:00 -0456","original":"1310","granularity":"year","time":"1310/01/01 00:00:00 -0456"},"county":"MONTGOMERY","id":"a62fnpop29fs","lat":39.3,"state":"IL","location":"NOKOMIS"},"type":"Feature","geometry":{"type":"Point","coordinates":[-89.29,39.3]}},{"properties":{"lon":-89.11,"size":175,"comments":"(LSX)","time":{"end_time":"1333/01/01 00:00:00 -0456","original":"1332","granularity":"year","time":"1332/01/01 00:00:00 -0456"},"county":"FAYETTE","id":"a62fnpey89kg","lat":39.14,"state":"IL","location":"RAMSEY"},"type":"Feature","geometry":{"type":"Point","coordinates":[-89.11,39.14]}},{"properties":{"lon":-88.43,"size":175,"comments":"SWOP (ILX)","time":{"end_time":"1403/01/01 00:00:00 -0456","original":"1402","granularity":"year","time":"1402/01/01 00:00:00 -0456"},"county":"CUMBERLAND","id":"a62fnpggup9x","lat":39.34,"state":"IL","location":"2 NE NEOGA"},"type":"Feature","geometry":{"type":"Point","coordinates":[-88.43,39.34]}},{"properties":{"lon":-88.0,"size":175,"comments":"(ILX)","time":{"end_time":"1430/01/01 00:00:00 -0456","original":"1429","granularity":"year","time":"1429/01/01 00:00:00 -0456"},"county":"CLARK","id":"a62fnpk4cikt","lat":39.46,"state":"IL","location":"WESTFIELD"},"type":"Feature","geometry":{"type":"Point","coordinates":[-88.0,39.46]}},{"properties":{"lon":-87.69,"size":100,"comments":"SWOP REPORT. (ILX)","time":{"end_time":"1447/01/01 00:00:00 -0456","original":"1446","granularity":"year","time":"1446/01/01 00:00:00 -0456"},"county":"EDGAR","id":"a62fnpg1kmnk","lat":39.62,"state":"IL","location":"PARIS"},"type":"Feature","geometry":{"type":"Point","coordinates":[-87.69,39.62]}},{"properties":{"lon":-87.38,"size":175,"comments":"AT 13TH AND DELAWARE STREETS IN TERRE HAUTE. (IND)","time":{"end_time":"1451/01/01 00:00:00 -0456","original":"1450","granularity":"year","time":"1450/01/01 00:00:00 -0456"},"county":"VIGO","id":"a62fnpcprhpy","lat":39.47,"state":"IN","location":"TERRE HAUTE"},"type":"Feature","geometry":{"type":"Point","coordinates":[-87.38,39.47]}},{"properties":{"lon":-87.12,"size":175,"comments":"(IND)","time":{"end_time":"1508/01/01 00:00:00 -0456","original":"1507","granularity":"year","time":"1507/01/01 00:00:00 -0456"},"county":"CLAY","id":"a62fnpheajko","lat":39.52,"state":"IN","location":"BRAZIL"},"type":"Feature","geometry":{"type":"Point","coordinates":[-87.12,39.52]}},{"properties":{"lon":-87.23,"size":175,"comments":"(IND)","time":{"end_time":"1508/01/01 00:00:00 -0456","original":"1507","granularity":"year","time":"1507/01/01 00:00:00 -0456"},"county":"PARKE","id":"a62fnpp9wd3e","lat":39.77,"state":"IN","location":"ROCKVILLE"},"type":"Feature","geometry":{"type":"Point","coordinates":[-87.23,39.77]}},{"properties":{"lon":-86.8,"size":100,"comments":"(IND)","time":{"end_time":"1522/01/01 00:00:00 -0456","original":"1521","granularity":"year","time":"1521/01/01 00:00:00 -0456"},"county":"PUTNAM","id":"a62fnpieqc9y","lat":39.61,"state":"IN","location":"3 SE GREENCASTLE"},"type":"Feature","geometry":{"type":"Point","coordinates":[-86.8,39.61]}},{"properties":{"lon":-86.82,"size":175,"comments":"(IND)","time":{"end_time":"1535/01/01 00:00:00 -0456","original":"1534","granularity":"year","time":"1534/01/01 00:00:00 -0456"},"county":"PUTNAM","id":"a62fnpg9v4fx","lat":39.77,"state":"IN","location":"1 NNW BAINBRIDGE"},"type":"Feature","geometry":{"type":"Point","coordinates":[-86.82,39.77]}},{"properties":{"lon":-86.39,"size":100,"comments":"(IND)","time":{"end_time":"1545/01/01 00:00:00 -0456","original":"1544","granularity":"year","time":"1544/01/01 00:00:00 -0456"},"county":"HENDRICKS","id":"a62fnpmglrsy","lat":39.7,"state":"IN","location":"PLAINFIELD"},"type":"Feature","geometry":{"type":"Point","coordinates":[-86.39,39.7]}},{"properties":{"lon":-86.64,"size":100,"comments":"(IND)","time":{"end_time":"1552/01/01 00:00:00 -0456","original":"1551","granularity":"year","time":"1551/01/01 00:00:00 -0456"},"county":"HENDRICKS","id":"a62fnpeob48g","lat":39.86,"state":"IN","location":"NORTH SALEM"},"type":"Feature","geometry":{"type":"Point","coordinates":[-86.64,39.86]}},{"properties":{"lon":-86.15,"size":175,"comments":"HAIL MEASURED AT I-465 AND HARDING (IND)","time":{"end_time":"1559/01/01 00:00:00 -0456","original":"1558","granularity":"year","time":"1558/01/01 00:00:00 -0456"},"county":"MARION","id":"a62fnpdhffpo","lat":39.78,"state":"IN","location":"INDIANAPOLIS"},"type":"Feature","geometry":{"type":"Point","coordinates":[-86.15,39.78]}},{"properties":{"lon":-82.56,"size":100,"comments":"(MRX)","time":{"end_time":"1610/01/01 00:00:00 -0456","original":"1609","granularity":"year","time":"1609/01/01 00:00:00 -0456"},"county":"SCOTT","id":"a62fnpozakci","lat":36.62,"state":"VA","location":"WEBER CITY"},"type":"Feature","geometry":{"type":"Point","coordinates":[-82.56,36.62]}},{"properties":{"lon":-89.52,"size":175,"comments":"(LSX)","time":{"end_time":"1622/01/01 00:00:00 -0456","original":"1621","granularity":"year","time":"1621/01/01 00:00:00 -0456"},"county":"CLINTON","id":"a62fnpq3s6gi","lat":38.65,"state":"IL","location":"3 N BREESE"},"type":"Feature","geometry":{"type":"Point","coordinates":[-89.52,38.65]}}],"is_temporal":true,"author":{"url":"","metadata":null,"contact_name":null,"contact_address":null,"source":null,"contact_phone":null},"source":"","pagination":{"sort":null,"start":0,"total":22,"limit":1000000},"state":"complete","tags":"","published":"2014-08-14T16:32:36-04:00","id":211081}