{"type":"FeatureCollection","data_type":"Dataset","url_type":null,"permissions":[{"permissions":{"download":true,"view":true},"group_id":"everyone"}],"classification":null,"title":"today_torn_3","count":14,"stream_id":211100,"contributor":{"url":"http://geocommons.com/users/28467","name":"bheberto"},"data_attributes":null,"calculation_params":null,"icon_link":null,"link":"http://geocommons.com/overlays/211100.json","extent":[-89.68,34.78,-86.46,38.55],"geometry_types":["point"],"unique_name":null,"name":"today_torn_3","feature_count":14,"description":"","next_feature":null,"is_raster":false,"short_classification":"Y","stats":{"lon":{"max":-86.46,"variance":0.706698901098906,"mean":-86.7728571428571,"stdev":0.8406538533183,"min":-89.68,"median":-86.52},"time":{"max":"1653/12/31 23:59:56 -0456","variance":1.34400515771583e+18,"mean":"1600/03/19 13:42:47 -0456","stdev":1159312364.16931,"min":"1542/12/31 23:59:56 -0456","median":"1609/12/31 23:59:56 -0456"},"lat":{"max":38.55,"variance":0.974679670329669,"mean":35.1221428571429,"stdev":0.987258664347733,"min":34.78,"median":34.87}},"features":[{"properties":{"lon":-86.57,"comments":"50 MPH WINDS WITH POWER LINES SPARKING...ROTATION REPORTED. TORNADO REPORTED ON GROUND (HUN)","time":{"end_time":"1544/01/01 00:00:00 -0456","original":"1543","granularity":"year","time":"1543/01/01 00:00:00 -0456"},"county":"MADISON","f-scale":"UNK","id":"a6ctwikg6yu0","lat":34.86,"state":"AL","location":"5 S HAZEL GREEN"},"type":"Feature","geometry":{"type":"Point","coordinates":[-86.57,34.86]}},{"properties":{"lon":-86.57,"comments":"POWER LINES DOWN ON CAR (HUN)","time":{"end_time":"1548/01/01 00:00:00 -0456","original":"1547","granularity":"year","time":"1547/01/01 00:00:00 -0456"},"county":"MADISON","f-scale":"UNK","id":"a6ctwinjnmam","lat":34.89,"state":"AL","location":"3 N MERIDIANVILLE"},"type":"Feature","geometry":{"type":"Point","coordinates":[-86.57,34.89]}},{"properties":{"lon":-86.67,"comments":"RESEARCH PARK BLVD AND DAN TIBBS...FUNNEL CLOUD (HUN)","time":{"end_time":"1550/01/01 00:00:00 -0456","original":"1549","granularity":"year","time":"1549/01/01 00:00:00 -0456"},"county":"MADISON","f-scale":"UNK","id":"a6ctwihrk0w2","lat":34.78,"state":"AL","location":"6 NW HUNTSVILLE"},"type":"Feature","geometry":{"type":"Point","coordinates":[-86.67,34.78]}},{"properties":{"lon":-86.71,"comments":"RAIN WRAPPED TORNADO REPORTED ON THE GROUND AT NICK DAVID AND JEFF RD. (HUN)","time":{"end_time":"1557/01/01 00:00:00 -0456","original":"1556","granularity":"year","time":"1556/01/01 00:00:00 -0456"},"county":"MADISON","f-scale":"UNK","id":"a6ctwihddy4s","lat":34.81,"state":"AL","location":"4 SSE HARVEST"},"type":"Feature","geometry":{"type":"Point","coordinates":[-86.71,34.81]}},{"properties":{"lon":-86.66,"comments":"RAIN WRAP TORNADO (HUN)","time":{"end_time":"1602/01/01 00:00:00 -0456","original":"1601","granularity":"year","time":"1601/01/01 00:00:00 -0456"},"county":"MADISON","f-scale":"UNK","id":"a6ctwimd5i1y","lat":34.82,"state":"AL","location":"5 WSW MERIDIANVILLE"},"type":"Feature","geometry":{"type":"Point","coordinates":[-86.66,34.82]}},{"properties":{"lon":-86.55,"comments":"RAIN WRAP TORNADO (HUN)","time":{"end_time":"1608/01/01 00:00:00 -0456","original":"1607","granularity":"year","time":"1607/01/01 00:00:00 -0456"},"county":"MADISON","f-scale":"UNK","id":"a6ctwi9roghv","lat":34.85,"state":"AL","location":"1 E MERIDIANVILLE"},"type":"Feature","geometry":{"type":"Point","coordinates":[-86.55,34.85]}},{"properties":{"lon":-86.52,"comments":"TORNADO ON GROUND (HUN)","time":{"end_time":"1609/01/01 00:00:00 -0456","original":"1608","granularity":"year","time":"1608/01/01 00:00:00 -0456"},"county":"MADISON","f-scale":"UNK","id":"a6ctwidi69kg","lat":34.86,"state":"AL","location":"3 E MERIDIANVILLE"},"type":"Feature","geometry":{"type":"Point","coordinates":[-86.52,34.86]}},{"properties":{"lon":-89.68,"comments":"TORNADO OBSERVED FUNNEL CLOUD 50FT OFF THE GROUND WITH DEBRIS UNDER IT...MINOR DAMAGE...FENCES KNOCKED DOWN (LSX)","time":{"end_time":"1611/01/01 00:00:00 -0456","original":"1610","granularity":"year","time":"1610/01/01 00:00:00 -0456"},"county":"CLINTON","f-scale":"UNK","id":"a6ctwiby2gjr","lat":38.55,"state":"IL","location":"4 S TRENTON"},"type":"Feature","geometry":{"type":"Point","coordinates":[-89.68,38.55]}},{"properties":{"lon":-86.46,"comments":"TORNADO ON GROUND (HUN)","time":{"end_time":"1616/01/01 00:00:00 -0456","original":"1615","granularity":"year","time":"1615/01/01 00:00:00 -0456"},"county":"MADISON","f-scale":"UNK","id":"a6ctwieydb38","lat":34.87,"state":"AL","location":"4 ENE MOORES MILL"},"type":"Feature","geometry":{"type":"Point","coordinates":[-86.46,34.87]}},{"properties":{"lon":-86.46,"comments":"PEOPLE TRAPPED IN RUBBLE WITH INJURIES (HUN)","time":{"end_time":"1620/01/01 00:00:00 -0456","original":"1619","granularity":"year","time":"1619/01/01 00:00:00 -0456"},"county":"MADISON","f-scale":"UNK","id":"a6ctwihx83eb","lat":34.87,"state":"AL","location":"4 ENE MOORES MILL"},"type":"Feature","geometry":{"type":"Point","coordinates":[-86.46,34.87]}},{"properties":{"lon":-86.51,"comments":"HOUSE DESTROYED (HUN)","time":{"end_time":"1620/01/01 00:00:00 -0456","original":"1619","granularity":"year","time":"1619/01/01 00:00:00 -0456"},"county":"MADISON","f-scale":"UNK","id":"a6ctwihv4e0q","lat":34.91,"state":"AL","location":"5 NE MERIDIANVILLE"},"type":"Feature","geometry":{"type":"Point","coordinates":[-86.51,34.91]}},{"properties":{"lon":-86.46,"comments":"TREES DOWN...CARS DAMAGED AND FARM HOUSE DESTROYED NEAR BUCKHORN HIGH SCHOOL (HUN)","time":{"end_time":"1633/01/01 00:00:00 -0456","original":"1632","granularity":"year","time":"1632/01/01 00:00:00 -0456"},"county":"MADISON","f-scale":"UNK","id":"a6ctwi7k3xmj","lat":34.87,"state":"AL","location":"4 ENE MOORES MILL"},"type":"Feature","geometry":{"type":"Point","coordinates":[-86.46,34.87]}},{"properties":{"lon":-86.48,"comments":"POWERLINES DOWN AT BETH AND BUTLER ROADS (HUN)","time":{"end_time":"1644/01/01 00:00:00 -0456","original":"1643","granularity":"year","time":"1643/01/01 00:00:00 -0456"},"county":"MADISON","f-scale":"UNK","id":"a6ctwifab0ux","lat":34.91,"state":"AL","location":"5 NNE MOORES MILL"},"type":"Feature","geometry":{"type":"Point","coordinates":[-86.48,34.91]}},{"properties":{"lon":-86.52,"comments":"POWER LINES DOWN ON ROADS AND DAMAGE TO FARM BUILDING (HUN)","time":{"end_time":"1655/01/01 00:00:00 -0456","original":"1654","granularity":"year","time":"1654/01/01 00:00:00 -0456"},"county":"MADISON","f-scale":"UNK","id":"a6ctwi7phvwi","lat":34.86,"state":"AL","location":"3 E MERIDIANVILLE"},"type":"Feature","geometry":{"type":"Point","coordinates":[-86.52,34.86]}}],"is_temporal":true,"author":{"url":"","metadata":null,"contact_name":null,"contact_address":null,"source":null,"contact_phone":null},"source":"","pagination":{"sort":null,"start":0,"total":14,"limit":1000000},"state":"complete","tags":"","published":"2014-08-14T16:34:28-04:00","id":211100}