{"type":"FeatureCollection","data_type":"Dataset","url_type":null,"permissions":[{"permissions":{"download":true,"view":true},"group_id":"everyone"}],"classification":null,"title":"today_hail_1","count":70,"stream_id":211128,"contributor":{"url":"http://geocommons.com/users/28467","name":"bheberto"},"data_attributes":null,"calculation_params":null,"icon_link":null,"link":"http://geocommons.com/overlays/211128.json","extent":[-91.95,34.85,-80.56,39.86],"geometry_types":["point"],"unique_name":null,"name":"today_hail_1","feature_count":70,"description":"","next_feature":null,"is_raster":false,"short_classification":"Y","stats":{"lon":{"max":-80.56,"mean":-88.2587142857143,"variance":3.70504614906832,"stdev":1.92484964323667,"min":-91.95,"median":-88.53},"size":{"max":250,"mean":134.285714285714,"variance":1379.91718426501,"stdev":37.1472365629667,"min":100,"median":125},"time":{"max":"1850/12/31 23:59:56 -0456","mean":"1539/08/19 02:23:56 -0456","variance":4.96394631170114e+19,"stdev":7045527880.64964,"min":"1203/12/31 23:59:56 -0456","median":"1555/12/31 23:59:56 -0456"},"lat":{"max":39.86,"mean":38.6115714285714,"variance":1.31054677018634,"stdev":1.14479114697238,"min":34.85,"median":38.85}},"features":[{"properties":{"lon":-90.32,"size":100,"comments":"(LSX)","time":{"end_time":"1205/01/01 00:00:00 -0456","original":"1204","granularity":"year","time":"1204/01/01 00:00:00 -0456"},"county":"ST. LOUIS","id":"a7k8bam2586n","lat":38.8,"state":"MO","location":"FLORISSANT"},"type":"Feature","geometry":{"type":"Point","coordinates":[-90.32,38.8]}},{"properties":{"lon":-90.32,"size":175,"comments":"(LSX)","time":{"end_time":"1210/01/01 00:00:00 -0456","original":"1209","granularity":"year","time":"1209/01/01 00:00:00 -0456"},"county":"ST. LOUIS","id":"a7k8baniavvs","lat":38.81,"state":"MO","location":"1 N FLORISSANT"},"type":"Feature","geometry":{"type":"Point","coordinates":[-90.32,38.81]}},{"properties":{"lon":-91.95,"size":100,"comments":"(LSX)","time":{"end_time":"1215/01/01 00:00:00 -0456","original":"1214","granularity":"year","time":"1214/01/01 00:00:00 -0456"},"county":"CALLAWAY","id":"a7k8bar1gdca","lat":38.85,"state":"MO","location":"FULTON"},"type":"Feature","geometry":{"type":"Point","coordinates":[-91.95,38.85]}},{"properties":{"lon":-91.95,"size":175,"comments":"(LSX)","time":{"end_time":"1217/01/01 00:00:00 -0456","original":"1216","granularity":"year","time":"1216/01/01 00:00:00 -0456"},"county":"CALLAWAY","id":"a7k8baq0uiqa","lat":38.85,"state":"MO","location":"FULTON"},"type":"Feature","geometry":{"type":"Point","coordinates":[-91.95,38.85]}},{"properties":{"lon":-90.15,"size":100,"comments":"(LSX)","time":{"end_time":"1220/01/01 00:00:00 -0456","original":"1219","granularity":"year","time":"1219/01/01 00:00:00 -0456"},"county":"MADISON","id":"a7k8bajw5twh","lat":38.9,"state":"IL","location":"ALTON"},"type":"Feature","geometry":{"type":"Point","coordinates":[-90.15,38.9]}},{"properties":{"lon":-90.19,"size":100,"comments":"(LSX)","time":{"end_time":"1221/01/01 00:00:00 -0456","original":"1220","granularity":"year","time":"1220/01/01 00:00:00 -0456"},"county":"MADISON","id":"a7k8baibnm3h","lat":38.97,"state":"IL","location":"GODFREY"},"type":"Feature","geometry":{"type":"Point","coordinates":[-90.19,38.97]}},{"properties":{"lon":-90.08,"size":100,"comments":"(LSX)","time":{"end_time":"1223/01/01 00:00:00 -0456","original":"1222","granularity":"year","time":"1222/01/01 00:00:00 -0456"},"county":"MADISON","id":"a7k8bas0t5vh","lat":38.86,"state":"IL","location":"WOOD RIVER"},"type":"Feature","geometry":{"type":"Point","coordinates":[-90.08,38.86]}},{"properties":{"lon":-90.19,"size":100,"comments":"(LSX)","time":{"end_time":"1223/01/01 00:00:00 -0456","original":"1222","granularity":"year","time":"1222/01/01 00:00:00 -0456"},"county":"MADISON","id":"a7k8bafk328o","lat":38.97,"state":"IL","location":"GODFREY"},"type":"Feature","geometry":{"type":"Point","coordinates":[-90.19,38.97]}},{"properties":{"lon":-90.05,"size":175,"comments":"(LSX)","time":{"end_time":"1225/01/01 00:00:00 -0456","original":"1224","granularity":"year","time":"1224/01/01 00:00:00 -0456"},"county":"MADISON","id":"a7k8bae0thkh","lat":38.9,"state":"IL","location":"BETHALTO"},"type":"Feature","geometry":{"type":"Point","coordinates":[-90.05,38.9]}},{"properties":{"lon":-89.97,"size":100,"comments":"(LSX)","time":{"end_time":"1226/01/01 00:00:00 -0456","original":"1225","granularity":"year","time":"1225/01/01 00:00:00 -0456"},"county":"MADISON","id":"a7k8bah4g5i4","lat":38.8,"state":"IL","location":"EDWARDSVILLE"},"type":"Feature","geometry":{"type":"Point","coordinates":[-89.97,38.8]}},{"properties":{"lon":-90.15,"size":125,"comments":"(LSX)","time":{"end_time":"1230/01/01 00:00:00 -0456","original":"1229","granularity":"year","time":"1229/01/01 00:00:00 -0456"},"county":"MADISON","id":"a7k8barb3ykp","lat":38.9,"state":"IL","location":"ALTON"},"type":"Feature","geometry":{"type":"Point","coordinates":[-90.15,38.9]}},{"properties":{"lon":-91.51,"size":100,"comments":"(LSX)","time":{"end_time":"1244/01/01 00:00:00 -0456","original":"1243","granularity":"year","time":"1243/01/01 00:00:00 -0456"},"county":"MONTGOMERY","id":"a7k8bailaxu8","lat":38.98,"state":"MO","location":"MONTGOMERY CITY"},"type":"Feature","geometry":{"type":"Point","coordinates":[-91.51,38.98]}},{"properties":{"lon":-89.67,"size":100,"comments":"(LSX)","time":{"end_time":"1247/01/01 00:00:00 -0456","original":"1246","granularity":"year","time":"1246/01/01 00:00:00 -0456"},"county":"MADISON","id":"a7k8balsle2x","lat":38.97,"state":"IL","location":"NEW DOUGLAS"},"type":"Feature","geometry":{"type":"Point","coordinates":[-89.67,38.97]}},{"properties":{"lon":-90.58,"size":125,"comments":"(LSX)","time":{"end_time":"1252/01/01 00:00:00 -0456","original":"1251","granularity":"year","time":"1251/01/01 00:00:00 -0456"},"county":"ST. CHARLES","id":"a7k8banzwjqk","lat":38.75,"state":"MO","location":"HARVESTER"},"type":"Feature","geometry":{"type":"Point","coordinates":[-90.58,38.75]}},{"properties":{"lon":-89.39,"size":100,"comments":"(LSX)","time":{"end_time":"1304/01/01 00:00:00 -0456","original":"1303","granularity":"year","time":"1303/01/01 00:00:00 -0456"},"county":"MONTGOMERY","id":"a7k8baoxr49s","lat":39.09,"state":"IL","location":"COFFEEN"},"type":"Feature","geometry":{"type":"Point","coordinates":[-89.39,39.09]}},{"properties":{"lon":-89.29,"size":100,"comments":"(LSX)","time":{"end_time":"1311/01/01 00:00:00 -0456","original":"1310","granularity":"year","time":"1310/01/01 00:00:00 -0456"},"county":"MONTGOMERY","id":"a7k8bas4w5qg","lat":39.3,"state":"IL","location":"NOKOMIS"},"type":"Feature","geometry":{"type":"Point","coordinates":[-89.29,39.3]}},{"properties":{"lon":-89.16,"size":100,"comments":"(LSX)","time":{"end_time":"1323/01/01 00:00:00 -0456","original":"1322","granularity":"year","time":"1322/01/01 00:00:00 -0456"},"county":"FAYETTE","id":"a7k8bar94sf9","lat":39.18,"state":"IL","location":"4 NW RAMSEY"},"type":"Feature","geometry":{"type":"Point","coordinates":[-89.16,39.18]}},{"properties":{"lon":-89.11,"size":100,"comments":"(LSX)","time":{"end_time":"1326/01/01 00:00:00 -0456","original":"1325","granularity":"year","time":"1325/01/01 00:00:00 -0456"},"county":"FAYETTE","id":"a7k8bapuv310","lat":39.14,"state":"IL","location":"RAMSEY"},"type":"Feature","geometry":{"type":"Point","coordinates":[-89.11,39.14]}},{"properties":{"lon":-89.11,"size":175,"comments":"(LSX)","time":{"end_time":"1333/01/01 00:00:00 -0456","original":"1332","granularity":"year","time":"1332/01/01 00:00:00 -0456"},"county":"FAYETTE","id":"a7k8ban8cjpb","lat":39.14,"state":"IL","location":"RAMSEY"},"type":"Feature","geometry":{"type":"Point","coordinates":[-89.11,39.14]}},{"properties":{"lon":-88.99,"size":175,"comments":"(LSX)","time":{"end_time":"1345/01/01 00:00:00 -0456","original":"1344","granularity":"year","time":"1344/01/01 00:00:00 -0456"},"county":"FAYETTE","id":"a7k8bah6t19b","lat":39.18,"state":"IL","location":"7 ENE RAMSEY"},"type":"Feature","geometry":{"type":"Point","coordinates":[-88.99,39.18]}},{"properties":{"lon":-88.99,"size":175,"comments":"(ILX)","time":{"end_time":"1345/01/01 00:00:00 -0456","original":"1344","granularity":"year","time":"1344/01/01 00:00:00 -0456"},"county":"FAYETTE","id":"a7k8balyy72z","lat":39.19,"state":"IL","location":"2 S HERRICK"},"type":"Feature","geometry":{"type":"Point","coordinates":[-88.99,39.19]}},{"properties":{"lon":-88.45,"size":150,"comments":"(ILX)","time":{"end_time":"1403/01/01 00:00:00 -0456","original":"1402","granularity":"year","time":"1402/01/01 00:00:00 -0456"},"county":"CUMBERLAND","id":"a7k8bagk144e","lat":39.32,"state":"IL","location":"NEOGA"},"type":"Feature","geometry":{"type":"Point","coordinates":[-88.45,39.32]}},{"properties":{"lon":-88.43,"size":175,"comments":"SWOP (ILX)","time":{"end_time":"1403/01/01 00:00:00 -0456","original":"1402","granularity":"year","time":"1402/01/01 00:00:00 -0456"},"county":"CUMBERLAND","id":"a7k8baps7tnr","lat":39.34,"state":"IL","location":"2 NE NEOGA"},"type":"Feature","geometry":{"type":"Point","coordinates":[-88.43,39.34]}},{"properties":{"lon":-88.0,"size":175,"comments":"(ILX)","time":{"end_time":"1430/01/01 00:00:00 -0456","original":"1429","granularity":"year","time":"1429/01/01 00:00:00 -0456"},"county":"CLARK","id":"a7k8baraji2q","lat":39.46,"state":"IL","location":"WESTFIELD"},"type":"Feature","geometry":{"type":"Point","coordinates":[-88.0,39.46]}},{"properties":{"lon":-87.69,"size":100,"comments":"SWOP REPORT. (ILX)","time":{"end_time":"1447/01/01 00:00:00 -0456","original":"1446","granularity":"year","time":"1446/01/01 00:00:00 -0456"},"county":"EDGAR","id":"a7k8bao4xyuz","lat":39.62,"state":"IL","location":"PARIS"},"type":"Feature","geometry":{"type":"Point","coordinates":[-87.69,39.62]}},{"properties":{"lon":-87.38,"size":175,"comments":"AT 13TH AND DELAWARE STREETS IN TERRE HAUTE. (IND)","time":{"end_time":"1451/01/01 00:00:00 -0456","original":"1450","granularity":"year","time":"1450/01/01 00:00:00 -0456"},"county":"VIGO","id":"a7k8baoe5djl","lat":39.47,"state":"IN","location":"TERRE HAUTE"},"type":"Feature","geometry":{"type":"Point","coordinates":[-87.38,39.47]}},{"properties":{"lon":-87.38,"size":175,"comments":"13TH AND WABASH STREETS IN TERRE HAUTE. (IND)","time":{"end_time":"1452/01/01 00:00:00 -0456","original":"1451","granularity":"year","time":"1451/01/01 00:00:00 -0456"},"county":"VIGO","id":"a7k8banjl2cl","lat":39.47,"state":"IN","location":"TERRE HAUTE"},"type":"Feature","geometry":{"type":"Point","coordinates":[-87.38,39.47]}},{"properties":{"lon":-87.38,"size":175,"comments":"(IND)","time":{"end_time":"1453/01/01 00:00:00 -0456","original":"1452","granularity":"year","time":"1452/01/01 00:00:00 -0456"},"county":"VIGO","id":"a7k8baf5codo","lat":39.47,"state":"IN","location":"TERRE HAUTE"},"type":"Feature","geometry":{"type":"Point","coordinates":[-87.38,39.47]}},{"properties":{"lon":-87.12,"size":175,"comments":"(IND)","time":{"end_time":"1508/01/01 00:00:00 -0456","original":"1507","granularity":"year","time":"1507/01/01 00:00:00 -0456"},"county":"CLAY","id":"a7k8bacnagrj","lat":39.52,"state":"IN","location":"BRAZIL"},"type":"Feature","geometry":{"type":"Point","coordinates":[-87.12,39.52]}},{"properties":{"lon":-87.23,"size":175,"comments":"(IND)","time":{"end_time":"1508/01/01 00:00:00 -0456","original":"1507","granularity":"year","time":"1507/01/01 00:00:00 -0456"},"county":"PARKE","id":"a7k8bad7wdcg","lat":39.77,"state":"IN","location":"ROCKVILLE"},"type":"Feature","geometry":{"type":"Point","coordinates":[-87.23,39.77]}},{"properties":{"lon":-86.8,"size":100,"comments":"(IND)","time":{"end_time":"1522/01/01 00:00:00 -0456","original":"1521","granularity":"year","time":"1521/01/01 00:00:00 -0456"},"county":"PUTNAM","id":"a7k8bagoea7u","lat":39.61,"state":"IN","location":"3 SE GREENCASTLE"},"type":"Feature","geometry":{"type":"Point","coordinates":[-86.8,39.61]}},{"properties":{"lon":-86.84,"size":150,"comments":"(IND)","time":{"end_time":"1532/01/01 00:00:00 -0456","original":"1531","granularity":"year","time":"1531/01/01 00:00:00 -0456"},"county":"PUTNAM","id":"a7k8bad1ucvk","lat":39.74,"state":"IN","location":"2 SW BAINBRIDGE"},"type":"Feature","geometry":{"type":"Point","coordinates":[-86.84,39.74]}},{"properties":{"lon":-86.82,"size":175,"comments":"(IND)","time":{"end_time":"1535/01/01 00:00:00 -0456","original":"1534","granularity":"year","time":"1534/01/01 00:00:00 -0456"},"county":"PUTNAM","id":"a7k8bampqprx","lat":39.77,"state":"IN","location":"1 NNW BAINBRIDGE"},"type":"Feature","geometry":{"type":"Point","coordinates":[-86.82,39.77]}},{"properties":{"lon":-86.39,"size":100,"comments":"(IND)","time":{"end_time":"1545/01/01 00:00:00 -0456","original":"1544","granularity":"year","time":"1544/01/01 00:00:00 -0456"},"county":"HENDRICKS","id":"a7k8baiwgvsq","lat":39.7,"state":"IN","location":"PLAINFIELD"},"type":"Feature","geometry":{"type":"Point","coordinates":[-86.39,39.7]}},{"properties":{"lon":-86.64,"size":100,"comments":"(IND)","time":{"end_time":"1552/01/01 00:00:00 -0456","original":"1551","granularity":"year","time":"1551/01/01 00:00:00 -0456"},"county":"HENDRICKS","id":"a7k8baq6m24b","lat":39.86,"state":"IN","location":"NORTH SALEM"},"type":"Feature","geometry":{"type":"Point","coordinates":[-86.64,39.86]}},{"properties":{"lon":-86.15,"size":125,"comments":"(IND)","time":{"end_time":"1557/01/01 00:00:00 -0456","original":"1556","granularity":"year","time":"1556/01/01 00:00:00 -0456"},"county":"MARION","id":"a7k8baov2cs9","lat":39.76,"state":"IN","location":"1 S INDIANAPOLIS"},"type":"Feature","geometry":{"type":"Point","coordinates":[-86.15,39.76]}},{"properties":{"lon":-86.85,"size":175,"comments":"(HUN)","time":{"end_time":"1559/01/01 00:00:00 -0456","original":"1558","granularity":"year","time":"1558/01/01 00:00:00 -0456"},"county":"LIMESTONE","id":"a7k8barru36l","lat":34.99,"state":"AL","location":"ARDMORE"},"type":"Feature","geometry":{"type":"Point","coordinates":[-86.85,34.99]}},{"properties":{"lon":-86.15,"size":175,"comments":"HAIL MEASURED AT I-465 AND HARDING (IND)","time":{"end_time":"1559/01/01 00:00:00 -0456","original":"1558","granularity":"year","time":"1558/01/01 00:00:00 -0456"},"county":"MARION","id":"a7k8bad5z5n0","lat":39.78,"state":"IN","location":"INDIANAPOLIS"},"type":"Feature","geometry":{"type":"Point","coordinates":[-86.15,39.78]}},{"properties":{"lon":-86.57,"size":175,"comments":"(HUN)","time":{"end_time":"1606/01/01 00:00:00 -0456","original":"1605","granularity":"year","time":"1605/01/01 00:00:00 -0456"},"county":"MADISON","id":"a7k8baipe4un","lat":34.85,"state":"AL","location":"MERIDIANVILLE"},"type":"Feature","geometry":{"type":"Point","coordinates":[-86.57,34.85]}},{"properties":{"lon":-86.15,"size":100,"comments":"EMERSON AVENUE AND SOUTHEASTERN AVENUE (IND)","time":{"end_time":"1608/01/01 00:00:00 -0456","original":"1607","granularity":"year","time":"1607/01/01 00:00:00 -0456"},"county":"MARION","id":"a7k8bapeng4z","lat":39.78,"state":"IN","location":"INDIANAPOLIS"},"type":"Feature","geometry":{"type":"Point","coordinates":[-86.15,39.78]}},{"properties":{"lon":-82.56,"size":100,"comments":"(MRX)","time":{"end_time":"1610/01/01 00:00:00 -0456","original":"1609","granularity":"year","time":"1609/01/01 00:00:00 -0456"},"county":"SCOTT","id":"a7k8bamdmt1n","lat":36.62,"state":"VA","location":"WEBER CITY"},"type":"Feature","geometry":{"type":"Point","coordinates":[-82.56,36.62]}},{"properties":{"lon":-86.15,"size":125,"comments":"HAIL MEASURED AT THE UNIVERSITY OF INDIANAPOLIS (IND)","time":{"end_time":"1611/01/01 00:00:00 -0456","original":"1610","granularity":"year","time":"1610/01/01 00:00:00 -0456"},"county":"MARION","id":"a7k8bam58hrl","lat":39.78,"state":"IN","location":"INDIANAPOLIS"},"type":"Feature","geometry":{"type":"Point","coordinates":[-86.15,39.78]}},{"properties":{"lon":-89.61,"size":125,"comments":"(LSX)","time":{"end_time":"1621/01/01 00:00:00 -0456","original":"1620","granularity":"year","time":"1620/01/01 00:00:00 -0456"},"county":"CLINTON","id":"a7k8bar4ntn2","lat":38.61,"state":"IL","location":"AVISTON"},"type":"Feature","geometry":{"type":"Point","coordinates":[-89.61,38.61]}},{"properties":{"lon":-89.52,"size":175,"comments":"(LSX)","time":{"end_time":"1622/01/01 00:00:00 -0456","original":"1621","granularity":"year","time":"1621/01/01 00:00:00 -0456"},"county":"CLINTON","id":"a7k8baqh5rdb","lat":38.65,"state":"IL","location":"3 N BREESE"},"type":"Feature","geometry":{"type":"Point","coordinates":[-89.52,38.65]}},{"properties":{"lon":-80.56,"size":150,"comments":"(GSP)","time":{"end_time":"1631/01/01 00:00:00 -0456","original":"1630","granularity":"year","time":"1630/01/01 00:00:00 -0456"},"county":"DAVIE","id":"a7k8ban71p3u","lat":35.9,"state":"NC","location":"MOCKSVILLE"},"type":"Feature","geometry":{"type":"Point","coordinates":[-80.56,35.9]}},{"properties":{"lon":-86.26,"size":150,"comments":"(IND)","time":{"end_time":"1631/01/01 00:00:00 -0456","original":"1630","granularity":"year","time":"1630/01/01 00:00:00 -0456"},"county":"MARION","id":"a7k8bajlvmtt","lat":39.72,"state":"IN","location":"2 E INDIANAPOLIS INT'L"},"type":"Feature","geometry":{"type":"Point","coordinates":[-86.26,39.72]}},{"properties":{"lon":-85.63,"size":100,"comments":"(MRX)","time":{"end_time":"1711/01/01 00:00:00 -0456","original":"1710","granularity":"year","time":"1710/01/01 00:00:00 -0456"},"county":"MARION","id":"a7k8baj25avp","lat":35.06,"state":"TN","location":"JASPER"},"type":"Feature","geometry":{"type":"Point","coordinates":[-85.63,35.06]}},{"properties":{"lon":-88.78,"size":100,"comments":"(LSX)","time":{"end_time":"1714/01/01 00:00:00 -0456","original":"1713","granularity":"year","time":"1713/01/01 00:00:00 -0456"},"county":"FAYETTE","id":"a7k8bapfnf4b","lat":38.83,"state":"IL","location":"FARINA"},"type":"Feature","geometry":{"type":"Point","coordinates":[-88.78,38.83]}},{"properties":{"lon":-89.05,"size":100,"comments":"QUARTER SIZE HAIL REPORTED IN THE COMMUNITY. (PAH)","time":{"end_time":"1726/01/01 00:00:00 -0456","original":"1725","granularity":"year","time":"1725/01/01 00:00:00 -0456"},"county":"FRANKLIN","id":"a7k8baku6k2h","lat":37.97,"state":"IL","location":"CHRISTOPHER"},"type":"Feature","geometry":{"type":"Point","coordinates":[-89.05,37.97]}},{"properties":{"lon":-89.37,"size":100,"comments":"(LSX)","time":{"end_time":"1741/01/01 00:00:00 -0456","original":"1740","granularity":"year","time":"1740/01/01 00:00:00 -0456"},"county":"WASHINGTON","id":"a7k8bakw6l2l","lat":38.44,"state":"IL","location":"NEW MINDEN"},"type":"Feature","geometry":{"type":"Point","coordinates":[-89.37,38.44]}},{"properties":{"lon":-88.93,"size":100,"comments":"QUARTER SIZE HAIL REPORTED WITH NEAR ZERO VISIBILITY. (PAH)","time":{"end_time":"1742/01/01 00:00:00 -0456","original":"1741","granularity":"year","time":"1741/01/01 00:00:00 -0456"},"county":"FRANKLIN","id":"a7k8bajuv7kj","lat":37.9,"state":"IL","location":"WEST FRANKFORT"},"type":"Feature","geometry":{"type":"Point","coordinates":[-88.93,37.9]}},{"properties":{"lon":-89.27,"size":100,"comments":"(LSX)","time":{"end_time":"1748/01/01 00:00:00 -0456","original":"1747","granularity":"year","time":"1747/01/01 00:00:00 -0456"},"county":"WASHINGTON","id":"a7k8bapgfejb","lat":38.45,"state":"IL","location":"HOYLETON"},"type":"Feature","geometry":{"type":"Point","coordinates":[-89.27,38.45]}},{"properties":{"lon":-89.38,"size":100,"comments":"(LSX)","time":{"end_time":"1750/01/01 00:00:00 -0456","original":"1749","granularity":"year","time":"1749/01/01 00:00:00 -0456"},"county":"WASHINGTON","id":"a7k8bamski2j","lat":38.35,"state":"IL","location":"NASHVILLE"},"type":"Feature","geometry":{"type":"Point","coordinates":[-89.38,38.35]}},{"properties":{"lon":-89.13,"size":175,"comments":"(LSX)","time":{"end_time":"1751/01/01 00:00:00 -0456","original":"1750","granularity":"year","time":"1750/01/01 00:00:00 -0456"},"county":"MARION","id":"a7k8balc25x5","lat":38.52,"state":"IL","location":"CENTRALIA"},"type":"Feature","geometry":{"type":"Point","coordinates":[-89.13,38.52]}},{"properties":{"lon":-89.13,"size":100,"comments":"(LSX)","time":{"end_time":"1755/01/01 00:00:00 -0456","original":"1754","granularity":"year","time":"1754/01/01 00:00:00 -0456"},"county":"MARION","id":"a7k8bageyhz5","lat":38.52,"state":"IL","location":"CENTRALIA"},"type":"Feature","geometry":{"type":"Point","coordinates":[-89.13,38.52]}},{"properties":{"lon":-89.0,"size":175,"comments":"(LSX)","time":{"end_time":"1759/01/01 00:00:00 -0456","original":"1758","granularity":"year","time":"1758/01/01 00:00:00 -0456"},"county":"MARION","id":"a7k8baexld4q","lat":38.51,"state":"IL","location":"3 NE WALNUT HILL"},"type":"Feature","geometry":{"type":"Point","coordinates":[-89.0,38.51]}},{"properties":{"lon":-88.53,"size":100,"comments":"(PAH)","time":{"end_time":"1801/01/01 00:00:00 -0456","original":"1800","granularity":"year","time":"1800/01/01 00:00:00 -0456"},"county":"HAMILTON","id":"a7k8bah0qrf2","lat":38.09,"state":"IL","location":"MCLEANSBORO"},"type":"Feature","geometry":{"type":"Point","coordinates":[-88.53,38.09]}},{"properties":{"lon":-88.95,"size":100,"comments":"(LSX)","time":{"end_time":"1801/01/01 00:00:00 -0456","original":"1800","granularity":"year","time":"1800/01/01 00:00:00 -0456"},"county":"MARION","id":"a7k8bas68lb1","lat":38.49,"state":"IL","location":"12 SW IUKA"},"type":"Feature","geometry":{"type":"Point","coordinates":[-88.95,38.49]}},{"properties":{"lon":-88.94,"size":175,"comments":"REPORTED AT I57 AND ROUTE 161...RELAYED FROM WFO ILX (LSX)","time":{"end_time":"1803/01/01 00:00:00 -0456","original":"1802","granularity":"year","time":"1802/01/01 00:00:00 -0456"},"county":"MARION","id":"a7k8bad365km","lat":38.52,"state":"IL","location":"3 NW KELL"},"type":"Feature","geometry":{"type":"Point","coordinates":[-88.94,38.52]}},{"properties":{"lon":-89.55,"size":100,"comments":"QUARTER SIZE HAIL REPORTED NEAR WALLMART ALONG HIGHWAY H. (PAH)","time":{"end_time":"1807/01/01 00:00:00 -0456","original":"1806","granularity":"year","time":"1806/01/01 00:00:00 -0456"},"county":"CAPE GIRARDEAU","id":"a7k8bafh273e","lat":37.31,"state":"MO","location":"CAPE GIRARDEAU"},"type":"Feature","geometry":{"type":"Point","coordinates":[-89.55,37.31]}},{"properties":{"lon":-88.0,"size":125,"comments":"ESTIMATED 45 MPH WINDS (PAH)","time":{"end_time":"1833/01/01 00:00:00 -0456","original":"1832","granularity":"year","time":"1832/01/01 00:00:00 -0456"},"county":"WHITE","id":"a7k8bae9i1oo","lat":38.26,"state":"IL","location":"GRAYVILLE"},"type":"Feature","geometry":{"type":"Point","coordinates":[-88.0,38.26]}},{"properties":{"lon":-84.53,"size":100,"comments":"(MRX)","time":{"end_time":"1834/01/01 00:00:00 -0456","original":"1833","granularity":"year","time":"1833/01/01 00:00:00 -0456"},"county":"MCMINN","id":"a7k8bag5t91m","lat":35.33,"state":"TN","location":"ETOWAH"},"type":"Feature","geometry":{"type":"Point","coordinates":[-84.53,35.33]}},{"properties":{"lon":-87.93,"size":175,"comments":"GOLF BALL HAIL REPORTED BY TRAINED SPOTTER. (PAH)","time":{"end_time":"1837/01/01 00:00:00 -0456","original":"1836","granularity":"year","time":"1836/01/01 00:00:00 -0456"},"county":"POSEY","id":"a7k8bapg2d23","lat":38.13,"state":"IN","location":"NEW HARMONY"},"type":"Feature","geometry":{"type":"Point","coordinates":[-87.93,38.13]}},{"properties":{"lon":-87.78,"size":175,"comments":"ON HIGHWAY 165. ALSO A FUNNEL CLOUD WAS REPORTED. (PAH)","time":{"end_time":"1839/01/01 00:00:00 -0456","original":"1838","granularity":"year","time":"1838/01/01 00:00:00 -0456"},"county":"POSEY","id":"a7k8baqie15t","lat":38.14,"state":"IN","location":"2 S POSEYVILLE"},"type":"Feature","geometry":{"type":"Point","coordinates":[-87.78,38.14]}},{"properties":{"lon":-87.78,"size":100,"comments":"QUARTER SIZE HAIL REPORTED JUST NORTH OF TOWN. (PAH)","time":{"end_time":"1844/01/01 00:00:00 -0456","original":"1843","granularity":"year","time":"1843/01/01 00:00:00 -0456"},"county":"POSEY","id":"a7k8bad8sfb2","lat":38.18,"state":"IN","location":"1 N POSEYVILLE"},"type":"Feature","geometry":{"type":"Point","coordinates":[-87.78,38.18]}},{"properties":{"lon":-87.79,"size":250,"comments":"TENNIS BALL HAIL REPORTED JUST NORTH OF WADESVILLE. (PAH)","time":{"end_time":"1847/01/01 00:00:00 -0456","original":"1846","granularity":"year","time":"1846/01/01 00:00:00 -0456"},"county":"POSEY","id":"a7k8bamo1u2n","lat":38.12,"state":"IN","location":"1 N WADESVILLE"},"type":"Feature","geometry":{"type":"Point","coordinates":[-87.79,38.12]}},{"properties":{"lon":-87.78,"size":175,"comments":"GOLF BALL SIZE HAIL REPORTED JUST SOUTH OF TOWN. (PAH)","time":{"end_time":"1848/01/01 00:00:00 -0456","original":"1847","granularity":"year","time":"1847/01/01 00:00:00 -0456"},"county":"POSEY","id":"a7k8bad8f2oo","lat":38.14,"state":"IN","location":"2 S POSEYVILLE"},"type":"Feature","geometry":{"type":"Point","coordinates":[-87.78,38.14]}},{"properties":{"lon":-87.57,"size":100,"comments":"QUARTER SIZE HAIL REPORTED. (PAH)","time":{"end_time":"1849/01/01 00:00:00 -0456","original":"1848","granularity":"year","time":"1848/01/01 00:00:00 -0456"},"county":"GIBSON","id":"a7k8bao0mk5m","lat":38.25,"state":"IN","location":"FORT BRANCH"},"type":"Feature","geometry":{"type":"Point","coordinates":[-87.57,38.25]}},{"properties":{"lon":-87.54,"size":175,"comments":"(PAH)","time":{"end_time":"1851/01/01 00:00:00 -0456","original":"1850","granularity":"year","time":"1850/01/01 00:00:00 -0456"},"county":"VANDERBURGH","id":"a7k8ban4k1xm","lat":38.01,"state":"IN","location":"2 N EVANSVILLE"},"type":"Feature","geometry":{"type":"Point","coordinates":[-87.54,38.01]}},{"properties":{"lon":-87.57,"size":125,"comments":"HALF DOLLAR SIZE HAIL REPORTED. (PAH)","time":{"end_time":"1852/01/01 00:00:00 -0456","original":"1851","granularity":"year","time":"1851/01/01 00:00:00 -0456"},"county":"GIBSON","id":"a7k8baefz2cz","lat":38.2,"state":"IN","location":"HAUBSTADT"},"type":"Feature","geometry":{"type":"Point","coordinates":[-87.57,38.2]}}],"is_temporal":true,"author":{"url":"","metadata":null,"contact_name":null,"contact_address":null,"source":null,"contact_phone":null},"source":"","pagination":{"sort":null,"start":0,"total":70,"limit":1000000},"state":"complete","tags":"","published":"2014-08-14T16:37:42-04:00","id":211128}