{"type":"FeatureCollection","data_type":"Dataset","url_type":null,"permissions":[{"permissions":{"download":true,"view":true},"group_id":"everyone"}],"classification":null,"title":"today_hail_1","count":409,"stream_id":211261,"contributor":{"url":"http://geocommons.com/users/28467","name":"bheberto"},"data_attributes":null,"calculation_params":null,"icon_link":null,"link":"http://geocommons.com/overlays/211261.json","extent":[-94.11,0.0,0.0,40.06],"geometry_types":["point"],"unique_name":null,"name":"today_hail_1","feature_count":409,"description":"","next_feature":null,"is_raster":false,"short_classification":"Y","stats":{"lon":{"max":0.0,"mean":-86.4736185819071,"variance":23.9068863835754,"stdev":4.88946688132515,"min":-94.11,"median":-86.55},"size":{"max":425,"mean":145.537897310513,"variance":2395.78838870511,"stdev":48.9467914035752,"min":100,"median":125},"time":{"max":"2357/01/01 00:00:00 -0500","mean":"1879/09/05 07:12:00 -0456","variance":3.12731344539094e+20,"stdev":17684211730.781,"min":"38/12/31 23:59:58 -0456","median":"2037/01/01 00:00:00 -0500"},"lat":{"max":40.06,"mean":36.4925427872861,"variance":7.78514351838534,"stdev":2.7901870041962,"min":0.0,"median":37.14}},"features":[{"properties":{"lon":-90.32,"size":100,"comments":"(LSX)","time":{"end_time":"1205/01/01 00:00:00 -0456","original":"1204","granularity":"year","time":"1204/01/01 00:00:00 -0456"},"county":"ST. LOUIS","id":"a620iw6v44l9","lat":38.8,"state":"MO","location":"FLORISSANT"},"type":"Feature","geometry":{"type":"Point","coordinates":[-90.32,38.8]}},{"properties":{"lon":-90.32,"size":175,"comments":"(LSX)","time":{"end_time":"1210/01/01 00:00:00 -0456","original":"1209","granularity":"year","time":"1209/01/01 00:00:00 -0456"},"county":"ST. LOUIS","id":"a620ivxselgr","lat":38.81,"state":"MO","location":"1 N FLORISSANT"},"type":"Feature","geometry":{"type":"Point","coordinates":[-90.32,38.81]}},{"properties":{"lon":-91.95,"size":100,"comments":"(LSX)","time":{"end_time":"1215/01/01 00:00:00 -0456","original":"1214","granularity":"year","time":"1214/01/01 00:00:00 -0456"},"county":"CALLAWAY","id":"a620iwbpa13m","lat":38.85,"state":"MO","location":"FULTON"},"type":"Feature","geometry":{"type":"Point","coordinates":[-91.95,38.85]}},{"properties":{"lon":-91.95,"size":175,"comments":"(LSX)","time":{"end_time":"1217/01/01 00:00:00 -0456","original":"1216","granularity":"year","time":"1216/01/01 00:00:00 -0456"},"county":"CALLAWAY","id":"a620iw22vvsf","lat":38.85,"state":"MO","location":"FULTON"},"type":"Feature","geometry":{"type":"Point","coordinates":[-91.95,38.85]}},{"properties":{"lon":-90.15,"size":100,"comments":"(LSX)","time":{"end_time":"1220/01/01 00:00:00 -0456","original":"1219","granularity":"year","time":"1219/01/01 00:00:00 -0456"},"county":"MADISON","id":"a620iw1rw225","lat":38.9,"state":"IL","location":"ALTON"},"type":"Feature","geometry":{"type":"Point","coordinates":[-90.15,38.9]}},{"properties":{"lon":-90.19,"size":100,"comments":"(LSX)","time":{"end_time":"1221/01/01 00:00:00 -0456","original":"1220","granularity":"year","time":"1220/01/01 00:00:00 -0456"},"county":"MADISON","id":"a620iw74hn3x","lat":38.97,"state":"IL","location":"GODFREY"},"type":"Feature","geometry":{"type":"Point","coordinates":[-90.19,38.97]}},{"properties":{"lon":-90.08,"size":100,"comments":"(LSX)","time":{"end_time":"1223/01/01 00:00:00 -0456","original":"1222","granularity":"year","time":"1222/01/01 00:00:00 -0456"},"county":"MADISON","id":"a620iw3ezwxr","lat":38.86,"state":"IL","location":"WOOD RIVER"},"type":"Feature","geometry":{"type":"Point","coordinates":[-90.08,38.86]}},{"properties":{"lon":-90.19,"size":100,"comments":"(LSX)","time":{"end_time":"1223/01/01 00:00:00 -0456","original":"1222","granularity":"year","time":"1222/01/01 00:00:00 -0456"},"county":"MADISON","id":"a620ivyjwp96","lat":38.97,"state":"IL","location":"GODFREY"},"type":"Feature","geometry":{"type":"Point","coordinates":[-90.19,38.97]}},{"properties":{"lon":-90.05,"size":175,"comments":"(LSX)","time":{"end_time":"1225/01/01 00:00:00 -0456","original":"1224","granularity":"year","time":"1224/01/01 00:00:00 -0456"},"county":"MADISON","id":"a620iwbagvk3","lat":38.9,"state":"IL","location":"BETHALTO"},"type":"Feature","geometry":{"type":"Point","coordinates":[-90.05,38.9]}},{"properties":{"lon":-89.97,"size":100,"comments":"(LSX)","time":{"end_time":"1226/01/01 00:00:00 -0456","original":"1225","granularity":"year","time":"1225/01/01 00:00:00 -0456"},"county":"MADISON","id":"a620iw059bpc","lat":38.8,"state":"IL","location":"EDWARDSVILLE"},"type":"Feature","geometry":{"type":"Point","coordinates":[-89.97,38.8]}},{"properties":{"lon":-90.15,"size":125,"comments":"(LSX)","time":{"end_time":"1230/01/01 00:00:00 -0456","original":"1229","granularity":"year","time":"1229/01/01 00:00:00 -0456"},"county":"MADISON","id":"a620iwb4qkgy","lat":38.9,"state":"IL","location":"ALTON"},"type":"Feature","geometry":{"type":"Point","coordinates":[-90.15,38.9]}},{"properties":{"lon":-91.51,"size":100,"comments":"(LSX)","time":{"end_time":"1244/01/01 00:00:00 -0456","original":"1243","granularity":"year","time":"1243/01/01 00:00:00 -0456"},"county":"MONTGOMERY","id":"a620iw6dysp5","lat":38.98,"state":"MO","location":"MONTGOMERY CITY"},"type":"Feature","geometry":{"type":"Point","coordinates":[-91.51,38.98]}},{"properties":{"lon":-89.67,"size":100,"comments":"(LSX)","time":{"end_time":"1247/01/01 00:00:00 -0456","original":"1246","granularity":"year","time":"1246/01/01 00:00:00 -0456"},"county":"MADISON","id":"a620iw8q9wq7","lat":38.97,"state":"IL","location":"NEW DOUGLAS"},"type":"Feature","geometry":{"type":"Point","coordinates":[-89.67,38.97]}},{"properties":{"lon":-90.58,"size":125,"comments":"(LSX)","time":{"end_time":"1252/01/01 00:00:00 -0456","original":"1251","granularity":"year","time":"1251/01/01 00:00:00 -0456"},"county":"ST. CHARLES","id":"a620iwcuo6r3","lat":38.75,"state":"MO","location":"HARVESTER"},"type":"Feature","geometry":{"type":"Point","coordinates":[-90.58,38.75]}},{"properties":{"lon":-89.39,"size":100,"comments":"(LSX)","time":{"end_time":"1304/01/01 00:00:00 -0456","original":"1303","granularity":"year","time":"1303/01/01 00:00:00 -0456"},"county":"MONTGOMERY","id":"a620iw8neouh","lat":39.09,"state":"IL","location":"COFFEEN"},"type":"Feature","geometry":{"type":"Point","coordinates":[-89.39,39.09]}},{"properties":{"lon":-89.29,"size":100,"comments":"(LSX)","time":{"end_time":"1311/01/01 00:00:00 -0456","original":"1310","granularity":"year","time":"1310/01/01 00:00:00 -0456"},"county":"MONTGOMERY","id":"a620ivwxx6j5","lat":39.3,"state":"IL","location":"NOKOMIS"},"type":"Feature","geometry":{"type":"Point","coordinates":[-89.29,39.3]}},{"properties":{"lon":-89.16,"size":100,"comments":"(LSX)","time":{"end_time":"1323/01/01 00:00:00 -0456","original":"1322","granularity":"year","time":"1322/01/01 00:00:00 -0456"},"county":"FAYETTE","id":"a620ivzyk25u","lat":39.18,"state":"IL","location":"4 NW RAMSEY"},"type":"Feature","geometry":{"type":"Point","coordinates":[-89.16,39.18]}},{"properties":{"lon":-89.11,"size":100,"comments":"(LSX)","time":{"end_time":"1326/01/01 00:00:00 -0456","original":"1325","granularity":"year","time":"1325/01/01 00:00:00 -0456"},"county":"FAYETTE","id":"a620iwccg282","lat":39.14,"state":"IL","location":"RAMSEY"},"type":"Feature","geometry":{"type":"Point","coordinates":[-89.11,39.14]}},{"properties":{"lon":-89.11,"size":175,"comments":"(LSX)","time":{"end_time":"1333/01/01 00:00:00 -0456","original":"1332","granularity":"year","time":"1332/01/01 00:00:00 -0456"},"county":"FAYETTE","id":"a620iwdf3lkv","lat":39.14,"state":"IL","location":"RAMSEY"},"type":"Feature","geometry":{"type":"Point","coordinates":[-89.11,39.14]}},{"properties":{"lon":-88.99,"size":175,"comments":"(LSX)","time":{"end_time":"1345/01/01 00:00:00 -0456","original":"1344","granularity":"year","time":"1344/01/01 00:00:00 -0456"},"county":"FAYETTE","id":"a620iwbn53zi","lat":39.18,"state":"IL","location":"7 ENE RAMSEY"},"type":"Feature","geometry":{"type":"Point","coordinates":[-88.99,39.18]}},{"properties":{"lon":-88.99,"size":175,"comments":"(ILX)","time":{"end_time":"1345/01/01 00:00:00 -0456","original":"1344","granularity":"year","time":"1344/01/01 00:00:00 -0456"},"county":"FAYETTE","id":"a620iw80wasy","lat":39.19,"state":"IL","location":"2 S HERRICK"},"type":"Feature","geometry":{"type":"Point","coordinates":[-88.99,39.19]}},{"properties":{"lon":-88.45,"size":150,"comments":"(ILX)","time":{"end_time":"1403/01/01 00:00:00 -0456","original":"1402","granularity":"year","time":"1402/01/01 00:00:00 -0456"},"county":"CUMBERLAND","id":"a620iw1rthke","lat":39.32,"state":"IL","location":"NEOGA"},"type":"Feature","geometry":{"type":"Point","coordinates":[-88.45,39.32]}},{"properties":{"lon":-88.43,"size":175,"comments":"SWOP (ILX)","time":{"end_time":"1403/01/01 00:00:00 -0456","original":"1402","granularity":"year","time":"1402/01/01 00:00:00 -0456"},"county":"CUMBERLAND","id":"a620ivxhn80y","lat":39.34,"state":"IL","location":"2 NE NEOGA"},"type":"Feature","geometry":{"type":"Point","coordinates":[-88.43,39.34]}},{"properties":{"lon":-88.0,"size":175,"comments":"(ILX)","time":{"end_time":"1430/01/01 00:00:00 -0456","original":"1429","granularity":"year","time":"1429/01/01 00:00:00 -0456"},"county":"CLARK","id":"a620iw5136bq","lat":39.46,"state":"IL","location":"WESTFIELD"},"type":"Feature","geometry":{"type":"Point","coordinates":[-88.0,39.46]}},{"properties":{"lon":-87.69,"size":100,"comments":"SWOP REPORT. (ILX)","time":{"end_time":"1447/01/01 00:00:00 -0456","original":"1446","granularity":"year","time":"1446/01/01 00:00:00 -0456"},"county":"EDGAR","id":"a620iw8haymb","lat":39.62,"state":"IL","location":"PARIS"},"type":"Feature","geometry":{"type":"Point","coordinates":[-87.69,39.62]}},{"properties":{"lon":-87.38,"size":175,"comments":"AT 13TH AND DELAWARE STREETS IN TERRE HAUTE. (IND)","time":{"end_time":"1451/01/01 00:00:00 -0456","original":"1450","granularity":"year","time":"1450/01/01 00:00:00 -0456"},"county":"VIGO","id":"a620iwcrmjz8","lat":39.47,"state":"IN","location":"TERRE HAUTE"},"type":"Feature","geometry":{"type":"Point","coordinates":[-87.38,39.47]}},{"properties":{"lon":-87.38,"size":175,"comments":"13TH AND WABASH STREETS IN TERRE HAUTE. (IND)","time":{"end_time":"1452/01/01 00:00:00 -0456","original":"1451","granularity":"year","time":"1451/01/01 00:00:00 -0456"},"county":"VIGO","id":"a620ivwyf4ro","lat":39.47,"state":"IN","location":"TERRE HAUTE"},"type":"Feature","geometry":{"type":"Point","coordinates":[-87.38,39.47]}},{"properties":{"lon":-87.38,"size":175,"comments":"(IND)","time":{"end_time":"1453/01/01 00:00:00 -0456","original":"1452","granularity":"year","time":"1452/01/01 00:00:00 -0456"},"county":"VIGO","id":"a620iwb96qoe","lat":39.47,"state":"IN","location":"TERRE HAUTE"},"type":"Feature","geometry":{"type":"Point","coordinates":[-87.38,39.47]}},{"properties":{"lon":-87.12,"size":175,"comments":"(IND)","time":{"end_time":"1508/01/01 00:00:00 -0456","original":"1507","granularity":"year","time":"1507/01/01 00:00:00 -0456"},"county":"CLAY","id":"a620iw5t3mmq","lat":39.52,"state":"IN","location":"BRAZIL"},"type":"Feature","geometry":{"type":"Point","coordinates":[-87.12,39.52]}},{"properties":{"lon":-87.23,"size":175,"comments":"(IND)","time":{"end_time":"1508/01/01 00:00:00 -0456","original":"1507","granularity":"year","time":"1507/01/01 00:00:00 -0456"},"county":"PARKE","id":"a620ivyoiih1","lat":39.77,"state":"IN","location":"ROCKVILLE"},"type":"Feature","geometry":{"type":"Point","coordinates":[-87.23,39.77]}},{"properties":{"lon":-86.8,"size":100,"comments":"(IND)","time":{"end_time":"1522/01/01 00:00:00 -0456","original":"1521","granularity":"year","time":"1521/01/01 00:00:00 -0456"},"county":"PUTNAM","id":"a620iw18dk97","lat":39.61,"state":"IN","location":"3 SE GREENCASTLE"},"type":"Feature","geometry":{"type":"Point","coordinates":[-86.8,39.61]}},{"properties":{"lon":-86.84,"size":150,"comments":"(IND)","time":{"end_time":"1532/01/01 00:00:00 -0456","original":"1531","granularity":"year","time":"1531/01/01 00:00:00 -0456"},"county":"PUTNAM","id":"a620iw1ttuzx","lat":39.74,"state":"IN","location":"2 SW BAINBRIDGE"},"type":"Feature","geometry":{"type":"Point","coordinates":[-86.84,39.74]}},{"properties":{"lon":-86.82,"size":175,"comments":"(IND)","time":{"end_time":"1535/01/01 00:00:00 -0456","original":"1534","granularity":"year","time":"1534/01/01 00:00:00 -0456"},"county":"PUTNAM","id":"a620iw884zse","lat":39.77,"state":"IN","location":"1 NNW BAINBRIDGE"},"type":"Feature","geometry":{"type":"Point","coordinates":[-86.82,39.77]}},{"properties":{"lon":-86.39,"size":100,"comments":"(IND)","time":{"end_time":"1545/01/01 00:00:00 -0456","original":"1544","granularity":"year","time":"1544/01/01 00:00:00 -0456"},"county":"HENDRICKS","id":"a620iwam5emt","lat":39.7,"state":"IN","location":"PLAINFIELD"},"type":"Feature","geometry":{"type":"Point","coordinates":[-86.39,39.7]}},{"properties":{"lon":-86.64,"size":100,"comments":"(IND)","time":{"end_time":"1552/01/01 00:00:00 -0456","original":"1551","granularity":"year","time":"1551/01/01 00:00:00 -0456"},"county":"HENDRICKS","id":"a620iwcrp42s","lat":39.86,"state":"IN","location":"NORTH SALEM"},"type":"Feature","geometry":{"type":"Point","coordinates":[-86.64,39.86]}},{"properties":{"lon":-86.15,"size":125,"comments":"(IND)","time":{"end_time":"1557/01/01 00:00:00 -0456","original":"1556","granularity":"year","time":"1556/01/01 00:00:00 -0456"},"county":"MARION","id":"a620iwcxx6vb","lat":39.76,"state":"IN","location":"1 S INDIANAPOLIS"},"type":"Feature","geometry":{"type":"Point","coordinates":[-86.15,39.76]}},{"properties":{"lon":-86.85,"size":175,"comments":"(HUN)","time":{"end_time":"1559/01/01 00:00:00 -0456","original":"1558","granularity":"year","time":"1558/01/01 00:00:00 -0456"},"county":"LIMESTONE","id":"a620ivy72l8f","lat":34.99,"state":"AL","location":"ARDMORE"},"type":"Feature","geometry":{"type":"Point","coordinates":[-86.85,34.99]}},{"properties":{"lon":-86.15,"size":125,"comments":"(IND)","time":{"end_time":"1559/01/01 00:00:00 -0456","original":"1558","granularity":"year","time":"1558/01/01 00:00:00 -0456"},"county":"MARION","id":"a620iw82a59c","lat":39.78,"state":"IN","location":"INDIANAPOLIS"},"type":"Feature","geometry":{"type":"Point","coordinates":[-86.15,39.78]}},{"properties":{"lon":-86.57,"size":175,"comments":"(HUN)","time":{"end_time":"1606/01/01 00:00:00 -0456","original":"1605","granularity":"year","time":"1605/01/01 00:00:00 -0456"},"county":"MADISON","id":"a620iw06wjm5","lat":34.85,"state":"AL","location":"MERIDIANVILLE"},"type":"Feature","geometry":{"type":"Point","coordinates":[-86.57,34.85]}},{"properties":{"lon":-86.15,"size":100,"comments":"EMERSON AVENUE AND SOUTHEASTERN AVENUE (IND)","time":{"end_time":"1608/01/01 00:00:00 -0456","original":"1607","granularity":"year","time":"1607/01/01 00:00:00 -0456"},"county":"MARION","id":"a620iw6cp805","lat":39.78,"state":"IN","location":"INDIANAPOLIS"},"type":"Feature","geometry":{"type":"Point","coordinates":[-86.15,39.78]}},{"properties":{"lon":-82.56,"size":100,"comments":"(MRX)","time":{"end_time":"1610/01/01 00:00:00 -0456","original":"1609","granularity":"year","time":"1609/01/01 00:00:00 -0456"},"county":"SCOTT","id":"a620iw1dp67g","lat":36.62,"state":"VA","location":"WEBER CITY"},"type":"Feature","geometry":{"type":"Point","coordinates":[-82.56,36.62]}},{"properties":{"lon":-86.15,"size":125,"comments":"HAIL MEASURED AT THE UNIVERSITY OF INDIANAPOLIS (IND)","time":{"end_time":"1611/01/01 00:00:00 -0456","original":"1610","granularity":"year","time":"1610/01/01 00:00:00 -0456"},"county":"MARION","id":"a620ivxpgnbl","lat":39.78,"state":"IN","location":"INDIANAPOLIS"},"type":"Feature","geometry":{"type":"Point","coordinates":[-86.15,39.78]}},{"properties":{"lon":-89.61,"size":125,"comments":"(LSX)","time":{"end_time":"1621/01/01 00:00:00 -0456","original":"1620","granularity":"year","time":"1620/01/01 00:00:00 -0456"},"county":"CLINTON","id":"a620iw09myhm","lat":38.61,"state":"IL","location":"AVISTON"},"type":"Feature","geometry":{"type":"Point","coordinates":[-89.61,38.61]}},{"properties":{"lon":-89.52,"size":175,"comments":"(LSX)","time":{"end_time":"1622/01/01 00:00:00 -0456","original":"1621","granularity":"year","time":"1621/01/01 00:00:00 -0456"},"county":"CLINTON","id":"a620iwb5jgwe","lat":38.65,"state":"IL","location":"3 N BREESE"},"type":"Feature","geometry":{"type":"Point","coordinates":[-89.52,38.65]}},{"properties":{"lon":-80.56,"size":150,"comments":"(GSP)","time":{"end_time":"1631/01/01 00:00:00 -0456","original":"1630","granularity":"year","time":"1630/01/01 00:00:00 -0456"},"county":"DAVIE","id":"a620iwaq5nqz","lat":35.9,"state":"NC","location":"MOCKSVILLE"},"type":"Feature","geometry":{"type":"Point","coordinates":[-80.56,35.9]}},{"properties":{"lon":-86.26,"size":150,"comments":"(IND)","time":{"end_time":"1631/01/01 00:00:00 -0456","original":"1630","granularity":"year","time":"1630/01/01 00:00:00 -0456"},"county":"MARION","id":"a620iwci4dtn","lat":39.72,"state":"IN","location":"2 E INDIANAPOLIS INT'L"},"type":"Feature","geometry":{"type":"Point","coordinates":[-86.26,39.72]}},{"properties":{"lon":-85.63,"size":100,"comments":"(MRX)","time":{"end_time":"1711/01/01 00:00:00 -0456","original":"1710","granularity":"year","time":"1710/01/01 00:00:00 -0456"},"county":"MARION","id":"a620iw42us49","lat":35.06,"state":"TN","location":"JASPER"},"type":"Feature","geometry":{"type":"Point","coordinates":[-85.63,35.06]}},{"properties":{"lon":-88.78,"size":100,"comments":"(LSX)","time":{"end_time":"1714/01/01 00:00:00 -0456","original":"1713","granularity":"year","time":"1713/01/01 00:00:00 -0456"},"county":"FAYETTE","id":"a620iw747byk","lat":38.83,"state":"IL","location":"FARINA"},"type":"Feature","geometry":{"type":"Point","coordinates":[-88.78,38.83]}},{"properties":{"lon":-89.05,"size":100,"comments":"QUARTER SIZE HAIL REPORTED IN THE COMMUNITY. (PAH)","time":{"end_time":"1726/01/01 00:00:00 -0456","original":"1725","granularity":"year","time":"1725/01/01 00:00:00 -0456"},"county":"FRANKLIN","id":"a620iw8l90yi","lat":37.97,"state":"IL","location":"CHRISTOPHER"},"type":"Feature","geometry":{"type":"Point","coordinates":[-89.05,37.97]}},{"properties":{"lon":-89.37,"size":100,"comments":"(LSX)","time":{"end_time":"1741/01/01 00:00:00 -0456","original":"1740","granularity":"year","time":"1740/01/01 00:00:00 -0456"},"county":"WASHINGTON","id":"a620iw665z52","lat":38.44,"state":"IL","location":"NEW MINDEN"},"type":"Feature","geometry":{"type":"Point","coordinates":[-89.37,38.44]}},{"properties":{"lon":-88.93,"size":100,"comments":"QUARTER SIZE HAIL REPORTED WITH NEAR ZERO VISIBILITY. (PAH)","time":{"end_time":"1742/01/01 00:00:00 -0456","original":"1741","granularity":"year","time":"1741/01/01 00:00:00 -0456"},"county":"FRANKLIN","id":"a620iw7cizx6","lat":37.9,"state":"IL","location":"WEST FRANKFORT"},"type":"Feature","geometry":{"type":"Point","coordinates":[-88.93,37.9]}},{"properties":{"lon":-89.27,"size":100,"comments":"(LSX)","time":{"end_time":"1748/01/01 00:00:00 -0456","original":"1747","granularity":"year","time":"1747/01/01 00:00:00 -0456"},"county":"WASHINGTON","id":"a620iwc2bcjq","lat":38.45,"state":"IL","location":"HOYLETON"},"type":"Feature","geometry":{"type":"Point","coordinates":[-89.27,38.45]}},{"properties":{"lon":-89.38,"size":100,"comments":"(LSX)","time":{"end_time":"1750/01/01 00:00:00 -0456","original":"1749","granularity":"year","time":"1749/01/01 00:00:00 -0456"},"county":"WASHINGTON","id":"a620iw7nqcjp","lat":38.35,"state":"IL","location":"NASHVILLE"},"type":"Feature","geometry":{"type":"Point","coordinates":[-89.38,38.35]}},{"properties":{"lon":-89.13,"size":175,"comments":"(LSX)","time":{"end_time":"1751/01/01 00:00:00 -0456","original":"1750","granularity":"year","time":"1750/01/01 00:00:00 -0456"},"county":"MARION","id":"a620iw08g7pi","lat":38.52,"state":"IL","location":"CENTRALIA"},"type":"Feature","geometry":{"type":"Point","coordinates":[-89.13,38.52]}},{"properties":{"lon":-89.13,"size":100,"comments":"(LSX)","time":{"end_time":"1755/01/01 00:00:00 -0456","original":"1754","granularity":"year","time":"1754/01/01 00:00:00 -0456"},"county":"MARION","id":"a620iw8japho","lat":38.52,"state":"IL","location":"CENTRALIA"},"type":"Feature","geometry":{"type":"Point","coordinates":[-89.13,38.52]}},{"properties":{"lon":-89.0,"size":175,"comments":"(LSX)","time":{"end_time":"1759/01/01 00:00:00 -0456","original":"1758","granularity":"year","time":"1758/01/01 00:00:00 -0456"},"county":"MARION","id":"a620iw4m6kr6","lat":38.51,"state":"IL","location":"3 NE WALNUT HILL"},"type":"Feature","geometry":{"type":"Point","coordinates":[-89.0,38.51]}},{"properties":{"lon":-88.53,"size":100,"comments":"(PAH)","time":{"end_time":"1801/01/01 00:00:00 -0456","original":"1800","granularity":"year","time":"1800/01/01 00:00:00 -0456"},"county":"HAMILTON","id":"a620iw78dr59","lat":38.09,"state":"IL","location":"MCLEANSBORO"},"type":"Feature","geometry":{"type":"Point","coordinates":[-88.53,38.09]}},{"properties":{"lon":-88.95,"size":100,"comments":"(LSX)","time":{"end_time":"1801/01/01 00:00:00 -0456","original":"1800","granularity":"year","time":"1800/01/01 00:00:00 -0456"},"county":"MARION","id":"a620ivztn5je","lat":38.49,"state":"IL","location":"12 SW IUKA"},"type":"Feature","geometry":{"type":"Point","coordinates":[-88.95,38.49]}},{"properties":{"lon":-88.94,"size":175,"comments":"REPORTED AT I57 AND ROUTE 161...RELAYED FROM WFO ILX (LSX)","time":{"end_time":"1803/01/01 00:00:00 -0456","original":"1802","granularity":"year","time":"1802/01/01 00:00:00 -0456"},"county":"MARION","id":"a620iwb2a7tj","lat":38.52,"state":"IL","location":"3 NW KELL"},"type":"Feature","geometry":{"type":"Point","coordinates":[-88.94,38.52]}},{"properties":{"lon":-89.55,"size":100,"comments":"QUARTER SIZE HAIL REPORTED NEAR WALLMART ALONG HIGHWAY H. (PAH)","time":{"end_time":"1807/01/01 00:00:00 -0456","original":"1806","granularity":"year","time":"1806/01/01 00:00:00 -0456"},"county":"CAPE GIRARDEAU","id":"a620iw4l6x0d","lat":37.31,"state":"MO","location":"CAPE GIRARDEAU"},"type":"Feature","geometry":{"type":"Point","coordinates":[-89.55,37.31]}},{"properties":{"lon":-88.0,"size":125,"comments":"ESTIMATED 45 MPH WINDS (PAH)","time":{"end_time":"1833/01/01 00:00:00 -0456","original":"1832","granularity":"year","time":"1832/01/01 00:00:00 -0456"},"county":"WHITE","id":"a620iw02f2dj","lat":38.26,"state":"IL","location":"GRAYVILLE"},"type":"Feature","geometry":{"type":"Point","coordinates":[-88.0,38.26]}},{"properties":{"lon":-84.53,"size":100,"comments":"(MRX)","time":{"end_time":"1834/01/01 00:00:00 -0456","original":"1833","granularity":"year","time":"1833/01/01 00:00:00 -0456"},"county":"MCMINN","id":"a620iw5umz2j","lat":35.33,"state":"TN","location":"ETOWAH"},"type":"Feature","geometry":{"type":"Point","coordinates":[-84.53,35.33]}},{"properties":{"lon":-87.93,"size":175,"comments":"GOLF BALL HAIL REPORTED BY TRAINED SPOTTER. (PAH)","time":{"end_time":"1837/01/01 00:00:00 -0456","original":"1836","granularity":"year","time":"1836/01/01 00:00:00 -0456"},"county":"POSEY","id":"a620iw4h4u9s","lat":38.13,"state":"IN","location":"NEW HARMONY"},"type":"Feature","geometry":{"type":"Point","coordinates":[-87.93,38.13]}},{"properties":{"lon":-87.78,"size":175,"comments":"ON HIGHWAY 165. ALSO A FUNNEL CLOUD WAS REPORTED. (PAH)","time":{"end_time":"1839/01/01 00:00:00 -0456","original":"1838","granularity":"year","time":"1838/01/01 00:00:00 -0456"},"county":"POSEY","id":"a620iw8hpazs","lat":38.14,"state":"IN","location":"2 S POSEYVILLE"},"type":"Feature","geometry":{"type":"Point","coordinates":[-87.78,38.14]}},{"properties":{"lon":-87.78,"size":100,"comments":"QUARTER SIZE HAIL REPORTED JUST NORTH OF TOWN. (PAH)","time":{"end_time":"1844/01/01 00:00:00 -0456","original":"1843","granularity":"year","time":"1843/01/01 00:00:00 -0456"},"county":"POSEY","id":"a620iwawhaz6","lat":38.18,"state":"IN","location":"1 N POSEYVILLE"},"type":"Feature","geometry":{"type":"Point","coordinates":[-87.78,38.18]}},{"properties":{"lon":-87.79,"size":250,"comments":"TENNIS BALL HAIL REPORTED JUST NORTH OF WADESVILLE. (PAH)","time":{"end_time":"1847/01/01 00:00:00 -0456","original":"1846","granularity":"year","time":"1846/01/01 00:00:00 -0456"},"county":"POSEY","id":"a620ivzhz1ky","lat":38.12,"state":"IN","location":"1 N WADESVILLE"},"type":"Feature","geometry":{"type":"Point","coordinates":[-87.79,38.12]}},{"properties":{"lon":-87.78,"size":175,"comments":"GOLF BALL SIZE HAIL REPORTED JUST SOUTH OF TOWN. (PAH)","time":{"end_time":"1848/01/01 00:00:00 -0456","original":"1847","granularity":"year","time":"1847/01/01 00:00:00 -0456"},"county":"POSEY","id":"a620iw2vvclx","lat":38.14,"state":"IN","location":"2 S POSEYVILLE"},"type":"Feature","geometry":{"type":"Point","coordinates":[-87.78,38.14]}},{"properties":{"lon":-87.57,"size":100,"comments":"QUARTER SIZE HAIL REPORTED. (PAH)","time":{"end_time":"1849/01/01 00:00:00 -0456","original":"1848","granularity":"year","time":"1848/01/01 00:00:00 -0456"},"county":"GIBSON","id":"a620iw2xxn10","lat":38.25,"state":"IN","location":"FORT BRANCH"},"type":"Feature","geometry":{"type":"Point","coordinates":[-87.57,38.25]}},{"properties":{"lon":-87.54,"size":175,"comments":"(PAH)","time":{"end_time":"1851/01/01 00:00:00 -0456","original":"1850","granularity":"year","time":"1850/01/01 00:00:00 -0456"},"county":"VANDERBURGH","id":"a620ivx1lsex","lat":38.01,"state":"IN","location":"2 N EVANSVILLE"},"type":"Feature","geometry":{"type":"Point","coordinates":[-87.54,38.01]}},{"properties":{"lon":-87.57,"size":125,"comments":"HALF DOLLAR SIZE HAIL REPORTED. (PAH)","time":{"end_time":"1852/01/01 00:00:00 -0456","original":"1851","granularity":"year","time":"1851/01/01 00:00:00 -0456"},"county":"GIBSON","id":"a620iw69d177","lat":38.2,"state":"IN","location":"HAUBSTADT"},"type":"Feature","geometry":{"type":"Point","coordinates":[-87.57,38.2]}},{"properties":{"lon":-87.12,"size":100,"comments":"(IND)","time":{"end_time":"1853/01/01 00:00:00 -0456","original":"1852","granularity":"year","time":"1852/01/01 00:00:00 -0456"},"county":"CLAY","id":"a620iwcn4nsd","lat":39.52,"state":"IN","location":"BRAZIL"},"type":"Feature","geometry":{"type":"Point","coordinates":[-87.12,39.52]}},{"properties":{"lon":-87.57,"size":200,"comments":"(PAH)","time":{"end_time":"1854/01/01 00:00:00 -0456","original":"1853","granularity":"year","time":"1853/01/01 00:00:00 -0456"},"county":"GIBSON","id":"a620iw2ywtir","lat":38.36,"state":"IN","location":"PRINCETON"},"type":"Feature","geometry":{"type":"Point","coordinates":[-87.57,38.36]}},{"properties":{"lon":-88.77,"size":175,"comments":"GOLF BALL SIZE HAIL REPORTED. (PAH)","time":{"end_time":"1856/01/01 00:00:00 -0456","original":"1855","granularity":"year","time":"1855/01/01 00:00:00 -0456"},"county":"JOHNSON","id":"a620iw2bouz0","lat":37.58,"state":"IL","location":"NEW BURNSIDE"},"type":"Feature","geometry":{"type":"Point","coordinates":[-88.77,37.58]}},{"properties":{"lon":-87.57,"size":175,"comments":"GOLF BALL SIZE HAIL REPORTED IN THE COMMUNITY OF FORT BRANCH. (PAH)","time":{"end_time":"1856/01/01 00:00:00 -0456","original":"1855","granularity":"year","time":"1855/01/01 00:00:00 -0456"},"county":"GIBSON","id":"a620iw6af7w3","lat":38.25,"state":"IN","location":"FORT BRANCH"},"type":"Feature","geometry":{"type":"Point","coordinates":[-87.57,38.25]}},{"properties":{"lon":-87.57,"size":250,"comments":"TENNIS BALL SIZE HAIL REPORTED SOUTH OF FORT BRANCH. (PAH)","time":{"end_time":"1858/01/01 00:00:00 -0456","original":"1857","granularity":"year","time":"1857/01/01 00:00:00 -0456"},"county":"GIBSON","id":"a620iw40fza7","lat":38.22,"state":"IN","location":"2 S FORT BRANCH"},"type":"Feature","geometry":{"type":"Point","coordinates":[-87.57,38.22]}},{"properties":{"lon":-86.84,"size":100,"comments":"(IND)","time":{"end_time":"1901/01/01 00:00:00 -0500","original":"1900","granularity":"year","time":"1900/01/01 00:00:00 -0500"},"county":"PUTNAM","id":"a620iw64ldra","lat":39.64,"state":"IN","location":"GREENCASTLE"},"type":"Feature","geometry":{"type":"Point","coordinates":[-86.84,39.64]}},{"properties":{"lon":-86.74,"size":150,"comments":"(IND)","time":{"end_time":"1908/01/01 00:00:00 -0500","original":"1907","granularity":"year","time":"1907/01/01 00:00:00 -0500"},"county":"PUTNAM","id":"a620iw6rlaga","lat":39.74,"state":"IN","location":"4 ESE BAINBRIDGE"},"type":"Feature","geometry":{"type":"Point","coordinates":[-86.74,39.74]}},{"properties":{"lon":-86.96,"size":100,"comments":"(LMK)","time":{"end_time":"1909/01/01 00:00:00 -0500","original":"1908","granularity":"year","time":"1908/01/01 00:00:00 -0500"},"county":"DUBOIS","id":"a620iwchojo3","lat":38.3,"state":"IN","location":"HUNTINGBURG"},"type":"Feature","geometry":{"type":"Point","coordinates":[-86.96,38.3]}},{"properties":{"lon":-87.13,"size":100,"comments":"(PAH)","time":{"end_time":"1915/01/01 00:00:00 -0500","original":"1914","granularity":"year","time":"1914/01/01 00:00:00 -0500"},"county":"PIKE","id":"a620iw4kz2mw","lat":38.29,"state":"IN","location":"STENDAL"},"type":"Feature","geometry":{"type":"Point","coordinates":[-87.13,38.29]}},{"properties":{"lon":-86.7,"size":100,"comments":"(LMK)","time":{"end_time":"1916/01/01 00:00:00 -0500","original":"1915","granularity":"year","time":"1915/01/01 00:00:00 -0500"},"county":"DUBOIS","id":"a620iw9cobyp","lat":38.31,"state":"IN","location":"BIRDSEYE"},"type":"Feature","geometry":{"type":"Point","coordinates":[-86.7,38.31]}},{"properties":{"lon":-86.7,"size":200,"comments":"TWO INCH HAIL COVERING THE GROUND (LMK)","time":{"end_time":"1924/01/01 00:00:00 -0500","original":"1923","granularity":"year","time":"1923/01/01 00:00:00 -0500"},"county":"DUBOIS","id":"a620ivxz4q1x","lat":38.31,"state":"IN","location":"BIRDSEYE"},"type":"Feature","geometry":{"type":"Point","coordinates":[-86.7,38.31]}},{"properties":{"lon":-87.0,"size":100,"comments":"(LMK)","time":{"end_time":"1924/01/01 00:00:00 -0500","original":"1923","granularity":"year","time":"1923/01/01 00:00:00 -0500"},"county":"DUBOIS","id":"a620iwd22bv7","lat":38.42,"state":"IN","location":"IRELAND"},"type":"Feature","geometry":{"type":"Point","coordinates":[-87.0,38.42]}},{"properties":{"lon":-86.57,"size":175,"comments":"(LMK)","time":{"end_time":"1928/01/01 00:00:00 -0500","original":"1927","granularity":"year","time":"1927/01/01 00:00:00 -0500"},"county":"CRAWFORD","id":"a620ivz6zcnh","lat":38.33,"state":"IN","location":"TASWELL"},"type":"Feature","geometry":{"type":"Point","coordinates":[-86.57,38.33]}},{"properties":{"lon":-86.39,"size":100,"comments":"(IND)","time":{"end_time":"1933/01/01 00:00:00 -0500","original":"1932","granularity":"year","time":"1932/01/01 00:00:00 -0500"},"county":"HENDRICKS","id":"a620iw02onek","lat":39.7,"state":"IN","location":"PLAINFIELD"},"type":"Feature","geometry":{"type":"Point","coordinates":[-86.39,39.7]}},{"properties":{"lon":-86.46,"size":175,"comments":"(LMK)","time":{"end_time":"1937/01/01 00:00:00 -0500","original":"1936","granularity":"year","time":"1936/01/01 00:00:00 -0500"},"county":"CRAWFORD","id":"a620iw8g0fya","lat":38.33,"state":"IN","location":"ENGLISH"},"type":"Feature","geometry":{"type":"Point","coordinates":[-86.46,38.33]}},{"properties":{"lon":-86.37,"size":100,"comments":"(IND)","time":{"end_time":"1937/01/01 00:00:00 -0500","original":"1936","granularity":"year","time":"1936/01/01 00:00:00 -0500"},"county":"MORGAN","id":"a620iwc6eqj8","lat":39.62,"state":"IN","location":"MOORESVILLE"},"type":"Feature","geometry":{"type":"Point","coordinates":[-86.37,39.62]}},{"properties":{"lon":-88.47,"size":100,"comments":"(MEG)","time":{"end_time":"1939/01/01 00:00:00 -0500","original":"1938","granularity":"year","time":"1938/01/01 00:00:00 -0500"},"county":"PRENTISS","id":"a620ivx1cbh5","lat":34.56,"state":"MS","location":"4 N MARIETTA"},"type":"Feature","geometry":{"type":"Point","coordinates":[-88.47,34.56]}},{"properties":{"lon":-92.7,"size":125,"comments":"HALF DOLLAR SIZED HAIL REPORTED NEAR HICO (SHV)","time":{"end_time":"1941/01/01 00:00:00 -0500","original":"1940","granularity":"year","time":"1940/01/01 00:00:00 -0500"},"county":"LINCOLN","id":"a620iw8r85mq","lat":32.75,"state":"LA","location":"6 SSW BERNICE"},"type":"Feature","geometry":{"type":"Point","coordinates":[-92.7,32.75]}},{"properties":{"lon":-87.91,"size":175,"comments":"GOLF BALL SIZE HAIL REPORTED. (PAH)","time":{"end_time":"1941/01/01 00:00:00 -0500","original":"1940","granularity":"year","time":"1940/01/01 00:00:00 -0500"},"county":"UNION","id":"a620iwcuapxv","lat":37.68,"state":"KY","location":"MORGANFIELD"},"type":"Feature","geometry":{"type":"Point","coordinates":[-87.91,37.68]}},{"properties":{"lon":-86.83,"size":175,"comments":"(LMK)","time":{"end_time":"1941/01/01 00:00:00 -0500","original":"1940","granularity":"year","time":"1940/01/01 00:00:00 -0500"},"county":"DUBOIS","id":"a620iwbu7laj","lat":38.32,"state":"IN","location":"ST. ANTHONY"},"type":"Feature","geometry":{"type":"Point","coordinates":[-86.83,38.32]}},{"properties":{"lon":-86.31,"size":100,"comments":"(IND)","time":{"end_time":"1941/01/01 00:00:00 -0500","original":"1940","granularity":"year","time":"1940/01/01 00:00:00 -0500"},"county":"MARION","id":"a620iw6w8gql","lat":39.66,"state":"IN","location":"CAMBY"},"type":"Feature","geometry":{"type":"Point","coordinates":[-86.31,39.66]}},{"properties":{"lon":-88.64,"size":100,"comments":"QUARTER SIZE HAIL REPORTED ON SOUTH SIDE OF TOWN AS WELL AS DOWNTOWN. (PAH)","time":{"end_time":"1944/01/01 00:00:00 -0400","original":"1943","granularity":"year","time":"1943/01/01 00:00:00 -0400"},"county":"MCCRACKEN","id":"a620ivy5ad6b","lat":37.07,"state":"KY","location":"PADUCAH"},"type":"Feature","geometry":{"type":"Point","coordinates":[-88.64,37.07]}},{"properties":{"lon":-86.78,"size":175,"comments":"(LMK)","time":{"end_time":"1944/01/01 00:00:00 -0400","original":"1943","granularity":"year","time":"1943/01/01 00:00:00 -0400"},"county":"DUBOIS","id":"a620iw7aovz6","lat":38.38,"state":"IN","location":"CELESTINE"},"type":"Feature","geometry":{"type":"Point","coordinates":[-86.78,38.38]}},{"properties":{"lon":-92.66,"size":175,"comments":"GOLF BALL SIZED HAIL REPORTED 2 MILES SOUTH OF BERNICE (SHV)","time":{"end_time":"1946/01/01 00:00:00 -0500","original":"1945","granularity":"year","time":"1945/01/01 00:00:00 -0400"},"county":"UNION","id":"a620iw5ntrp4","lat":32.8,"state":"LA","location":"2 S BERNICE"},"type":"Feature","geometry":{"type":"Point","coordinates":[-92.66,32.8]}},{"properties":{"lon":-88.4,"size":100,"comments":"QUARTER SIZE HAIL REPORTED BY STATE POLICE. (PAH)","time":{"end_time":"1953/01/01 00:00:00 -0500","original":"1952","granularity":"year","time":"1952/01/01 00:00:00 -0500"},"county":"LIVINGSTON","id":"a620iwcq7dx0","lat":37.14,"state":"KY","location":"SMITHLAND"},"type":"Feature","geometry":{"type":"Point","coordinates":[-88.4,37.14]}},{"properties":{"lon":-86.4,"size":175,"comments":"(LMK)","time":{"end_time":"1953/01/01 00:00:00 -0500","original":"1952","granularity":"year","time":"1952/01/01 00:00:00 -0500"},"county":"ORANGE","id":"a620iw54nfg7","lat":38.43,"state":"IN","location":"VALEENE"},"type":"Feature","geometry":{"type":"Point","coordinates":[-86.4,38.43]}},{"properties":{"lon":-87.67,"size":175,"comments":"(PAH)","time":{"end_time":"1956/01/01 00:00:00 -0500","original":"1955","granularity":"year","time":"1955/01/01 00:00:00 -0500"},"county":"HENDERSON","id":"a620iw00lr58","lat":37.79,"state":"KY","location":"2 E CORYDON"},"type":"Feature","geometry":{"type":"Point","coordinates":[-87.67,37.79]}},{"properties":{"lon":-86.03,"size":100,"comments":"(IND)","time":{"end_time":"1956/01/01 00:00:00 -0500","original":"1955","granularity":"year","time":"1955/01/01 00:00:00 -0500"},"county":"HAMILTON","id":"a620iw1jldsv","lat":40.06,"state":"IN","location":"NOBLESVILLE"},"type":"Feature","geometry":{"type":"Point","coordinates":[-86.03,40.06]}},{"properties":{"lon":-86.89,"size":100,"comments":"QUARTER SIZED HAIL AND POSSIBLE WALL CLOUD REPORTED NEAR I-65 WELCOME CENTER. (HUN)","time":{"end_time":"2001/01/01 00:00:00 -0500","original":"2000","granularity":"year","time":"2000/01/01 00:00:00 -0500"},"county":"LIMESTONE","id":"a620iwajvb8s","lat":34.96,"state":"AL","location":"4 SW ARDMORE"},"type":"Feature","geometry":{"type":"Point","coordinates":[-86.89,34.96]}},{"properties":{"lon":-87.58,"size":175,"comments":"GOLF BALL SIZE HAIL REPORTED. (PAH)","time":{"end_time":"2001/01/01 00:00:00 -0500","original":"2000","granularity":"year","time":"2000/01/01 00:00:00 -0500"},"county":"HENDERSON","id":"a620ivxt3zb5","lat":37.84,"state":"KY","location":"HENDERSON"},"type":"Feature","geometry":{"type":"Point","coordinates":[-87.58,37.84]}},{"properties":{"lon":-87.58,"size":175,"comments":"(PAH)","time":{"end_time":"2003/01/01 00:00:00 -0500","original":"2002","granularity":"year","time":"2002/01/01 00:00:00 -0500"},"county":"HENDERSON","id":"a620ivxb0nwf","lat":37.84,"state":"KY","location":"HENDERSON"},"type":"Feature","geometry":{"type":"Point","coordinates":[-87.58,37.84]}},{"properties":{"lon":-88.73,"size":100,"comments":"DEEP ENOUGH TO CAUSE FOG IN THE VALLEYS (MEG)","time":{"end_time":"2004/01/01 00:00:00 -0500","original":"2003","granularity":"year","time":"2003/01/01 00:00:00 -0500"},"county":"MADISON","id":"a620iw5sxgut","lat":35.55,"state":"TN","location":"6 ESE BEMIS"},"type":"Feature","geometry":{"type":"Point","coordinates":[-88.73,35.55]}},{"properties":{"lon":-88.11,"size":100,"comments":"QUARTER AND NICKEL SIZED HAIL REPORTED (HUN)","time":{"end_time":"2008/01/01 00:00:00 -0500","original":"2007","granularity":"year","time":"2007/01/01 00:00:00 -0500"},"county":"COLBERT","id":"a620ivzzbu40","lat":34.69,"state":"AL","location":"ALLSBORO"},"type":"Feature","geometry":{"type":"Point","coordinates":[-88.11,34.69]}},{"properties":{"lon":-87.82,"size":175,"comments":"GOLF BALL SIZE HAIL REPORTED. (PAH)","time":{"end_time":"2009/01/01 00:00:00 -0500","original":"2008","granularity":"year","time":"2008/01/01 00:00:00 -0500"},"county":"WEBSTER","id":"a620iw6l78k3","lat":37.48,"state":"KY","location":"CLAY"},"type":"Feature","geometry":{"type":"Point","coordinates":[-87.82,37.48]}},{"properties":{"lon":-92.38,"size":175,"comments":"GOLF BALL SIZED HAIL REPORTED ON SALEM ROAD NEAR FARMERVILLE (SHV)","time":{"end_time":"2016/01/01 00:00:00 -0500","original":"2015","granularity":"year","time":"2015/01/01 00:00:00 -0500"},"county":"UNION","id":"a620iw6hrsml","lat":32.79,"state":"LA","location":"2 NE FARMERVILLE"},"type":"Feature","geometry":{"type":"Point","coordinates":[-92.38,32.79]}},{"properties":{"lon":-87.89,"size":275,"comments":"BASEBALL SIZED HAIL REPORTED IN BARTON (HUN)","time":{"end_time":"2016/01/01 00:00:00 -0500","original":"2015","granularity":"year","time":"2015/01/01 00:00:00 -0500"},"county":"COLBERT","id":"a620iw026elw","lat":34.74,"state":"AL","location":"4 ESE CHEROKEE"},"type":"Feature","geometry":{"type":"Point","coordinates":[-87.89,34.74]}},{"properties":{"lon":-88.24,"size":175,"comments":"LATE REPORT. GOLF BALL SIZE HAIL REPORTED. (PAH)","time":{"end_time":"2016/01/01 00:00:00 -0500","original":"2015","granularity":"year","time":"2015/01/01 00:00:00 -0500"},"county":"LIVINGSTON","id":"a620iw1v9srl","lat":37.27,"state":"KY","location":"SALEM"},"type":"Feature","geometry":{"type":"Point","coordinates":[-88.24,37.27]}},{"properties":{"lon":-87.97,"size":175,"comments":"GOLFBALL SIZE HAIL WAS REPORTED. (HUN)","time":{"end_time":"2019/01/01 00:00:00 -0500","original":"2018","granularity":"year","time":"2018/01/01 00:00:00 -0500"},"county":"COLBERT","id":"a620iwai7ofh","lat":34.76,"state":"AL","location":"CHEROKEE"},"type":"Feature","geometry":{"type":"Point","coordinates":[-87.97,34.76]}},{"properties":{"lon":-86.19,"size":200,"comments":"(LMK)","time":{"end_time":"2021/01/01 00:00:00 -0500","original":"2020","granularity":"year","time":"2020/01/01 00:00:00 -0500"},"county":"WASHINGTON","id":"a620ivxhcnd6","lat":38.43,"state":"IN","location":"FREDERICKSBURG"},"type":"Feature","geometry":{"type":"Point","coordinates":[-86.19,38.43]}},{"properties":{"lon":-87.12,"size":100,"comments":"NICKEL TO QUARTER SIZE HAIL REPORTED IN THE COMMUNITY. (PAH)","time":{"end_time":"2022/01/01 00:00:00 -0500","original":"2021","granularity":"year","time":"2021/01/01 00:00:00 -0500"},"county":"DAVIESS","id":"a620iwadrkpt","lat":37.76,"state":"KY","location":"OWENSBORO"},"type":"Feature","geometry":{"type":"Point","coordinates":[-87.12,37.76]}},{"properties":{"lon":-86.02,"size":275,"comments":"(LMK)","time":{"end_time":"2024/01/01 00:00:00 -0500","original":"2023","granularity":"year","time":"2023/01/01 00:00:00 -0500"},"county":"WASHINGTON","id":"a620ivwvx7fn","lat":38.5,"state":"IN","location":"NEW PEKIN"},"type":"Feature","geometry":{"type":"Point","coordinates":[-86.02,38.5]}},{"properties":{"lon":-87.05,"size":100,"comments":"(PAH)","time":{"end_time":"2025/01/01 00:00:00 -0500","original":"2024","granularity":"year","time":"2024/01/01 00:00:00 -0500"},"county":"SPENCER","id":"a620ivxh5o62","lat":37.88,"state":"IN","location":"ROCKPORT"},"type":"Feature","geometry":{"type":"Point","coordinates":[-87.05,37.88]}},{"properties":{"lon":-87.39,"size":125,"comments":"HALF DOLLAR HAIL REPORTED IN THE COMMUNITY OF BEACH GROVE. (PAH)","time":{"end_time":"2026/01/01 00:00:00 -0500","original":"2025","granularity":"year","time":"2025/01/01 00:00:00 -0500"},"county":"MCLEAN","id":"a620iwddxx0s","lat":37.64,"state":"KY","location":"10 NW CALHOUN"},"type":"Feature","geometry":{"type":"Point","coordinates":[-87.39,37.64]}},{"properties":{"lon":-88.17,"size":125,"comments":"AT BEACH GROVE (PAH)","time":{"end_time":"2026/01/01 00:00:00 -0500","original":"2025","granularity":"year","time":"2025/01/01 00:00:00 -0500"},"county":"XXX","id":"a620iw2v3can","lat":38.75,"state":"XX","location":"10 NW CALHOUN"},"type":"Feature","geometry":{"type":"Point","coordinates":[-88.17,38.75]}},{"properties":{"lon":-86.02,"size":175,"comments":"(LMK)","time":{"end_time":"2029/01/01 00:00:00 -0500","original":"2028","granularity":"year","time":"2028/01/01 00:00:00 -0500"},"county":"WASHINGTON","id":"a620iw5hbzkw","lat":38.5,"state":"IN","location":"NEW PEKIN"},"type":"Feature","geometry":{"type":"Point","coordinates":[-86.02,38.5]}},{"properties":{"lon":-87.89,"size":100,"comments":"QUARTER SIZE HAIL WAS REPORTED. (HUN)","time":{"end_time":"2031/01/01 00:00:00 -0500","original":"2030","granularity":"year","time":"2030/01/01 00:00:00 -0500"},"county":"COLBERT","id":"a620iw4sep5v","lat":34.74,"state":"AL","location":"4 ESE CHEROKEE"},"type":"Feature","geometry":{"type":"Point","coordinates":[-87.89,34.74]}},{"properties":{"lon":-86.19,"size":200,"comments":"(LMK)","time":{"end_time":"2033/01/01 00:00:00 -0500","original":"2032","granularity":"year","time":"2032/01/01 00:00:00 -0500"},"county":"WASHINGTON","id":"a620iw3ycsil","lat":38.43,"state":"IN","location":"FREDERICKSBURG"},"type":"Feature","geometry":{"type":"Point","coordinates":[-86.19,38.43]}},{"properties":{"lon":-92.74,"size":100,"comments":"QUARTER SIZED HAIL NEAR THE INTERSECTION OF HWY 151 AND 146 (SHV)","time":{"end_time":"2036/01/01 00:00:00 -0500","original":"2035","granularity":"year","time":"2035/01/01 00:00:00 -0500"},"county":"LINCOLN","id":"a620iw2eqqfz","lat":32.63,"state":"LA","location":"7 SW DUBACH"},"type":"Feature","geometry":{"type":"Point","coordinates":[-92.74,32.63]}},{"properties":{"lon":-87.69,"size":125,"comments":"HALF DOLLAR SIZED HAIL REPORTED IN FLORENCE (HUN)","time":{"end_time":"2036/01/01 00:00:00 -0500","original":"2035","granularity":"year","time":"2035/01/01 00:00:00 -0500"},"county":"LAUDERDALE","id":"a620iw2lva45","lat":34.82,"state":"AL","location":"2 NNW FLORENCE"},"type":"Feature","geometry":{"type":"Point","coordinates":[-87.69,34.82]}},{"properties":{"lon":-87.67,"size":425,"comments":"SOFTBALL SIZE HAIL WAS REPORTED. (HUN)","time":{"end_time":"2036/01/01 00:00:00 -0500","original":"2035","granularity":"year","time":"2035/01/01 00:00:00 -0500"},"county":"LAUDERDALE","id":"a620iw0f3w3b","lat":34.83,"state":"AL","location":"FLORENCE"},"type":"Feature","geometry":{"type":"Point","coordinates":[-87.67,34.83]}},{"properties":{"lon":-87.51,"size":100,"comments":"QUARTER SIZE HAIL REPORTED. DAMAGE TO GAS STATION CANOPY AND SIGNS REPORTED. (PAH)","time":{"end_time":"2036/01/01 00:00:00 -0500","original":"2035","granularity":"year","time":"2035/01/01 00:00:00 -0500"},"county":"HOPKINS","id":"a620iw400bp6","lat":37.34,"state":"KY","location":"MADISONVILLE"},"type":"Feature","geometry":{"type":"Point","coordinates":[-87.51,37.34]}},{"properties":{"lon":-85.47,"size":175,"comments":"(LMK)","time":{"end_time":"2037/01/01 00:00:00 -0500","original":"2036","granularity":"year","time":"2036/01/01 00:00:00 -0500"},"county":"JEFFERSON","id":"a620iw0z1zin","lat":38.73,"state":"IN","location":"1 N HANOVER"},"type":"Feature","geometry":{"type":"Point","coordinates":[-85.47,38.73]}},{"properties":{"lon":-87.51,"size":175,"comments":"GOFL BALL SIZE HAIL REPORTED ALONG WITH WIND GUSTS ESTIMATED 60 MPH. (PAH)","time":{"end_time":"2038/01/01 00:00:00 -0500","original":"2037","granularity":"year","time":"2037/01/01 00:00:00 -0500"},"county":"HOPKINS","id":"a620iwbsuzyu","lat":37.34,"state":"KY","location":"MADISONVILLE"},"type":"Feature","geometry":{"type":"Point","coordinates":[-87.51,37.34]}},{"properties":{"lon":-87.5,"size":175,"comments":"GOLF BALL SIZE HAIL REPORTED. (PAH)","time":{"end_time":"2040/01/01 00:00:00 -0500","original":"2039","granularity":"year","time":"2039/01/01 00:00:00 -0500"},"county":"WEBSTER","id":"a620iwbr2v0v","lat":37.49,"state":"KY","location":"SLAUGHTERS"},"type":"Feature","geometry":{"type":"Point","coordinates":[-87.5,37.49]}},{"properties":{"lon":-85.27,"size":100,"comments":"(IND)","time":{"end_time":"2041/01/01 00:00:00 -0500","original":"2040","granularity":"year","time":"2040/01/01 00:00:00 -0500"},"county":"HENRY","id":"a620iw2gef8k","lat":39.81,"state":"IN","location":"1 E STRAUGHN"},"type":"Feature","geometry":{"type":"Point","coordinates":[-85.27,39.81]}},{"properties":{"lon":-86.38,"size":125,"comments":"EMERGENCY MANAGEMENT REPORTED LARGE HAIL 5 MILES SOUTHEAST OF SHELBYVILLE. (OHX)","time":{"end_time":"2042/01/01 00:00:00 -0500","original":"2041","granularity":"year","time":"2041/01/01 00:00:00 -0500"},"county":"BEDFORD","id":"a620iwbvzlb4","lat":35.44,"state":"TN","location":"5 SE SHELBYVILLE"},"type":"Feature","geometry":{"type":"Point","coordinates":[-86.38,35.44]}},{"properties":{"lon":-86.38,"size":100,"comments":"60 MPH WINDS (LMK)","time":{"end_time":"2043/01/01 00:00:00 -0500","original":"2042","granularity":"year","time":"2042/01/01 00:00:00 -0500"},"county":"CRAWFORD","id":"a620ivyphc29","lat":38.24,"state":"IN","location":"CURBY"},"type":"Feature","geometry":{"type":"Point","coordinates":[-86.38,38.24]}},{"properties":{"lon":-84.89,"size":175,"comments":"(ILN)","time":{"end_time":"2043/01/01 00:00:00 -0500","original":"2042","granularity":"year","time":"2042/01/01 00:00:00 -0500"},"county":"WAYNE","id":"a620iwcr9zck","lat":39.83,"state":"IN","location":"RICHMOND"},"type":"Feature","geometry":{"type":"Point","coordinates":[-84.89,39.83]}},{"properties":{"lon":-91.06,"size":100,"comments":"(JAN)","time":{"end_time":"2044/01/01 00:00:00 -0500","original":"2043","granularity":"year","time":"2043/01/01 00:00:00 -0500"},"county":"WASHINGTON","id":"a620iw30gyx9","lat":33.5,"state":"MS","location":"WINTERVILLE"},"type":"Feature","geometry":{"type":"Point","coordinates":[-91.06,33.5]}},{"properties":{"lon":-91.45,"size":175,"comments":"(JAN)","time":{"end_time":"2045/01/01 00:00:00 -0500","original":"2044","granularity":"year","time":"2044/01/01 00:00:00 -0500"},"county":"CHICOT","id":"a620iw22tyw6","lat":33.3,"state":"AR","location":"3 E MONTROSE"},"type":"Feature","geometry":{"type":"Point","coordinates":[-91.45,33.3]}},{"properties":{"lon":-92.65,"size":175,"comments":"GOLF BALL SIZED HAIL COMING DOWN IN SHEETS (SHV)","time":{"end_time":"2046/01/01 00:00:00 -0500","original":"2045","granularity":"year","time":"2045/01/01 00:00:00 -0500"},"county":"LINCOLN","id":"a620iw8f90ee","lat":32.64,"state":"LA","location":"2 N VIENNA"},"type":"Feature","geometry":{"type":"Point","coordinates":[-92.65,32.64]}},{"properties":{"lon":-88.62,"size":175,"comments":"(JAN)","time":{"end_time":"2046/01/01 00:00:00 -0500","original":"2045","granularity":"year","time":"2045/01/01 00:00:00 -0500"},"county":"LOWNDES","id":"a620ivxnap88","lat":33.35,"state":"MS","location":"3 N CRAWFORD"},"type":"Feature","geometry":{"type":"Point","coordinates":[-88.62,33.35]}},{"properties":{"lon":-87.72,"size":100,"comments":"DIME TO QUARTER SIZE HAIL WAS REPORTED COVERING THE GROUND. (HUN)","time":{"end_time":"2046/01/01 00:00:00 -0500","original":"2045","granularity":"year","time":"2045/01/01 00:00:00 -0500"},"county":"LAUDERDALE","id":"a620iw3zkfon","lat":34.81,"state":"AL","location":"3 WSW FLORENCE"},"type":"Feature","geometry":{"type":"Point","coordinates":[-87.72,34.81]}},{"properties":{"lon":-86.33,"size":100,"comments":"SPOTTER REPORTED ONE INCH HAIL AT WARTRACE. (OHX)","time":{"end_time":"2046/01/01 00:00:00 -0500","original":"2045","granularity":"year","time":"2045/01/01 00:00:00 -0500"},"county":"BEDFORD","id":"a620iw72tnwg","lat":35.53,"state":"TN","location":"WARTRACE"},"type":"Feature","geometry":{"type":"Point","coordinates":[-86.33,35.53]}},{"properties":{"lon":-86.23,"size":175,"comments":"GOLFBALL HAIL REPORTED AT BEECHGROVE BY AMATEUR RADIO. (OHX)","time":{"end_time":"2046/01/01 00:00:00 -0500","original":"2045","granularity":"year","time":"2045/01/01 00:00:00 -0500"},"county":"COFFEE","id":"a620iw8s2owo","lat":35.59,"state":"TN","location":"12 NW MANCHESTER"},"type":"Feature","geometry":{"type":"Point","coordinates":[-86.23,35.59]}},{"properties":{"lon":-88.56,"size":275,"comments":"TENNIS BALL TO BASEBALL SIZED HAIL (JAN)","time":{"end_time":"2049/01/01 00:00:00 -0500","original":"2048","granularity":"year","time":"2048/01/01 00:00:00 -0500"},"county":"LOWNDES","id":"a620iw1zitt0","lat":33.39,"state":"MS","location":"5 ESE ARTESIA"},"type":"Feature","geometry":{"type":"Point","coordinates":[-88.56,33.39]}},{"properties":{"lon":-85.07,"size":200,"comments":"(ILN)","time":{"end_time":"2050/01/01 00:00:00 -0500","original":"2049","granularity":"year","time":"2049/01/01 00:00:00 -0500"},"county":"SWITZERLAND","id":"a620iw320vys","lat":38.76,"state":"IN","location":"VEVAY"},"type":"Feature","geometry":{"type":"Point","coordinates":[-85.07,38.76]}},{"properties":{"lon":-85.17,"size":175,"comments":"(ILN)","time":{"end_time":"2050/01/01 00:00:00 -0500","original":"2049","granularity":"year","time":"2049/01/01 00:00:00 -0500"},"county":"WAYNE","id":"a620iw9q8wrv","lat":39.81,"state":"IN","location":"CAMBRIDGE CITY"},"type":"Feature","geometry":{"type":"Point","coordinates":[-85.17,39.81]}},{"properties":{"lon":-87.82,"size":175,"comments":"GOLF BALL SIZE HAIL DAMAGED ROOF OF HOMES ALONG PRINCETON ROAD AND STONE ROAD. LATE REPORT. (PAH)","time":{"end_time":"2051/01/01 00:00:00 -0500","original":"2050","granularity":"year","time":"2050/01/01 00:00:00 -0500"},"county":"TRIGG","id":"a620iwbddnav","lat":36.87,"state":"KY","location":"CADIZ"},"type":"Feature","geometry":{"type":"Point","coordinates":[-87.82,36.87]}},{"properties":{"lon":-84.79,"size":100,"comments":"(ILN)","time":{"end_time":"2051/01/01 00:00:00 -0500","original":"2050","granularity":"year","time":"2050/01/01 00:00:00 -0500"},"county":"DARKE","id":"a620ivxjfv1c","lat":40.0,"state":"OH","location":"HOLLANSBURG"},"type":"Feature","geometry":{"type":"Point","coordinates":[-84.79,40.0]}},{"properties":{"lon":-91.28,"size":175,"comments":"STRONG WINDS ALSO REPORTED. ALONG HIGHWAY 82 N OF LAKE VILLAGE. (JAN)","time":{"end_time":"2053/01/01 00:00:00 -0500","original":"2052","granularity":"year","time":"2052/01/01 00:00:00 -0500"},"county":"CHICOT","id":"a620iw6kpjex","lat":33.35,"state":"AR","location":"2 N LAKE VILLAGE"},"type":"Feature","geometry":{"type":"Point","coordinates":[-91.28,33.35]}},{"properties":{"lon":-86.23,"size":175,"comments":"(OHX)","time":{"end_time":"2053/01/01 00:00:00 -0500","original":"2052","granularity":"year","time":"2052/01/01 00:00:00 -0500"},"county":"COFFEE","id":"a620iw0uqx7n","lat":35.56,"state":"TN","location":"6 ENE WARTRACE"},"type":"Feature","geometry":{"type":"Point","coordinates":[-86.23,35.56]}},{"properties":{"lon":-89.19,"size":100,"comments":"(MEG)","time":{"end_time":"2054/01/01 00:00:00 -0500","original":"2053","granularity":"year","time":"2053/01/01 00:00:00 -0500"},"county":"HARDEMAN","id":"a620iw3dxkld","lat":35.05,"state":"TN","location":"GRAND JUNCTION"},"type":"Feature","geometry":{"type":"Point","coordinates":[-89.19,35.05]}},{"properties":{"lon":-89.19,"size":175,"comments":"(MEG)","time":{"end_time":"2056/01/01 00:00:00 -0500","original":"2055","granularity":"year","time":"2055/01/01 00:00:00 -0500"},"county":"HARDEMAN","id":"a620iw5loq3r","lat":35.05,"state":"TN","location":"GRAND JUNCTION"},"type":"Feature","geometry":{"type":"Point","coordinates":[-89.19,35.05]}},{"properties":{"lon":-84.89,"size":175,"comments":"(ILN)","time":{"end_time":"2058/01/01 00:00:00 -0500","original":"2057","granularity":"year","time":"2057/01/01 00:00:00 -0500"},"county":"WAYNE","id":"a620iw0p48ze","lat":39.83,"state":"IN","location":"RICHMOND"},"type":"Feature","geometry":{"type":"Point","coordinates":[-84.89,39.83]}},{"properties":{"lon":-85.98,"size":100,"comments":"PEKIN ROAD AND HIGHWAY 150. (LMK)","time":{"end_time":"2059/01/01 00:00:00 -0500","original":"2058","granularity":"year","time":"2058/01/01 00:00:00 -0500"},"county":"FLOYD","id":"a620iwbelg7b","lat":38.37,"state":"IN","location":"GREENVILLE"},"type":"Feature","geometry":{"type":"Point","coordinates":[-85.98,38.37]}},{"properties":{"lon":-85.07,"size":175,"comments":"(ILN)","time":{"end_time":"2059/01/01 00:00:00 -0500","original":"2058","granularity":"year","time":"2058/01/01 00:00:00 -0500"},"county":"SWITZERLAND","id":"a620iwacdm9s","lat":38.76,"state":"IN","location":"VEVAY"},"type":"Feature","geometry":{"type":"Point","coordinates":[-85.07,38.76]}},{"properties":{"lon":-92.48,"size":125,"comments":"HALF DOLLAR SIZED HAIL COVERING THE ROAD NEAR HWY 33 (SHV)","time":{"end_time":"2101/01/01 00:00:00 -0500","original":"2100","granularity":"year","time":"2100/01/01 00:00:00 -0500"},"county":"UNION","id":"a620ivxzkn3v","lat":32.68,"state":"LA","location":"5 NW DOWNSVILLE"},"type":"Feature","geometry":{"type":"Point","coordinates":[-92.48,32.68]}},{"properties":{"lon":-87.38,"size":175,"comments":"QUARTER SIZE HAIL WAS REPORTED. (HUN)","time":{"end_time":"2101/01/01 00:00:00 -0500","original":"2100","granularity":"year","time":"2100/01/01 00:00:00 -0500"},"county":"LAUDERDALE","id":"a620iw20i8ck","lat":34.85,"state":"AL","location":"5 WNW ROGERSVILLE"},"type":"Feature","geometry":{"type":"Point","coordinates":[-87.38,34.85]}},{"properties":{"lon":-85.63,"size":175,"comments":"QUARTER SIZE HAIL WAS REPORTED. (HUN)","time":{"end_time":"2101/01/01 00:00:00 -0500","original":"2100","granularity":"year","time":"2100/01/01 00:00:00 -0500"},"county":"MARION","id":"a620iw5r70cr","lat":35.08,"state":"TN","location":"2 N JASPER"},"type":"Feature","geometry":{"type":"Point","coordinates":[-85.63,35.08]}},{"properties":{"lon":-86.89,"size":100,"comments":"FUNNEL CLOUD SPOTTED. (LMK)","time":{"end_time":"2101/01/01 00:00:00 -0500","original":"2100","granularity":"year","time":"2100/01/01 00:00:00 -0500"},"county":"OHIO","id":"a620ivy68adx","lat":37.45,"state":"KY","location":"HARTFORD"},"type":"Feature","geometry":{"type":"Point","coordinates":[-86.89,37.45]}},{"properties":{"lon":-85.16,"size":125,"comments":"(ILN)","time":{"end_time":"2101/01/01 00:00:00 -0500","original":"2100","granularity":"year","time":"2100/01/01 00:00:00 -0500"},"county":"CARROLL","id":"a620iw6t9a3d","lat":38.68,"state":"KY","location":"CARROLLTON"},"type":"Feature","geometry":{"type":"Point","coordinates":[-85.16,38.68]}},{"properties":{"lon":-91.28,"size":175,"comments":"GOLF BALL SIZED HAIL REPORTED IN LAKE VILLAGE ALONG HIGHWAY 82 (JAN)","time":{"end_time":"2103/01/01 00:00:00 -0500","original":"2102","granularity":"year","time":"2102/01/01 00:00:00 -0500"},"county":"CHICOT","id":"a620iw07ajx3","lat":33.32,"state":"AR","location":"LAKE VILLAGE"},"type":"Feature","geometry":{"type":"Point","coordinates":[-91.28,33.32]}},{"properties":{"lon":-85.16,"size":175,"comments":"AT THE INTERSECTION OF HWY 55 AND HWY 389 - RELAYED FROM WFO LOUISVILLE (ILN)","time":{"end_time":"2105/01/01 00:00:00 -0500","original":"2104","granularity":"year","time":"2104/01/01 00:00:00 -0500"},"county":"CARROLL","id":"a620ivxb9vlh","lat":38.66,"state":"KY","location":"1 S CARROLLTON"},"type":"Feature","geometry":{"type":"Point","coordinates":[-85.16,38.66]}},{"properties":{"lon":-87.67,"size":100,"comments":"2 INCHES OF HAIL UP TO THE SIZE OF QUARTERS WAS REPORTED. (HUN)","time":{"end_time":"2106/01/01 00:00:00 -0500","original":"2105","granularity":"year","time":"2105/01/01 00:00:00 -0500"},"county":"LAUDERDALE","id":"a620iw4fwa0s","lat":34.83,"state":"AL","location":"FLORENCE"},"type":"Feature","geometry":{"type":"Point","coordinates":[-87.67,34.83]}},{"properties":{"lon":-86.18,"size":275,"comments":"(LMK)","time":{"end_time":"2107/01/01 00:00:00 -0500","original":"2106","granularity":"year","time":"2106/01/01 00:00:00 -0500"},"county":"MEADE","id":"a620iwbby43d","lat":38.0,"state":"KY","location":"BRANDENBURG"},"type":"Feature","geometry":{"type":"Point","coordinates":[-86.18,38.0]}},{"properties":{"lon":-88.32,"size":100,"comments":"(JAN)","time":{"end_time":"2108/01/01 00:00:00 -0500","original":"2107","granularity":"year","time":"2107/01/01 00:00:00 -0500"},"county":"LOWNDES","id":"a620ivz68l33","lat":33.45,"state":"MS","location":"NEW HOPE"},"type":"Feature","geometry":{"type":"Point","coordinates":[-88.32,33.45]}},{"properties":{"lon":-86.1,"size":125,"comments":"(LMK)","time":{"end_time":"2110/01/01 00:00:00 -0500","original":"2109","granularity":"year","time":"2109/01/01 00:00:00 -0500"},"county":"MEADE","id":"a620iwcven8v","lat":38.0,"state":"KY","location":"DOE VALLEY"},"type":"Feature","geometry":{"type":"Point","coordinates":[-86.1,38.0]}},{"properties":{"lon":-85.76,"size":100,"comments":"(LMK)","time":{"end_time":"2110/01/01 00:00:00 -0500","original":"2109","granularity":"year","time":"2109/01/01 00:00:00 -0500"},"county":"CLARK","id":"a620iw37xr7p","lat":38.39,"state":"IN","location":"SELLERSBURG"},"type":"Feature","geometry":{"type":"Point","coordinates":[-85.76,38.39]}},{"properties":{"lon":-86.15,"size":100,"comments":"QUARTER SIZE HAIL WAS REPORTED. (HUN)","time":{"end_time":"2111/01/01 00:00:00 -0500","original":"2110","granularity":"year","time":"2110/01/01 00:00:00 -0500"},"county":"FRANKLIN","id":"a620iw348xhz","lat":35.19,"state":"TN","location":"2 W WINCHESTER"},"type":"Feature","geometry":{"type":"Point","coordinates":[-86.15,35.19]}},{"properties":{"lon":-86.66,"size":100,"comments":"AT RENFROW (LMK)","time":{"end_time":"2116/01/01 00:00:00 -0500","original":"2115","granularity":"year","time":"2115/01/01 00:00:00 -0500"},"county":"OHIO","id":"a620ivxwn53l","lat":37.41,"state":"KY","location":"12 E BEAVER DAM"},"type":"Feature","geometry":{"type":"Point","coordinates":[-86.66,37.41]}},{"properties":{"lon":-85.05,"size":175,"comments":"(LMK)","time":{"end_time":"2118/01/01 00:00:00 -0500","original":"2117","granularity":"year","time":"2117/01/01 00:00:00 -0500"},"county":"MARION","id":"a620iw2ajxn9","lat":37.58,"state":"KY","location":"GRAVEL SWITCH"},"type":"Feature","geometry":{"type":"Point","coordinates":[-85.05,37.58]}},{"properties":{"lon":-88.6,"size":200,"comments":"(MEG)","time":{"end_time":"2119/01/01 00:00:00 -0500","original":"2118","granularity":"year","time":"2118/01/01 00:00:00 -0500"},"county":"MONROE","id":"a620iw2h7cwu","lat":33.97,"state":"MS","location":"WREN"},"type":"Feature","geometry":{"type":"Point","coordinates":[-88.6,33.97]}},{"properties":{"lon":-86.29,"size":175,"comments":"(LMK)","time":{"end_time":"2119/01/01 00:00:00 -0500","original":"2118","granularity":"year","time":"2118/01/01 00:00:00 -0500"},"county":"GRAYSON","id":"a620iw89ogen","lat":37.48,"state":"KY","location":"LEITCHFIELD"},"type":"Feature","geometry":{"type":"Point","coordinates":[-86.29,37.48]}},{"properties":{"lon":-92.26,"size":100,"comments":"QUARTER SIZED HAIL REPORTED NEAR THE INTERSECTION OF HWY 2 AND 143 (SHV)","time":{"end_time":"2121/01/01 00:00:00 -0500","original":"2120","granularity":"year","time":"2120/01/01 00:00:00 -0500"},"county":"UNION","id":"a620ivxts29u","lat":32.72,"state":"LA","location":"9 ESE FARMERVILLE"},"type":"Feature","geometry":{"type":"Point","coordinates":[-92.26,32.72]}},{"properties":{"lon":-86.49,"size":100,"comments":"*** 1 INJ *** (LMK)","time":{"end_time":"2122/01/01 00:00:00 -0500","original":"2121","granularity":"year","time":"2121/01/01 00:00:00 -0500"},"county":"GRAYSON","id":"a620iwak51hz","lat":37.42,"state":"KY","location":"CANEYVILLE"},"type":"Feature","geometry":{"type":"Point","coordinates":[-86.49,37.42]}},{"properties":{"lon":-86.49,"size":175,"comments":"(LMK)","time":{"end_time":"2123/01/01 00:00:00 -0500","original":"2122","granularity":"year","time":"2122/01/01 00:00:00 -0500"},"county":"GRAYSON","id":"a620iwbsfpd5","lat":37.42,"state":"KY","location":"CANEYVILLE"},"type":"Feature","geometry":{"type":"Point","coordinates":[-86.49,37.42]}},{"properties":{"lon":-86.09,"size":275,"comments":"BASEBALL SIZE HAIL WAS REPORTED. (HUN)","time":{"end_time":"2126/01/01 00:00:00 -0500","original":"2125","granularity":"year","time":"2125/01/01 00:00:00 -0500"},"county":"FRANKLIN","id":"a620iw18pae8","lat":35.21,"state":"TN","location":"DECHERD"},"type":"Feature","geometry":{"type":"Point","coordinates":[-86.09,35.21]}},{"properties":{"lon":-87.38,"size":175,"comments":"EMERGENCY MANAGEMENT REPORTS GOLFBALL SIZE HAIL AT DICKSON. (OHX)","time":{"end_time":"2126/01/01 00:00:00 -0500","original":"2125","granularity":"year","time":"2125/01/01 00:00:00 -0500"},"county":"DICKSON","id":"a620iw64zhu3","lat":36.08,"state":"TN","location":"DICKSON"},"type":"Feature","geometry":{"type":"Point","coordinates":[-87.38,36.08]}},{"properties":{"lon":-84.78,"size":200,"comments":"NEAR JONESVILLE. (ILN)","time":{"end_time":"2126/01/01 00:00:00 -0500","original":"2125","granularity":"year","time":"2125/01/01 00:00:00 -0500"},"county":"GRANT","id":"a620iw275snh","lat":38.65,"state":"KY","location":"4 S EAGLE HILL"},"type":"Feature","geometry":{"type":"Point","coordinates":[-84.78,38.65]}},{"properties":{"lon":-84.6,"size":100,"comments":"(ILN)","time":{"end_time":"2128/01/01 00:00:00 -0500","original":"2127","granularity":"year","time":"2127/01/01 00:00:00 -0500"},"county":"GRANT","id":"a620iwc749sv","lat":38.68,"state":"KY","location":"DRY RIDGE"},"type":"Feature","geometry":{"type":"Point","coordinates":[-84.6,38.68]}},{"properties":{"lon":-85.71,"size":175,"comments":"(LMK)","time":{"end_time":"2129/01/01 00:00:00 -0500","original":"2128","granularity":"year","time":"2128/01/01 00:00:00 -0500"},"county":"BULLITT","id":"a620iw0xbpkt","lat":37.99,"state":"KY","location":"SHEPHERDSVILLE"},"type":"Feature","geometry":{"type":"Point","coordinates":[-85.71,37.99]}},{"properties":{"lon":-84.91,"size":275,"comments":"SOME REPORTS OF STRUCTURAL DAMAGE ALSO IN NEW LIBERTY BUT NOT SPECIFIC AT THIS TIME (ILN)","time":{"end_time":"2130/01/01 00:00:00 -0500","original":"2129","granularity":"year","time":"2129/01/01 00:00:00 -0500"},"county":"OWEN","id":"a620iw2l4w07","lat":38.62,"state":"KY","location":"NEW LIBERTY"},"type":"Feature","geometry":{"type":"Point","coordinates":[-84.91,38.62]}},{"properties":{"lon":-88.59,"size":125,"comments":"SOME NICKEL TO QUARTER SIZED HAIL BUT MAINLY HALF DOLLAR SIZED HAIL. (MEG)","time":{"end_time":"2131/01/01 00:00:00 -0500","original":"2130","granularity":"year","time":"2130/01/01 00:00:00 -0500"},"county":"MCNAIRY","id":"a620ivyxufxi","lat":35.13,"state":"TN","location":"3 S SELMER"},"type":"Feature","geometry":{"type":"Point","coordinates":[-88.59,35.13]}},{"properties":{"lon":-84.68,"size":100,"comments":"REPORTED NEAR FOUR CORNERS. (ILN)","time":{"end_time":"2131/01/01 00:00:00 -0500","original":"2130","granularity":"year","time":"2130/01/01 00:00:00 -0500"},"county":"GRANT","id":"a620iw6x03uv","lat":38.65,"state":"KY","location":"5 WSW DRY RIDGE"},"type":"Feature","geometry":{"type":"Point","coordinates":[-84.68,38.65]}},{"properties":{"lon":-84.85,"size":250,"comments":"(ILN)","time":{"end_time":"2132/01/01 00:00:00 -0500","original":"2131","granularity":"year","time":"2131/01/01 00:00:00 -0500"},"county":"OWEN","id":"a620iwcc2rlh","lat":38.64,"state":"KY","location":"BROMLEY"},"type":"Feature","geometry":{"type":"Point","coordinates":[-84.85,38.64]}},{"properties":{"lon":-85.62,"size":175,"comments":"(LMK)","time":{"end_time":"2134/01/01 00:00:00 -0500","original":"2133","granularity":"year","time":"2133/01/01 00:00:00 -0500"},"county":"BULLITT","id":"a620iw0b478r","lat":37.99,"state":"KY","location":"5 E SHEPHERDSVILLE"},"type":"Feature","geometry":{"type":"Point","coordinates":[-85.62,37.99]}},{"properties":{"lon":-88.48,"size":125,"comments":"(MEG)","time":{"end_time":"2136/01/01 00:00:00 -0500","original":"2135","granularity":"year","time":"2135/01/01 00:00:00 -0500"},"county":"MONROE","id":"a620ivxz4l75","lat":33.99,"state":"MS","location":"AMORY"},"type":"Feature","geometry":{"type":"Point","coordinates":[-88.48,33.99]}},{"properties":{"lon":-87.32,"size":175,"comments":"GOLFBALL SIZE HAIL REPORTED 3 TO 4 MILES EAST OF DICKSON","time":{"end_time":"2136/01/01 00:00:00 -0500","original":"2135","granularity":"year","time":"2135/01/01 00:00:00 -0500"},"county":"DICKSON","id":"a620iw439tfl","lat":36.08,"state":"TN","location":"3 E DICKSON"},"type":"Feature","geometry":{"type":"Point","coordinates":[-87.32,36.08]}},{"properties":{"lon":-85.55,"size":175,"comments":"(LMK)","time":{"end_time":"2136/01/01 00:00:00 -0500","original":"2135","granularity":"year","time":"2135/01/01 00:00:00 -0500"},"county":"BULLITT","id":"a620ivxo3z5i","lat":38.05,"state":"KY","location":"MOUNT WASHINGTON"},"type":"Feature","geometry":{"type":"Point","coordinates":[-85.55,38.05]}},{"properties":{"lon":-85.55,"size":250,"comments":"(LMK)","time":{"end_time":"2141/01/01 00:00:00 -0500","original":"2140","granularity":"year","time":"2140/01/01 00:00:00 -0500"},"county":"BULLITT","id":"a620iw7uoot6","lat":38.05,"state":"KY","location":"MOUNT WASHINGTON"},"type":"Feature","geometry":{"type":"Point","coordinates":[-85.55,38.05]}},{"properties":{"lon":-89.94,"size":100,"comments":"ONE INCH HAIL. (MEG)","time":{"end_time":"2142/01/01 00:00:00 -0500","original":"2141","granularity":"year","time":"2141/01/01 00:00:00 -0500"},"county":"PANOLA","id":"a620ivx9mar5","lat":34.32,"state":"MS","location":"BATESVILLE"},"type":"Feature","geometry":{"type":"Point","coordinates":[-89.94,34.32]}},{"properties":{"lon":-88.43,"size":300,"comments":"(MEG)","time":{"end_time":"2145/01/01 00:00:00 -0500","original":"2144","granularity":"year","time":"2144/01/01 00:00:00 -0500"},"county":"MCNAIRY","id":"a620iw2c672t","lat":35.16,"state":"TN","location":"STANTONVILLE"},"type":"Feature","geometry":{"type":"Point","coordinates":[-88.43,35.16]}},{"properties":{"lon":-85.62,"size":100,"comments":"(LMK)","time":{"end_time":"2145/01/01 00:00:00 -0500","original":"2144","granularity":"year","time":"2144/01/01 00:00:00 -0500"},"county":"SCOTT","id":"a620iwd2n4ap","lat":38.61,"state":"IN","location":"3 S LEXINGTON"},"type":"Feature","geometry":{"type":"Point","coordinates":[-85.62,38.61]}},{"properties":{"lon":-84.28,"size":150,"comments":"PHOTO OF HAIL ABOUT 1.5 INCHES IN DIAMETER (ILN)","time":{"end_time":"2145/01/01 00:00:00 -0500","original":"2144","granularity":"year","time":"2144/01/01 00:00:00 -0500"},"county":"CLERMONT","id":"a620iw7prxlx","lat":38.96,"state":"OH","location":"NEW RICHMOND"},"type":"Feature","geometry":{"type":"Point","coordinates":[-84.28,38.96]}},{"properties":{"lon":-86.6,"size":125,"comments":"HALF DOLLAR SIZED HAIL FALLING 4 MILES NNW OF HAZEL GREEN (HUN)","time":{"end_time":"2146/01/01 00:00:00 -0500","original":"2145","granularity":"year","time":"2145/01/01 00:00:00 -0500"},"county":"MADISON","id":"a620iwcs2m22","lat":34.99,"state":"AL","location":"4 NNW HAZEL GREEN"},"type":"Feature","geometry":{"type":"Point","coordinates":[-86.6,34.99]}},{"properties":{"lon":-88.43,"size":175,"comments":"GOLFBALL HAIL WITH 60 MPH WINDS PRODUCING SEVERE TREE DAMAGE AND BROKEN WINDOWS (MEG)","time":{"end_time":"2146/01/01 00:00:00 -0500","original":"2145","granularity":"year","time":"2145/01/01 00:00:00 -0500"},"county":"MCNAIRY","id":"a620iwclyva6","lat":35.16,"state":"TN","location":"STANTONVILLE"},"type":"Feature","geometry":{"type":"Point","coordinates":[-88.43,35.16]}},{"properties":{"lon":-84.65,"size":175,"comments":"(LMK)","time":{"end_time":"2146/01/01 00:00:00 -0500","original":"2145","granularity":"year","time":"2145/01/01 00:00:00 -0500"},"county":"GARRARD","id":"a620iw64a8xg","lat":37.72,"state":"KY","location":"BRYANTSVILLE"},"type":"Feature","geometry":{"type":"Point","coordinates":[-84.65,37.72]}},{"properties":{"lon":-86.75,"size":175,"comments":"GOLF BALL SIZED HAIL REPORTED AT READY SECTION RD AND WALL TRIANA HWY (HUN)","time":{"end_time":"2149/01/01 00:00:00 -0500","original":"2148","granularity":"year","time":"2148/01/01 00:00:00 -0500"},"county":"MADISON","id":"a620iw445wu5","lat":34.93,"state":"AL","location":"5 N HARVEST"},"type":"Feature","geometry":{"type":"Point","coordinates":[-86.75,34.93]}},{"properties":{"lon":-91.85,"size":100,"comments":"(JAN)","time":{"end_time":"2154/01/01 00:00:00 -0500","original":"2153","granularity":"year","time":"2153/01/01 00:00:00 -0500"},"county":"MOREHOUSE","id":"a620iw0t1vlx","lat":32.83,"state":"LA","location":"5 NE BASTROP"},"type":"Feature","geometry":{"type":"Point","coordinates":[-91.85,32.83]}},{"properties":{"lon":-86.86,"size":175,"comments":"SPOTTER REPORTEDE GOLFBALL HAIL AT BELLEVUE","time":{"end_time":"2156/01/01 00:00:00 -0500","original":"2155","granularity":"year","time":"2155/01/01 00:00:00 -0500"},"county":"DAVIDSON","id":"a620iw6b664x","lat":36.11,"state":"TN","location":"6 SW NASHVILLE"},"type":"Feature","geometry":{"type":"Point","coordinates":[-86.86,36.11]}},{"properties":{"lon":-85.34,"size":175,"comments":"(LMK)","time":{"end_time":"2156/01/01 00:00:00 -0500","original":"2155","granularity":"year","time":"2155/01/01 00:00:00 -0500"},"county":"SPENCER","id":"a620iw46kxmp","lat":38.03,"state":"KY","location":"TAYLORSVILLE"},"type":"Feature","geometry":{"type":"Point","coordinates":[-85.34,38.03]}},{"properties":{"lon":-85.23,"size":125,"comments":"(LMK)","time":{"end_time":"2157/01/01 00:00:00 -0500","original":"2156","granularity":"year","time":"2156/01/01 00:00:00 -0500"},"county":"SHELBY","id":"a620iw7e0iv7","lat":38.22,"state":"KY","location":"SHELBYVILLE"},"type":"Feature","geometry":{"type":"Point","coordinates":[-85.23,38.22]}},{"properties":{"lon":-84.08,"size":100,"comments":"(ILN)","time":{"end_time":"2158/01/01 00:00:00 -0500","original":"2157","granularity":"year","time":"2157/01/01 00:00:00 -0500"},"county":"CLERMONT","id":"a620ivx74rhy","lat":38.96,"state":"OH","location":"BETHEL"},"type":"Feature","geometry":{"type":"Point","coordinates":[-84.08,38.96]}},{"properties":{"lon":-84.08,"size":125,"comments":"QUARTER TO HALF DOLLAR SIZED HAIL. (ILN)","time":{"end_time":"2159/01/01 00:00:00 -0500","original":"2158","granularity":"year","time":"2158/01/01 00:00:00 -0500"},"county":"CLERMONT","id":"a620iw696udu","lat":38.96,"state":"OH","location":"BETHEL"},"type":"Feature","geometry":{"type":"Point","coordinates":[-84.08,38.96]}},{"properties":{"lon":-86.57,"size":175,"comments":"GOLFBALL SIZE HAIL WAS REPORTED. (HUN)","time":{"end_time":"2160/01/01 00:00:00 -0500","original":"2159","granularity":"year","time":"2159/01/01 00:00:00 -0500"},"county":"MADISON","id":"a620ivzn36qs","lat":34.93,"state":"AL","location":"4 N MERIDIANVILLE"},"type":"Feature","geometry":{"type":"Point","coordinates":[-86.57,34.93]}},{"properties":{"lon":-85.14,"size":250,"comments":"THE EMERGENCY MANAGER REPORTED THAT TENNIS BALL SIZED HAIL DAMAGED NUMEROUS BUILDINGS AND CARS IN MOUNT EDEN...WHICH IS ON THE SPENCER ANDERSON COUNTY LINE. (LMK)","time":{"end_time":"2160/01/01 00:00:00 -0500","original":"2159","granularity":"year","time":"2159/01/01 00:00:00 -0500"},"county":"SPENCER","id":"a620iw9yiknx","lat":38.03,"state":"KY","location":"11 E TAYLORSVILLE"},"type":"Feature","geometry":{"type":"Point","coordinates":[-85.14,38.03]}},{"properties":{"lon":-93.34,"size":125,"comments":"HALF DOLLAR SIZED HAIL JUST WEST OF HWY 1 (SHV)","time":{"end_time":"2201/01/01 00:00:00 -0500","original":"2200","granularity":"year","time":"2200/01/01 00:00:00 -0500"},"county":"RED RIVER","id":"a620iw5acwxd","lat":31.95,"state":"LA","location":"5 S COUSHATTA"},"type":"Feature","geometry":{"type":"Point","coordinates":[-93.34,31.95]}},{"properties":{"lon":-86.57,"size":175,"comments":"GOLFBALL SIZE HAIL REPORTED. (HUN)","time":{"end_time":"2201/01/01 00:00:00 -0500","original":"2200","granularity":"year","time":"2200/01/01 00:00:00 -0500"},"county":"MADISON","id":"a620iw7nvcuu","lat":34.93,"state":"AL","location":"HAZEL GREEN"},"type":"Feature","geometry":{"type":"Point","coordinates":[-86.57,34.93]}},{"properties":{"lon":-88.19,"size":125,"comments":"HAIL FELL IN THE COMMUNITY OF OLIVET. (MEG)","time":{"end_time":"2201/01/01 00:00:00 -0500","original":"2200","granularity":"year","time":"2200/01/01 00:00:00 -0500"},"county":"HARDIN","id":"a620iw1su22u","lat":35.21,"state":"TN","location":"3 ESE SAVANNAH"},"type":"Feature","geometry":{"type":"Point","coordinates":[-88.19,35.21]}},{"properties":{"lon":-86.86,"size":150,"comments":"REPORT OF PING PONG SIZED HAIL IN BELLEVUE. (OHX)","time":{"end_time":"2201/01/01 00:00:00 -0500","original":"2200","granularity":"year","time":"2200/01/01 00:00:00 -0500"},"county":"DAVIDSON","id":"a620iwat6n65","lat":36.1,"state":"TN","location":"BELLE MEADE"},"type":"Feature","geometry":{"type":"Point","coordinates":[-86.86,36.1]}},{"properties":{"lon":-85.07,"size":100,"comments":"(LMK)","time":{"end_time":"2201/01/01 00:00:00 -0500","original":"2200","granularity":"year","time":"2200/01/01 00:00:00 -0500"},"county":"SHELBY","id":"a620iw0457sd","lat":38.13,"state":"KY","location":"WADDY"},"type":"Feature","geometry":{"type":"Point","coordinates":[-85.07,38.13]}},{"properties":{"lon":-89.81,"size":100,"comments":"QUARTER SIZE HAIL SOUTH OF GRENADA (JAN)","time":{"end_time":"2203/01/01 00:00:00 -0500","original":"2202","granularity":"year","time":"2202/01/01 00:00:00 -0500"},"county":"GRENADA","id":"a620ivx5q9xm","lat":33.76,"state":"MS","location":"1 S GRENADA"},"type":"Feature","geometry":{"type":"Point","coordinates":[-89.81,33.76]}},{"properties":{"lon":-85.07,"size":100,"comments":"(LMK)","time":{"end_time":"2203/01/01 00:00:00 -0500","original":"2202","granularity":"year","time":"2202/01/01 00:00:00 -0500"},"county":"SHELBY","id":"a620iw8ci2xu","lat":38.13,"state":"KY","location":"WADDY"},"type":"Feature","geometry":{"type":"Point","coordinates":[-85.07,38.13]}},{"properties":{"lon":-86.52,"size":125,"comments":"QUARTER TO HALF DOLLAR SIZED HAIL REPORTED AT JOE QUICK RD AND TANNER RD (HUN)","time":{"end_time":"2204/01/01 00:00:00 -0500","original":"2203","granularity":"year","time":"2203/01/01 00:00:00 -0500"},"county":"MADISON","id":"a620iw54xse9","lat":34.94,"state":"AL","location":"3 E HAZEL GREEN"},"type":"Feature","geometry":{"type":"Point","coordinates":[-86.52,34.94]}},{"properties":{"lon":-86.77,"size":100,"comments":"TRAINED SPOTTER REPORTED QUARTER SIZED HAIL 1 M E OF NASHVILLE. (OHX)","time":{"end_time":"2204/01/01 00:00:00 -0500","original":"2203","granularity":"year","time":"2203/01/01 00:00:00 -0500"},"county":"DAVIDSON","id":"a620iw7tu104","lat":36.17,"state":"TN","location":"1 E NASHVILLE"},"type":"Feature","geometry":{"type":"Point","coordinates":[-86.77,36.17]}},{"properties":{"lon":-86.78,"size":175,"comments":"HAIL UP TO GOLFBALL SIZE REPORTED AT THE NASHVILLE EMEREGENCY OPERATIONS CENTER. AT LEAST TWO DOZEN VEHICLES DAMAGED. (OHX)","time":{"end_time":"2204/01/01 00:00:00 -0500","original":"2203","granularity":"year","time":"2203/01/01 00:00:00 -0500"},"county":"DAVIDSON","id":"a620iw81tx18","lat":36.17,"state":"TN","location":"NASHVILLE"},"type":"Feature","geometry":{"type":"Point","coordinates":[-86.78,36.17]}},{"properties":{"lon":-84.07,"size":100,"comments":"DIME TO QUARTER SIZE. (ILN)","time":{"end_time":"2204/01/01 00:00:00 -0500","original":"2203","granularity":"year","time":"2203/01/01 00:00:00 -0500"},"county":"CLERMONT","id":"a620iwcc60m5","lat":38.96,"state":"OH","location":"1 E BETHEL"},"type":"Feature","geometry":{"type":"Point","coordinates":[-84.07,38.96]}},{"properties":{"lon":-85.07,"size":175,"comments":"(LMK)","time":{"end_time":"2205/01/01 00:00:00 -0500","original":"2204","granularity":"year","time":"2204/01/01 00:00:00 -0500"},"county":"SHELBY","id":"a620iw27i567","lat":38.13,"state":"KY","location":"WADDY"},"type":"Feature","geometry":{"type":"Point","coordinates":[-85.07,38.13]}},{"properties":{"lon":-84.01,"size":100,"comments":"NEAR BROWN COUNTY LINE (ILN)","time":{"end_time":"2205/01/01 00:00:00 -0500","original":"2204","granularity":"year","time":"2204/01/01 00:00:00 -0500"},"county":"BROWN","id":"a620ivwy83ws","lat":38.99,"state":"OH","location":"LOCUST RIDGE"},"type":"Feature","geometry":{"type":"Point","coordinates":[-84.01,38.99]}},{"properties":{"lon":-86.48,"size":100,"comments":"QUARTER SIZED HAIL REPORTED AT BUTLER RD AND NEW MARKET RD (HUN)","time":{"end_time":"2206/01/01 00:00:00 -0500","original":"2205","granularity":"year","time":"2205/01/01 00:00:00 -0500"},"county":"MADISON","id":"a620ivzudwnn","lat":34.93,"state":"AL","location":"3 WNW NEW MARKET"},"type":"Feature","geometry":{"type":"Point","coordinates":[-86.48,34.93]}},{"properties":{"lon":-84.29,"size":100,"comments":"(LMK)","time":{"end_time":"2206/01/01 00:00:00 -0500","original":"2205","granularity":"year","time":"2205/01/01 00:00:00 -0500"},"county":"MADISON","id":"a620iwbttxk8","lat":37.63,"state":"KY","location":"4 N BEREA"},"type":"Feature","geometry":{"type":"Point","coordinates":[-84.29,37.63]}},{"properties":{"lon":-86.43,"size":175,"comments":"GOLFBALL SIZE HAIL REPORTED. (HUN)","time":{"end_time":"2207/01/01 00:00:00 -0500","original":"2206","granularity":"year","time":"2206/01/01 00:00:00 -0500"},"county":"MADISON","id":"a620iwcyca5i","lat":34.91,"state":"AL","location":"NEW MARKET"},"type":"Feature","geometry":{"type":"Point","coordinates":[-86.43,34.91]}},{"properties":{"lon":-86.8,"size":125,"comments":"HALF DOLLAR SIZED HAIL REPORTED 1 M W OF NASHVILLE. (OHX)","time":{"end_time":"2207/01/01 00:00:00 -0500","original":"2206","granularity":"year","time":"2206/01/01 00:00:00 -0500"},"county":"DAVIDSON","id":"a620iw7cbn0g","lat":36.17,"state":"TN","location":"1 W NASHVILLE"},"type":"Feature","geometry":{"type":"Point","coordinates":[-86.8,36.17]}},{"properties":{"lon":-86.78,"size":175,"comments":"(OHX)","time":{"end_time":"2208/01/01 00:00:00 -0500","original":"2207","granularity":"year","time":"2207/01/01 00:00:00 -0500"},"county":"DAVIDSON","id":"a620iw8bt1mh","lat":36.17,"state":"TN","location":"NASHVILLE"},"type":"Feature","geometry":{"type":"Point","coordinates":[-86.78,36.17]}},{"properties":{"lon":-84.9,"size":175,"comments":"(LMK)","time":{"end_time":"2208/01/01 00:00:00 -0500","original":"2207","granularity":"year","time":"2207/01/01 00:00:00 -0500"},"county":"FRANKLIN","id":"a620iwd0omfg","lat":38.16,"state":"KY","location":"3 SW FRANKFORT"},"type":"Feature","geometry":{"type":"Point","coordinates":[-84.9,38.16]}},{"properties":{"lon":-94.11,"size":100,"comments":"DRIVER ON HWY 96 HEADED SOUTH FROM CENTER ENCOUNTERED UP TO QUARTER SIZED HAIL NEAR SAN AUGUSTINE (SHV)","time":{"end_time":"2209/01/01 00:00:00 -0500","original":"2208","granularity":"year","time":"2208/01/01 00:00:00 -0500"},"county":"SAN AUGUSTINE","id":"a620iw6dzm30","lat":31.54,"state":"TX","location":"1 N SAN AUGUSTINE"},"type":"Feature","geometry":{"type":"Point","coordinates":[-94.11,31.54]}},{"properties":{"lon":-88.11,"size":125,"comments":"QUARTER SIZE HAIL COVERING GROUND IN COMMUNITY OF OLIVE HILL. (MEG)","time":{"end_time":"2209/01/01 00:00:00 -0500","original":"2208","granularity":"year","time":"2208/01/01 00:00:00 -0500"},"county":"HARDIN","id":"a620iw3si7s1","lat":35.22,"state":"TN","location":"7 E SAVANNAH"},"type":"Feature","geometry":{"type":"Point","coordinates":[-88.11,35.22]}},{"properties":{"lon":-86.78,"size":100,"comments":"(OHX)","time":{"end_time":"2209/01/01 00:00:00 -0500","original":"2208","granularity":"year","time":"2208/01/01 00:00:00 -0500"},"county":"DAVIDSON","id":"a620iw1sddyn","lat":36.17,"state":"TN","location":"NASHVILLE"},"type":"Feature","geometry":{"type":"Point","coordinates":[-86.78,36.17]}},{"properties":{"lon":-84.87,"size":175,"comments":"(LMK)","time":{"end_time":"2209/01/01 00:00:00 -0500","original":"2208","granularity":"year","time":"2208/01/01 00:00:00 -0500"},"county":"FRANKLIN","id":"a620ivzn5tba","lat":38.19,"state":"KY","location":"FRANKFORT"},"type":"Feature","geometry":{"type":"Point","coordinates":[-84.87,38.19]}},{"properties":{"lon":-86.73,"size":175,"comments":"NUMEROUS REPORTS OF GOLFBALL SIZE HAIL AROUND THE NASHVILLE AIRPORT. (OHX)","time":{"end_time":"2211/01/01 00:00:00 -0500","original":"2210","granularity":"year","time":"2210/01/01 00:00:00 -0500"},"county":"DAVIDSON","id":"a620iw3ok6gg","lat":36.13,"state":"TN","location":"4 SE NASHVILLE"},"type":"Feature","geometry":{"type":"Point","coordinates":[-86.73,36.13]}},{"properties":{"lon":-86.78,"size":175,"comments":"GOLFBALL HAIL AT 23RD AVENUE AND PATTERSON IN NASHVILLE. (OHX)","time":{"end_time":"2211/01/01 00:00:00 -0500","original":"2210","granularity":"year","time":"2210/01/01 00:00:00 -0500"},"county":"DAVIDSON","id":"a620iwacj72q","lat":36.17,"state":"TN","location":"NASHVILLE"},"type":"Feature","geometry":{"type":"Point","coordinates":[-86.78,36.17]}},{"properties":{"lon":-84.93,"size":175,"comments":"(LMK)","time":{"end_time":"2211/01/01 00:00:00 -0500","original":"2210","granularity":"year","time":"2210/01/01 00:00:00 -0500"},"county":"ANDERSON","id":"a620iwat1lbm","lat":38.08,"state":"KY","location":"ALTON"},"type":"Feature","geometry":{"type":"Point","coordinates":[-84.93,38.08]}},{"properties":{"lon":-84.87,"size":175,"comments":"(LMK)","time":{"end_time":"2211/01/01 00:00:00 -0500","original":"2210","granularity":"year","time":"2210/01/01 00:00:00 -0500"},"county":"FRANKLIN","id":"a620iw84a09c","lat":38.19,"state":"KY","location":"FRANKFORT"},"type":"Feature","geometry":{"type":"Point","coordinates":[-84.87,38.19]}},{"properties":{"lon":-85.47,"size":175,"comments":"(LMK)","time":{"end_time":"2213/01/01 00:00:00 -0500","original":"2212","granularity":"year","time":"2212/01/01 00:00:00 -0500"},"county":"TAYLOR","id":"a620iw4qt5oq","lat":37.43,"state":"KY","location":"10 E CREAL"},"type":"Feature","geometry":{"type":"Point","coordinates":[-85.47,37.43]}},{"properties":{"lon":-89.96,"size":100,"comments":"QUARTER SIZED HAIL REPORTED ALONG HIGHWAY 82 TWO MILES WEST OF CARROLLTON. (JAN)","time":{"end_time":"2216/01/01 00:00:00 -0500","original":"2215","granularity":"year","time":"2215/01/01 00:00:00 -0500"},"county":"CARROLL","id":"a620iw7tvuc0","lat":33.5,"state":"MS","location":"2 W CARROLLTON"},"type":"Feature","geometry":{"type":"Point","coordinates":[-89.96,33.5]}},{"properties":{"lon":-84.05,"size":275,"comments":"(LMK)","time":{"end_time":"2216/01/01 00:00:00 -0500","original":"2215","granularity":"year","time":"2215/01/01 00:00:00 -0500"},"county":"CLARK","id":"a620iw70elmx","lat":37.88,"state":"KY","location":"TRAPP"},"type":"Feature","geometry":{"type":"Point","coordinates":[-84.05,37.88]}},{"properties":{"lon":-86.72,"size":100,"comments":"TRAINED SPOTTER REPORTS QUARTER SIZED HAIL IN ANTIOCH. (OHX)","time":{"end_time":"2217/01/01 00:00:00 -0500","original":"2216","granularity":"year","time":"2216/01/01 00:00:00 -0500"},"county":"DAVIDSON","id":"a620iw1wy5b2","lat":36.12,"state":"TN","location":"5 SE NASHVILLE"},"type":"Feature","geometry":{"type":"Point","coordinates":[-86.72,36.12]}},{"properties":{"lon":-91.43,"size":100,"comments":"(JAN)","time":{"end_time":"2218/01/01 00:00:00 -0500","original":"2217","granularity":"year","time":"2217/01/01 00:00:00 -0500"},"county":"WEST CARROLL","id":"a620iw13933q","lat":32.89,"state":"LA","location":"3 NW OAK GROVE"},"type":"Feature","geometry":{"type":"Point","coordinates":[-91.43,32.89]}},{"properties":{"lon":-86.98,"size":100,"comments":"QUARTER SIZED HAIL REPORTED NEAR AUSTINVILLE RD. (HUN)","time":{"end_time":"2219/01/01 00:00:00 -0500","original":"2218","granularity":"year","time":"2218/01/01 00:00:00 -0500"},"county":"MORGAN","id":"a620iwagq2mq","lat":34.52,"state":"AL","location":"1 WNW FLINT CITY"},"type":"Feature","geometry":{"type":"Point","coordinates":[-86.98,34.52]}},{"properties":{"lon":-91.39,"size":175,"comments":"HAIL UP TO GOLF BALL SIZED IN THE TERRY COMMUNITY (JAN)","time":{"end_time":"2221/01/01 00:00:00 -0500","original":"2220","granularity":"year","time":"2220/01/01 00:00:00 -0500"},"county":"WEST CARROLL","id":"a620iw8nx50h","lat":32.91,"state":"LA","location":"3 N OAK GROVE"},"type":"Feature","geometry":{"type":"Point","coordinates":[-91.39,32.91]}},{"properties":{"lon":-83.93,"size":125,"comments":"HAIL RANGING FROM DIME TO HALF DOLLAR SIZE COVERING THE GROUND","time":{"end_time":"2221/01/01 00:00:00 -0500","original":"2220","granularity":"year","time":"2220/01/01 00:00:00 -0500"},"county":"POWELL","id":"a620iw0vwtyu","lat":37.86,"state":"KY","location":"CLAY CITY"},"type":"Feature","geometry":{"type":"Point","coordinates":[-83.93,37.86]}},{"properties":{"lon":-83.93,"size":125,"comments":"(JKL)","time":{"end_time":"2221/01/01 00:00:00 -0500","original":"2220","granularity":"year","time":"2220/01/01 00:00:00 -0500"},"county":"POWELL","id":"a620iw97khgi","lat":37.89,"state":"KY","location":"2 N CLAY CITY"},"type":"Feature","geometry":{"type":"Point","coordinates":[-83.93,37.89]}},{"properties":{"lon":-84.55,"size":175,"comments":"(LMK)","time":{"end_time":"2224/01/01 00:00:00 -0500","original":"2223","granularity":"year","time":"2223/01/01 00:00:00 -0500"},"county":"SCOTT","id":"a620iwc4kplw","lat":38.2,"state":"KY","location":"GEORGETOWN"},"type":"Feature","geometry":{"type":"Point","coordinates":[-84.55,38.2]}},{"properties":{"lon":-86.52,"size":200,"comments":"HEN EGG SIZE HAIL REPORTED BY A SPOTTER AT PROVIDENCE","time":{"end_time":"2226/01/01 00:00:00 -0500","original":"2225","granularity":"year","time":"2225/01/01 00:00:00 -0500"},"county":"WILSON","id":"a620iwbrbofi","lat":36.19,"state":"TN","location":"1 S MOUNT JULIET"},"type":"Feature","geometry":{"type":"Point","coordinates":[-86.52,36.19]}},{"properties":{"lon":-84.55,"size":100,"comments":"(LMK)","time":{"end_time":"2226/01/01 00:00:00 -0500","original":"2225","granularity":"year","time":"2225/01/01 00:00:00 -0500"},"county":"SCOTT","id":"a620iw73sb9x","lat":38.2,"state":"KY","location":"GEORGETOWN"},"type":"Feature","geometry":{"type":"Point","coordinates":[-84.55,38.2]}},{"properties":{"lon":-85.92,"size":100,"comments":"(LMK)","time":{"end_time":"2227/01/01 00:00:00 -0500","original":"2226","granularity":"year","time":"2226/01/01 00:00:00 -0500"},"county":"BARREN","id":"a620iw5e96xg","lat":37.0,"state":"KY","location":"GLASGOW"},"type":"Feature","geometry":{"type":"Point","coordinates":[-85.92,37.0]}},{"properties":{"lon":-84.93,"size":175,"comments":"(LMK)","time":{"end_time":"2227/01/01 00:00:00 -0500","original":"2226","granularity":"year","time":"2226/01/01 00:00:00 -0500"},"county":"ANDERSON","id":"a620iw5q5yil","lat":38.08,"state":"KY","location":"ALTON"},"type":"Feature","geometry":{"type":"Point","coordinates":[-84.93,38.08]}},{"properties":{"lon":-84.89,"size":175,"comments":"(LMK)","time":{"end_time":"2227/01/01 00:00:00 -0500","original":"2226","granularity":"year","time":"2226/01/01 00:00:00 -0500"},"county":"ANDERSON","id":"a620ivyil14c","lat":38.09,"state":"KY","location":"4 N LAWRENCEBURG"},"type":"Feature","geometry":{"type":"Point","coordinates":[-84.89,38.09]}},{"properties":{"lon":-83.92,"size":100,"comments":"(JKL)","time":{"end_time":"2229/01/01 00:00:00 -0500","original":"2228","granularity":"year","time":"2228/01/01 00:00:00 -0500"},"county":"MONTGOMERY","id":"a620iw4uy51y","lat":38.04,"state":"KY","location":"2 SE MOUNT STERLING"},"type":"Feature","geometry":{"type":"Point","coordinates":[-83.92,38.04]}},{"properties":{"lon":-85.97,"size":100,"comments":"(LMK)","time":{"end_time":"2230/01/01 00:00:00 -0500","original":"2229","granularity":"year","time":"2229/01/01 00:00:00 -0500"},"county":"BARREN","id":"a620iw09dwi8","lat":36.95,"state":"KY","location":"HAYWOOD"},"type":"Feature","geometry":{"type":"Point","coordinates":[-85.97,36.95]}},{"properties":{"lon":-86.29,"size":200,"comments":"HEN EGG SIZE HAIL REPORTED JUST EAST OF LEBANON AT 8000 TROUSDALE FERRY PIKE. HOMES AND VEHICLES DAMAGED. (OHX)","time":{"end_time":"2231/01/01 00:00:00 -0500","original":"2230","granularity":"year","time":"2230/01/01 00:00:00 -0500"},"county":"WILSON","id":"a620iw8alcih","lat":36.21,"state":"TN","location":"2 E LEBANON"},"type":"Feature","geometry":{"type":"Point","coordinates":[-86.29,36.21]}},{"properties":{"lon":-87.27,"size":100,"comments":"1302 8TH AVE. (BMX)","time":{"end_time":"2232/01/01 00:00:00 -0500","original":"2231","granularity":"year","time":"2231/01/01 00:00:00 -0500"},"county":"WALKER","id":"a620iwblkuj4","lat":33.85,"state":"AL","location":"JASPER"},"type":"Feature","geometry":{"type":"Point","coordinates":[-87.27,33.85]}},{"properties":{"lon":-83.76,"size":175,"comments":"(JKL)","time":{"end_time":"2233/01/01 00:00:00 -0500","original":"2232","granularity":"year","time":"2232/01/01 00:00:00 -0500"},"county":"MENIFEE","id":"a620iwb7nwbu","lat":37.95,"state":"KY","location":"MEANS"},"type":"Feature","geometry":{"type":"Point","coordinates":[-83.76,37.95]}},{"properties":{"lon":-86.32,"size":200,"comments":"HEN EGG SIZE HAIL REPORTED BY A SPOTTER ON THE WESTERN SIDE OF LEBANON. (OHX)","time":{"end_time":"2235/01/01 00:00:00 -0500","original":"2234","granularity":"year","time":"2234/01/01 00:00:00 -0500"},"county":"WILSON","id":"a620ivzwo0zo","lat":36.21,"state":"TN","location":"LEBANON"},"type":"Feature","geometry":{"type":"Point","coordinates":[-86.32,36.21]}},{"properties":{"lon":-86.36,"size":200,"comments":"2 INCH HAIL REPORTED BY SPOTTER. (OHX)","time":{"end_time":"2235/01/01 00:00:00 -0500","original":"2234","granularity":"year","time":"2234/01/01 00:00:00 -0500"},"county":"WILSON","id":"a620iw88btb3","lat":36.21,"state":"TN","location":"2 W LEBANON"},"type":"Feature","geometry":{"type":"Point","coordinates":[-86.36,36.21]}},{"properties":{"lon":-85.05,"size":175,"comments":"(LMK)","time":{"end_time":"2236/01/01 00:00:00 -0500","original":"2235","granularity":"year","time":"2235/01/01 00:00:00 -0500"},"county":"MARION","id":"a620iw5s25o6","lat":37.58,"state":"KY","location":"GRAVEL SWITCH"},"type":"Feature","geometry":{"type":"Point","coordinates":[-85.05,37.58]}},{"properties":{"lon":-84.54,"size":175,"comments":"(LMK)","time":{"end_time":"2236/01/01 00:00:00 -0500","original":"2235","granularity":"year","time":"2235/01/01 00:00:00 -0500"},"county":"GARRARD","id":"a620iw57oykh","lat":37.62,"state":"KY","location":"2 E LANCASTER"},"type":"Feature","geometry":{"type":"Point","coordinates":[-84.54,37.62]}},{"properties":{"lon":-83.79,"size":125,"comments":"HALF DOLLAR SIZE HAIL WAS REPORTED. (JKL)","time":{"end_time":"2236/01/01 00:00:00 -0500","original":"2235","granularity":"year","time":"2235/01/01 00:00:00 -0500"},"county":"MONTGOMERY","id":"a620iw7my9zx","lat":37.97,"state":"KY","location":"2 E JEFFERSONVILLE"},"type":"Feature","geometry":{"type":"Point","coordinates":[-83.79,37.97]}},{"properties":{"lon":-87.09,"size":100,"comments":"(BMX)","time":{"end_time":"2238/01/01 00:00:00 -0500","original":"2237","granularity":"year","time":"2237/01/01 00:00:00 -0500"},"county":"WALKER","id":"a620ivzaajl8","lat":33.82,"state":"AL","location":"SIPSEY"},"type":"Feature","geometry":{"type":"Point","coordinates":[-87.09,33.82]}},{"properties":{"lon":-86.32,"size":100,"comments":"QUARTER SIZE HAIL REPORTED BY SPOTTER JUST NORTH OF LEBANON. (OHX)","time":{"end_time":"2238/01/01 00:00:00 -0500","original":"2237","granularity":"year","time":"2237/01/01 00:00:00 -0500"},"county":"WILSON","id":"a620iwcgi2zx","lat":36.24,"state":"TN","location":"2 N LEBANON"},"type":"Feature","geometry":{"type":"Point","coordinates":[-86.32,36.24]}},{"properties":{"lon":-88.08,"size":100,"comments":"CLARKE COUNTY EMERGENCY MANAGER REPORTED QUARTER SIZE HAIL IN CUNNINGHAM. (MOB)","time":{"end_time":"2240/01/01 00:00:00 -0500","original":"2239","granularity":"year","time":"2239/01/01 00:00:00 -0500"},"county":"CLARKE","id":"a620ivyfgip6","lat":31.9,"state":"AL","location":"CUNNINGHAM"},"type":"Feature","geometry":{"type":"Point","coordinates":[-88.08,31.9]}},{"properties":{"lon":-85.9,"size":175,"comments":"(LMK)","time":{"end_time":"2240/01/01 00:00:00 -0500","original":"2239","granularity":"year","time":"2239/01/01 00:00:00 -0500"},"county":"HART","id":"a620iw2h2ujf","lat":37.28,"state":"KY","location":"MUNFORDVILLE"},"type":"Feature","geometry":{"type":"Point","coordinates":[-85.9,37.28]}},{"properties":{"lon":-87.47,"size":150,"comments":"(MOB)","time":{"end_time":"2241/01/01 00:00:00 -0500","original":"2240","granularity":"year","time":"2240/01/01 00:00:00 -0500"},"county":"WILCOX","id":"a620iw1ifff8","lat":31.97,"state":"AL","location":"YELLOW BLUFF"},"type":"Feature","geometry":{"type":"Point","coordinates":[-87.47,31.97]}},{"properties":{"lon":-83.62,"size":175,"comments":"GOLFBALL SIZE HAIL WAS REPORTED. (JKL)","time":{"end_time":"2241/01/01 00:00:00 -0500","original":"2240","granularity":"year","time":"2240/01/01 00:00:00 -0500"},"county":"MENIFEE","id":"a620iwd4khtc","lat":37.95,"state":"KY","location":"FRENCHBURG"},"type":"Feature","geometry":{"type":"Point","coordinates":[-83.62,37.95]}},{"properties":{"lon":-83.93,"size":175,"comments":"GOLFBALL SIZED HAIL REPORTED NEAR OLYMPIA...BETHEL AND SHARPSBURG. (JKL)","time":{"end_time":"2241/01/01 00:00:00 -0500","original":"2240","granularity":"year","time":"2240/01/01 00:00:00 -0500"},"county":"BATH","id":"a620ivzdis6i","lat":38.2,"state":"KY","location":"SHARPSBURG"},"type":"Feature","geometry":{"type":"Point","coordinates":[-83.93,38.2]}},{"properties":{"lon":-83.62,"size":175,"comments":"GOLFBALL SIZE HAIL COVERING THE GROUND (JKL)","time":{"end_time":"2242/01/01 00:00:00 -0500","original":"2241","granularity":"year","time":"2241/01/01 00:00:00 -0500"},"county":"MENIFEE","id":"a620iw641jsg","lat":37.95,"state":"KY","location":"FRENCHBURG"},"type":"Feature","geometry":{"type":"Point","coordinates":[-83.62,37.95]}},{"properties":{"lon":-85.9,"size":175,"comments":"(LMK)","time":{"end_time":"2243/01/01 00:00:00 -0500","original":"2242","granularity":"year","time":"2242/01/01 00:00:00 -0500"},"county":"HART","id":"a620iwafbbo0","lat":37.28,"state":"KY","location":"MUNFORDVILLE"},"type":"Feature","geometry":{"type":"Point","coordinates":[-85.9,37.28]}},{"properties":{"lon":-84.42,"size":100,"comments":"(LMK)","time":{"end_time":"2243/01/01 00:00:00 -0500","original":"2242","granularity":"year","time":"2242/01/01 00:00:00 -0500"},"county":"MADISON","id":"a620iw35p8el","lat":37.67,"state":"KY","location":"KIRKSVILLE"},"type":"Feature","geometry":{"type":"Point","coordinates":[-84.42,37.67]}},{"properties":{"lon":-86.96,"size":175,"comments":"REPORTED NEAR THE INTERSECTION OF WALKER...BLOUNT...AND JEFFERSON COUNTIES. (BMX)","time":{"end_time":"2246/01/01 00:00:00 -0500","original":"2245","granularity":"year","time":"2245/01/01 00:00:00 -0500"},"county":"WALKER","id":"a620iw0afqrp","lat":33.83,"state":"AL","location":"3 SW ARKADELPHIA"},"type":"Feature","geometry":{"type":"Point","coordinates":[-86.96,33.83]}},{"properties":{"lon":-89.31,"size":100,"comments":"1 INCH HAIL AT HWY 8 AND 9 INTERSECTION. (MEG)","time":{"end_time":"2246/01/01 00:00:00 -0500","original":"2245","granularity":"year","time":"2245/01/01 00:00:00 -0500"},"county":"CALHOUN","id":"a620ivyax8t3","lat":33.86,"state":"MS","location":"CALHOUN CITY"},"type":"Feature","geometry":{"type":"Point","coordinates":[-89.31,33.86]}},{"properties":{"lon":-86.59,"size":100,"comments":"DIME TO QUARTER SIZE HAIL WAS REPORTED. (HUN)","time":{"end_time":"2246/01/01 00:00:00 -0500","original":"2245","granularity":"year","time":"2245/01/01 00:00:00 -0500"},"county":"MADISON","id":"a620iw6a4dvl","lat":34.73,"state":"AL","location":"HUNTSVILLE"},"type":"Feature","geometry":{"type":"Point","coordinates":[-86.59,34.73]}},{"properties":{"lon":-84.33,"size":200,"comments":"(LMK)","time":{"end_time":"2247/01/01 00:00:00 -0500","original":"2246","granularity":"year","time":"2246/01/01 00:00:00 -0500"},"county":"MADISON","id":"a620ivx6lc6y","lat":37.74,"state":"KY","location":"2 W RICHMOND"},"type":"Feature","geometry":{"type":"Point","coordinates":[-84.33,37.74]}},{"properties":{"lon":-85.9,"size":275,"comments":"(LMK)","time":{"end_time":"2248/01/01 00:00:00 -0500","original":"2247","granularity":"year","time":"2247/01/01 00:00:00 -0500"},"county":"HART","id":"a620ivxr3ins","lat":37.28,"state":"KY","location":"MUNFORDVILLE"},"type":"Feature","geometry":{"type":"Point","coordinates":[-85.9,37.28]}},{"properties":{"lon":-85.9,"size":275,"comments":"(LMK)","time":{"end_time":"2249/01/01 00:00:00 -0500","original":"2248","granularity":"year","time":"2248/01/01 00:00:00 -0500"},"county":"HART","id":"a620ivziola5","lat":37.28,"state":"KY","location":"MUNFORDVILLE"},"type":"Feature","geometry":{"type":"Point","coordinates":[-85.9,37.28]}},{"properties":{"lon":-83.5,"size":175,"comments":"(JKL)","time":{"end_time":"2249/01/01 00:00:00 -0500","original":"2248","granularity":"year","time":"2248/01/01 00:00:00 -0500"},"county":"MENIFEE","id":"a620iw49e7vv","lat":37.92,"state":"KY","location":"WELLINGTON"},"type":"Feature","geometry":{"type":"Point","coordinates":[-83.5,37.92]}},{"properties":{"lon":-86.55,"size":100,"comments":"DEPTH UPTO AN INCH OF QUARTER SIZED HAIL REPORTED (HUN)","time":{"end_time":"2250/01/01 00:00:00 -0500","original":"2249","granularity":"year","time":"2249/01/01 00:00:00 -0500"},"county":"MADISON","id":"a620ivz4k1pe","lat":34.65,"state":"AL","location":"4 N FARLEY"},"type":"Feature","geometry":{"type":"Point","coordinates":[-86.55,34.65]}},{"properties":{"lon":-85.57,"size":175,"comments":"GOLF BALL HAIL COVERED THE GROUND (LMK)","time":{"end_time":"2250/01/01 00:00:00 -0500","original":"2249","granularity":"year","time":"2249/01/01 00:00:00 -0500"},"county":"METCALFE","id":"a620iw1sq7c3","lat":37.0,"state":"KY","location":"GASCON"},"type":"Feature","geometry":{"type":"Point","coordinates":[-85.57,37.0]}},{"properties":{"lon":-87.08,"size":100,"comments":"(BMX)","time":{"end_time":"2251/01/01 00:00:00 -0500","original":"2250","granularity":"year","time":"2250/01/01 00:00:00 -0500"},"county":"WALKER","id":"a620ivx3frrc","lat":33.73,"state":"AL","location":"DORA"},"type":"Feature","geometry":{"type":"Point","coordinates":[-87.08,33.73]}},{"properties":{"lon":-84.06,"size":150,"comments":"(LMK)","time":{"end_time":"2251/01/01 00:00:00 -0500","original":"2250","granularity":"year","time":"2250/01/01 00:00:00 -0500"},"county":"BOURBON","id":"a620ivzc0xnn","lat":38.18,"state":"KY","location":"4 NE NORTH MIDDLETOWN"},"type":"Feature","geometry":{"type":"Point","coordinates":[-84.06,38.18]}},{"properties":{"lon":-84.29,"size":175,"comments":"(LMK)","time":{"end_time":"2252/01/01 00:00:00 -0500","original":"2251","granularity":"year","time":"2251/01/01 00:00:00 -0500"},"county":"MADISON","id":"a620ivzfwoa6","lat":37.74,"state":"KY","location":"RICHMOND"},"type":"Feature","geometry":{"type":"Point","coordinates":[-84.29,37.74]}},{"properties":{"lon":-84.79,"size":175,"comments":"(LMK)","time":{"end_time":"2253/01/01 00:00:00 -0500","original":"2252","granularity":"year","time":"2252/01/01 00:00:00 -0500"},"county":"BOYLE","id":"a620ivz3yd7s","lat":37.59,"state":"KY","location":"JUNCTION CITY"},"type":"Feature","geometry":{"type":"Point","coordinates":[-84.79,37.59]}},{"properties":{"lon":-86.23,"size":275,"comments":"BASEBALL SIZE HAIL BROKE WINDOWS ON HOUSE IN TUCKERS CROSSROADS AREA (OHX)","time":{"end_time":"2254/01/01 00:00:00 -0500","original":"2253","granularity":"year","time":"2253/01/01 00:00:00 -0500"},"county":"WILSON","id":"a620ivx3d56x","lat":36.21,"state":"TN","location":"5 E LEBANON"},"type":"Feature","geometry":{"type":"Point","coordinates":[-86.23,36.21]}},{"properties":{"lon":-85.62,"size":100,"comments":"(LMK)","time":{"end_time":"2255/01/01 00:00:00 -0500","original":"2254","granularity":"year","time":"2254/01/01 00:00:00 -0500"},"county":"METCALFE","id":"a620iw01ei38","lat":36.98,"state":"KY","location":"EDMONTON"},"type":"Feature","geometry":{"type":"Point","coordinates":[-85.62,36.98]}},{"properties":{"lon":-85.93,"size":175,"comments":"GOLFBALL SIZE HAIL REPORTED. (HUN)","time":{"end_time":"2256/01/01 00:00:00 -0500","original":"2255","granularity":"year","time":"2255/01/01 00:00:00 -0500"},"county":"FRANKLIN","id":"a620iwcaeimh","lat":35.09,"state":"TN","location":"1 NNW SHERWOOD"},"type":"Feature","geometry":{"type":"Point","coordinates":[-85.93,35.09]}},{"properties":{"lon":-85.94,"size":125,"comments":"SPOTTER REPORTED HALF DOLLAR SIZE HAIL AT CARTHAGE. (OHX)","time":{"end_time":"2256/01/01 00:00:00 -0500","original":"2255","granularity":"year","time":"2255/01/01 00:00:00 -0500"},"county":"SMITH","id":"a620iw720ioh","lat":36.26,"state":"TN","location":"CARTHAGE"},"type":"Feature","geometry":{"type":"Point","coordinates":[-85.94,36.26]}},{"properties":{"lon":-84.42,"size":175,"comments":"(LMK)","time":{"end_time":"2256/01/01 00:00:00 -0500","original":"2255","granularity":"year","time":"2255/01/01 00:00:00 -0500"},"county":"MADISON","id":"a620iw96sqwb","lat":37.67,"state":"KY","location":"KIRKSVILLE"},"type":"Feature","geometry":{"type":"Point","coordinates":[-84.42,37.67]}},{"properties":{"lon":-86.83,"size":100,"comments":"REPORTED ON BRYANT MOUNTAIN. (BMX)","time":{"end_time":"2259/01/01 00:00:00 -0500","original":"2258","granularity":"year","time":"2258/01/01 00:00:00 -0500"},"county":"BLOUNT","id":"a620iwcq5lcy","lat":33.89,"state":"AL","location":"4 SW BLOUNT SPRINGS"},"type":"Feature","geometry":{"type":"Point","coordinates":[-86.83,33.89]}},{"properties":{"lon":-83.95,"size":100,"comments":"(JKL)","time":{"end_time":"2260/01/01 00:00:00 -0500","original":"2259","granularity":"year","time":"2259/01/01 00:00:00 -0500"},"county":"MONTGOMERY","id":"a620iw86w1tn","lat":38.13,"state":"KY","location":"5 N MOUNT STERLING"},"type":"Feature","geometry":{"type":"Point","coordinates":[-83.95,38.13]}},{"properties":{"lon":-85.71,"size":100,"comments":"QUARTER SIZE HAIL IN SOUTHS PITTSBURG. (MRX)","time":{"end_time":"2301/01/01 00:00:00 -0500","original":"2300","granularity":"year","time":"2300/01/01 00:00:00 -0500"},"county":"MARION","id":"a620ivzlmoaq","lat":35.02,"state":"TN","location":"SOUTH PITTSBURG"},"type":"Feature","geometry":{"type":"Point","coordinates":[-85.71,35.02]}},{"properties":{"lon":-85.67,"size":275,"comments":"(MRX)","time":{"end_time":"2301/01/01 00:00:00 -0500","original":"2300","granularity":"year","time":"2300/01/01 00:00:00 -0500"},"county":"MARION","id":"a620iw427lwu","lat":35.03,"state":"TN","location":"3 SW JASPER"},"type":"Feature","geometry":{"type":"Point","coordinates":[-85.67,35.03]}},{"properties":{"lon":-85.31,"size":175,"comments":"COVERED THE GROUND. (LMK)","time":{"end_time":"2301/01/01 00:00:00 -0500","original":"2300","granularity":"year","time":"2300/01/01 00:00:00 -0500"},"county":"ADAIR","id":"a620iw9bk7l9","lat":37.1,"state":"KY","location":"COLUMBIA"},"type":"Feature","geometry":{"type":"Point","coordinates":[-85.31,37.1]}},{"properties":{"lon":-90.23,"size":100,"comments":"QUARTER SIZED HAIL ALONG US HIGHWAY 49E AT THE LEFLORE/HOLMES COUNTY LINE (JAN)","time":{"end_time":"2302/01/01 00:00:00 -0500","original":"2301","granularity":"year","time":"2301/01/01 00:00:00 -0500"},"county":"LEFLORE","id":"a620iw0v7p8f","lat":33.37,"state":"MS","location":"3 N CRUGER"},"type":"Feature","geometry":{"type":"Point","coordinates":[-90.23,33.37]}},{"properties":{"lon":-93.08,"size":125,"comments":"HAIL RANGING FROM NICKEL SIZED TO HALF DOLLAR SIZED NEAR CLARENCE (SHV)","time":{"end_time":"2305/01/01 00:00:00 -0500","original":"2304","granularity":"year","time":"2304/01/01 00:00:00 -0500"},"county":"NATCHITOCHES","id":"a620iw3x5rm5","lat":31.84,"state":"LA","location":"3 WNW CLARENCE"},"type":"Feature","geometry":{"type":"Point","coordinates":[-93.08,31.84]}},{"properties":{"lon":-85.31,"size":175,"comments":"(LMK)","time":{"end_time":"2306/01/01 00:00:00 -0500","original":"2305","granularity":"year","time":"2305/01/01 00:00:00 -0500"},"county":"ADAIR","id":"a620iw7hq95q","lat":37.1,"state":"KY","location":"COLUMBIA"},"type":"Feature","geometry":{"type":"Point","coordinates":[-85.31,37.1]}},{"properties":{"lon":-85.63,"size":175,"comments":"SPOTTER REPORTED GOLFBALL-SIZE HAIL AT THE GRANDVIEW MEDICAL CENTER. (MRX)","time":{"end_time":"2307/01/01 00:00:00 -0500","original":"2306","granularity":"year","time":"2306/01/01 00:00:00 -0500"},"county":"MARION","id":"a620iw8gkfi7","lat":35.06,"state":"TN","location":"JASPER"},"type":"Feature","geometry":{"type":"Point","coordinates":[-85.63,35.06]}},{"properties":{"lon":-84.13,"size":175,"comments":"GOLF BALL SIZE HAIL IN DOWNTOWN JELLICO. (MRX)","time":{"end_time":"2309/01/01 00:00:00 -0500","original":"2308","granularity":"year","time":"2308/01/01 00:00:00 -0500"},"county":"CAMPBELL","id":"a620iw9qmpev","lat":36.58,"state":"TN","location":"JELLICO"},"type":"Feature","geometry":{"type":"Point","coordinates":[-84.13,36.58]}},{"properties":{"lon":-84.85,"size":100,"comments":"(JKL)","time":{"end_time":"2311/01/01 00:00:00 -0500","original":"2310","granularity":"year","time":"2310/01/01 00:00:00 -0500"},"county":"PULASKI","id":"a620iw6745ry","lat":37.1,"state":"KY","location":"2 S CAINS STORE"},"type":"Feature","geometry":{"type":"Point","coordinates":[-84.85,37.1]}},{"properties":{"lon":-84.11,"size":175,"comments":"(JKL)","time":{"end_time":"2311/01/01 00:00:00 -0500","original":"2310","granularity":"year","time":"2310/01/01 00:00:00 -0500"},"county":"ESTILL","id":"a620iw40zinv","lat":37.65,"state":"KY","location":"1 S COMBS"},"type":"Feature","geometry":{"type":"Point","coordinates":[-84.11,37.65]}},{"properties":{"lon":-83.27,"size":175,"comments":"EVENT OCCURRED BETWEEN 555 PM AND 610 PM. (JKL)","time":{"end_time":"2311/01/01 00:00:00 -0500","original":"2310","granularity":"year","time":"2310/01/01 00:00:00 -0500"},"county":"MORGAN","id":"a620ivyn284k","lat":37.91,"state":"KY","location":"WEST LIBERTY"},"type":"Feature","geometry":{"type":"Point","coordinates":[-83.27,37.91]}},{"properties":{"lon":-83.17,"size":100,"comments":"(RLX)","time":{"end_time":"2311/01/01 00:00:00 -0500","original":"2310","granularity":"year","time":"2310/01/01 00:00:00 -0500"},"county":"CARTER","id":"a620iw25qjcv","lat":38.3,"state":"KY","location":"OLIVE HILL"},"type":"Feature","geometry":{"type":"Point","coordinates":[-83.17,38.3]}},{"properties":{"lon":-85.73,"size":175,"comments":"COVERING GROUND (LMK)","time":{"end_time":"2312/01/01 00:00:00 -0500","original":"2311","granularity":"year","time":"2311/01/01 00:00:00 -0500"},"county":"METCALFE","id":"a620ivy3cly9","lat":36.98,"state":"KY","location":"6 W EDMONTON"},"type":"Feature","geometry":{"type":"Point","coordinates":[-85.73,36.98]}},{"properties":{"lon":-86.21,"size":100,"comments":"UP TO QUARTER SIZE HAIL WAS REPORTED. (HUN)","time":{"end_time":"2313/01/01 00:00:00 -0500","original":"2312","granularity":"year","time":"2312/01/01 00:00:00 -0500"},"county":"JACKSON","id":"a620iwd0gbu5","lat":34.73,"state":"AL","location":"2 ESE TRENTON"},"type":"Feature","geometry":{"type":"Point","coordinates":[-86.21,34.73]}},{"properties":{"lon":-89.02,"size":150,"comments":"PING PONG SIZED HAIL IN NEW ALBANY ALONG HIGHWAY 30. (MEG)","time":{"end_time":"2316/01/01 00:00:00 -0500","original":"2315","granularity":"year","time":"2315/01/01 00:00:00 -0500"},"county":"UNION","id":"a620iw502g9z","lat":34.49,"state":"MS","location":"NEW ALBANY"},"type":"Feature","geometry":{"type":"Point","coordinates":[-89.02,34.49]}},{"properties":{"lon":-85.08,"size":175,"comments":"(LMK)","time":{"end_time":"2319/01/01 00:00:00 -0500","original":"2318","granularity":"year","time":"2318/01/01 00:00:00 -0500"},"county":"RUSSELL","id":"a620iw75ewzf","lat":37.12,"state":"KY","location":"5 N RUSSELL SPRINGS"},"type":"Feature","geometry":{"type":"Point","coordinates":[-85.08,37.12]}},{"properties":{"lon":-83.93,"size":100,"comments":"SPOTTER REPORTS 1 INCH HAIL. (JKL)","time":{"end_time":"2321/01/01 00:00:00 -0500","original":"2320","granularity":"year","time":"2320/01/01 00:00:00 -0500"},"county":"BELL","id":"a620iw0hbt16","lat":36.64,"state":"KY","location":"FRAKES"},"type":"Feature","geometry":{"type":"Point","coordinates":[-83.93,36.64]}},{"properties":{"lon":-82.89,"size":200,"comments":"1.5 AND 2.0 INCH HAIL. NUMEROUS 3-4 INCH DIAMETER TREES REPORTED DOWN. (RLX)","time":{"end_time":"2323/01/01 00:00:00 -0500","original":"2322","granularity":"year","time":"2322/01/01 00:00:00 -0500"},"county":"LAWRENCE","id":"a620ivyfuewh","lat":38.03,"state":"KY","location":"2 W BLAINE"},"type":"Feature","geometry":{"type":"Point","coordinates":[-82.89,38.03]}},{"properties":{"lon":-84.29,"size":150,"comments":"(LMK)","time":{"end_time":"2327/01/01 00:00:00 -0500","original":"2326","granularity":"year","time":"2326/01/01 00:00:00 -0500"},"county":"MADISON","id":"a620ivyr7iks","lat":37.62,"state":"KY","location":"3 N BEREA"},"type":"Feature","geometry":{"type":"Point","coordinates":[-84.29,37.62]}},{"properties":{"lon":-89.06,"size":175,"comments":"QUARTER TO GOLF BALL SIZED HAIL (JAN)","time":{"end_time":"2329/01/01 00:00:00 -0500","original":"2328","granularity":"year","time":"2328/01/01 00:00:00 -0500"},"county":"WEBSTER","id":"a620iw1unqs5","lat":33.73,"state":"MS","location":"MANTEE"},"type":"Feature","geometry":{"type":"Point","coordinates":[-89.06,33.73]}},{"properties":{"lon":-85.29,"size":100,"comments":"(MRX)","time":{"end_time":"2331/01/01 00:00:00 -0500","original":"2330","granularity":"year","time":"2330/01/01 00:00:00 -0500"},"county":"HAMILTON","id":"a620iw3b8jjj","lat":35.11,"state":"TN","location":"RED BANK"},"type":"Feature","geometry":{"type":"Point","coordinates":[-85.29,35.11]}},{"properties":{"lon":-82.59,"size":175,"comments":"(RLX)","time":{"end_time":"2331/01/01 00:00:00 -0500","original":"2330","granularity":"year","time":"2330/01/01 00:00:00 -0500"},"county":"LAWRENCE","id":"a620iw44xvyd","lat":37.98,"state":"KY","location":"LOUISA"},"type":"Feature","geometry":{"type":"Point","coordinates":[-82.59,37.98]}},{"properties":{"lon":-89.73,"size":100,"comments":"(JAN)","time":{"end_time":"2332/01/01 00:00:00 -0500","original":"2331","granularity":"year","time":"2331/01/01 00:00:00 -0500"},"county":"MONTGOMERY","id":"a620iw4zdbhm","lat":33.49,"state":"MS","location":"WINONA"},"type":"Feature","geometry":{"type":"Point","coordinates":[-89.73,33.49]}},{"properties":{"lon":-88.63,"size":100,"comments":"1 INCH HAIL (MEG)","time":{"end_time":"2332/01/01 00:00:00 -0500","original":"2331","granularity":"year","time":"2331/01/01 00:00:00 -0500"},"county":"LEE","id":"a620iw5quukk","lat":34.5,"state":"MS","location":"BALDWYN"},"type":"Feature","geometry":{"type":"Point","coordinates":[-88.63,34.5]}},{"properties":{"lon":-85.26,"size":175,"comments":"(MRX)","time":{"end_time":"2332/01/01 00:00:00 -0500","original":"2331","granularity":"year","time":"2331/01/01 00:00:00 -0500"},"county":"HAMILTON","id":"a620iwaj95rk","lat":35.07,"state":"TN","location":"CHATTANOOGA"},"type":"Feature","geometry":{"type":"Point","coordinates":[-85.26,35.07]}},{"properties":{"lon":-82.59,"size":125,"comments":"(RLX)","time":{"end_time":"2336/01/01 00:00:00 -0500","original":"2335","granularity":"year","time":"2335/01/01 00:00:00 -0500"},"county":"LAWRENCE","id":"a620iw8sawuy","lat":37.98,"state":"KY","location":"LOUISA"},"type":"Feature","geometry":{"type":"Point","coordinates":[-82.59,37.98]}},{"properties":{"lon":-82.59,"size":175,"comments":"(RLX)","time":{"end_time":"2336/01/01 00:00:00 -0500","original":"2335","granularity":"year","time":"2335/01/01 00:00:00 -0500"},"county":"WAYNE","id":"a620iwaavx4u","lat":38.12,"state":"WV","location":"SE FORT GAY"},"type":"Feature","geometry":{"type":"Point","coordinates":[-82.59,38.12]}},{"properties":{"lon":-85.26,"size":250,"comments":"TENNIS BALL SIZE HAIL ON HIGHWAY 27 IN CHATTANOOGA. (MRX)","time":{"end_time":"2337/01/01 00:00:00 -0500","original":"2336","granularity":"year","time":"2336/01/01 00:00:00 -0500"},"county":"HAMILTON","id":"a620iw6zbpv0","lat":35.07,"state":"TN","location":"CHATTANOOGA"},"type":"Feature","geometry":{"type":"Point","coordinates":[-85.26,35.07]}},{"properties":{"lon":-86.48,"size":100,"comments":"FIRE DEPT REPORTING QUARTER SIZE HAIL IN SPRINGVILLE. (BMX)","time":{"end_time":"2340/01/01 00:00:00 -0500","original":"2339","granularity":"year","time":"2339/01/01 00:00:00 -0500"},"county":"ST. CLAIR","id":"a620iw2dwumg","lat":33.77,"state":"AL","location":"SPRINGVILLE"},"type":"Feature","geometry":{"type":"Point","coordinates":[-86.48,33.77]}},{"properties":{"lon":-84.64,"size":175,"comments":"(JKL)","time":{"end_time":"2341/01/01 00:00:00 -0500","original":"2340","granularity":"year","time":"2340/01/01 00:00:00 -0500"},"county":"PULASKI","id":"a620iw18o4l4","lat":37.18,"state":"KY","location":"SCIENCE HILL"},"type":"Feature","geometry":{"type":"Point","coordinates":[-84.64,37.18]}},{"properties":{"lon":-82.54,"size":175,"comments":"(RLX)","time":{"end_time":"2342/01/01 00:00:00 -0500","original":"2341","granularity":"year","time":"2341/01/01 00:00:00 -0500"},"county":"WAYNE","id":"a620ivxdacxu","lat":38.15,"state":"WV","location":"FORT GAY"},"type":"Feature","geometry":{"type":"Point","coordinates":[-82.54,38.15]}},{"properties":{"lon":-83.53,"size":100,"comments":"(JKL)","time":{"end_time":"2343/01/01 00:00:00 -0500","original":"2342","granularity":"year","time":"2342/01/01 00:00:00 -0500"},"county":"BELL","id":"a620iw43hush","lat":36.79,"state":"KY","location":"BLACKMONT"},"type":"Feature","geometry":{"type":"Point","coordinates":[-83.53,36.79]}},{"properties":{"lon":-91.97,"size":100,"comments":"REPORTED NEAR HEBERT (JAN)","time":{"end_time":"2344/01/01 00:00:00 -0500","original":"2343","granularity":"year","time":"2343/01/01 00:00:00 -0500"},"county":"RICHLAND","id":"a620iw1k7pfd","lat":32.21,"state":"LA","location":"6 SSW BUCKNER"},"type":"Feature","geometry":{"type":"Point","coordinates":[-91.97,32.21]}},{"properties":{"lon":-85.14,"size":125,"comments":"(MRX)","time":{"end_time":"2344/01/01 00:00:00 -0500","original":"2343","granularity":"year","time":"2343/01/01 00:00:00 -0500"},"county":"HAMILTON","id":"a620iwc94b7n","lat":35.06,"state":"TN","location":"3 W OOLTEWAH"},"type":"Feature","geometry":{"type":"Point","coordinates":[-85.14,35.06]}},{"properties":{"lon":0.0,"size":175,"comments":"(RLX)","time":{"end_time":"2346/01/01 00:00:00 -0500","original":"2345","granularity":"year","time":"2345/01/01 00:00:00 -0500"},"county":"UNKNOWN","id":"a620iwcsjx8c","lat":0.0,"state":"XX","location":"UNKNOWN"},"type":"Feature","geometry":{"type":"Point","coordinates":[0.0,0.0]}},{"properties":{"lon":-84.64,"size":175,"comments":"(JKL)","time":{"end_time":"2346/01/01 00:00:00 -0500","original":"2345","granularity":"year","time":"2345/01/01 00:00:00 -0500"},"county":"PULASKI","id":"a620ivxhyw3b","lat":37.21,"state":"KY","location":"PULASKI"},"type":"Feature","geometry":{"type":"Point","coordinates":[-84.64,37.21]}},{"properties":{"lon":-83.28,"size":100,"comments":"(JKL)","time":{"end_time":"2346/01/01 00:00:00 -0500","original":"2345","granularity":"year","time":"2345/01/01 00:00:00 -0500"},"county":"MORGAN","id":"a620iwapdnwe","lat":37.76,"state":"KY","location":"2 S CANNEL CITY"},"type":"Feature","geometry":{"type":"Point","coordinates":[-83.28,37.76]}},{"properties":{"lon":-82.91,"size":150,"comments":"(RLX)","time":{"end_time":"2346/01/01 00:00:00 -0500","original":"2345","granularity":"year","time":"2345/01/01 00:00:00 -0500"},"county":"LAWRENCE","id":"a620ivz7srd8","lat":38.01,"state":"KY","location":"3 WSW BLAINE"},"type":"Feature","geometry":{"type":"Point","coordinates":[-82.91,38.01]}},{"properties":{"lon":-85.84,"size":100,"comments":"QUARTER SIZE HAIL WAS REPORTED. (HUN)","time":{"end_time":"2350/01/01 00:00:00 -0500","original":"2349","granularity":"year","time":"2349/01/01 00:00:00 -0500"},"county":"JACKSON","id":"a620iw3s90n5","lat":34.87,"state":"AL","location":"E STEVENSON"},"type":"Feature","geometry":{"type":"Point","coordinates":[-85.84,34.87]}},{"properties":{"lon":-84.35,"size":100,"comments":"(LMK)","time":{"end_time":"2350/01/01 00:00:00 -0500","original":"2349","granularity":"year","time":"2349/01/01 00:00:00 -0500"},"county":"MADISON","id":"a620iwcdvdpq","lat":37.62,"state":"KY","location":"4 NW BEREA"},"type":"Feature","geometry":{"type":"Point","coordinates":[-84.35,37.62]}},{"properties":{"lon":-83.41,"size":100,"comments":"(JKL)","time":{"end_time":"2351/01/01 00:00:00 -0500","original":"2350","granularity":"year","time":"2350/01/01 00:00:00 -0500"},"county":"HARLAN","id":"a620ivzsut5f","lat":36.83,"state":"KY","location":"WALLINS CREEK"},"type":"Feature","geometry":{"type":"Point","coordinates":[-83.41,36.83]}},{"properties":{"lon":-86.12,"size":100,"comments":"DIME TO QUARTER SIZE HAIL WAS REPORTED. (HUN)","time":{"end_time":"2353/01/01 00:00:00 -0500","original":"2352","granularity":"year","time":"2352/01/01 00:00:00 -0500"},"county":"JACKSON","id":"a620iwax3nw0","lat":34.81,"state":"AL","location":"SKYLINE"},"type":"Feature","geometry":{"type":"Point","coordinates":[-86.12,34.81]}},{"properties":{"lon":-87.3,"size":175,"comments":"LAWRENCE COUNTY EMA REPORTED GOLFBALL SIZE HAIL AT ETHRIDGE. (OHX)","time":{"end_time":"2354/01/01 00:00:00 -0500","original":"2353","granularity":"year","time":"2353/01/01 00:00:00 -0500"},"county":"LAWRENCE","id":"a620iw6e85ck","lat":35.32,"state":"TN","location":"ETHRIDGE"},"type":"Feature","geometry":{"type":"Point","coordinates":[-87.3,35.32]}},{"properties":{"lon":-83.41,"size":175,"comments":"(JKL)","time":{"end_time":"2357/01/01 00:00:00 -0500","original":"2356","granularity":"year","time":"2356/01/01 00:00:00 -0500"},"county":"HARLAN","id":"a620iw97xh97","lat":36.83,"state":"KY","location":"WALLINS CREEK"},"type":"Feature","geometry":{"type":"Point","coordinates":[-83.41,36.83]}},{"properties":{"lon":-84.32,"size":100,"comments":"(JKL)","time":{"end_time":"2358/01/01 00:00:00 -0500","original":"2357","granularity":"year","time":"2357/01/01 00:00:00 -0500"},"county":"ROCKCASTLE","id":"a620ivxyxl1x","lat":37.22,"state":"KY","location":"PONGO"},"type":"Feature","geometry":{"type":"Point","coordinates":[-84.32,37.22]}},{"properties":{"lon":-91.75,"size":175,"comments":"QUARTER TO GOLF BALL SIZED HAIL COVERED THE GROUND. REPORTS FROM EMERGENCY MANAGER AND AMATEUR RADIO. (JAN)","time":{"end_time":"2001/01/01 00:00:00 -0500","original":"0000","granularity":"year","time":"2000/01/01 00:00:00 -0500"},"county":"FRANKLIN","id":"a620iw5x0gvf","lat":32.26,"state":"LA","location":"BASKIN"},"type":"Feature","geometry":{"type":"Point","coordinates":[-91.75,32.26]}},{"properties":{"lon":-87.3,"size":125,"comments":"SILVER DOLLAR SIZE HAIL REPORTED AT ETHRIDGE. (OHX)","time":{"end_time":"2001/01/01 00:00:00 -0500","original":"0000","granularity":"year","time":"2000/01/01 00:00:00 -0500"},"county":"LAWRENCE","id":"a620ivziz239","lat":35.32,"state":"TN","location":"ETHRIDGE"},"type":"Feature","geometry":{"type":"Point","coordinates":[-87.3,35.32]}},{"properties":{"lon":-87.2,"size":275,"comments":"EMERGENCY MANAGER REPORTS BASEBALL SIZE HAIL IN CAMPBELLSVILLE TN. (OHX)","time":{"end_time":"2001/01/01 00:00:00 -0500","original":"0000","granularity":"year","time":"2000/01/01 00:00:00 -0500"},"county":"GILES","id":"a620iwa6q3ti","lat":35.4,"state":"TN","location":"8 NE ETHRIDGE"},"type":"Feature","geometry":{"type":"Point","coordinates":[-87.2,35.4]}},{"properties":{"lon":-83.12,"size":100,"comments":"(MRX)","time":{"end_time":"2001/01/01 00:00:00 -0500","original":"0000","granularity":"year","time":"2000/01/01 00:00:00 -0500"},"county":"LEE","id":"a620iw2l0lrf","lat":36.69,"state":"VA","location":"JONESVILLE"},"type":"Feature","geometry":{"type":"Point","coordinates":[-83.12,36.69]}},{"properties":{"lon":-83.3,"size":100,"comments":"(JKL)","time":{"end_time":"2001/01/01 00:00:00 -0500","original":"0000","granularity":"year","time":"2000/01/01 00:00:00 -0500"},"county":"HARLAN","id":"a620iw8w5f8x","lat":36.8,"state":"KY","location":"3 SSE HARLAN"},"type":"Feature","geometry":{"type":"Point","coordinates":[-83.3,36.8]}},{"properties":{"lon":-83.3,"size":200,"comments":"(JKL)","time":{"end_time":"2001/01/01 00:00:00 -0500","original":"0000","granularity":"year","time":"2000/01/01 00:00:00 -0500"},"county":"HARLAN","id":"a620ivzq7p5a","lat":36.81,"state":"KY","location":"GRAYS KNOB"},"type":"Feature","geometry":{"type":"Point","coordinates":[-83.3,36.81]}},{"properties":{"lon":-83.32,"size":175,"comments":"STATE POLICE REPORTED GOLF BALL SIZED HAIL IN THE CITY OF HARLAN. (JKL)","time":{"end_time":"2001/01/01 00:00:00 -0500","original":"0000","granularity":"year","time":"2000/01/01 00:00:00 -0500"},"county":"HARLAN","id":"a620iw5cumkk","lat":36.84,"state":"KY","location":"HARLAN"},"type":"Feature","geometry":{"type":"Point","coordinates":[-83.32,36.84]}},{"properties":{"lon":-86.45,"size":175,"comments":"AMATEUR RADIO OPERATOR REPORTED GOLF BALL SIZED HAIL IN SHELBYVILLE. (OHX)","time":{"end_time":"2004/01/01 00:00:00 -0500","original":"0003","granularity":"year","time":"2003/01/01 00:00:00 -0500"},"county":"BEDFORD","id":"a620iw8qfyux","lat":35.49,"state":"TN","location":"SHELBYVILLE"},"type":"Feature","geometry":{"type":"Point","coordinates":[-86.45,35.49]}},{"properties":{"lon":-82.94,"size":100,"comments":"(JKL)","time":{"end_time":"2004/01/01 00:00:00 -0500","original":"0003","granularity":"year","time":"2003/01/01 00:00:00 -0500"},"county":"JOHNSON","id":"a620iwb0kxu1","lat":37.81,"state":"KY","location":"OIL SPRINGS"},"type":"Feature","geometry":{"type":"Point","coordinates":[-82.94,37.81]}},{"properties":{"lon":-82.94,"size":175,"comments":"(JKL)","time":{"end_time":"2005/01/01 00:00:00 -0500","original":"0004","granularity":"year","time":"2004/01/01 00:00:00 -0500"},"county":"JOHNSON","id":"a620iw3qxjg0","lat":37.81,"state":"KY","location":"OIL SPRINGS"},"type":"Feature","geometry":{"type":"Point","coordinates":[-82.94,37.81]}},{"properties":{"lon":-86.21,"size":100,"comments":"QUARTER SIZE HAIL REPORTED BY AMATEUR RADIO OPERATOR. (OHX)","time":{"end_time":"2008/01/01 00:00:00 -0500","original":"0007","granularity":"year","time":"2007/01/01 00:00:00 -0500"},"county":"COFFEE","id":"a620iw4qvj8r","lat":35.57,"state":"TN","location":"10 NW MANCHESTER"},"type":"Feature","geometry":{"type":"Point","coordinates":[-86.21,35.57]}},{"properties":{"lon":-90.0,"size":100,"comments":"QUARTER SIZED HAIL COVERING THE GROUND (JAN)","time":{"end_time":"2009/01/01 00:00:00 -0500","original":"0008","granularity":"year","time":"2008/01/01 00:00:00 -0500"},"county":"HOLMES","id":"a620ivx84sue","lat":33.22,"state":"MS","location":"8 NNE LEXINGTON"},"type":"Feature","geometry":{"type":"Point","coordinates":[-90.0,33.22]}},{"properties":{"lon":-83.76,"size":100,"comments":"(JKL)","time":{"end_time":"2016/01/01 00:00:00 -0500","original":"0015","granularity":"year","time":"2015/01/01 00:00:00 -0500"},"county":"BELL","id":"a620iw0af3xk","lat":36.62,"state":"KY","location":"NOETOWN"},"type":"Feature","geometry":{"type":"Point","coordinates":[-83.76,36.62]}},{"properties":{"lon":-82.81,"size":175,"comments":"(JKL)","time":{"end_time":"2016/01/01 00:00:00 -0500","original":"0015","granularity":"year","time":"2015/01/01 00:00:00 -0500"},"county":"JOHNSON","id":"a620ivx1zml1","lat":37.82,"state":"KY","location":"PAINTSVILLE"},"type":"Feature","geometry":{"type":"Point","coordinates":[-82.81,37.82]}},{"properties":{"lon":-83.27,"size":275,"comments":"(JKL)","time":{"end_time":"2018/01/01 00:00:00 -0500","original":"0017","granularity":"year","time":"2017/01/01 00:00:00 -0500"},"county":"HARLAN","id":"a620iw5t7xxb","lat":36.81,"state":"KY","location":"LENARVE"},"type":"Feature","geometry":{"type":"Point","coordinates":[-83.27,36.81]}},{"properties":{"lon":-82.77,"size":175,"comments":"HAIL UP TO GOLF BALL SIZE OCCURRED AND HAIL COVERED THE GROUND TO A DEPTH OF ABOUT TWO INCHES. (JKL)","time":{"end_time":"2018/01/01 00:00:00 -0500","original":"0017","granularity":"year","time":"2017/01/01 00:00:00 -0500"},"county":"JOHNSON","id":"a620iw9e1np1","lat":37.82,"state":"KY","location":"THELMA"},"type":"Feature","geometry":{"type":"Point","coordinates":[-82.77,37.82]}},{"properties":{"lon":-83.3,"size":200,"comments":"EVENT OCCURRED BETWEEN 708 AND 723 PM. (JKL)","time":{"end_time":"2024/01/01 00:00:00 -0500","original":"0023","granularity":"year","time":"2023/01/01 00:00:00 -0500"},"county":"HARLAN","id":"a620iw5iax0k","lat":36.81,"state":"KY","location":"GRAYS KNOB"},"type":"Feature","geometry":{"type":"Point","coordinates":[-83.3,36.81]}},{"properties":{"lon":-85.89,"size":100,"comments":"REPORTED IN WELLINGTON. (BMX)","time":{"end_time":"2026/01/01 00:00:00 -0500","original":"0025","granularity":"year","time":"2025/01/01 00:00:00 -0500"},"county":"CALHOUN","id":"a620iw04f1ht","lat":33.82,"state":"AL","location":"8 W JACKSONVILLE"},"type":"Feature","geometry":{"type":"Point","coordinates":[-85.89,33.82]}},{"properties":{"lon":-86.23,"size":100,"comments":"QUARTER SIZE HAIL REPORTED 6ENE WARTRACE. (OHX)","time":{"end_time":"2026/01/01 00:00:00 -0500","original":"0025","granularity":"year","time":"2025/01/01 00:00:00 -0500"},"county":"COFFEE","id":"a620iw6dfs9v","lat":35.56,"state":"TN","location":"11 NW MANCHESTER"},"type":"Feature","geometry":{"type":"Point","coordinates":[-86.23,35.56]}},{"properties":{"lon":-82.81,"size":175,"comments":"(JKL)","time":{"end_time":"2027/01/01 00:00:00 -0500","original":"0026","granularity":"year","time":"2026/01/01 00:00:00 -0500"},"county":"JOHNSON","id":"a620iw9zlwhz","lat":37.82,"state":"KY","location":"PAINTSVILLE"},"type":"Feature","geometry":{"type":"Point","coordinates":[-82.81,37.82]}},{"properties":{"lon":-86.58,"size":100,"comments":"(BMX)","time":{"end_time":"2028/01/01 00:00:00 -0500","original":"0027","granularity":"year","time":"2027/01/01 00:00:00 -0500"},"county":"BLOUNT","id":"a620iw83mulf","lat":34.1,"state":"AL","location":"BLOUNTSVILLE"},"type":"Feature","geometry":{"type":"Point","coordinates":[-86.58,34.1]}},{"properties":{"lon":-89.75,"size":100,"comments":"(JAN)","time":{"end_time":"2029/01/01 00:00:00 -0500","original":"0028","granularity":"year","time":"2028/01/01 00:00:00 -0500"},"county":"CARROLL","id":"a620iwbde2n9","lat":33.33,"state":"MS","location":"VAIDEN"},"type":"Feature","geometry":{"type":"Point","coordinates":[-89.75,33.33]}},{"properties":{"lon":-86.82,"size":100,"comments":"AMATEUR RADIO OPERATOR REPORTS QUARTER SIZE HAIL BETWEEN LEWISBURG AND INTERSTATE 65. (OHX)","time":{"end_time":"2030/01/01 00:00:00 -0500","original":"0029","granularity":"year","time":"2029/01/01 00:00:00 -0500"},"county":"MARSHALL","id":"a620iw92zy9p","lat":35.45,"state":"TN","location":"2 W LEWISBURG"},"type":"Feature","geometry":{"type":"Point","coordinates":[-86.82,35.45]}},{"properties":{"lon":-91.37,"size":100,"comments":"(JAN)","time":{"end_time":"2031/01/01 00:00:00 -0500","original":"0030","granularity":"year","time":"2030/01/01 00:00:00 -0500"},"county":"MADISON","id":"a620iw9vxbws","lat":32.32,"state":"LA","location":"8 S TENDAL"},"type":"Feature","geometry":{"type":"Point","coordinates":[-91.37,32.32]}},{"properties":{"lon":-85.76,"size":100,"comments":"(BMX)","time":{"end_time":"2031/01/01 00:00:00 -0500","original":"0030","granularity":"year","time":"2030/01/01 00:00:00 -0500"},"county":"CALHOUN","id":"a620ivz6jdog","lat":33.81,"state":"AL","location":"JACKSONVILLE"},"type":"Feature","geometry":{"type":"Point","coordinates":[-85.76,33.81]}},{"properties":{"lon":-84.51,"size":175,"comments":"(MRX)","time":{"end_time":"2031/01/01 00:00:00 -0500","original":"0030","granularity":"year","time":"2030/01/01 00:00:00 -0500"},"county":"SCOTT","id":"a620iw12vo34","lat":36.5,"state":"TN","location":"ONEIDA"},"type":"Feature","geometry":{"type":"Point","coordinates":[-84.51,36.5]}},{"properties":{"lon":-88.59,"size":100,"comments":"IN CAUSEYVILLE COMMUNITY (JAN)","time":{"end_time":"2039/01/01 00:00:00 -0500","original":"0038","granularity":"year","time":"2038/01/01 00:00:00 -0500"},"county":"LAUDERDALE","id":"a620ivzbv7pd","lat":32.28,"state":"MS","location":"10 SE MERIDIAN"},"type":"Feature","geometry":{"type":"Point","coordinates":[-88.59,32.28]}},{"properties":{"lon":-82.54,"size":100,"comments":"(JKL)","time":{"end_time":"2039/01/01 00:00:00 -0500","original":"0038","granularity":"year","time":"2038/01/01 00:00:00 -0500"},"county":"MARTIN","id":"a620iw99i1gz","lat":37.87,"state":"KY","location":"INEZ"},"type":"Feature","geometry":{"type":"Point","coordinates":[-82.54,37.87]}},{"properties":{"lon":-86.44,"size":125,"comments":"(BMX)","time":{"end_time":"40/01/01 00:00:00 -0456","original":"0039","granularity":"year","time":"39/01/01 00:00:00 -0456"},"county":"BLOUNT","id":"a620iw3na7ob","lat":34.09,"state":"AL","location":"SUSAN MOORE"},"type":"Feature","geometry":{"type":"Point","coordinates":[-86.44,34.09]}},{"properties":{"lon":-82.54,"size":100,"comments":"DISPATCH REPORTED QUARTER SIZED HAIL AND STRONG WINDS. (JKL)","time":{"end_time":"40/01/01 00:00:00 -0456","original":"0039","granularity":"year","time":"39/01/01 00:00:00 -0456"},"county":"MARTIN","id":"a620iw2pc0h5","lat":37.87,"state":"KY","location":"INEZ"},"type":"Feature","geometry":{"type":"Point","coordinates":[-82.54,37.87]}},{"properties":{"lon":-86.55,"size":175,"comments":"GOLFBALL HAIL REPORTED BETWEEN THE COMMUNITIES OF PLEASANT GROVE AND RICHMOND","time":{"end_time":"46/01/01 00:00:00 -0456","original":"0045","granularity":"year","time":"45/01/01 00:00:00 -0456"},"county":"BEDFORD","id":"a620iwa8xatc","lat":35.41,"state":"TN","location":"8 SW SHELBYVILLE"},"type":"Feature","geometry":{"type":"Point","coordinates":[-86.55,35.41]}},{"properties":{"lon":-82.41,"size":150,"comments":"(RLX)","time":{"end_time":"46/01/01 00:00:00 -0456","original":"0045","granularity":"year","time":"45/01/01 00:00:00 -0456"},"county":"MINGO","id":"a620ivxmfo7g","lat":37.84,"state":"WV","location":"KERMIT"},"type":"Feature","geometry":{"type":"Point","coordinates":[-82.41,37.84]}},{"properties":{"lon":-87.07,"size":175,"comments":"(BMX)","time":{"end_time":"49/01/01 00:00:00 -0456","original":"0048","granularity":"year","time":"48/01/01 00:00:00 -0456"},"county":"TUSCALOOSA","id":"a620iw92qlgc","lat":33.25,"state":"AL","location":"TANNEHILL IRONWORKS STA"},"type":"Feature","geometry":{"type":"Point","coordinates":[-87.07,33.25]}},{"properties":{"lon":-86.32,"size":100,"comments":"QUARTER SIZE HAIL WAS REPORTED. (HUN)","time":{"end_time":"50/01/01 00:00:00 -0456","original":"0049","granularity":"year","time":"49/01/01 00:00:00 -0456"},"county":"MARSHALL","id":"a620iwc35mlw","lat":34.14,"state":"AL","location":"2 S DOUGLAS"},"type":"Feature","geometry":{"type":"Point","coordinates":[-86.32,34.14]}},{"properties":{"lon":-87.38,"size":100,"comments":"(BMX)","time":{"end_time":"51/01/01 00:00:00 -0456","original":"0050","granularity":"year","time":"50/01/01 00:00:00 -0456"},"county":"WINSTON","id":"a620iw8irris","lat":34.13,"state":"AL","location":"2 SE DOUBLE SPRINGS"},"type":"Feature","geometry":{"type":"Point","coordinates":[-87.38,34.13]}},{"properties":{"lon":-84.98,"size":100,"comments":"(MRX)","time":{"end_time":"51/01/01 00:00:00 -0456","original":"0050","granularity":"year","time":"50/01/01 00:00:00 -0456"},"county":"BRADLEY","id":"a620iw5cwd2b","lat":35.11,"state":"TN","location":"MCDONALD"},"type":"Feature","geometry":{"type":"Point","coordinates":[-84.98,35.11]}},{"properties":{"lon":-87.01,"size":100,"comments":"(BMX)","time":{"end_time":"53/01/01 00:00:00 -0456","original":"0052","granularity":"year","time":"52/01/01 00:00:00 -0456"},"county":"JEFFERSON","id":"a620iwbuklj3","lat":33.35,"state":"AL","location":"MCCALLA"},"type":"Feature","geometry":{"type":"Point","coordinates":[-87.01,33.35]}},{"properties":{"lon":-87.4,"size":100,"comments":"CORRECTION (BMX)","time":{"end_time":"56/01/01 00:00:00 -0456","original":"0055","granularity":"year","time":"55/01/01 00:00:00 -0456"},"county":"WINSTON","id":"a620iw483a4w","lat":34.15,"state":"AL","location":"DOUBLE SPRINGS"},"type":"Feature","geometry":{"type":"Point","coordinates":[-87.4,34.15]}},{"properties":{"lon":-86.32,"size":100,"comments":"NICKEL TO QUARTER SIZE HAIL WAS REPORTED. (HUN)","time":{"end_time":"59/01/01 00:00:00 -0456","original":"0058","granularity":"year","time":"58/01/01 00:00:00 -0456"},"county":"MARSHALL","id":"a620iw9fnsyp","lat":34.17,"state":"AL","location":"DOUGLAS"},"type":"Feature","geometry":{"type":"Point","coordinates":[-86.32,34.17]}},{"properties":{"lon":-89.22,"size":100,"comments":"(JAN)","time":{"end_time":"2001/01/01 00:00:00 -0500","original":"0100","granularity":"year","time":"2000/01/01 00:00:00 -0500"},"county":"CHOCTAW","id":"a620ivzh8a57","lat":33.35,"state":"MS","location":"4 NW ACKERMAN"},"type":"Feature","geometry":{"type":"Point","coordinates":[-89.22,33.35]}},{"properties":{"lon":-84.86,"size":125,"comments":"(MRX)","time":{"end_time":"2001/01/01 00:00:00 -0500","original":"0100","granularity":"year","time":"2000/01/01 00:00:00 -0500"},"county":"BRADLEY","id":"a620iw750t6y","lat":35.11,"state":"TN","location":"WATERVILLE"},"type":"Feature","geometry":{"type":"Point","coordinates":[-84.86,35.11]}},{"properties":{"lon":-84.13,"size":275,"comments":"BASEBALL HAIL IN JELLICO...HAIL DAMAGE TO CARS AND HOMES. (MRX)","time":{"end_time":"2001/01/01 00:00:00 -0500","original":"0100","granularity":"year","time":"2000/01/01 00:00:00 -0500"},"county":"CAMPBELL","id":"a620ivx1hld0","lat":36.58,"state":"TN","location":"JELLICO"},"type":"Feature","geometry":{"type":"Point","coordinates":[-84.13,36.58]}},{"properties":{"lon":-82.31,"size":175,"comments":"(RLX)","time":{"end_time":"2001/01/01 00:00:00 -0500","original":"0100","granularity":"year","time":"2000/01/01 00:00:00 -0500"},"county":"WAYNE","id":"a620iwbpxpbd","lat":37.95,"state":"WV","location":"15 SSE EAST LYNN LAKE"},"type":"Feature","geometry":{"type":"Point","coordinates":[-82.31,37.95]}},{"properties":{"lon":-86.96,"size":175,"comments":"LACEYS CHAPEL (BMX)","time":{"end_time":"2004/01/01 00:00:00 -0500","original":"0103","granularity":"year","time":"2003/01/01 00:00:00 -0500"},"county":"JEFFERSON","id":"a620ivya9rxz","lat":33.38,"state":"AL","location":"BESSEMER"},"type":"Feature","geometry":{"type":"Point","coordinates":[-86.96,33.38]}},{"properties":{"lon":-89.26,"size":150,"comments":"IN THE BYWY COMMUNITY. (JAN)","time":{"end_time":"2006/01/01 00:00:00 -0500","original":"0105","granularity":"year","time":"2005/01/01 00:00:00 -0500"},"county":"CHOCTAW","id":"a620iw4zgpsa","lat":33.38,"state":"MS","location":"7 NW ACKERMAN"},"type":"Feature","geometry":{"type":"Point","coordinates":[-89.26,33.38]}},{"properties":{"lon":-82.06,"size":100,"comments":"(RLX)","time":{"end_time":"2006/01/01 00:00:00 -0500","original":"0105","granularity":"year","time":"2005/01/01 00:00:00 -0500"},"county":"LOGAN","id":"a620iwb31cql","lat":37.93,"state":"WV","location":"4 NW CHIEF LOGAN STATE"},"type":"Feature","geometry":{"type":"Point","coordinates":[-82.06,37.93]}},{"properties":{"lon":-82.0,"size":175,"comments":"(RLX)","time":{"end_time":"2006/01/01 00:00:00 -0500","original":"0105","granularity":"year","time":"2005/01/01 00:00:00 -0500"},"county":"LINCOLN","id":"a620iw9j8qf9","lat":38.25,"state":"WV","location":"GRIFFITHSVILLE"},"type":"Feature","geometry":{"type":"Point","coordinates":[-82.0,38.25]}},{"properties":{"lon":-86.03,"size":100,"comments":"DIME TO QUARTER SIZED HAIL FELL FOR 5 TO 10 MINUTES IN SCOTTSBORO. (HUN)","time":{"end_time":"2011/01/01 00:00:00 -0500","original":"0110","granularity":"year","time":"2010/01/01 00:00:00 -0500"},"county":"JACKSON","id":"a620iw8zbkkq","lat":34.67,"state":"AL","location":"SCOTTSBORO"},"type":"Feature","geometry":{"type":"Point","coordinates":[-86.03,34.67]}},{"properties":{"lon":-86.79,"size":100,"comments":"BLUFF PARK (BMX)","time":{"end_time":"2012/01/01 00:00:00 -0500","original":"0111","granularity":"year","time":"2011/01/01 00:00:00 -0500"},"county":"JEFFERSON","id":"a620iwb56j30","lat":33.43,"state":"AL","location":"VESTAVIA HILLS"},"type":"Feature","geometry":{"type":"Point","coordinates":[-86.79,33.43]}},{"properties":{"lon":-86.82,"size":125,"comments":"ROSS BRIDGE RESORT (BMX)","time":{"end_time":"2015/01/01 00:00:00 -0500","original":"0114","granularity":"year","time":"2014/01/01 00:00:00 -0500"},"county":"JEFFERSON","id":"a620iw48ej7d","lat":33.38,"state":"AL","location":"HOOVER"},"type":"Feature","geometry":{"type":"Point","coordinates":[-86.82,33.38]}},{"properties":{"lon":-86.03,"size":100,"comments":"(BMX)","time":{"end_time":"2016/01/01 00:00:00 -0500","original":"0115","granularity":"year","time":"2015/01/01 00:00:00 -0500"},"county":"ETOWAH","id":"a620iw0h9nrt","lat":34.07,"state":"AL","location":"REECE CITY"},"type":"Feature","geometry":{"type":"Point","coordinates":[-86.03,34.07]}},{"properties":{"lon":-83.72,"size":100,"comments":"QUARTER SIZED HAIL REPORTED WAS REPORTED BY THE PUBLIC (JKL)","time":{"end_time":"2026/01/01 00:00:00 -0500","original":"0125","granularity":"year","time":"2025/01/01 00:00:00 -0500"},"county":"BELL","id":"a620iw1o8w8z","lat":36.61,"state":"KY","location":"MIDDLESBORO"},"type":"Feature","geometry":{"type":"Point","coordinates":[-83.72,36.61]}},{"properties":{"lon":-82.62,"size":100,"comments":"A HAIL PRODUCING STORM CROSSED MADISON COUNTY WITH THE LARGEST HAIL REPORTED BETWEEN WALNUT AND MARS HILL. SPOTTER HALFWAY BETWEEN THOSE LOCATIONS REPORTED SOUNDED LIKE (GSP)","time":{"end_time":"2027/01/01 00:00:00 -0500","original":"0126","granularity":"year","time":"2026/01/01 00:00:00 -0500"},"county":"MADISON","id":"a620iw8b9sa3","lat":35.85,"state":"NC","location":"5 NE MARSHALL"},"type":"Feature","geometry":{"type":"Point","coordinates":[-82.62,35.85]}},{"properties":{"lon":-86.59,"size":175,"comments":"CR10 FIREHOUSE 2 (BMX)","time":{"end_time":"2030/01/01 00:00:00 -0500","original":"0129","granularity":"year","time":"2029/01/01 00:00:00 -0500"},"county":"JEFFERSON","id":"a620iw5bpvzd","lat":33.64,"state":"AL","location":"TRUSSVILLE"},"type":"Feature","geometry":{"type":"Point","coordinates":[-86.59,33.64]}},{"properties":{"lon":-83.65,"size":175,"comments":"GOLF BALL SIZED HAIL AS STORM CROSSED. (GSP)","time":{"end_time":"2031/01/01 00:00:00 -0500","original":"0130","granularity":"year","time":"2030/01/01 00:00:00 -0500"},"county":"MACON","id":"a620iw4mmk2l","lat":35.19,"state":"NC","location":"NANTAHALA LAKE"},"type":"Feature","geometry":{"type":"Point","coordinates":[-83.65,35.19]}},{"properties":{"lon":-88.19,"size":100,"comments":"(BMX)","time":{"end_time":"2034/01/01 00:00:00 -0500","original":"0133","granularity":"year","time":"2033/01/01 00:00:00 -0500"},"county":"SUMTER","id":"a620iw95jg52","lat":32.6,"state":"AL","location":"LIVINGSTON"},"type":"Feature","geometry":{"type":"Point","coordinates":[-88.19,32.6]}},{"properties":{"lon":-89.86,"size":100,"comments":"REPORTED BY OFF DUTY NATCHEZ TRACE PARKWAY OFFICER (JAN)","time":{"end_time":"2034/01/01 00:00:00 -0500","original":"0133","granularity":"year","time":"2033/01/01 00:00:00 -0500"},"county":"HOLMES","id":"a620iwby2u87","lat":33.08,"state":"MS","location":"DURANT"},"type":"Feature","geometry":{"type":"Point","coordinates":[-89.86,33.08]}},{"properties":{"lon":-86.47,"size":100,"comments":"(BMX)","time":{"end_time":"2034/01/01 00:00:00 -0500","original":"0133","granularity":"year","time":"2033/01/01 00:00:00 -0500"},"county":"ST. CLAIR","id":"a620iw0h00qq","lat":33.69,"state":"AL","location":"MARGARET"},"type":"Feature","geometry":{"type":"Point","coordinates":[-86.47,33.69]}},{"properties":{"lon":-86.4,"size":100,"comments":"(BMX)","time":{"end_time":"2034/01/01 00:00:00 -0500","original":"0133","granularity":"year","time":"2033/01/01 00:00:00 -0500"},"county":"ST. CLAIR","id":"a620ivxu5vot","lat":33.69,"state":"AL","location":"ODENVILLE"},"type":"Feature","geometry":{"type":"Point","coordinates":[-86.4,33.69]}},{"properties":{"lon":-88.82,"size":150,"comments":"REPORTED BY MSU METEOROLOGY (JAN)","time":{"end_time":"2035/01/01 00:00:00 -0500","original":"0134","granularity":"year","time":"2034/01/01 00:00:00 -0500"},"county":"OKTIBBEHA","id":"a620iw8frozi","lat":33.47,"state":"MS","location":"1 N STARKVILLE"},"type":"Feature","geometry":{"type":"Point","coordinates":[-88.82,33.47]}},{"properties":{"lon":-88.33,"size":175,"comments":"(JAN)","time":{"end_time":"2036/01/01 00:00:00 -0500","original":"0135","granularity":"year","time":"2035/01/01 00:00:00 -0500"},"county":"LOWNDES","id":"a620iw8vp0m4","lat":33.33,"state":"MS","location":"6 NNE BIGBEE VALLEY"},"type":"Feature","geometry":{"type":"Point","coordinates":[-88.33,33.33]}},{"properties":{"lon":-87.66,"size":175,"comments":"REPORTED NEAR THE INTERSECTION OF RUE RD AND BONE CAMP RD. (BMX)","time":{"end_time":"2036/01/01 00:00:00 -0500","original":"0135","granularity":"year","time":"2035/01/01 00:00:00 -0500"},"county":"TUSCALOOSA","id":"a620iw0k80f7","lat":33.37,"state":"AL","location":"3 WSW LAKE TUSCALOOSA B"},"type":"Feature","geometry":{"type":"Point","coordinates":[-87.66,33.37]}},{"properties":{"lon":-88.82,"size":175,"comments":"SEVERAL REPORTS AROUND THE CITY. REPORTED BY MSU METEOROLOGY (JAN)","time":{"end_time":"2036/01/01 00:00:00 -0500","original":"0135","granularity":"year","time":"2035/01/01 00:00:00 -0500"},"county":"OKTIBBEHA","id":"a620iw9e9uo5","lat":33.46,"state":"MS","location":"STARKVILLE"},"type":"Feature","geometry":{"type":"Point","coordinates":[-88.82,33.46]}},{"properties":{"lon":-82.51,"size":100,"comments":"QUARTER SIZED HAIL LASTED A FEW MINUTES NEAR YANCEY COUNTY BORDER NOT FAR FROM MARS HILL. (GSP)","time":{"end_time":"2038/01/01 00:00:00 -0500","original":"0137","granularity":"year","time":"2037/01/01 00:00:00 -0500"},"county":"MADISON","id":"a620iwckwt5t","lat":35.86,"state":"NC","location":"3 NE MARS HILL"},"type":"Feature","geometry":{"type":"Point","coordinates":[-82.51,35.86]}},{"properties":{"lon":-85.11,"size":100,"comments":"QUARTER SIZED HAIL REPORT BY AMATUER RADIO. LOCATED NEAR THE TOWN OF LANTANA. (OHX)","time":{"end_time":"2039/01/01 00:00:00 -0500","original":"0138","granularity":"year","time":"2038/01/01 00:00:00 -0500"},"county":"CUMBERLAND","id":"a620iw7e7j4e","lat":35.89,"state":"TN","location":"6 SW CROSSVILLE"},"type":"Feature","geometry":{"type":"Point","coordinates":[-85.11,35.89]}},{"properties":{"lon":-87.63,"size":100,"comments":"REPORTED NEAR THE NORTH WINDS SUBDIVISION ON OLD FAYETTE RD. (BMX)","time":{"end_time":"141/01/01 00:00:00 -0456","original":"0140","granularity":"year","time":"140/01/01 00:00:00 -0456"},"county":"TUSCALOOSA","id":"a620iw33m7lw","lat":33.38,"state":"AL","location":"2 WSW LAKE TUSCALOOSA B"},"type":"Feature","geometry":{"type":"Point","coordinates":[-87.63,33.38]}},{"properties":{"lon":-83.72,"size":125,"comments":"(JKL)","time":{"end_time":"141/01/01 00:00:00 -0456","original":"0140","granularity":"year","time":"140/01/01 00:00:00 -0456"},"county":"BELL","id":"a620ivzcqf5k","lat":36.61,"state":"KY","location":"MIDDLESBORO"},"type":"Feature","geometry":{"type":"Point","coordinates":[-83.72,36.61]}},{"properties":{"lon":-88.58,"size":175,"comments":"COVERED THE GROUND (JAN)","time":{"end_time":"146/01/01 00:00:00 -0456","original":"0145","granularity":"year","time":"145/01/01 00:00:00 -0456"},"county":"LOWNDES","id":"a620iw60d40e","lat":33.5,"state":"MS","location":"10 W COLUMBUS"},"type":"Feature","geometry":{"type":"Point","coordinates":[-88.58,33.5]}},{"properties":{"lon":-83.42,"size":150,"comments":"SPOTTER UNDER THE STORM REPORTED HAIL ONE AND A HALF INCH DIAMETER. DOES NOT KNOW OF ANY WIND DAMAGE IN HIS AREA. (GSP)","time":{"end_time":"146/01/01 00:00:00 -0456","original":"0145","granularity":"year","time":"145/01/01 00:00:00 -0456"},"county":"MACON","id":"a620iw6s23a2","lat":35.21,"state":"NC","location":"3 NW FRANKLIN"},"type":"Feature","geometry":{"type":"Point","coordinates":[-83.42,35.21]}},{"properties":{"lon":-87.8,"size":100,"comments":"(BMX)","time":{"end_time":"151/01/01 00:00:00 -0456","original":"0150","granularity":"year","time":"150/01/01 00:00:00 -0456"},"county":"MARION","id":"a620iw3yb53v","lat":33.93,"state":"AL","location":"WINFIELD"},"type":"Feature","geometry":{"type":"Point","coordinates":[-87.8,33.93]}},{"properties":{"lon":-83.38,"size":175,"comments":"GOLF BALL SIZED HAIL FELL IN OR NEAR FRANKLIN AS STORM PASSED. GOT A REPORT FROM A TRAVELER PASSING THROUGH ABOUT A MILE NORTH OF DOWNTOWN FRANKLIN OF VERY STRONG WIND (GSP)","time":{"end_time":"151/01/01 00:00:00 -0456","original":"0150","granularity":"year","time":"150/01/01 00:00:00 -0456"},"county":"MACON","id":"a620iw9lesek","lat":35.2,"state":"NC","location":"1 N FRANKLIN"},"type":"Feature","geometry":{"type":"Point","coordinates":[-83.38,35.2]}},{"properties":{"lon":-88.32,"size":275,"comments":"(JAN)","time":{"end_time":"206/01/01 00:00:00 -0456","original":"0205","granularity":"year","time":"205/01/01 00:00:00 -0456"},"county":"LOWNDES","id":"a620iw8mf8ox","lat":33.56,"state":"MS","location":"STEENS"},"type":"Feature","geometry":{"type":"Point","coordinates":[-88.32,33.56]}},{"properties":{"lon":-84.68,"size":175,"comments":"GOLF BALL SIZED HAIL REPORTED NEAR ACWORTH ON SUGAR MAPLE LANE. (FFC)","time":{"end_time":"206/01/01 00:00:00 -0456","original":"0205","granularity":"year","time":"205/01/01 00:00:00 -0456"},"county":"COBB","id":"a620iwbbnizk","lat":34.07,"state":"GA","location":"ACWORTH"},"type":"Feature","geometry":{"type":"Point","coordinates":[-84.68,34.07]}},{"properties":{"lon":-85.34,"size":175,"comments":"(FFC)","time":{"end_time":"206/01/01 00:00:00 -0456","original":"0205","granularity":"year","time":"205/01/01 00:00:00 -0456"},"county":"FLOYD","id":"a620iwcv5ant","lat":34.17,"state":"GA","location":"4 N CAVE SPRING"},"type":"Feature","geometry":{"type":"Point","coordinates":[-85.34,34.17]}},{"properties":{"lon":-83.14,"size":175,"comments":"GOLF BALL SIZED HAIL REPORTED IN SOUTH CENTRAL JACKSON COUNTY AS STORM PASSED. (GSP)","time":{"end_time":"206/01/01 00:00:00 -0456","original":"0205","granularity":"year","time":"205/01/01 00:00:00 -0456"},"county":"JACKSON","id":"a620iw830piz","lat":35.21,"state":"NC","location":"12 SSE SYLVA"},"type":"Feature","geometry":{"type":"Point","coordinates":[-83.14,35.21]}},{"properties":{"lon":-84.55,"size":100,"comments":"CHEROKEE COUNTY EMERGENCY MANAGEMENT RELAYED A TRAINED SPOTTER REPORT OF QUARTER-SIZED HAIL 2 MILES WEST OF WOODSTOCK AT 908 PM EST. (FFC)","time":{"end_time":"209/01/01 00:00:00 -0456","original":"0208","granularity":"year","time":"208/01/01 00:00:00 -0456"},"county":"CHEROKEE","id":"a620iw2ieg2o","lat":34.1,"state":"GA","location":"2 W WOODSTOCK"},"type":"Feature","geometry":{"type":"Point","coordinates":[-84.55,34.1]}},{"properties":{"lon":-89.1,"size":300,"comments":"(MEG)","time":{"end_time":"212/01/01 00:00:00 -0456","original":"0211","granularity":"year","time":"211/01/01 00:00:00 -0456"},"county":"CHICKASAW","id":"a620iwd6rb3g","lat":34.03,"state":"MS","location":"5 W HOULKA"},"type":"Feature","geometry":{"type":"Point","coordinates":[-89.1,34.03]}},{"properties":{"lon":-84.34,"size":100,"comments":"(MRX)","time":{"end_time":"225/01/01 00:00:00 -0456","original":"0224","granularity":"year","time":"224/01/01 00:00:00 -0456"},"county":"ROANE","id":"a620ivyah0ya","lat":36.04,"state":"TN","location":"OLIVER SPRINGS"},"type":"Feature","geometry":{"type":"Point","coordinates":[-84.34,36.04]}},{"properties":{"lon":-87.05,"size":175,"comments":"MARKLAND AND EMPIRE RDS (BMX)","time":{"end_time":"226/01/01 00:00:00 -0456","original":"0225","granularity":"year","time":"225/01/01 00:00:00 -0456"},"county":"WALKER","id":"a620ivzv05kk","lat":33.75,"state":"AL","location":"SUMITON"},"type":"Feature","geometry":{"type":"Point","coordinates":[-87.05,33.75]}},{"properties":{"lon":-84.13,"size":150,"comments":"PING PONG BALL SIZED HAIL NEAR CLAXTON. (MRX)","time":{"end_time":"236/01/01 00:00:00 -0456","original":"0235","granularity":"year","time":"235/01/01 00:00:00 -0456"},"county":"ANDERSON","id":"a620iw6w7e6v","lat":36.02,"state":"TN","location":"5 S CLINTON"},"type":"Feature","geometry":{"type":"Point","coordinates":[-84.13,36.02]}},{"properties":{"lon":-84.13,"size":100,"comments":"(MRX)","time":{"end_time":"241/01/01 00:00:00 -0456","original":"0240","granularity":"year","time":"240/01/01 00:00:00 -0456"},"county":"ANDERSON","id":"a620iw0lxrda","lat":36.09,"state":"TN","location":"CLINTON"},"type":"Feature","geometry":{"type":"Point","coordinates":[-84.13,36.09]}},{"properties":{"lon":-91.87,"size":150,"comments":"PING PONG BALL SIZED HAIL REPORTED IN THE SANDY LAKE COMMUNITY. (JAN)","time":{"end_time":"251/01/01 00:00:00 -0456","original":"0250","granularity":"year","time":"250/01/01 00:00:00 -0456"},"county":"CATAHOULA","id":"a620iwd649n9","lat":31.63,"state":"LA","location":"8 SE MANIFEST"},"type":"Feature","geometry":{"type":"Point","coordinates":[-91.87,31.63]}},{"properties":{"lon":-84.5,"size":100,"comments":"(FFC)","time":{"end_time":"325/01/01 00:00:00 -0456","original":"0324","granularity":"year","time":"324/01/01 00:00:00 -0456"},"county":"CHEROKEE","id":"a620ivyk7ga7","lat":34.36,"state":"GA","location":"4 NE WALESKA"},"type":"Feature","geometry":{"type":"Point","coordinates":[-84.5,34.36]}},{"properties":{"lon":-86.0,"size":100,"comments":"QUARTER SIZE HAIL WAS REPORTED. (HUN)","time":{"end_time":"336/01/01 00:00:00 -0456","original":"0335","granularity":"year","time":"335/01/01 00:00:00 -0456"},"county":"DEKALB","id":"a620iw8mcbcy","lat":34.35,"state":"AL","location":"GERALDINE"},"type":"Feature","geometry":{"type":"Point","coordinates":[-86.0,34.35]}},{"properties":{"lon":-88.85,"size":100,"comments":"(JAN)","time":{"end_time":"416/01/01 00:00:00 -0456","original":"0415","granularity":"year","time":"415/01/01 00:00:00 -0456"},"county":"LAUDERDALE","id":"a620iw2nm5nr","lat":32.55,"state":"MS","location":"MARTIN"},"type":"Feature","geometry":{"type":"Point","coordinates":[-88.85,32.55]}}],"is_temporal":true,"author":{"url":"","metadata":null,"contact_name":null,"contact_address":null,"source":null,"contact_phone":null},"source":"","pagination":{"sort":null,"start":0,"total":409,"limit":1000000},"state":"complete","tags":"","published":"2014-08-14T16:50:21-04:00","id":211261}