{"type":"FeatureCollection","data_type":"Dataset","url_type":null,"permissions":[{"permissions":{"download":true,"view":true},"group_id":"everyone"}],"classification":null,"title":"today_filtered_hail_1","count":157,"stream_id":211243,"contributor":{"url":"http://geocommons.com/users/28467","name":"bheberto"},"data_attributes":null,"calculation_params":null,"icon_link":null,"link":"http://geocommons.com/overlays/211243.json","extent":[-94.11,31.54,-80.56,40.06],"geometry_types":["point"],"unique_name":null,"name":"today_filtered_hail_1","feature_count":157,"description":"","next_feature":null,"is_raster":false,"short_classification":"Y","stats":{"lon":{"max":-80.56,"mean":-87.3745859872612,"variance":5.2145749877511,"stdev":2.28354439145621,"min":-94.11,"median":-87.0},"size":{"max":425,"mean":150.31847133758,"variance":3012.71843867386,"stdev":54.8882358859697,"min":100,"median":150},"time":{"max":"2305/01/01 00:00:00 -0500","mean":"1963/03/12 01:48:15 -0500","variance":7.50788818360037e+19,"stdev":8664807085.90813,"min":"1208/12/31 23:59:58 -0456","median":"2041/01/01 00:00:00 -0500"},"lat":{"max":40.06,"mean":36.9550955414013,"variance":5.06337002286461,"stdev":2.25019333010846,"min":31.54,"median":37.68}},"features":[{"properties":{"lon":-90.32,"size":175,"comments":"(LSX)","time":{"end_time":"1210/01/01 00:00:00 -0456","original":"1209","granularity":"year","time":"1209/01/01 00:00:00 -0456"},"county":"ST. LOUIS","id":"a6byfhfjz7tz","lat":38.81,"state":"MO","location":"1 N FLORISSANT"},"type":"Feature","geometry":{"type":"Point","coordinates":[-90.32,38.81]}},{"properties":{"lon":-91.95,"size":175,"comments":"(LSX)","time":{"end_time":"1217/01/01 00:00:00 -0456","original":"1216","granularity":"year","time":"1216/01/01 00:00:00 -0456"},"county":"CALLAWAY","id":"a6byfhd3fe02","lat":38.85,"state":"MO","location":"FULTON"},"type":"Feature","geometry":{"type":"Point","coordinates":[-91.95,38.85]}},{"properties":{"lon":-90.05,"size":175,"comments":"(LSX)","time":{"end_time":"1225/01/01 00:00:00 -0456","original":"1224","granularity":"year","time":"1224/01/01 00:00:00 -0456"},"county":"MADISON","id":"a6byfhef054g","lat":38.9,"state":"IL","location":"BETHALTO"},"type":"Feature","geometry":{"type":"Point","coordinates":[-90.05,38.9]}},{"properties":{"lon":-91.51,"size":100,"comments":"(LSX)","time":{"end_time":"1244/01/01 00:00:00 -0456","original":"1243","granularity":"year","time":"1243/01/01 00:00:00 -0456"},"county":"MONTGOMERY","id":"a6byfhg6g3hd","lat":38.98,"state":"MO","location":"MONTGOMERY CITY"},"type":"Feature","geometry":{"type":"Point","coordinates":[-91.51,38.98]}},{"properties":{"lon":-89.67,"size":100,"comments":"(LSX)","time":{"end_time":"1247/01/01 00:00:00 -0456","original":"1246","granularity":"year","time":"1246/01/01 00:00:00 -0456"},"county":"MADISON","id":"a6byfhc1tntu","lat":38.97,"state":"IL","location":"NEW DOUGLAS"},"type":"Feature","geometry":{"type":"Point","coordinates":[-89.67,38.97]}},{"properties":{"lon":-90.58,"size":125,"comments":"(LSX)","time":{"end_time":"1252/01/01 00:00:00 -0456","original":"1251","granularity":"year","time":"1251/01/01 00:00:00 -0456"},"county":"ST. CHARLES","id":"a6byfh3salfs","lat":38.75,"state":"MO","location":"HARVESTER"},"type":"Feature","geometry":{"type":"Point","coordinates":[-90.58,38.75]}},{"properties":{"lon":-89.39,"size":100,"comments":"(LSX)","time":{"end_time":"1304/01/01 00:00:00 -0456","original":"1303","granularity":"year","time":"1303/01/01 00:00:00 -0456"},"county":"MONTGOMERY","id":"a6byfhcdl608","lat":39.09,"state":"IL","location":"COFFEEN"},"type":"Feature","geometry":{"type":"Point","coordinates":[-89.39,39.09]}},{"properties":{"lon":-89.29,"size":100,"comments":"(LSX)","time":{"end_time":"1311/01/01 00:00:00 -0456","original":"1310","granularity":"year","time":"1310/01/01 00:00:00 -0456"},"county":"MONTGOMERY","id":"a6byfh9jw4uf","lat":39.3,"state":"IL","location":"NOKOMIS"},"type":"Feature","geometry":{"type":"Point","coordinates":[-89.29,39.3]}},{"properties":{"lon":-89.11,"size":175,"comments":"(LSX)","time":{"end_time":"1333/01/01 00:00:00 -0456","original":"1332","granularity":"year","time":"1332/01/01 00:00:00 -0456"},"county":"FAYETTE","id":"a6byfh9r919b","lat":39.14,"state":"IL","location":"RAMSEY"},"type":"Feature","geometry":{"type":"Point","coordinates":[-89.11,39.14]}},{"properties":{"lon":-88.43,"size":175,"comments":"SWOP (ILX)","time":{"end_time":"1403/01/01 00:00:00 -0456","original":"1402","granularity":"year","time":"1402/01/01 00:00:00 -0456"},"county":"CUMBERLAND","id":"a6byfh9ir8f1","lat":39.34,"state":"IL","location":"2 NE NEOGA"},"type":"Feature","geometry":{"type":"Point","coordinates":[-88.43,39.34]}},{"properties":{"lon":-88.0,"size":175,"comments":"(ILX)","time":{"end_time":"1430/01/01 00:00:00 -0456","original":"1429","granularity":"year","time":"1429/01/01 00:00:00 -0456"},"county":"CLARK","id":"a6byfh4rn70k","lat":39.46,"state":"IL","location":"WESTFIELD"},"type":"Feature","geometry":{"type":"Point","coordinates":[-88.0,39.46]}},{"properties":{"lon":-87.69,"size":100,"comments":"SWOP REPORT. (ILX)","time":{"end_time":"1447/01/01 00:00:00 -0456","original":"1446","granularity":"year","time":"1446/01/01 00:00:00 -0456"},"county":"EDGAR","id":"a6byfh3joixm","lat":39.62,"state":"IL","location":"PARIS"},"type":"Feature","geometry":{"type":"Point","coordinates":[-87.69,39.62]}},{"properties":{"lon":-87.38,"size":175,"comments":"AT 13TH AND DELAWARE STREETS IN TERRE HAUTE. (IND)","time":{"end_time":"1451/01/01 00:00:00 -0456","original":"1450","granularity":"year","time":"1450/01/01 00:00:00 -0456"},"county":"VIGO","id":"a6byfhjj7gfm","lat":39.47,"state":"IN","location":"TERRE HAUTE"},"type":"Feature","geometry":{"type":"Point","coordinates":[-87.38,39.47]}},{"properties":{"lon":-87.12,"size":175,"comments":"(IND)","time":{"end_time":"1508/01/01 00:00:00 -0456","original":"1507","granularity":"year","time":"1507/01/01 00:00:00 -0456"},"county":"CLAY","id":"a6byfhhda2q5","lat":39.52,"state":"IN","location":"BRAZIL"},"type":"Feature","geometry":{"type":"Point","coordinates":[-87.12,39.52]}},{"properties":{"lon":-87.23,"size":175,"comments":"(IND)","time":{"end_time":"1508/01/01 00:00:00 -0456","original":"1507","granularity":"year","time":"1507/01/01 00:00:00 -0456"},"county":"PARKE","id":"a6byfh902wj7","lat":39.77,"state":"IN","location":"ROCKVILLE"},"type":"Feature","geometry":{"type":"Point","coordinates":[-87.23,39.77]}},{"properties":{"lon":-86.8,"size":100,"comments":"(IND)","time":{"end_time":"1522/01/01 00:00:00 -0456","original":"1521","granularity":"year","time":"1521/01/01 00:00:00 -0456"},"county":"PUTNAM","id":"a6byfhgmfvwe","lat":39.61,"state":"IN","location":"3 SE GREENCASTLE"},"type":"Feature","geometry":{"type":"Point","coordinates":[-86.8,39.61]}},{"properties":{"lon":-86.82,"size":175,"comments":"(IND)","time":{"end_time":"1535/01/01 00:00:00 -0456","original":"1534","granularity":"year","time":"1534/01/01 00:00:00 -0456"},"county":"PUTNAM","id":"a6byfh8qka0z","lat":39.77,"state":"IN","location":"1 NNW BAINBRIDGE"},"type":"Feature","geometry":{"type":"Point","coordinates":[-86.82,39.77]}},{"properties":{"lon":-86.39,"size":100,"comments":"(IND)","time":{"end_time":"1545/01/01 00:00:00 -0456","original":"1544","granularity":"year","time":"1544/01/01 00:00:00 -0456"},"county":"HENDRICKS","id":"a6byfh9vnygw","lat":39.7,"state":"IN","location":"PLAINFIELD"},"type":"Feature","geometry":{"type":"Point","coordinates":[-86.39,39.7]}},{"properties":{"lon":-86.64,"size":100,"comments":"(IND)","time":{"end_time":"1552/01/01 00:00:00 -0456","original":"1551","granularity":"year","time":"1551/01/01 00:00:00 -0456"},"county":"HENDRICKS","id":"a6byfhjufxb9","lat":39.86,"state":"IN","location":"NORTH SALEM"},"type":"Feature","geometry":{"type":"Point","coordinates":[-86.64,39.86]}},{"properties":{"lon":-86.85,"size":175,"comments":"(HUN)","time":{"end_time":"1559/01/01 00:00:00 -0456","original":"1558","granularity":"year","time":"1558/01/01 00:00:00 -0456"},"county":"LIMESTONE","id":"a6byfhbcuj95","lat":34.99,"state":"AL","location":"ARDMORE"},"type":"Feature","geometry":{"type":"Point","coordinates":[-86.85,34.99]}},{"properties":{"lon":-86.15,"size":175,"comments":"HAIL MEASURED AT I-465 AND HARDING (IND)","time":{"end_time":"1559/01/01 00:00:00 -0456","original":"1558","granularity":"year","time":"1558/01/01 00:00:00 -0456"},"county":"MARION","id":"a6byfhews3zw","lat":39.78,"state":"IN","location":"INDIANAPOLIS"},"type":"Feature","geometry":{"type":"Point","coordinates":[-86.15,39.78]}},{"properties":{"lon":-86.57,"size":175,"comments":"(HUN)","time":{"end_time":"1606/01/01 00:00:00 -0456","original":"1605","granularity":"year","time":"1605/01/01 00:00:00 -0456"},"county":"MADISON","id":"a6byfh42ocu9","lat":34.85,"state":"AL","location":"MERIDIANVILLE"},"type":"Feature","geometry":{"type":"Point","coordinates":[-86.57,34.85]}},{"properties":{"lon":-82.56,"size":100,"comments":"(MRX)","time":{"end_time":"1610/01/01 00:00:00 -0456","original":"1609","granularity":"year","time":"1609/01/01 00:00:00 -0456"},"county":"SCOTT","id":"a6byfh9259xx","lat":36.62,"state":"VA","location":"WEBER CITY"},"type":"Feature","geometry":{"type":"Point","coordinates":[-82.56,36.62]}},{"properties":{"lon":-89.52,"size":175,"comments":"(LSX)","time":{"end_time":"1622/01/01 00:00:00 -0456","original":"1621","granularity":"year","time":"1621/01/01 00:00:00 -0456"},"county":"CLINTON","id":"a6byfh5uosa2","lat":38.65,"state":"IL","location":"3 N BREESE"},"type":"Feature","geometry":{"type":"Point","coordinates":[-89.52,38.65]}},{"properties":{"lon":-80.56,"size":150,"comments":"(GSP)","time":{"end_time":"1631/01/01 00:00:00 -0456","original":"1630","granularity":"year","time":"1630/01/01 00:00:00 -0456"},"county":"DAVIE","id":"a6byfh7u6sex","lat":35.9,"state":"NC","location":"MOCKSVILLE"},"type":"Feature","geometry":{"type":"Point","coordinates":[-80.56,35.9]}},{"properties":{"lon":-86.26,"size":150,"comments":"(IND)","time":{"end_time":"1631/01/01 00:00:00 -0456","original":"1630","granularity":"year","time":"1630/01/01 00:00:00 -0456"},"county":"MARION","id":"a6byfhapzg5w","lat":39.72,"state":"IN","location":"2 E INDIANAPOLIS INT'L"},"type":"Feature","geometry":{"type":"Point","coordinates":[-86.26,39.72]}},{"properties":{"lon":-85.63,"size":100,"comments":"(MRX)","time":{"end_time":"1711/01/01 00:00:00 -0456","original":"1710","granularity":"year","time":"1710/01/01 00:00:00 -0456"},"county":"MARION","id":"a6byfhad3tj4","lat":35.06,"state":"TN","location":"JASPER"},"type":"Feature","geometry":{"type":"Point","coordinates":[-85.63,35.06]}},{"properties":{"lon":-88.78,"size":100,"comments":"(LSX)","time":{"end_time":"1714/01/01 00:00:00 -0456","original":"1713","granularity":"year","time":"1713/01/01 00:00:00 -0456"},"county":"FAYETTE","id":"a6byfhd805da","lat":38.83,"state":"IL","location":"FARINA"},"type":"Feature","geometry":{"type":"Point","coordinates":[-88.78,38.83]}},{"properties":{"lon":-89.05,"size":100,"comments":"QUARTER SIZE HAIL REPORTED IN THE COMMUNITY. (PAH)","time":{"end_time":"1726/01/01 00:00:00 -0456","original":"1725","granularity":"year","time":"1725/01/01 00:00:00 -0456"},"county":"FRANKLIN","id":"a6byfha1xf3w","lat":37.97,"state":"IL","location":"CHRISTOPHER"},"type":"Feature","geometry":{"type":"Point","coordinates":[-89.05,37.97]}},{"properties":{"lon":-89.37,"size":100,"comments":"(LSX)","time":{"end_time":"1741/01/01 00:00:00 -0456","original":"1740","granularity":"year","time":"1740/01/01 00:00:00 -0456"},"county":"WASHINGTON","id":"a6byfh5kw3b8","lat":38.44,"state":"IL","location":"NEW MINDEN"},"type":"Feature","geometry":{"type":"Point","coordinates":[-89.37,38.44]}},{"properties":{"lon":-88.93,"size":100,"comments":"QUARTER SIZE HAIL REPORTED WITH NEAR ZERO VISIBILITY. (PAH)","time":{"end_time":"1742/01/01 00:00:00 -0456","original":"1741","granularity":"year","time":"1741/01/01 00:00:00 -0456"},"county":"FRANKLIN","id":"a6byfh4yhkef","lat":37.9,"state":"IL","location":"WEST FRANKFORT"},"type":"Feature","geometry":{"type":"Point","coordinates":[-88.93,37.9]}},{"properties":{"lon":-89.0,"size":175,"comments":"(LSX)","time":{"end_time":"1759/01/01 00:00:00 -0456","original":"1758","granularity":"year","time":"1758/01/01 00:00:00 -0456"},"county":"MARION","id":"a6byfhh4f40c","lat":38.51,"state":"IL","location":"3 NE WALNUT HILL"},"type":"Feature","geometry":{"type":"Point","coordinates":[-89.0,38.51]}},{"properties":{"lon":-88.53,"size":100,"comments":"(PAH)","time":{"end_time":"1801/01/01 00:00:00 -0456","original":"1800","granularity":"year","time":"1800/01/01 00:00:00 -0456"},"county":"HAMILTON","id":"a6byfh5dbqmp","lat":38.09,"state":"IL","location":"MCLEANSBORO"},"type":"Feature","geometry":{"type":"Point","coordinates":[-88.53,38.09]}},{"properties":{"lon":-89.55,"size":100,"comments":"QUARTER SIZE HAIL REPORTED NEAR WALLMART ALONG HIGHWAY H. (PAH)","time":{"end_time":"1807/01/01 00:00:00 -0456","original":"1806","granularity":"year","time":"1806/01/01 00:00:00 -0456"},"county":"CAPE GIRARDEAU","id":"a6byfhgeb1m1","lat":37.31,"state":"MO","location":"CAPE GIRARDEAU"},"type":"Feature","geometry":{"type":"Point","coordinates":[-89.55,37.31]}},{"properties":{"lon":-88.0,"size":125,"comments":"ESTIMATED 45 MPH WINDS (PAH)","time":{"end_time":"1833/01/01 00:00:00 -0456","original":"1832","granularity":"year","time":"1832/01/01 00:00:00 -0456"},"county":"WHITE","id":"a6byfh3xmp4d","lat":38.26,"state":"IL","location":"GRAYVILLE"},"type":"Feature","geometry":{"type":"Point","coordinates":[-88.0,38.26]}},{"properties":{"lon":-84.53,"size":100,"comments":"(MRX)","time":{"end_time":"1834/01/01 00:00:00 -0456","original":"1833","granularity":"year","time":"1833/01/01 00:00:00 -0456"},"county":"MCMINN","id":"a6byfh3vhogs","lat":35.33,"state":"TN","location":"ETOWAH"},"type":"Feature","geometry":{"type":"Point","coordinates":[-84.53,35.33]}},{"properties":{"lon":-87.79,"size":250,"comments":"TENNIS BALL HAIL REPORTED JUST NORTH OF WADESVILLE. (PAH)","time":{"end_time":"1847/01/01 00:00:00 -0456","original":"1846","granularity":"year","time":"1846/01/01 00:00:00 -0456"},"county":"POSEY","id":"a6byfhd4t1wk","lat":38.12,"state":"IN","location":"1 N WADESVILLE"},"type":"Feature","geometry":{"type":"Point","coordinates":[-87.79,38.12]}},{"properties":{"lon":-87.54,"size":175,"comments":"(PAH)","time":{"end_time":"1851/01/01 00:00:00 -0456","original":"1850","granularity":"year","time":"1850/01/01 00:00:00 -0456"},"county":"VANDERBURGH","id":"a6byfhhwnhrc","lat":38.01,"state":"IN","location":"2 N EVANSVILLE"},"type":"Feature","geometry":{"type":"Point","coordinates":[-87.54,38.01]}},{"properties":{"lon":-87.12,"size":100,"comments":"(IND)","time":{"end_time":"1853/01/01 00:00:00 -0456","original":"1852","granularity":"year","time":"1852/01/01 00:00:00 -0456"},"county":"CLAY","id":"a6byfh5q4un3","lat":39.52,"state":"IN","location":"BRAZIL"},"type":"Feature","geometry":{"type":"Point","coordinates":[-87.12,39.52]}},{"properties":{"lon":-88.77,"size":175,"comments":"GOLF BALL SIZE HAIL REPORTED. (PAH)","time":{"end_time":"1856/01/01 00:00:00 -0456","original":"1855","granularity":"year","time":"1855/01/01 00:00:00 -0456"},"county":"JOHNSON","id":"a6byfhe3au31","lat":37.58,"state":"IL","location":"NEW BURNSIDE"},"type":"Feature","geometry":{"type":"Point","coordinates":[-88.77,37.58]}},{"properties":{"lon":-87.57,"size":250,"comments":"TENNIS BALL SIZE HAIL REPORTED SOUTH OF FORT BRANCH. (PAH)","time":{"end_time":"1858/01/01 00:00:00 -0456","original":"1857","granularity":"year","time":"1857/01/01 00:00:00 -0456"},"county":"GIBSON","id":"a6byfh69ttap","lat":38.22,"state":"IN","location":"2 S FORT BRANCH"},"type":"Feature","geometry":{"type":"Point","coordinates":[-87.57,38.22]}},{"properties":{"lon":-86.74,"size":150,"comments":"(IND)","time":{"end_time":"1908/01/01 00:00:00 -0500","original":"1907","granularity":"year","time":"1907/01/01 00:00:00 -0500"},"county":"PUTNAM","id":"a6byfhiiafp3","lat":39.74,"state":"IN","location":"4 ESE BAINBRIDGE"},"type":"Feature","geometry":{"type":"Point","coordinates":[-86.74,39.74]}},{"properties":{"lon":-86.96,"size":100,"comments":"(LMK)","time":{"end_time":"1909/01/01 00:00:00 -0500","original":"1908","granularity":"year","time":"1908/01/01 00:00:00 -0500"},"county":"DUBOIS","id":"a6byfh5mf57q","lat":38.3,"state":"IN","location":"HUNTINGBURG"},"type":"Feature","geometry":{"type":"Point","coordinates":[-86.96,38.3]}},{"properties":{"lon":-87.13,"size":100,"comments":"(PAH)","time":{"end_time":"1915/01/01 00:00:00 -0500","original":"1914","granularity":"year","time":"1914/01/01 00:00:00 -0500"},"county":"PIKE","id":"a6byfhgi355j","lat":38.29,"state":"IN","location":"STENDAL"},"type":"Feature","geometry":{"type":"Point","coordinates":[-87.13,38.29]}},{"properties":{"lon":-86.7,"size":200,"comments":"TWO INCH HAIL COVERING THE GROUND (LMK)","time":{"end_time":"1924/01/01 00:00:00 -0500","original":"1923","granularity":"year","time":"1923/01/01 00:00:00 -0500"},"county":"DUBOIS","id":"a6byfhihbavj","lat":38.31,"state":"IN","location":"BIRDSEYE"},"type":"Feature","geometry":{"type":"Point","coordinates":[-86.7,38.31]}},{"properties":{"lon":-87.0,"size":100,"comments":"(LMK)","time":{"end_time":"1924/01/01 00:00:00 -0500","original":"1923","granularity":"year","time":"1923/01/01 00:00:00 -0500"},"county":"DUBOIS","id":"a6byfhi972e9","lat":38.42,"state":"IN","location":"IRELAND"},"type":"Feature","geometry":{"type":"Point","coordinates":[-87.0,38.42]}},{"properties":{"lon":-86.57,"size":175,"comments":"(LMK)","time":{"end_time":"1928/01/01 00:00:00 -0500","original":"1927","granularity":"year","time":"1927/01/01 00:00:00 -0500"},"county":"CRAWFORD","id":"a6byfh6hhj49","lat":38.33,"state":"IN","location":"TASWELL"},"type":"Feature","geometry":{"type":"Point","coordinates":[-86.57,38.33]}},{"properties":{"lon":-86.39,"size":100,"comments":"(IND)","time":{"end_time":"1933/01/01 00:00:00 -0500","original":"1932","granularity":"year","time":"1932/01/01 00:00:00 -0500"},"county":"HENDRICKS","id":"a6byfhh66seb","lat":39.7,"state":"IN","location":"PLAINFIELD"},"type":"Feature","geometry":{"type":"Point","coordinates":[-86.39,39.7]}},{"properties":{"lon":-86.37,"size":100,"comments":"(IND)","time":{"end_time":"1937/01/01 00:00:00 -0500","original":"1936","granularity":"year","time":"1936/01/01 00:00:00 -0500"},"county":"MORGAN","id":"a6byfhhppmet","lat":39.62,"state":"IN","location":"MOORESVILLE"},"type":"Feature","geometry":{"type":"Point","coordinates":[-86.37,39.62]}},{"properties":{"lon":-88.47,"size":100,"comments":"(MEG)","time":{"end_time":"1939/01/01 00:00:00 -0500","original":"1938","granularity":"year","time":"1938/01/01 00:00:00 -0500"},"county":"PRENTISS","id":"a6byfhdm6zpe","lat":34.56,"state":"MS","location":"4 N MARIETTA"},"type":"Feature","geometry":{"type":"Point","coordinates":[-88.47,34.56]}},{"properties":{"lon":-92.7,"size":125,"comments":"HALF DOLLAR SIZED HAIL REPORTED NEAR HICO (SHV)","time":{"end_time":"1941/01/01 00:00:00 -0500","original":"1940","granularity":"year","time":"1940/01/01 00:00:00 -0500"},"county":"LINCOLN","id":"a6byfhg071fe","lat":32.75,"state":"LA","location":"6 SSW BERNICE"},"type":"Feature","geometry":{"type":"Point","coordinates":[-92.7,32.75]}},{"properties":{"lon":-87.91,"size":175,"comments":"GOLF BALL SIZE HAIL REPORTED. (PAH)","time":{"end_time":"1941/01/01 00:00:00 -0500","original":"1940","granularity":"year","time":"1940/01/01 00:00:00 -0500"},"county":"UNION","id":"a6byfh482uep","lat":37.68,"state":"KY","location":"MORGANFIELD"},"type":"Feature","geometry":{"type":"Point","coordinates":[-87.91,37.68]}},{"properties":{"lon":-86.83,"size":175,"comments":"(LMK)","time":{"end_time":"1941/01/01 00:00:00 -0500","original":"1940","granularity":"year","time":"1940/01/01 00:00:00 -0500"},"county":"DUBOIS","id":"a6byfhgtl5b0","lat":38.32,"state":"IN","location":"ST. ANTHONY"},"type":"Feature","geometry":{"type":"Point","coordinates":[-86.83,38.32]}},{"properties":{"lon":-86.31,"size":100,"comments":"(IND)","time":{"end_time":"1941/01/01 00:00:00 -0500","original":"1940","granularity":"year","time":"1940/01/01 00:00:00 -0500"},"county":"MARION","id":"a6byfhjl5027","lat":39.66,"state":"IN","location":"CAMBY"},"type":"Feature","geometry":{"type":"Point","coordinates":[-86.31,39.66]}},{"properties":{"lon":-88.64,"size":100,"comments":"QUARTER SIZE HAIL REPORTED ON SOUTH SIDE OF TOWN AS WELL AS DOWNTOWN. (PAH)","time":{"end_time":"1944/01/01 00:00:00 -0400","original":"1943","granularity":"year","time":"1943/01/01 00:00:00 -0400"},"county":"MCCRACKEN","id":"a6byfhbvxnh1","lat":37.07,"state":"KY","location":"PADUCAH"},"type":"Feature","geometry":{"type":"Point","coordinates":[-88.64,37.07]}},{"properties":{"lon":-92.66,"size":175,"comments":"GOLF BALL SIZED HAIL REPORTED 2 MILES SOUTH OF BERNICE (SHV)","time":{"end_time":"1946/01/01 00:00:00 -0500","original":"1945","granularity":"year","time":"1945/01/01 00:00:00 -0400"},"county":"UNION","id":"a6byfhh53q5j","lat":32.8,"state":"LA","location":"2 S BERNICE"},"type":"Feature","geometry":{"type":"Point","coordinates":[-92.66,32.8]}},{"properties":{"lon":-88.4,"size":100,"comments":"QUARTER SIZE HAIL REPORTED BY STATE POLICE. (PAH)","time":{"end_time":"1953/01/01 00:00:00 -0500","original":"1952","granularity":"year","time":"1952/01/01 00:00:00 -0500"},"county":"LIVINGSTON","id":"a6byfhfotw3o","lat":37.14,"state":"KY","location":"SMITHLAND"},"type":"Feature","geometry":{"type":"Point","coordinates":[-88.4,37.14]}},{"properties":{"lon":-86.4,"size":175,"comments":"(LMK)","time":{"end_time":"1953/01/01 00:00:00 -0500","original":"1952","granularity":"year","time":"1952/01/01 00:00:00 -0500"},"county":"ORANGE","id":"a6byfhcfjp7c","lat":38.43,"state":"IN","location":"VALEENE"},"type":"Feature","geometry":{"type":"Point","coordinates":[-86.4,38.43]}},{"properties":{"lon":-87.67,"size":175,"comments":"(PAH)","time":{"end_time":"1956/01/01 00:00:00 -0500","original":"1955","granularity":"year","time":"1955/01/01 00:00:00 -0500"},"county":"HENDERSON","id":"a6byfhjci477","lat":37.79,"state":"KY","location":"2 E CORYDON"},"type":"Feature","geometry":{"type":"Point","coordinates":[-87.67,37.79]}},{"properties":{"lon":-86.03,"size":100,"comments":"(IND)","time":{"end_time":"1956/01/01 00:00:00 -0500","original":"1955","granularity":"year","time":"1955/01/01 00:00:00 -0500"},"county":"HAMILTON","id":"a6byfhgtxirw","lat":40.06,"state":"IN","location":"NOBLESVILLE"},"type":"Feature","geometry":{"type":"Point","coordinates":[-86.03,40.06]}},{"properties":{"lon":-86.89,"size":100,"comments":"QUARTER SIZED HAIL AND POSSIBLE WALL CLOUD REPORTED NEAR I-65 WELCOME CENTER. (HUN)","time":{"end_time":"2001/01/01 00:00:00 -0500","original":"2000","granularity":"year","time":"2000/01/01 00:00:00 -0500"},"county":"LIMESTONE","id":"a6byfhh9rjcy","lat":34.96,"state":"AL","location":"4 SW ARDMORE"},"type":"Feature","geometry":{"type":"Point","coordinates":[-86.89,34.96]}},{"properties":{"lon":-88.73,"size":100,"comments":"DEEP ENOUGH TO CAUSE FOG IN THE VALLEYS (MEG)","time":{"end_time":"2004/01/01 00:00:00 -0500","original":"2003","granularity":"year","time":"2003/01/01 00:00:00 -0500"},"county":"MADISON","id":"a6byfhjmcync","lat":35.55,"state":"TN","location":"6 ESE BEMIS"},"type":"Feature","geometry":{"type":"Point","coordinates":[-88.73,35.55]}},{"properties":{"lon":-88.11,"size":100,"comments":"QUARTER AND NICKEL SIZED HAIL REPORTED (HUN)","time":{"end_time":"2008/01/01 00:00:00 -0500","original":"2007","granularity":"year","time":"2007/01/01 00:00:00 -0500"},"county":"COLBERT","id":"a6byfh9m7qzm","lat":34.69,"state":"AL","location":"ALLSBORO"},"type":"Feature","geometry":{"type":"Point","coordinates":[-88.11,34.69]}},{"properties":{"lon":-87.82,"size":175,"comments":"GOLF BALL SIZE HAIL REPORTED. (PAH)","time":{"end_time":"2009/01/01 00:00:00 -0500","original":"2008","granularity":"year","time":"2008/01/01 00:00:00 -0500"},"county":"WEBSTER","id":"a6byfh80ztuj","lat":37.48,"state":"KY","location":"CLAY"},"type":"Feature","geometry":{"type":"Point","coordinates":[-87.82,37.48]}},{"properties":{"lon":-92.38,"size":175,"comments":"GOLF BALL SIZED HAIL REPORTED ON SALEM ROAD NEAR FARMERVILLE (SHV)","time":{"end_time":"2016/01/01 00:00:00 -0500","original":"2015","granularity":"year","time":"2015/01/01 00:00:00 -0500"},"county":"UNION","id":"a6byfhd59bcv","lat":32.79,"state":"LA","location":"2 NE FARMERVILLE"},"type":"Feature","geometry":{"type":"Point","coordinates":[-92.38,32.79]}},{"properties":{"lon":-87.89,"size":275,"comments":"BASEBALL SIZED HAIL REPORTED IN BARTON (HUN)","time":{"end_time":"2016/01/01 00:00:00 -0500","original":"2015","granularity":"year","time":"2015/01/01 00:00:00 -0500"},"county":"COLBERT","id":"a6byfhcj0ym4","lat":34.74,"state":"AL","location":"4 ESE CHEROKEE"},"type":"Feature","geometry":{"type":"Point","coordinates":[-87.89,34.74]}},{"properties":{"lon":-88.24,"size":175,"comments":"LATE REPORT. GOLF BALL SIZE HAIL REPORTED. (PAH)","time":{"end_time":"2016/01/01 00:00:00 -0500","original":"2015","granularity":"year","time":"2015/01/01 00:00:00 -0500"},"county":"LIVINGSTON","id":"a6byfhfq3s17","lat":37.27,"state":"KY","location":"SALEM"},"type":"Feature","geometry":{"type":"Point","coordinates":[-88.24,37.27]}},{"properties":{"lon":-87.12,"size":100,"comments":"NICKEL TO QUARTER SIZE HAIL REPORTED IN THE COMMUNITY. (PAH)","time":{"end_time":"2022/01/01 00:00:00 -0500","original":"2021","granularity":"year","time":"2021/01/01 00:00:00 -0500"},"county":"DAVIESS","id":"a6byfh6tqwph","lat":37.76,"state":"KY","location":"OWENSBORO"},"type":"Feature","geometry":{"type":"Point","coordinates":[-87.12,37.76]}},{"properties":{"lon":-86.02,"size":275,"comments":"(LMK)","time":{"end_time":"2024/01/01 00:00:00 -0500","original":"2023","granularity":"year","time":"2023/01/01 00:00:00 -0500"},"county":"WASHINGTON","id":"a6byfh7rlcep","lat":38.5,"state":"IN","location":"NEW PEKIN"},"type":"Feature","geometry":{"type":"Point","coordinates":[-86.02,38.5]}},{"properties":{"lon":-87.05,"size":100,"comments":"(PAH)","time":{"end_time":"2025/01/01 00:00:00 -0500","original":"2024","granularity":"year","time":"2024/01/01 00:00:00 -0500"},"county":"SPENCER","id":"a6byfh5myxni","lat":37.88,"state":"IN","location":"ROCKPORT"},"type":"Feature","geometry":{"type":"Point","coordinates":[-87.05,37.88]}},{"properties":{"lon":-87.39,"size":125,"comments":"HALF DOLLAR HAIL REPORTED IN THE COMMUNITY OF BEACH GROVE. (PAH)","time":{"end_time":"2026/01/01 00:00:00 -0500","original":"2025","granularity":"year","time":"2025/01/01 00:00:00 -0500"},"county":"MCLEAN","id":"a6byfh3xc2r7","lat":37.64,"state":"KY","location":"10 NW CALHOUN"},"type":"Feature","geometry":{"type":"Point","coordinates":[-87.39,37.64]}},{"properties":{"lon":-88.17,"size":125,"comments":"AT BEACH GROVE (PAH)","time":{"end_time":"2026/01/01 00:00:00 -0500","original":"2025","granularity":"year","time":"2025/01/01 00:00:00 -0500"},"county":"XXX","id":"a6byfh4zcjru","lat":38.75,"state":"XX","location":"10 NW CALHOUN"},"type":"Feature","geometry":{"type":"Point","coordinates":[-88.17,38.75]}},{"properties":{"lon":-87.89,"size":100,"comments":"QUARATER SIZE HAIL WAS REPORTED. (HUN)","time":{"end_time":"2031/01/01 00:00:00 -0500","original":"2030","granularity":"year","time":"2030/01/01 00:00:00 -0500"},"county":"COLBERT","id":"a6byfh8h73jq","lat":34.74,"state":"AL","location":"4 ESE CHEROKEE"},"type":"Feature","geometry":{"type":"Point","coordinates":[-87.89,34.74]}},{"properties":{"lon":-87.67,"size":425,"comments":"SOFTBALL SIZE HAIL WAS REPORTED. (HUN)","time":{"end_time":"2036/01/01 00:00:00 -0500","original":"2035","granularity":"year","time":"2035/01/01 00:00:00 -0500"},"county":"LAUDERDALE","id":"a6byfhd4uqfa","lat":34.83,"state":"AL","location":"FLORENCE"},"type":"Feature","geometry":{"type":"Point","coordinates":[-87.67,34.83]}},{"properties":{"lon":-85.47,"size":175,"comments":"(LMK)","time":{"end_time":"2037/01/01 00:00:00 -0500","original":"2036","granularity":"year","time":"2036/01/01 00:00:00 -0500"},"county":"JEFFERSON","id":"a6byfh4lrkpw","lat":38.73,"state":"IN","location":"1 N HANOVER"},"type":"Feature","geometry":{"type":"Point","coordinates":[-85.47,38.73]}},{"properties":{"lon":-87.51,"size":175,"comments":"GOFL BALL SIZE HAIL REPORTED ALONG WITH WIND GUSTS ESTIMATED 60 MPH. (PAH)","time":{"end_time":"2038/01/01 00:00:00 -0500","original":"2037","granularity":"year","time":"2037/01/01 00:00:00 -0500"},"county":"HOPKINS","id":"a6byfhaa3iaa","lat":37.34,"state":"KY","location":"MADISONVILLE"},"type":"Feature","geometry":{"type":"Point","coordinates":[-87.51,37.34]}},{"properties":{"lon":-87.5,"size":175,"comments":"GOLF BALL SIZE HAIL REPORTED. (PAH)","time":{"end_time":"2040/01/01 00:00:00 -0500","original":"2039","granularity":"year","time":"2039/01/01 00:00:00 -0500"},"county":"WEBSTER","id":"a6byfhh3w5i2","lat":37.49,"state":"KY","location":"SLAUGHTERS"},"type":"Feature","geometry":{"type":"Point","coordinates":[-87.5,37.49]}},{"properties":{"lon":-85.27,"size":100,"comments":"(IND)","time":{"end_time":"2041/01/01 00:00:00 -0500","original":"2040","granularity":"year","time":"2040/01/01 00:00:00 -0500"},"county":"HENRY","id":"a6byfh8sdls1","lat":39.81,"state":"IN","location":"1 E STRAUGHN"},"type":"Feature","geometry":{"type":"Point","coordinates":[-85.27,39.81]}},{"properties":{"lon":-86.38,"size":125,"comments":"EMERGENCY MANAGEMENT REPORTED LARGE HAIL 5 MILES SOUTHEAST OF SHELBYVILLE. (OHX)","time":{"end_time":"2042/01/01 00:00:00 -0500","original":"2041","granularity":"year","time":"2041/01/01 00:00:00 -0500"},"county":"BEDFORD","id":"a6byfhhcb464","lat":35.44,"state":"TN","location":"5 SE SHELBYVILLE"},"type":"Feature","geometry":{"type":"Point","coordinates":[-86.38,35.44]}},{"properties":{"lon":-86.38,"size":100,"comments":"60 MPH WINDS (LMK)","time":{"end_time":"2043/01/01 00:00:00 -0500","original":"2042","granularity":"year","time":"2042/01/01 00:00:00 -0500"},"county":"CRAWFORD","id":"a6byfh8xa8wb","lat":38.24,"state":"IN","location":"CURBY"},"type":"Feature","geometry":{"type":"Point","coordinates":[-86.38,38.24]}},{"properties":{"lon":-84.89,"size":175,"comments":"(ILN)","time":{"end_time":"2043/01/01 00:00:00 -0500","original":"2042","granularity":"year","time":"2042/01/01 00:00:00 -0500"},"county":"WAYNE","id":"a6byfhfg4iyu","lat":39.83,"state":"IN","location":"RICHMOND"},"type":"Feature","geometry":{"type":"Point","coordinates":[-84.89,39.83]}},{"properties":{"lon":-91.06,"size":100,"comments":"(JAN)","time":{"end_time":"2044/01/01 00:00:00 -0500","original":"2043","granularity":"year","time":"2043/01/01 00:00:00 -0500"},"county":"WASHINGTON","id":"a6byfh67776u","lat":33.5,"state":"MS","location":"WINTERVILLE"},"type":"Feature","geometry":{"type":"Point","coordinates":[-91.06,33.5]}},{"properties":{"lon":-91.45,"size":175,"comments":"(JAN)","time":{"end_time":"2045/01/01 00:00:00 -0500","original":"2044","granularity":"year","time":"2044/01/01 00:00:00 -0500"},"county":"CHICOT","id":"a6byfh3xph2r","lat":33.3,"state":"AR","location":"3 E MONTROSE"},"type":"Feature","geometry":{"type":"Point","coordinates":[-91.45,33.3]}},{"properties":{"lon":-92.65,"size":175,"comments":"GOLF BALL SIZED HAIL COMING DOWN IN SHEETS (SHV)","time":{"end_time":"2046/01/01 00:00:00 -0500","original":"2045","granularity":"year","time":"2045/01/01 00:00:00 -0500"},"county":"LINCOLN","id":"a6byfhh50e6t","lat":32.64,"state":"LA","location":"2 N VIENNA"},"type":"Feature","geometry":{"type":"Point","coordinates":[-92.65,32.64]}},{"properties":{"lon":-88.56,"size":275,"comments":"TENNIS BALL TO BASEBALL SIZED HAIL (JAN)","time":{"end_time":"2049/01/01 00:00:00 -0500","original":"2048","granularity":"year","time":"2048/01/01 00:00:00 -0500"},"county":"LOWNDES","id":"a6byfhenyxer","lat":33.39,"state":"MS","location":"5 ESE ARTESIA"},"type":"Feature","geometry":{"type":"Point","coordinates":[-88.56,33.39]}},{"properties":{"lon":-85.07,"size":200,"comments":"(ILN)","time":{"end_time":"2050/01/01 00:00:00 -0500","original":"2049","granularity":"year","time":"2049/01/01 00:00:00 -0500"},"county":"SWITZERLAND","id":"a6byfh6obgr6","lat":38.76,"state":"IN","location":"VEVAY"},"type":"Feature","geometry":{"type":"Point","coordinates":[-85.07,38.76]}},{"properties":{"lon":-85.17,"size":175,"comments":"(ILN)","time":{"end_time":"2050/01/01 00:00:00 -0500","original":"2049","granularity":"year","time":"2049/01/01 00:00:00 -0500"},"county":"WAYNE","id":"a6byfhjv921d","lat":39.81,"state":"IN","location":"CAMBRIDGE CITY"},"type":"Feature","geometry":{"type":"Point","coordinates":[-85.17,39.81]}},{"properties":{"lon":-87.82,"size":175,"comments":"GOLF BALL SIZE HAIL DAMAGED ROOF OF HOMES ALONG PRINCETON ROAD AND STONE ROAD. LATE REPORT. (PAH)","time":{"end_time":"2051/01/01 00:00:00 -0500","original":"2050","granularity":"year","time":"2050/01/01 00:00:00 -0500"},"county":"TRIGG","id":"a6byfhcojqrn","lat":36.87,"state":"KY","location":"CADIZ"},"type":"Feature","geometry":{"type":"Point","coordinates":[-87.82,36.87]}},{"properties":{"lon":-84.79,"size":100,"comments":"(ILN)","time":{"end_time":"2051/01/01 00:00:00 -0500","original":"2050","granularity":"year","time":"2050/01/01 00:00:00 -0500"},"county":"DARKE","id":"a6byfhcfdwnq","lat":40.0,"state":"OH","location":"HOLLANSBURG"},"type":"Feature","geometry":{"type":"Point","coordinates":[-84.79,40.0]}},{"properties":{"lon":-86.23,"size":175,"comments":"(OHX)","time":{"end_time":"2053/01/01 00:00:00 -0500","original":"2052","granularity":"year","time":"2052/01/01 00:00:00 -0500"},"county":"COFFEE","id":"a6byfhgvz4u9","lat":35.56,"state":"TN","location":"6 ENE WARTRACE"},"type":"Feature","geometry":{"type":"Point","coordinates":[-86.23,35.56]}},{"properties":{"lon":-89.19,"size":100,"comments":"(MEG)","time":{"end_time":"2054/01/01 00:00:00 -0500","original":"2053","granularity":"year","time":"2053/01/01 00:00:00 -0500"},"county":"HARDEMAN","id":"a6byfh87yvb0","lat":35.05,"state":"TN","location":"GRAND JUNCTION"},"type":"Feature","geometry":{"type":"Point","coordinates":[-89.19,35.05]}},{"properties":{"lon":-84.89,"size":175,"comments":"(ILN)","time":{"end_time":"2058/01/01 00:00:00 -0500","original":"2057","granularity":"year","time":"2057/01/01 00:00:00 -0500"},"county":"WAYNE","id":"a6byfh62avm3","lat":39.83,"state":"IN","location":"RICHMOND"},"type":"Feature","geometry":{"type":"Point","coordinates":[-84.89,39.83]}},{"properties":{"lon":-85.98,"size":100,"comments":"PEKIN ROAD AND HIGHWAY 150. (LMK)","time":{"end_time":"2059/01/01 00:00:00 -0500","original":"2058","granularity":"year","time":"2058/01/01 00:00:00 -0500"},"county":"FLOYD","id":"a6byfh6h7iqy","lat":38.37,"state":"IN","location":"GREENVILLE"},"type":"Feature","geometry":{"type":"Point","coordinates":[-85.98,38.37]}},{"properties":{"lon":-92.48,"size":125,"comments":"HALF DOLLAR SIZED HAIL COVERING THE ROAD NEAR HWY 33 (SHV)","time":{"end_time":"2101/01/01 00:00:00 -0500","original":"2100","granularity":"year","time":"2100/01/01 00:00:00 -0500"},"county":"UNION","id":"a6byfh9ekvvy","lat":32.68,"state":"LA","location":"5 NW DOWNSVILLE"},"type":"Feature","geometry":{"type":"Point","coordinates":[-92.48,32.68]}},{"properties":{"lon":-86.89,"size":100,"comments":"FUNNEL CLOUD SPOTTED. (LMK)","time":{"end_time":"2101/01/01 00:00:00 -0500","original":"2100","granularity":"year","time":"2100/01/01 00:00:00 -0500"},"county":"OHIO","id":"a6byfhcv9ze7","lat":37.45,"state":"KY","location":"HARTFORD"},"type":"Feature","geometry":{"type":"Point","coordinates":[-86.89,37.45]}},{"properties":{"lon":-91.28,"size":175,"comments":"GOLF BALL SIZED HAIL REPORTED IN LAKE VILLAGE ALONG HIGHWAY 82 (JAN)","time":{"end_time":"2103/01/01 00:00:00 -0500","original":"2102","granularity":"year","time":"2102/01/01 00:00:00 -0500"},"county":"CHICOT","id":"a6byfh70fl2y","lat":33.32,"state":"AR","location":"LAKE VILLAGE"},"type":"Feature","geometry":{"type":"Point","coordinates":[-91.28,33.32]}},{"properties":{"lon":-85.16,"size":175,"comments":"AT THE INTERSECTION OF HWY 55 AND HWY 389 - RELAYED FROM WFO LOUISVILLE (ILN)","time":{"end_time":"2105/01/01 00:00:00 -0500","original":"2104","granularity":"year","time":"2104/01/01 00:00:00 -0500"},"county":"CARROLL","id":"a6byfhgv7e42","lat":38.66,"state":"KY","location":"1 S CARROLLTON"},"type":"Feature","geometry":{"type":"Point","coordinates":[-85.16,38.66]}},{"properties":{"lon":-87.67,"size":100,"comments":"2 INCHES OF HAIL UP TO THE SIZE OF QUARTERS WAS REPORTED. (HUN)","time":{"end_time":"2106/01/01 00:00:00 -0500","original":"2105","granularity":"year","time":"2105/01/01 00:00:00 -0500"},"county":"LAUDERDALE","id":"a6byfh79gk6w","lat":34.83,"state":"AL","location":"FLORENCE"},"type":"Feature","geometry":{"type":"Point","coordinates":[-87.67,34.83]}},{"properties":{"lon":-86.18,"size":275,"comments":"(LMK)","time":{"end_time":"2107/01/01 00:00:00 -0500","original":"2106","granularity":"year","time":"2106/01/01 00:00:00 -0500"},"county":"MEADE","id":"a6byfhj8a70e","lat":38.0,"state":"KY","location":"BRANDENBURG"},"type":"Feature","geometry":{"type":"Point","coordinates":[-86.18,38.0]}},{"properties":{"lon":-88.32,"size":100,"comments":"(JAN)","time":{"end_time":"2108/01/01 00:00:00 -0500","original":"2107","granularity":"year","time":"2107/01/01 00:00:00 -0500"},"county":"LOWNDES","id":"a6byfhj5jkea","lat":33.45,"state":"MS","location":"NEW HOPE"},"type":"Feature","geometry":{"type":"Point","coordinates":[-88.32,33.45]}},{"properties":{"lon":-85.76,"size":100,"comments":"(LMK)","time":{"end_time":"2110/01/01 00:00:00 -0500","original":"2109","granularity":"year","time":"2109/01/01 00:00:00 -0500"},"county":"CLARK","id":"a6byfhgepcp3","lat":38.39,"state":"IN","location":"SELLERSBURG"},"type":"Feature","geometry":{"type":"Point","coordinates":[-85.76,38.39]}},{"properties":{"lon":-86.15,"size":100,"comments":"QUARTER SIZE HAIL WAS REPORTED. (HUN)","time":{"end_time":"2111/01/01 00:00:00 -0500","original":"2110","granularity":"year","time":"2110/01/01 00:00:00 -0500"},"county":"FRANKLIN","id":"a6byfhga6r5l","lat":35.19,"state":"TN","location":"2 W WINCHESTER"},"type":"Feature","geometry":{"type":"Point","coordinates":[-86.15,35.19]}},{"properties":{"lon":-86.66,"size":100,"comments":"AT RENFROW (LMK)","time":{"end_time":"2116/01/01 00:00:00 -0500","original":"2115","granularity":"year","time":"2115/01/01 00:00:00 -0500"},"county":"OHIO","id":"a6byfhawmr5b","lat":37.41,"state":"KY","location":"12 E BEAVER DAM"},"type":"Feature","geometry":{"type":"Point","coordinates":[-86.66,37.41]}},{"properties":{"lon":-85.05,"size":175,"comments":"(LMK)","time":{"end_time":"2118/01/01 00:00:00 -0500","original":"2117","granularity":"year","time":"2117/01/01 00:00:00 -0500"},"county":"MARION","id":"a6byfhfghviu","lat":37.58,"state":"KY","location":"GRAVEL SWITCH"},"type":"Feature","geometry":{"type":"Point","coordinates":[-85.05,37.58]}},{"properties":{"lon":-88.6,"size":200,"comments":"(MEG)","time":{"end_time":"2119/01/01 00:00:00 -0500","original":"2118","granularity":"year","time":"2118/01/01 00:00:00 -0500"},"county":"MONROE","id":"a6byfhb7rmkq","lat":33.97,"state":"MS","location":"WREN"},"type":"Feature","geometry":{"type":"Point","coordinates":[-88.6,33.97]}},{"properties":{"lon":-86.29,"size":175,"comments":"(LMK)","time":{"end_time":"2119/01/01 00:00:00 -0500","original":"2118","granularity":"year","time":"2118/01/01 00:00:00 -0500"},"county":"GRAYSON","id":"a6byfh4suq2u","lat":37.48,"state":"KY","location":"LEITCHFIELD"},"type":"Feature","geometry":{"type":"Point","coordinates":[-86.29,37.48]}},{"properties":{"lon":-92.26,"size":100,"comments":"QUARTER SIZED HAIL REPORTED NEAR THE INTERSECTION OF HWY 2 AND 143 (SHV)","time":{"end_time":"2121/01/01 00:00:00 -0500","original":"2120","granularity":"year","time":"2120/01/01 00:00:00 -0500"},"county":"UNION","id":"a6byfh96q7aa","lat":32.72,"state":"LA","location":"9 ESE FARMERVILLE"},"type":"Feature","geometry":{"type":"Point","coordinates":[-92.26,32.72]}},{"properties":{"lon":-86.09,"size":275,"comments":"BASEBALL SIZE HAIL WAS REPORTED. (HUN)","time":{"end_time":"2126/01/01 00:00:00 -0500","original":"2125","granularity":"year","time":"2125/01/01 00:00:00 -0500"},"county":"FRANKLIN","id":"a6byfh8lo6rc","lat":35.21,"state":"TN","location":"DECHERD"},"type":"Feature","geometry":{"type":"Point","coordinates":[-86.09,35.21]}},{"properties":{"lon":-84.78,"size":200,"comments":"NEAR JONESVILLE. (ILN)","time":{"end_time":"2126/01/01 00:00:00 -0500","original":"2125","granularity":"year","time":"2125/01/01 00:00:00 -0500"},"county":"GRANT","id":"a6byfhj8jq75","lat":38.65,"state":"KY","location":"4 S EAGLE HILL"},"type":"Feature","geometry":{"type":"Point","coordinates":[-84.78,38.65]}},{"properties":{"lon":-84.91,"size":275,"comments":"SOME REPORTS OF STRUCTURAL DAMAGE ALSO IN NEW LIBERTY BUT NOT SPECIFIC AT THIS TIME (ILN)","time":{"end_time":"2130/01/01 00:00:00 -0500","original":"2129","granularity":"year","time":"2129/01/01 00:00:00 -0500"},"county":"OWEN","id":"a6byfh65x1f8","lat":38.62,"state":"KY","location":"NEW LIBERTY"},"type":"Feature","geometry":{"type":"Point","coordinates":[-84.91,38.62]}},{"properties":{"lon":-88.48,"size":125,"comments":"(MEG)","time":{"end_time":"2136/01/01 00:00:00 -0500","original":"2135","granularity":"year","time":"2135/01/01 00:00:00 -0500"},"county":"MONROE","id":"a6byfh3ohk4a","lat":33.99,"state":"MS","location":"AMORY"},"type":"Feature","geometry":{"type":"Point","coordinates":[-88.48,33.99]}},{"properties":{"lon":-87.32,"size":175,"comments":"GOLFBALL SIZE HAIL REPORTED 3 TO 4 MILES EAST OF DICKSON","time":{"end_time":"2136/01/01 00:00:00 -0500","original":"2135","granularity":"year","time":"2135/01/01 00:00:00 -0500"},"county":"DICKSON","id":"a6byfhc66w0q","lat":36.08,"state":"TN","location":"3 E DICKSON"},"type":"Feature","geometry":{"type":"Point","coordinates":[-87.32,36.08]}},{"properties":{"lon":-85.55,"size":250,"comments":"(LMK)","time":{"end_time":"2141/01/01 00:00:00 -0500","original":"2140","granularity":"year","time":"2140/01/01 00:00:00 -0500"},"county":"BULLITT","id":"a6byfhfdag4k","lat":38.05,"state":"KY","location":"MOUNT WASHINGTON"},"type":"Feature","geometry":{"type":"Point","coordinates":[-85.55,38.05]}},{"properties":{"lon":-89.94,"size":100,"comments":"ONE INCH HAIL. (MEG)","time":{"end_time":"2142/01/01 00:00:00 -0500","original":"2141","granularity":"year","time":"2141/01/01 00:00:00 -0500"},"county":"PANOLA","id":"a6byfhb9b2tc","lat":34.32,"state":"MS","location":"BATESVILLE"},"type":"Feature","geometry":{"type":"Point","coordinates":[-89.94,34.32]}},{"properties":{"lon":-88.43,"size":300,"comments":"(MEG)","time":{"end_time":"2145/01/01 00:00:00 -0500","original":"2144","granularity":"year","time":"2144/01/01 00:00:00 -0500"},"county":"MCNAIRY","id":"a6byfhigb1an","lat":35.16,"state":"TN","location":"STANTONVILLE"},"type":"Feature","geometry":{"type":"Point","coordinates":[-88.43,35.16]}},{"properties":{"lon":-84.65,"size":175,"comments":"(LMK)","time":{"end_time":"2146/01/01 00:00:00 -0500","original":"2145","granularity":"year","time":"2145/01/01 00:00:00 -0500"},"county":"GARRARD","id":"a6byfhgtepsa","lat":37.72,"state":"KY","location":"BRYANTSVILLE"},"type":"Feature","geometry":{"type":"Point","coordinates":[-84.65,37.72]}},{"properties":{"lon":-86.75,"size":175,"comments":"GOLF BALL SIZED HAIL REPORTED AT READY SECTION RD AND WALL TRIANA HWY (HUN)","time":{"end_time":"2149/01/01 00:00:00 -0500","original":"2148","granularity":"year","time":"2148/01/01 00:00:00 -0500"},"county":"MADISON","id":"a6byfh8n9l6z","lat":34.93,"state":"AL","location":"5 N HARVEST"},"type":"Feature","geometry":{"type":"Point","coordinates":[-86.75,34.93]}},{"properties":{"lon":-91.85,"size":100,"comments":"(JAN)","time":{"end_time":"2154/01/01 00:00:00 -0500","original":"2153","granularity":"year","time":"2153/01/01 00:00:00 -0500"},"county":"MOREHOUSE","id":"a6byfh7xh6jt","lat":32.83,"state":"LA","location":"5 NE BASTROP"},"type":"Feature","geometry":{"type":"Point","coordinates":[-91.85,32.83]}},{"properties":{"lon":-85.34,"size":175,"comments":"(LMK)","time":{"end_time":"2156/01/01 00:00:00 -0500","original":"2155","granularity":"year","time":"2155/01/01 00:00:00 -0500"},"county":"SPENCER","id":"a6byfhjqi5bw","lat":38.03,"state":"KY","location":"TAYLORSVILLE"},"type":"Feature","geometry":{"type":"Point","coordinates":[-85.34,38.03]}},{"properties":{"lon":-84.08,"size":125,"comments":"QUARTER TO HALF DOLLAR SIZED HAIL. (ILN)","time":{"end_time":"2159/01/01 00:00:00 -0500","original":"2158","granularity":"year","time":"2158/01/01 00:00:00 -0500"},"county":"CLERMONT","id":"a6byfhb1a5ic","lat":38.96,"state":"OH","location":"BETHEL"},"type":"Feature","geometry":{"type":"Point","coordinates":[-84.08,38.96]}},{"properties":{"lon":-93.34,"size":125,"comments":"HALF DOLLAR SIZED HAIL JUST WEST OF HWY 1 (SHV)","time":{"end_time":"2201/01/01 00:00:00 -0500","original":"2200","granularity":"year","time":"2200/01/01 00:00:00 -0500"},"county":"RED RIVER","id":"a6byfhaz8h4m","lat":31.95,"state":"LA","location":"5 S COUSHATTA"},"type":"Feature","geometry":{"type":"Point","coordinates":[-93.34,31.95]}},{"properties":{"lon":-89.81,"size":100,"comments":"QUARTER SIZE HAIL SOUTH OF GRENADA (JAN)","time":{"end_time":"2203/01/01 00:00:00 -0500","original":"2202","granularity":"year","time":"2202/01/01 00:00:00 -0500"},"county":"GRENADA","id":"a6byfh9b5mm2","lat":33.76,"state":"MS","location":"1 S GRENADA"},"type":"Feature","geometry":{"type":"Point","coordinates":[-89.81,33.76]}},{"properties":{"lon":-85.07,"size":175,"comments":"(LMK)","time":{"end_time":"2205/01/01 00:00:00 -0500","original":"2204","granularity":"year","time":"2204/01/01 00:00:00 -0500"},"county":"SHELBY","id":"a6byfh3tolg4","lat":38.13,"state":"KY","location":"WADDY"},"type":"Feature","geometry":{"type":"Point","coordinates":[-85.07,38.13]}},{"properties":{"lon":-84.01,"size":100,"comments":"NEAR BROWN COUNTY LINE (ILN)","time":{"end_time":"2205/01/01 00:00:00 -0500","original":"2204","granularity":"year","time":"2204/01/01 00:00:00 -0500"},"county":"BROWN","id":"a6byfh83dfkd","lat":38.99,"state":"OH","location":"LOCUST RIDGE"},"type":"Feature","geometry":{"type":"Point","coordinates":[-84.01,38.99]}},{"properties":{"lon":-84.29,"size":100,"comments":"(LMK)","time":{"end_time":"2206/01/01 00:00:00 -0500","original":"2205","granularity":"year","time":"2205/01/01 00:00:00 -0500"},"county":"MADISON","id":"a6byfh5n2x8y","lat":37.63,"state":"KY","location":"4 N BEREA"},"type":"Feature","geometry":{"type":"Point","coordinates":[-84.29,37.63]}},{"properties":{"lon":-86.43,"size":175,"comments":"GOLFBALL SIZE HAIL REPORTED. (HUN)","time":{"end_time":"2207/01/01 00:00:00 -0500","original":"2206","granularity":"year","time":"2206/01/01 00:00:00 -0500"},"county":"MADISON","id":"a6byfhdybrwl","lat":34.91,"state":"AL","location":"NEW MARKET"},"type":"Feature","geometry":{"type":"Point","coordinates":[-86.43,34.91]}},{"properties":{"lon":-86.78,"size":175,"comments":"(OHX)","time":{"end_time":"2208/01/01 00:00:00 -0500","original":"2207","granularity":"year","time":"2207/01/01 00:00:00 -0500"},"county":"DAVIDSON","id":"a6byfh7fv3w3","lat":36.17,"state":"TN","location":"NASHVILLE"},"type":"Feature","geometry":{"type":"Point","coordinates":[-86.78,36.17]}},{"properties":{"lon":-94.11,"size":100,"comments":"DRIVER ON HWY 96 HEADED SOUTH FROM CENTER ENCOUNTERED UP TO QUARTER SIZED HAIL NEAR SAN AUGUSTINE (SHV)","time":{"end_time":"2209/01/01 00:00:00 -0500","original":"2208","granularity":"year","time":"2208/01/01 00:00:00 -0500"},"county":"SAN AUGUSTINE","id":"a6byfhapaxy1","lat":31.54,"state":"TX","location":"1 N SAN AUGUSTINE"},"type":"Feature","geometry":{"type":"Point","coordinates":[-94.11,31.54]}},{"properties":{"lon":-88.11,"size":125,"comments":"HALF DOLLAR SIZE HAIL COVERING GROUND IN COMMUNITY OF OLIVE HILL. (MEG)","time":{"end_time":"2209/01/01 00:00:00 -0500","original":"2208","granularity":"year","time":"2208/01/01 00:00:00 -0500"},"county":"HARDIN","id":"a6byfhh0qj79","lat":35.22,"state":"TN","location":"7 E SAVANNAH"},"type":"Feature","geometry":{"type":"Point","coordinates":[-88.11,35.22]}},{"properties":{"lon":-84.87,"size":175,"comments":"(LMK)","time":{"end_time":"2209/01/01 00:00:00 -0500","original":"2208","granularity":"year","time":"2208/01/01 00:00:00 -0500"},"county":"FRANKLIN","id":"a6byfhhschgy","lat":38.19,"state":"KY","location":"FRANKFORT"},"type":"Feature","geometry":{"type":"Point","coordinates":[-84.87,38.19]}},{"properties":{"lon":-85.47,"size":175,"comments":"(LMK)","time":{"end_time":"2213/01/01 00:00:00 -0500","original":"2212","granularity":"year","time":"2212/01/01 00:00:00 -0500"},"county":"TAYLOR","id":"a6byfh8o1oq1","lat":37.43,"state":"KY","location":"10 E CREAL"},"type":"Feature","geometry":{"type":"Point","coordinates":[-85.47,37.43]}},{"properties":{"lon":-89.96,"size":100,"comments":"QUARTER SIZED HAIL REPORTED ALONG HIGHWAY 82 TWO MILES WEST OF CARROLLTON. (JAN)","time":{"end_time":"2216/01/01 00:00:00 -0500","original":"2215","granularity":"year","time":"2215/01/01 00:00:00 -0500"},"county":"CARROLL","id":"a6byfhdgrlgg","lat":33.5,"state":"MS","location":"2 W CARROLLTON"},"type":"Feature","geometry":{"type":"Point","coordinates":[-89.96,33.5]}},{"properties":{"lon":-86.98,"size":100,"comments":"QUARTER SIZED HAIL REPORTED NEAR AUSTINVILLE RD. (HUN)","time":{"end_time":"2219/01/01 00:00:00 -0500","original":"2218","granularity":"year","time":"2218/01/01 00:00:00 -0500"},"county":"MORGAN","id":"a6byfh7r24bs","lat":34.52,"state":"AL","location":"1 WNW FLINT CITY"},"type":"Feature","geometry":{"type":"Point","coordinates":[-86.98,34.52]}},{"properties":{"lon":-91.39,"size":175,"comments":"HAIL UP TO GOLF BALL SIZED IN THE TERRY COMMUNITY (JAN)","time":{"end_time":"2221/01/01 00:00:00 -0500","original":"2220","granularity":"year","time":"2220/01/01 00:00:00 -0500"},"county":"WEST CARROLL","id":"a6byfh8cy044","lat":32.91,"state":"LA","location":"3 N OAK GROVE"},"type":"Feature","geometry":{"type":"Point","coordinates":[-91.39,32.91]}},{"properties":{"lon":-83.93,"size":125,"comments":"(JKL)","time":{"end_time":"2221/01/01 00:00:00 -0500","original":"2220","granularity":"year","time":"2220/01/01 00:00:00 -0500"},"county":"POWELL","id":"a6byfhjjamp3","lat":37.89,"state":"KY","location":"2 N CLAY CITY"},"type":"Feature","geometry":{"type":"Point","coordinates":[-83.93,37.89]}},{"properties":{"lon":-84.55,"size":175,"comments":"(LMK)","time":{"end_time":"2224/01/01 00:00:00 -0500","original":"2223","granularity":"year","time":"2223/01/01 00:00:00 -0500"},"county":"SCOTT","id":"a6byfhcaio4a","lat":38.2,"state":"KY","location":"GEORGETOWN"},"type":"Feature","geometry":{"type":"Point","coordinates":[-84.55,38.2]}},{"properties":{"lon":-86.52,"size":200,"comments":"HEN EGG SIZE HAIL REPORTED BY A SPOTTER AT PROVIDENCE","time":{"end_time":"2226/01/01 00:00:00 -0500","original":"2225","granularity":"year","time":"2225/01/01 00:00:00 -0500"},"county":"WILSON","id":"a6byfhg5pqxy","lat":36.19,"state":"TN","location":"1 S MOUNT JULIET"},"type":"Feature","geometry":{"type":"Point","coordinates":[-86.52,36.19]}},{"properties":{"lon":-85.92,"size":100,"comments":"(LMK)","time":{"end_time":"2227/01/01 00:00:00 -0500","original":"2226","granularity":"year","time":"2226/01/01 00:00:00 -0500"},"county":"BARREN","id":"a6byfhdoq9sx","lat":37.0,"state":"KY","location":"GLASGOW"},"type":"Feature","geometry":{"type":"Point","coordinates":[-85.92,37.0]}},{"properties":{"lon":-84.93,"size":175,"comments":"(LMK)","time":{"end_time":"2227/01/01 00:00:00 -0500","original":"2226","granularity":"year","time":"2226/01/01 00:00:00 -0500"},"county":"ANDERSON","id":"a6byfhg02abq","lat":38.08,"state":"KY","location":"ALTON"},"type":"Feature","geometry":{"type":"Point","coordinates":[-84.93,38.08]}},{"properties":{"lon":-87.27,"size":100,"comments":"1302 8TH AVE. (BMX)","time":{"end_time":"2232/01/01 00:00:00 -0500","original":"2231","granularity":"year","time":"2231/01/01 00:00:00 -0500"},"county":"WALKER","id":"a6byfhhgvyyp","lat":33.85,"state":"AL","location":"JASPER"},"type":"Feature","geometry":{"type":"Point","coordinates":[-87.27,33.85]}},{"properties":{"lon":-83.76,"size":175,"comments":"(JKL)","time":{"end_time":"2233/01/01 00:00:00 -0500","original":"2232","granularity":"year","time":"2232/01/01 00:00:00 -0500"},"county":"MENIFEE","id":"a6byfhhwtf15","lat":37.95,"state":"KY","location":"MEANS"},"type":"Feature","geometry":{"type":"Point","coordinates":[-83.76,37.95]}},{"properties":{"lon":-86.32,"size":200,"comments":"HEN EGG SIZE HAIL REPORTED BY A SPOTTER ON THE WESTERN SIDE OF LEBANON. (OHX)","time":{"end_time":"2235/01/01 00:00:00 -0500","original":"2234","granularity":"year","time":"2234/01/01 00:00:00 -0500"},"county":"WILSON","id":"a6byfhivgn65","lat":36.21,"state":"TN","location":"LEBANON"},"type":"Feature","geometry":{"type":"Point","coordinates":[-86.32,36.21]}},{"properties":{"lon":-83.79,"size":125,"comments":"HALF DOLLAR SIZE HAIL WAS REPORTED. (JKL)","time":{"end_time":"2236/01/01 00:00:00 -0500","original":"2235","granularity":"year","time":"2235/01/01 00:00:00 -0500"},"county":"MONTGOMERY","id":"a6byfh50indt","lat":37.97,"state":"KY","location":"2 E JEFFERSONVILLE"},"type":"Feature","geometry":{"type":"Point","coordinates":[-83.79,37.97]}},{"properties":{"lon":-88.08,"size":100,"comments":"CLARKE COUNTY EMERGENCY MANAGER REPORTED QUARTER SIZE HAIL IN CUNNINGHAM. (MOB)","time":{"end_time":"2240/01/01 00:00:00 -0500","original":"2239","granularity":"year","time":"2239/01/01 00:00:00 -0500"},"county":"CLARKE","id":"a6byfh6dm5jd","lat":31.9,"state":"AL","location":"CUNNINGHAM"},"type":"Feature","geometry":{"type":"Point","coordinates":[-88.08,31.9]}},{"properties":{"lon":-87.47,"size":150,"comments":"(MOB)","time":{"end_time":"2241/01/01 00:00:00 -0500","original":"2240","granularity":"year","time":"2240/01/01 00:00:00 -0500"},"county":"WILCOX","id":"a6byfhd62x0x","lat":31.97,"state":"AL","location":"YELLOW BLUFF"},"type":"Feature","geometry":{"type":"Point","coordinates":[-87.47,31.97]}},{"properties":{"lon":-86.96,"size":175,"comments":"REPORTED NEAR THE INTERSECTION OF WALKER...BLOUNT...AND JEFFERSON COUNTIES. (BMX)","time":{"end_time":"2246/01/01 00:00:00 -0500","original":"2245","granularity":"year","time":"2245/01/01 00:00:00 -0500"},"county":"WALKER","id":"a6byfhfzzwli","lat":33.83,"state":"AL","location":"3 SW ARKADELPHIA"},"type":"Feature","geometry":{"type":"Point","coordinates":[-86.96,33.83]}},{"properties":{"lon":-86.59,"size":100,"comments":"DIME TO QUARTER SIZE HAIL WAS REPORTED. (HUN)","time":{"end_time":"2246/01/01 00:00:00 -0500","original":"2245","granularity":"year","time":"2245/01/01 00:00:00 -0500"},"county":"MADISON","id":"a6byfhfrjjsi","lat":34.73,"state":"AL","location":"HUNTSVILLE"},"type":"Feature","geometry":{"type":"Point","coordinates":[-86.59,34.73]}},{"properties":{"lon":-84.33,"size":200,"comments":"(LMK)","time":{"end_time":"2247/01/01 00:00:00 -0500","original":"2246","granularity":"year","time":"2246/01/01 00:00:00 -0500"},"county":"MADISON","id":"a6byfhaxq8vp","lat":37.74,"state":"KY","location":"2 W RICHMOND"},"type":"Feature","geometry":{"type":"Point","coordinates":[-84.33,37.74]}},{"properties":{"lon":-85.9,"size":275,"comments":"(LMK)","time":{"end_time":"2248/01/01 00:00:00 -0500","original":"2247","granularity":"year","time":"2247/01/01 00:00:00 -0500"},"county":"HART","id":"a6byfhg93cip","lat":37.28,"state":"KY","location":"MUNFORDVILLE"},"type":"Feature","geometry":{"type":"Point","coordinates":[-85.9,37.28]}},{"properties":{"lon":-84.79,"size":175,"comments":"(LMK)","time":{"end_time":"2253/01/01 00:00:00 -0500","original":"2252","granularity":"year","time":"2252/01/01 00:00:00 -0500"},"county":"BOYLE","id":"a6byfheb9i42","lat":37.59,"state":"KY","location":"JUNCTION CITY"},"type":"Feature","geometry":{"type":"Point","coordinates":[-84.79,37.59]}},{"properties":{"lon":-85.62,"size":100,"comments":"(LMK)","time":{"end_time":"2255/01/01 00:00:00 -0500","original":"2254","granularity":"year","time":"2254/01/01 00:00:00 -0500"},"county":"METCALFE","id":"a6byfhbml0q1","lat":36.98,"state":"KY","location":"EDMONTON"},"type":"Feature","geometry":{"type":"Point","coordinates":[-85.62,36.98]}},{"properties":{"lon":-85.93,"size":175,"comments":"GOLFBALL SIZE HAIL REPORTED. (HUN)","time":{"end_time":"2256/01/01 00:00:00 -0500","original":"2255","granularity":"year","time":"2255/01/01 00:00:00 -0500"},"county":"FRANKLIN","id":"a6byfhio6x7g","lat":35.09,"state":"TN","location":"1 NNW SHERWOOD"},"type":"Feature","geometry":{"type":"Point","coordinates":[-85.93,35.09]}},{"properties":{"lon":-85.94,"size":125,"comments":"SPOTTER REPORTED HALF DOLLAR SIZE HAIL AT CARTHAGE. (OHX)","time":{"end_time":"2256/01/01 00:00:00 -0500","original":"2255","granularity":"year","time":"2255/01/01 00:00:00 -0500"},"county":"SMITH","id":"a6byfhg53idz","lat":36.26,"state":"TN","location":"CARTHAGE"},"type":"Feature","geometry":{"type":"Point","coordinates":[-85.94,36.26]}},{"properties":{"lon":-83.95,"size":100,"comments":"(JKL)","time":{"end_time":"2260/01/01 00:00:00 -0500","original":"2259","granularity":"year","time":"2259/01/01 00:00:00 -0500"},"county":"MONTGOMERY","id":"a6byfh9lxqoe","lat":38.13,"state":"KY","location":"5 N MOUNT STERLING"},"type":"Feature","geometry":{"type":"Point","coordinates":[-83.95,38.13]}},{"properties":{"lon":-85.67,"size":275,"comments":"(MRX)","time":{"end_time":"2301/01/01 00:00:00 -0500","original":"2300","granularity":"year","time":"2300/01/01 00:00:00 -0500"},"county":"MARION","id":"a6byfhiaru1z","lat":35.03,"state":"TN","location":"3 SW JASPER"},"type":"Feature","geometry":{"type":"Point","coordinates":[-85.67,35.03]}},{"properties":{"lon":-90.23,"size":100,"comments":"QUARTER SIZED HAIL ALONG US HIGHWAY 49E AT THE LEFLORE/HOLMES COUNTY LINE (JAN)","time":{"end_time":"2302/01/01 00:00:00 -0500","original":"2301","granularity":"year","time":"2301/01/01 00:00:00 -0500"},"county":"LEFLORE","id":"a6byfh66onps","lat":33.37,"state":"MS","location":"3 N CRUGER"},"type":"Feature","geometry":{"type":"Point","coordinates":[-90.23,33.37]}},{"properties":{"lon":-85.31,"size":175,"comments":"(LMK)","time":{"end_time":"2306/01/01 00:00:00 -0500","original":"2305","granularity":"year","time":"2305/01/01 00:00:00 -0500"},"county":"ADAIR","id":"a6byfhgbur3c","lat":37.1,"state":"KY","location":"COLUMBIA"},"type":"Feature","geometry":{"type":"Point","coordinates":[-85.31,37.1]}}],"is_temporal":true,"author":{"url":"","metadata":null,"contact_name":null,"contact_address":null,"source":null,"contact_phone":null},"source":"","pagination":{"sort":null,"start":0,"total":157,"limit":1000000},"state":"complete","tags":"","published":"2014-08-14T16:49:08-04:00","id":211243}