{"type":"FeatureCollection","data_type":"Dataset","url_type":null,"permissions":[{"permissions":{"download":true,"view":true},"group_id":"everyone"}],"classification":null,"title":"Sample addresses MAIN","count":236,"stream_id":211463,"contributor":{"url":"http://geocommons.com/users/41224","name":"dverdin2010"},"data_attributes":null,"calculation_params":null,"icon_link":null,"link":"http://geocommons.com/overlays/211463.json","extent":[-118.426,33.8577,-118.2,33.9315],"geometry_types":["point"],"unique_name":null,"name":"Sample addresses MAIN","feature_count":236,"description":"project","next_feature":null,"is_raster":false,"short_classification":"Y","stats":{},"features":[{"properties":{"city":"EL SEGUNDO","zip":"90245","geo_score":0.816,"id":"a64dnp8a76hd","geo_precision":"range","address":"2100 BLK  PARK PL","state":"CA"},"type":"Feature","geometry":{"type":"Point","coordinates":[-118.38708,33.905058]}},{"properties":{"city":"EL SEGUNDO","zip":"90245","geo_score":0.855,"id":"a64dnp5wnr46","geo_precision":"range","address":"600 BLK    W  IMPERIAL  AVE","state":"CA"},"type":"Feature","geometry":{"type":"Point","coordinates":[-118.422247,33.930833]}},{"properties":{"city":"EL SEGUNDO","zip":"90245","geo_score":0.704,"id":"a64dnp6o6lx3","geo_precision":"range","address":"900 BLK  MAIN","state":"CA"},"type":"Feature","geometry":{"type":"Point","coordinates":[-118.415952,33.928902]}},{"properties":{"city":"EL SEGUNDO","zip":"90245","geo_score":0.913,"id":"a64dnpct0s87","geo_precision":"range","address":"2300 ALASKA AVE","state":"CA"},"type":"Feature","geometry":{"type":"Point","coordinates":[-118.383479,33.907903]}},{"properties":{"city":"EL SEGUNDO","zip":"90245","geo_score":0.855,"id":"a64dnp7el1iv","geo_precision":"range","address":"300  ILLINOIS","state":"CA"},"type":"Feature","geometry":{"type":"Point","coordinates":[-118.398312,33.920167]}},{"properties":{"city":"EL SEGUNDO","zip":"90245","geo_score":0.751,"id":"a64dnp8r3boh","geo_precision":"range","address":"200 BLK  NEVADA","state":"CA"},"type":"Feature","geometry":{"type":"Point","coordinates":[-118.403719,33.917895]}},{"properties":{"city":"EL SEGUNDO","zip":"90245","geo_score":0.73,"id":"a64dnp849otu","geo_precision":"range","address":"200 BLK  ARENA","state":"CA"},"type":"Feature","geometry":{"type":"Point","coordinates":[-118.412343,33.91787]}},{"properties":{"city":"EL SEGUNDO","zip":"90245","geo_score":0.913,"id":"a64dnp5zwpu1","geo_precision":"range","address":"100 BUNGALOW DR","state":"CA"},"type":"Feature","geometry":{"type":"Point","coordinates":[-118.405692,33.916379]}},{"properties":{"city":"EL SEGUNDO","zip":"90245","geo_score":0.796,"id":"a64dnp21tsqc","geo_precision":"range","address":"2000 BLK  E  PARK  PL","state":"CA"},"type":"Feature","geometry":{"type":"Point","coordinates":[-118.388577,33.904331]}},{"properties":{"city":"EL SEGUNDO","zip":"90245","geo_score":0.913,"id":"a64dnp60cxxx","geo_precision":"range","address":"700  E PALM AVE","state":"CA"},"type":"Feature","geometry":{"type":"Point","coordinates":[-118.407985,33.925067]}},{"properties":{"city":"EL SEGUNDO","zip":"90245","geo_score":0.913,"id":"a64dnp2valql","geo_precision":"range","address":"1400 E  PINE  AVE","state":"CA"},"type":"Feature","geometry":{"type":"Point","coordinates":[-118.401568,33.922241]}},{"properties":{"city":"EL SEGUNDO","zip":"90245","geo_score":0.653,"id":"a64dnoz0ztac","geo_precision":"street","address":"100 BLK E ACACIA AVE","state":"CA"},"type":"Feature","geometry":{"type":"Point","coordinates":[-118.414941,33.929811]}},{"properties":{"city":"EL SEGUNDO","zip":"90245","geo_score":0.913,"id":"a64dnp3pw29r","geo_precision":"range","address":"600 W  PINE AVE","state":"CA"},"type":"Feature","geometry":{"type":"Point","coordinates":[-118.421739,33.92221]}},{"properties":{"city":"EL SEGUNDO","zip":"90245","geo_score":0.862,"id":"a64dnozujnt3","geo_precision":"range","address":"700 BLK S SEPULVEDA BLVD","state":"CA"},"type":"Feature","geometry":{"type":"Point","coordinates":[-118.395903,33.906658]}},{"properties":{"city":"EL SEGUNDO","zip":"90245","geo_score":0.855,"id":"a64dnpayt7ee","geo_precision":"range","address":"500  STANDARD","state":"CA"},"type":"Feature","geometry":{"type":"Point","coordinates":[-118.414721,33.922219]}},{"properties":{"city":"EL SEGUNDO","zip":"90245","geo_score":0.913,"id":"a64dnp5mvvvr","geo_precision":"range","address":"700 REDWOOD AVE","state":"CA"},"type":"Feature","geometry":{"type":"Point","coordinates":[-118.425844,33.929285]}},{"properties":{"city":"EL SEGUNDO","zip":"90245","geo_score":0.73,"id":"a64dnp908zw0","geo_precision":"street","address":"IMPERIAL /PERSHING HY","state":"CA"},"type":"Feature","geometry":{"type":"Point","coordinates":[-118.416978,33.930844]}},{"properties":{"city":"EL SEGUNDO","zip":"90245","geo_score":0.516,"id":"a64dnp035kd7","geo_precision":"street","address":"LOMA VIST/SYCAMORE","state":"CA"},"type":"Feature","geometry":{"type":"Point","coordinates":[-118.414932,33.927889]}},{"properties":{"city":"EL SEGUNDO","zip":"90245","geo_score":0.855,"id":"a64dnp4ydvl5","geo_precision":"range","address":"400 N  DOUGLAS","state":"CA"},"type":"Feature","geometry":{"type":"Point","coordinates":[-118.383214,33.921848]}},{"properties":{"city":"EL SEGUNDO","zip":"90245","geo_score":0.78,"id":"a64dnp8t94h0","geo_precision":"range","address":"500 BLK S DOUGLAS","state":"CA"},"type":"Feature","geometry":{"type":"Point","coordinates":[-118.38314,33.909451]}},{"properties":{"city":"EL SEGUNDO","zip":"90245","geo_score":0.791,"id":"a64dnpdai6y0","geo_precision":"range","address":"900 BLK   HILLCREST","state":"CA"},"type":"Feature","geometry":{"type":"Point","coordinates":[-118.425034,33.928883]}},{"properties":{"city":"EL SEGUNDO","zip":"90245","geo_score":0.683,"id":"a64dnp0muzty","geo_precision":"street","address":"GRAND/CENTER","state":"CA"},"type":"Feature","geometry":{"type":"Point","coordinates":[-118.415933,33.918977]}},{"properties":{"city":"EL SEGUNDO","zip":"90245","geo_score":0.83,"id":"a64dnp9sjh3v","geo_precision":"range","address":"900 N  NASH","state":"CA"},"type":"Feature","geometry":{"type":"Point","coordinates":[-118.387463,33.928862]}},{"properties":{"city":"EL SEGUNDO","zip":"90245","geo_score":0.73,"id":"a64dnoysygqu","geo_precision":"range","address":"800 BLK S NASH","state":"CA"},"type":"Feature","geometry":{"type":"Point","coordinates":[-118.388577,33.904331]}},{"properties":{"city":"EL SEGUNDO","zip":"90245","geo_score":0.73,"id":"a64dnpdn3f2e","geo_precision":"range","address":"200   BLK ARENA","state":"CA"},"type":"Feature","geometry":{"type":"Point","coordinates":[-118.412343,33.91787]}},{"properties":{"city":"EL SEGUNDO","zip":"90245","geo_score":0.751,"id":"a64dnp0kl90p","geo_precision":"range","address":"400  BLK  SIERRA","state":"CA"},"type":"Feature","geometry":{"type":"Point","coordinates":[-118.408897,33.920848]}},{"properties":{"city":"EL SEGUNDO","zip":"90245","geo_score":0.913,"id":"a64dnpekxjwy","geo_precision":"range","address":"500 W  GRAND AVE","state":"CA"},"type":"Feature","geometry":{"type":"Point","coordinates":[-118.420622,33.918886]}},{"properties":{"city":"EL SEGUNDO","zip":"90245","geo_score":0.855,"id":"a64dnpcor36h","geo_precision":"range","address":"2200 BLK  E  IMPERIAL HWY","state":"CA"},"type":"Feature","geometry":{"type":"Point","coordinates":[-118.387474,33.930884]}},{"properties":{"city":"EL SEGUNDO","zip":"90245","geo_score":0.83,"id":"a64dnp4ju4m6","geo_precision":"range","address":"800 S  NASH","state":"CA"},"type":"Feature","geometry":{"type":"Point","coordinates":[-118.388577,33.904331]}},{"properties":{"city":"EL SEGUNDO","zip":"90245","geo_score":0.84,"id":"a64dnpapcvp2","geo_precision":"range","address":"1900 BLK E MAPLE AVE","state":"CA"},"type":"Feature","geometry":{"type":"Point","coordinates":[-118.396278,33.927016]}},{"properties":{"city":"EL SEGUNDO","zip":"90245","geo_score":0.913,"id":"a64dnp7mb8tz","geo_precision":"range","address":"300 N SEPULVEDA  BLVD","state":"CA"},"type":"Feature","geometry":{"type":"Point","coordinates":[-118.396013,33.919453]}},{"properties":{"city":"EL SEGUNDO","zip":"90245","geo_score":0.855,"id":"a64dnp2j9lmn","geo_precision":"range","address":"500 VIRGINIA","state":"CA"},"type":"Feature","geometry":{"type":"Point","coordinates":[-118.419482,33.92221]}},{"properties":{"city":"EL SEGUNDO","zip":"90245","geo_score":0.862,"id":"a64dnpb9pu65","geo_precision":"range","address":"700 BLK S SEPULVEDA BLVD","state":"CA"},"type":"Feature","geometry":{"type":"Point","coordinates":[-118.395903,33.906658]}},{"properties":{"city":"EL SEGUNDO","zip":"90245","geo_score":0.913,"id":"a64dnp4qtrvz","geo_precision":"range","address":"2200 E  IMPERIAL  HWY","state":"CA"},"type":"Feature","geometry":{"type":"Point","coordinates":[-118.387474,33.930884]}},{"properties":{"city":"EL SEGUNDO","zip":"90245","geo_score":0.862,"id":"a64dnp5gadlt","geo_precision":"range","address":"300 BLK  N SEPULVEDA BLVD","state":"CA"},"type":"Feature","geometry":{"type":"Point","coordinates":[-118.396013,33.919453]}},{"properties":{"city":"EL SEGUNDO","zip":"90245","geo_score":0.862,"id":"a64dnp0vs8nz","geo_precision":"range","address":"700 BLK  S  SEPULVEDA BLVD","state":"CA"},"type":"Feature","geometry":{"type":"Point","coordinates":[-118.395903,33.906658]}},{"properties":{"city":"EL SEGUNDO","zip":"90245","geo_score":0.913,"id":"a64dnp157vbz","geo_precision":"range","address":"600 W  IMPERIAL  AVE","state":"CA"},"type":"Feature","geometry":{"type":"Point","coordinates":[-118.422247,33.930833]}},{"properties":{"city":"EL SEGUNDO","zip":"90245","geo_score":0.788,"id":"a64dnpc9voak","geo_precision":"range","address":"2300 UTAH","state":"CA"},"type":"Feature","geometry":{"type":"Point","coordinates":[-118.38314,33.909451]}},{"properties":{"city":"EL SEGUNDO","zip":"90245","geo_score":0.75,"id":"a64dnp8yw86o","geo_precision":"range","address":"2200 BLK E ROSECRANS AVE","state":"CA"},"type":"Feature","geometry":{"type":"Point","coordinates":[-118.200023,33.903533]}},{"properties":{"city":"EL SEGUNDO","zip":"90245","geo_score":0.862,"id":"a64dnp9owh8n","geo_precision":"range","address":"2100 BLK E EL SEGUNDO BLVD","state":"CA"},"type":"Feature","geometry":{"type":"Point","coordinates":[-118.390854,33.916345]}},{"properties":{"city":"EL SEGUNDO","zip":"90245","geo_score":0.846,"id":"a64dnpappqoh","geo_precision":"range","address":"900 BLK  MCCARTHY CT","state":"CA"},"type":"Feature","geometry":{"type":"Point","coordinates":[-118.408728,33.928917]}},{"properties":{"city":"EL SEGUNDO","zip":"90245","geo_score":0.73,"id":"a64dnp6odky5","geo_precision":"street","address":"SYCAMORE /WASHINGTO","state":"CA"},"type":"Feature","geometry":{"type":"Point","coordinates":[-118.414932,33.927889]}},{"properties":{"city":"EL SEGUNDO","zip":"90245","geo_score":0.862,"id":"a64dnpb0ocpx","geo_precision":"range","address":"300 BLK W  EL SEGUNDO BLVD","state":"CA"},"type":"Feature","geometry":{"type":"Point","coordinates":[-118.418304,33.91635]}},{"properties":{"city":"EL SEGUNDO","zip":"90245","geo_score":0.855,"id":"a64dnp7ine7e","geo_precision":"range","address":"2200 BLK  E IMPERIAL  HWY","state":"CA"},"type":"Feature","geometry":{"type":"Point","coordinates":[-118.387474,33.930884]}},{"properties":{"city":"EL SEGUNDO","zip":"90245","geo_score":0.689,"id":"a64dnozamvdu","geo_precision":"street","address":"NASH /PARK","state":"CA"},"type":"Feature","geometry":{"type":"Point","coordinates":[-118.387423,33.919779]}},{"properties":{"city":"EL SEGUNDO","zip":"90245","geo_score":0.848,"id":"a64dnpbk342a","geo_precision":"range","address":"400 INDIANA","state":"CA"},"type":"Feature","geometry":{"type":"Point","coordinates":[-118.39723,33.920877]}},{"properties":{"city":"EL SEGUNDO","zip":"90245","geo_score":0.855,"id":"a64dnoyvpo1q","geo_precision":"range","address":"800 S  DOUGLAS","state":"CA"},"type":"Feature","geometry":{"type":"Point","coordinates":[-118.383132,33.904313]}},{"properties":{"city":"EL SEGUNDO","zip":"90245","geo_score":0.83,"id":"a64dnp09ubdw","geo_precision":"range","address":"1900 BLK  E  IMPERIAL  HY","state":"CA"},"type":"Feature","geometry":{"type":"Point","coordinates":[-118.396105,33.9309]}},{"properties":{"city":"EL SEGUNDO","zip":"90245","geo_score":0.83,"id":"a64dnpbjkwt8","geo_precision":"range","address":"200  ARENA","state":"CA"},"type":"Feature","geometry":{"type":"Point","coordinates":[-118.412343,33.91787]}},{"properties":{"city":"EL SEGUNDO","zip":"90245","geo_score":0.852,"id":"a64dnp2u2c53","geo_precision":"range","address":"300 BLK N CONTINENTAL BLVD","state":"CA"},"type":"Feature","geometry":{"type":"Point","coordinates":[-118.390852,33.919456]}},{"properties":{"city":"EL SEGUNDO","zip":"90245","geo_score":0.891,"id":"a64dnp04re4m","geo_precision":"range","address":"200 W  SYCAMORE AVE  3","state":"CA"},"type":"Feature","geometry":{"type":"Point","coordinates":[-118.41714,33.927942]}},{"properties":{"city":"EL SEGUNDO","zip":"90245","geo_score":0.913,"id":"a64dnpcgtzi8","geo_precision":"range","address":"100  W  MAPLE AVE","state":"CA"},"type":"Feature","geometry":{"type":"Point","coordinates":[-118.415945,33.92698]}},{"properties":{"city":"EL SEGUNDO","zip":"90245","geo_score":0.913,"id":"a64dnp6l2ij5","geo_precision":"range","address":"400  W  IMPERIAL AVE","state":"CA"},"type":"Feature","geometry":{"type":"Point","coordinates":[-118.4195,33.930838]}},{"properties":{"city":"EL SEGUNDO","zip":"90245","geo_score":0.913,"id":"a64dnp65vixe","geo_precision":"range","address":"1800 E HOLLY AVE","state":"CA"},"type":"Feature","geometry":{"type":"Point","coordinates":[-118.39723,33.920877]}},{"properties":{"city":"EL SEGUNDO","zip":"90245","geo_score":0.704,"id":"a64dnpbp92kc","geo_precision":"range","address":"700 BLK   MAIN","state":"CA"},"type":"Feature","geometry":{"type":"Point","coordinates":[-118.415938,33.925056]}},{"properties":{"city":"EL SEGUNDO","zip":"90245","geo_score":0.913,"id":"a64dnpdfpcdp","geo_precision":"range","address":"700 EUCALYPTUS DR","state":"CA"},"type":"Feature","geometry":{"type":"Point","coordinates":[-118.413536,33.926032]}},{"properties":{"city":"EL SEGUNDO","zip":"90245","geo_score":0.72,"id":"a64dnpbow0c8","geo_precision":"street","address":"N SEPULVEDA/EL SEGUNDO","state":"CA"},"type":"Feature","geometry":{"type":"Point","coordinates":[-118.415911,33.916349]}},{"properties":{"city":"EL SEGUNDO","zip":"90245","geo_score":0.855,"id":"a64dnp6c2owr","geo_precision":"range","address":"500 ILLINOIS 8","state":"CA"},"type":"Feature","geometry":{"type":"Point","coordinates":[-118.398319,33.922247]}},{"properties":{"city":"EL SEGUNDO","zip":"90245","geo_score":0.704,"id":"a64dnp4vtvd1","geo_precision":"range","address":"900 BLK  MAIN","state":"CA"},"type":"Feature","geometry":{"type":"Point","coordinates":[-118.415952,33.928902]}},{"properties":{"city":"EL SEGUNDO","zip":"90245","geo_score":0.855,"id":"a64dnp71fl7o","geo_precision":"range","address":"400 ILLINOIS G","state":"CA"},"type":"Feature","geometry":{"type":"Point","coordinates":[-118.398314,33.920873]}},{"properties":{"city":"EL SEGUNDO","zip":"90245","geo_score":0.858,"id":"a64dnp1hetaj","geo_precision":"range","address":"200 BLK N  AVIATION  BLVD","state":"CA"},"type":"Feature","geometry":{"type":"Point","coordinates":[-118.378392,33.917307]}},{"properties":{"city":"EL SEGUNDO","zip":"90245","geo_score":0.855,"id":"a64dnp9lb5g4","geo_precision":"range","address":"400 BLK   E  IMPERIAL  AVE","state":"CA"},"type":"Feature","geometry":{"type":"Point","coordinates":[-118.412131,33.930852]}},{"properties":{"city":"EL SEGUNDO","zip":"90245","geo_score":0.84,"id":"a64dnp9jne8a","geo_precision":"range","address":"1900 BLK   E  GRAND  AVE","state":"CA"},"type":"Feature","geometry":{"type":"Point","coordinates":[-118.396013,33.919453]}},{"properties":{"city":"EL SEGUNDO","zip":"90245","geo_score":0.718,"id":"a64dnp0609xa","geo_precision":"street","address":"5000 N SEPULVEDA BLVD","state":"CA"},"type":"Feature","geometry":{"type":"Point","coordinates":[-118.396107,33.930878]}},{"properties":{"city":"EL SEGUNDO","zip":"90245","geo_score":0.892,"id":"a64dnp4nli2s","geo_precision":"range","address":"500N  SEPULVEDA BLVD","state":"CA"},"type":"Feature","geometry":{"type":"Point","coordinates":[-118.396261,33.922137]}},{"properties":{"city":"EL SEGUNDO","zip":"90245","geo_score":0.724,"id":"a64dnpbrpm9y","geo_precision":"range","address":"800 BLK S NASH EL SEGUNDO","state":"CA"},"type":"Feature","geometry":{"type":"Point","coordinates":[-118.388577,33.904331]}},{"properties":{"city":"EL SEGUNDO","zip":"90245","geo_score":0.778,"id":"a64dnpapn8i2","geo_precision":"range","address":"700 BLK S SEPULVEDA BLVD  EL SEGUNDO","state":"CA"},"type":"Feature","geometry":{"type":"Point","coordinates":[-118.395903,33.906658]}},{"properties":{"city":"EL SEGUNDO","zip":"90245","geo_score":0.778,"id":"a64dnpdvps2l","geo_precision":"range","address":"300 BLK W EL SEGUNDO BLVD  EL SEGUNDO","state":"CA"},"type":"Feature","geometry":{"type":"Point","coordinates":[-118.418304,33.91635]}},{"properties":{"city":"EL SEGUNDO","zip":"90245","geo_score":0.73,"id":"a64dnpct8a4g","geo_precision":"range","address":"800 BLK  S  NASH","state":"CA"},"type":"Feature","geometry":{"type":"Point","coordinates":[-118.388577,33.904331]}},{"properties":{"city":"EL SEGUNDO","zip":"90245","geo_score":0.738,"id":"a64dnp4xh92t","geo_precision":"range","address":"200 BLK  WHITING  C EL SEGUNDO","state":"CA"},"type":"Feature","geometry":{"type":"Point","coordinates":[-118.420613,33.917846]}},{"properties":{"city":"EL SEGUNDO","zip":"90245","geo_score":0.778,"id":"a64dnp6dhnzf","geo_precision":"street","address":"WHITING /EL SEGUND","state":"CA"},"type":"Feature","geometry":{"type":"Point","coordinates":[-118.420605,33.916345]}},{"properties":{"city":"EL SEGUNDO","zip":"90245","geo_score":0.744,"id":"a64dnpbqu8od","geo_precision":"street","address":"DOUGLAS  /IMPERIAL HWY","state":"CA"},"type":"Feature","geometry":{"type":"Point","coordinates":[-118.383166,33.916371]}},{"properties":{"city":"EL SEGUNDO","zip":"90245","geo_score":0.751,"id":"a64dnpe24krg","geo_precision":"range","address":"100 BLK  CENTER","state":"CA"},"type":"Feature","geometry":{"type":"Point","coordinates":[-118.40481,33.916382]}},{"properties":{"city":"EL SEGUNDO","zip":"90245","geo_score":0.73,"id":"a64dnp3fibny","geo_precision":"street","address":"IMPERIAL /AVIATION","state":"CA"},"type":"Feature","geometry":{"type":"Point","coordinates":[-118.416978,33.930844]}},{"properties":{"city":"EL SEGUNDO","zip":"90245","geo_score":0.855,"id":"a64dnp0u89du","geo_precision":"range","address":"600 BLK W IMPERIAL AVE","state":"CA"},"type":"Feature","geometry":{"type":"Point","coordinates":[-118.422247,33.930833]}},{"properties":{"city":"EL SEGUNDO","zip":"90245","geo_score":0.66,"id":"a64dnpeczqxf","geo_precision":"street","address":"220 BLK E IMPERIAL HWY","state":"CA"},"type":"Feature","geometry":{"type":"Point","coordinates":[-118.402059,33.931495]}},{"properties":{"city":"EL SEGUNDO","zip":"90245","geo_score":0.73,"id":"a64dnp04z2h2","geo_precision":"range","address":"800 BLK S NASH","state":"CA"},"type":"Feature","geometry":{"type":"Point","coordinates":[-118.388577,33.904331]}},{"properties":{"city":"EL SEGUNDO","zip":"90245","geo_score":0.704,"id":"a64dnpef34m7","geo_precision":"range","address":"500 BKL  PENN","state":"CA"},"type":"Feature","geometry":{"type":"Point","coordinates":[-118.410054,33.92223]}},{"properties":{"city":"EL SEGUNDO","zip":"90245","geo_score":0.78,"id":"a64dnp5aprjc","geo_precision":"range","address":"300 BLK  MARYLAND","state":"CA"},"type":"Feature","geometry":{"type":"Point","coordinates":[-118.406582,33.919428]}},{"properties":{"city":"EL SEGUNDO","zip":"90245","geo_score":0.816,"id":"a64dnp731bo0","geo_precision":"range","address":"900 MAIN","state":"CA"},"type":"Feature","geometry":{"type":"Point","coordinates":[-118.415952,33.928902]}},{"properties":{"city":"EL SEGUNDO","zip":"90245","geo_score":0.913,"id":"a64dnpd8twl1","geo_precision":"range","address":"500 N  SEPULVEDA BLVD","state":"CA"},"type":"Feature","geometry":{"type":"Point","coordinates":[-118.396261,33.922137]}},{"properties":{"city":"EL SEGUNDO","zip":"90245","geo_score":0.913,"id":"a64dnpd964iv","geo_precision":"range","address":"300 W  EL SEGUNDO BLVD","state":"CA"},"type":"Feature","geometry":{"type":"Point","coordinates":[-118.418304,33.91635]}},{"properties":{"city":"EL SEGUNDO","zip":"90245","geo_score":0.913,"id":"a64dnp048p5n","geo_precision":"range","address":"100 S  SEPULVEDA  BLVD","state":"CA"},"type":"Feature","geometry":{"type":"Point","coordinates":[-118.395969,33.9164]}},{"properties":{"city":"EL SEGUNDO","zip":"90245","geo_score":0.913,"id":"a64dnoynf8sq","geo_precision":"range","address":"1100   E  IMPERIAL  AVE","state":"CA"},"type":"Feature","geometry":{"type":"Point","coordinates":[-118.40486,33.930865]}},{"properties":{"city":"EL SEGUNDO","zip":"90245","geo_score":0.78,"id":"a64dnpalk7gl","geo_precision":"range","address":"500 BLK  STANDARD","state":"CA"},"type":"Feature","geometry":{"type":"Point","coordinates":[-118.414721,33.922219]}},{"properties":{"city":"EL SEGUNDO","zip":"90245","geo_score":0.913,"id":"a64dnpan1ffu","geo_precision":"range","address":"800  N  SEPULVEDA BLVD","state":"CA"},"type":"Feature","geometry":{"type":"Point","coordinates":[-118.396278,33.927016]}},{"properties":{"city":"EL SEGUNDO","zip":"90245","geo_score":0.913,"id":"a64dnp3rh457","geo_precision":"range","address":"300 W  IMPERIAL  AVE","state":"CA"},"type":"Feature","geometry":{"type":"Point","coordinates":[-118.418089,33.93084]}},{"properties":{"city":"EL SEGUNDO","zip":"90245","geo_score":0.702,"id":"a64dnpduumgf","geo_precision":"street","address":"ACACIA   /EUCALYPTU","state":"CA"},"type":"Feature","geometry":{"type":"Point","coordinates":[-118.414941,33.929811]}},{"properties":{"city":"EL SEGUNDO","zip":"90245","geo_score":0.78,"id":"a64dnp22xags","geo_precision":"range","address":"200 BLK  N  DOUGLAS","state":"CA"},"type":"Feature","geometry":{"type":"Point","coordinates":[-118.383206,33.918196]}},{"properties":{"city":"EL SEGUNDO","zip":"90245","geo_score":0.913,"id":"a64dnpacaxi3","geo_precision":"range","address":"800 S  SEPULVEDA  BLVD","state":"CA"},"type":"Feature","geometry":{"type":"Point","coordinates":[-118.39615,33.904798]}},{"properties":{"city":"EL SEGUNDO","zip":"90245","geo_score":0.78,"id":"a64dnoy4k5hx","geo_precision":"range","address":"400 BLK RICHMOND","state":"CA"},"type":"Feature","geometry":{"type":"Point","coordinates":[-118.417153,33.920825]}},{"properties":{"city":"EL SEGUNDO","zip":"90245","geo_score":0.913,"id":"a64dnpd2cgaj","geo_precision":"range","address":"1000 E  ACACIA  AVE","state":"CA"},"type":"Feature","geometry":{"type":"Point","coordinates":[-118.407046,33.929987]}},{"properties":{"city":"EL SEGUNDO","zip":"90245","geo_score":0.913,"id":"a64dnp2xql77","geo_precision":"range","address":"1000 E  ACACIA  AVE","state":"CA"},"type":"Feature","geometry":{"type":"Point","coordinates":[-118.407046,33.929987]}},{"properties":{"city":"EL SEGUNDO","zip":"90245","geo_score":0.913,"id":"a64dnpd5rt4l","geo_precision":"range","address":"1600 E  FRANKLIN AVE","state":"CA"},"type":"Feature","geometry":{"type":"Point","coordinates":[-118.399568,33.917904]}},{"properties":{"city":"EL SEGUNDO","zip":"90245","geo_score":0.913,"id":"a64dnoz37wdc","geo_precision":"range","address":"2100 PARK  PL","state":"CA"},"type":"Feature","geometry":{"type":"Point","coordinates":[-118.38708,33.905058]}},{"properties":{"city":"EL SEGUNDO","zip":"90245","geo_score":0.86,"id":"a64dnp8wi1pq","geo_precision":"range","address":"1900 BK  E  GRAND  AVE","state":"CA"},"type":"Feature","geometry":{"type":"Point","coordinates":[-118.396013,33.919453]}},{"properties":{"city":"EL SEGUNDO","zip":"90245","geo_score":0.767,"id":"a64dnp1b05gw","geo_precision":"range","address":"300 BLK       CONCORD","state":"CA"},"type":"Feature","geometry":{"type":"Point","coordinates":[-118.418317,33.918969]}},{"properties":{"city":"EL SEGUNDO","zip":"90245","geo_score":0.913,"id":"a64dnp9wp4mg","geo_precision":"range","address":"700 S  SEPULVEDA BLVD","state":"CA"},"type":"Feature","geometry":{"type":"Point","coordinates":[-118.395903,33.906658]}},{"properties":{"city":"EL SEGUNDO","zip":"90245","geo_score":0.852,"id":"a64dnp3si3dw","geo_precision":"range","address":"300 BLK  N  CONTINENTAL BLVD","state":"CA"},"type":"Feature","geometry":{"type":"Point","coordinates":[-118.390852,33.919456]}},{"properties":{"city":"EL SEGUNDO","zip":"90245","geo_score":0.913,"id":"a64dnp6j0ky8","geo_precision":"range","address":"200  W  IMPERIAL AVE","state":"CA"},"type":"Feature","geometry":{"type":"Point","coordinates":[-118.416978,33.930844]}},{"properties":{"city":"EL SEGUNDO","zip":"90245","geo_score":0.871,"id":"a64dnp0i2xeq","geo_precision":"range","address":"2000 E  PARK  PL","state":"CA"},"type":"Feature","geometry":{"type":"Point","coordinates":[-118.388577,33.904331]}},{"properties":{"city":"EL SEGUNDO","zip":"90245","geo_score":0.895,"id":"a64dnp5kxw1q","geo_precision":"range","address":"550 N  CONTINENTAL BLVD","state":"CA"},"type":"Feature","geometry":{"type":"Point","coordinates":[-118.392421,33.922915]}},{"properties":{"city":"EL SEGUNDO","zip":"90245","geo_score":0.73,"id":"a64dnp9653j8","geo_precision":"street","address":"AVIATION /IMPERIAL BLVD","state":"CA"},"type":"Feature","geometry":{"type":"Point","coordinates":[-118.378697,33.904782]}},{"properties":{"city":"EL SEGUNDO","zip":"90245","geo_score":0.913,"id":"a64dnoyk5s8h","geo_precision":"range","address":"300 W  EL SEGUNDO BLVD","state":"CA"},"type":"Feature","geometry":{"type":"Point","coordinates":[-118.418304,33.91635]}},{"properties":{"city":"EL SEGUNDO","zip":"90245","geo_score":0.913,"id":"a64dnoyt075y","geo_precision":"range","address":"900 CEDAR ST","state":"CA"},"type":"Feature","geometry":{"type":"Point","coordinates":[-118.416965,33.9289]}},{"properties":{"city":"EL SEGUNDO","zip":"90245","geo_score":0.913,"id":"a64dnpc5g8s0","geo_precision":"range","address":"100 W  GRAND AVE","state":"CA"},"type":"Feature","geometry":{"type":"Point","coordinates":[-118.415933,33.918977]}},{"properties":{"city":"EL SEGUNDO","zip":"90245","geo_score":0.862,"id":"a64dnp2phrjk","geo_precision":"range","address":"2100 BLK   E  EL SEGUNDO BLVD","state":"CA"},"type":"Feature","geometry":{"type":"Point","coordinates":[-118.390854,33.916345]}},{"properties":{"city":"EL SEGUNDO","zip":"90245","geo_score":0.83,"id":"a64dnoy5t50h","geo_precision":"range","address":"800 S  NASH","state":"CA"},"type":"Feature","geometry":{"type":"Point","coordinates":[-118.388577,33.904331]}},{"properties":{"city":"EL SEGUNDO","zip":"90245","geo_score":0.862,"id":"a64dnpbqqulk","geo_precision":"range","address":"500 BLK  N  SEPULVEDA BLVD","state":"CA"},"type":"Feature","geometry":{"type":"Point","coordinates":[-118.396261,33.922137]}},{"properties":{"city":"EL SEGUNDO","zip":"90245","geo_score":0.503,"id":"a64dnpb8b5cw","geo_precision":"street","address":"VERMONT/105","state":"CA"},"type":"Feature","geometry":{"type":"Point","coordinates":[-118.291805,33.916425]}},{"properties":{"city":"EL SEGUNDO","zip":"90245","geo_score":0.78,"id":"a64dnp96zfxf","geo_precision":"range","address":"500 BLK  S  DOUGLAS","state":"CA"},"type":"Feature","geometry":{"type":"Point","coordinates":[-118.38314,33.909451]}},{"properties":{"city":"EL SEGUNDO","zip":"90245","geo_score":0.751,"id":"a64dnp5ufykp","geo_precision":"street","address":"N  SEPULVEDA/MARIPOSA   BLVD","state":"CA"},"type":"Feature","geometry":{"type":"Point","coordinates":[-118.395992,33.917983]}},{"properties":{"city":"EL SEGUNDO","zip":"90245","geo_score":0.84,"id":"a64dnp49gnc3","geo_precision":"range","address":"900 PEPPER  A","state":"CA"},"type":"Feature","geometry":{"type":"Point","coordinates":[-118.414936,33.928906]}},{"properties":{"city":"EL SEGUNDO","zip":"90245","geo_score":0.913,"id":"a64dnpbx3wx5","geo_precision":"range","address":"900 CALIFORNIA ST","state":"CA"},"type":"Feature","geometry":{"type":"Point","coordinates":[-118.402056,33.92905]}},{"properties":{"city":"EL SEGUNDO","zip":"90245","geo_score":0.913,"id":"a64dnp1s1mlk","geo_precision":"range","address":"300 E  EL SEGUNDO BLVD","state":"CA"},"type":"Feature","geometry":{"type":"Point","coordinates":[-118.413506,33.916354]}},{"properties":{"city":"EL SEGUNDO","zip":"90245","geo_score":0.503,"id":"a64dnoy7nls9","geo_precision":"street","address":"VERMONT/105","state":"CA"},"type":"Feature","geometry":{"type":"Point","coordinates":[-118.291805,33.916425]}},{"properties":{"city":"EL SEGUNDO","zip":"90245","geo_score":0.913,"id":"a64dnp3mu6mi","geo_precision":"range","address":"300 W FRANKLIN AVE","state":"CA"},"type":"Feature","geometry":{"type":"Point","coordinates":[-118.418312,33.917851]}},{"properties":{"city":"EL SEGUNDO","zip":"90245","geo_score":0.913,"id":"a64dnp3zg42b","geo_precision":"range","address":"101 S SEPULVEDA  BLVD","state":"CA"},"type":"Feature","geometry":{"type":"Point","coordinates":[-118.395969,33.9164]}},{"properties":{"city":"EL SEGUNDO","zip":"90245","geo_score":0.913,"id":"a64dnpa2p9g7","geo_precision":"range","address":"2200  E  IMPERIAL HWY","state":"CA"},"type":"Feature","geometry":{"type":"Point","coordinates":[-118.387474,33.930884]}},{"properties":{"city":"EL SEGUNDO","zip":"90245","geo_score":0.823,"id":"a64dnp828afx","geo_precision":"range","address":"300 VISTA DEL MAR BLVD","state":"CA"},"type":"Feature","geometry":{"type":"Point","coordinates":[-118.42056,33.905828]}},{"properties":{"city":"EL SEGUNDO","zip":"90245","geo_score":0.83,"id":"a64dnp142oxv","geo_precision":"range","address":"800 S NASH","state":"CA"},"type":"Feature","geometry":{"type":"Point","coordinates":[-118.388577,33.904331]}},{"properties":{"city":"EL SEGUNDO","zip":"90245","geo_score":0.84,"id":"a64dnp994y56","geo_precision":"range","address":"500 CENTER","state":"CA"},"type":"Feature","geometry":{"type":"Point","coordinates":[-118.404837,33.922239]}},{"properties":{"city":"EL SEGUNDO","zip":"90245","geo_score":0.891,"id":"a64dnp087viw","geo_precision":"range","address":"200 E  IMPERIAL AVE  C","state":"CA"},"type":"Feature","geometry":{"type":"Point","coordinates":[-118.414947,33.930848]}},{"properties":{"city":"EL SEGUNDO","zip":"90245","geo_score":0.848,"id":"a64dnp90ixz5","geo_precision":"range","address":"700 SHELDON","state":"CA"},"type":"Feature","geometry":{"type":"Point","coordinates":[-118.41121,33.925063]}},{"properties":{"city":"EL SEGUNDO","zip":"90245","geo_score":0.892,"id":"a64dnp44k0gz","geo_precision":"range","address":"200N  SEPULVEDA  BLVD","state":"CA"},"type":"Feature","geometry":{"type":"Point","coordinates":[-118.395954,33.914816]}},{"properties":{"city":"EL SEGUNDO","zip":"90245","geo_score":0.913,"id":"a64dnp48kdje","geo_precision":"range","address":"400 S  SEPULVEDA  BLVD","state":"CA"},"type":"Feature","geometry":{"type":"Point","coordinates":[-118.395916,33.91159]}},{"properties":{"city":"EL SEGUNDO","zip":"90245","geo_score":0.562,"id":"a64dnpc93a1c","geo_precision":"street","address":"11000 BLK  AVIATION BLVD","state":"CA"},"type":"Feature","geometry":{"type":"Point","coordinates":[-118.378658,33.901986]}},{"properties":{"city":"EL SEGUNDO","zip":"90245","geo_score":0.913,"id":"a64dnpavs78l","geo_precision":"range","address":"700 S  SEPULVEDA  BLVD","state":"CA"},"type":"Feature","geometry":{"type":"Point","coordinates":[-118.395903,33.906658]}},{"properties":{"city":"EL SEGUNDO","zip":"90245","geo_score":0.913,"id":"a64dnp6at2te","geo_precision":"range","address":"2200 E  IMPERIAL HWY","state":"CA"},"type":"Feature","geometry":{"type":"Point","coordinates":[-118.387474,33.930884]}},{"properties":{"city":"EL SEGUNDO","zip":"90245","geo_score":0.848,"id":"a64dnp6qieat","geo_precision":"range","address":"100 SHELDON","state":"CA"},"type":"Feature","geometry":{"type":"Point","coordinates":[-118.411182,33.916363]}},{"properties":{"city":"EL SEGUNDO","zip":"90245","geo_score":0.816,"id":"a64dnp2nypef","geo_precision":"street","address":"700  S  ALLIED  WAY","state":"CA"},"type":"Feature","geometry":{"type":"Point","coordinates":[-118.391523,33.907244]}},{"properties":{"city":"EL SEGUNDO","zip":"90245","geo_score":0.913,"id":"a64dnoyz3e19","geo_precision":"range","address":"100 E  WALNUT AVE","state":"CA"},"type":"Feature","geometry":{"type":"Point","coordinates":[-118.415952,33.928902]}},{"properties":{"city":"EL SEGUNDO","zip":"90245","geo_score":0.84,"id":"a64dnpczke8g","geo_precision":"range","address":"100 CENTER","state":"CA"},"type":"Feature","geometry":{"type":"Point","coordinates":[-118.40481,33.916382]}},{"properties":{"city":"EL SEGUNDO","zip":"90245","geo_score":0.862,"id":"a64dnpcj8nrl","geo_precision":"range","address":"2200 BLK  E  EL SEGUNDO BLVD","state":"CA"},"type":"Feature","geometry":{"type":"Point","coordinates":[-118.387413,33.916336]}},{"properties":{"city":"EL SEGUNDO","zip":"90245","geo_score":0.78,"id":"a64dnp3ef2mv","geo_precision":"range","address":"100 BLK   MARYLAND","state":"CA"},"type":"Feature","geometry":{"type":"Point","coordinates":[-118.406568,33.916378]}},{"properties":{"city":"EL SEGUNDO","zip":"90245","geo_score":0.676,"id":"a64dnp7xwwbc","geo_precision":"street","address":"200 E  PARK  PL","state":"CA"},"type":"Feature","geometry":{"type":"Point","coordinates":[-118.388577,33.904331]}},{"properties":{"city":"EL SEGUNDO","zip":"90245","geo_score":0.689,"id":"a64dnpb4hh13","geo_precision":"street","address":"ATWOOD/NASH","state":"CA"},"type":"Feature","geometry":{"type":"Point","coordinates":[-118.387423,33.919779]}},{"properties":{"city":"EL SEGUNDO","zip":"90245","geo_score":0.852,"id":"a64dnp7zh29j","geo_precision":"range","address":"500 BLK  N  CONTINENTAL  BLVD","state":"CA"},"type":"Feature","geometry":{"type":"Point","coordinates":[-118.391704,33.92237]}},{"properties":{"city":"EL SEGUNDO","zip":"90245","geo_score":0.816,"id":"a64dnp8edqne","geo_precision":"range","address":"100 PENN","state":"CA"},"type":"Feature","geometry":{"type":"Point","coordinates":[-118.410028,33.916367]}},{"properties":{"city":"EL SEGUNDO","zip":"90245","geo_score":0.913,"id":"a64dnp0siwtn","geo_precision":"range","address":"700    S  SEPULVEDA BLVD","state":"CA"},"type":"Feature","geometry":{"type":"Point","coordinates":[-118.395903,33.906658]}},{"properties":{"city":"EL SEGUNDO","zip":"90245","geo_score":0.855,"id":"a64dnpd6nb4t","geo_precision":"range","address":"1900  BLK E  IMPERIAL HWY","state":"CA"},"type":"Feature","geometry":{"type":"Point","coordinates":[-118.396105,33.9309]}},{"properties":{"city":"EL SEGUNDO","zip":"90245","geo_score":0.689,"id":"a64dnpbpkg28","geo_precision":"street","address":"NASH/MAPLE","state":"CA"},"type":"Feature","geometry":{"type":"Point","coordinates":[-118.387423,33.919779]}},{"properties":{"city":"EL SEGUNDO","zip":"90245","geo_score":0.889,"id":"a64dnp5qy5qk","geo_precision":"range","address":"500E FRANKLIN AVE","state":"CA"},"type":"Feature","geometry":{"type":"Point","coordinates":[-118.420613,33.917846]}},{"properties":{"city":"EL SEGUNDO","zip":"90245","geo_score":0.913,"id":"a64dnpbzwl6l","geo_precision":"range","address":"900 CALIFORNIA ST","state":"CA"},"type":"Feature","geometry":{"type":"Point","coordinates":[-118.402056,33.92905]}},{"properties":{"city":"EL SEGUNDO","zip":"90245","geo_score":0.913,"id":"a64dnp3ir1ll","geo_precision":"range","address":"100  W  IMPERIAL AVE","state":"CA"},"type":"Feature","geometry":{"type":"Point","coordinates":[-118.415962,33.930845]}},{"properties":{"city":"EL SEGUNDO","zip":"90245","geo_score":0.913,"id":"a64dnp3b7yk7","geo_precision":"range","address":"500 W  SYCAMORE AVE","state":"CA"},"type":"Feature","geometry":{"type":"Point","coordinates":[-118.420892,33.92793]}},{"properties":{"city":"EL SEGUNDO","zip":"90245","geo_score":0.913,"id":"a64dnp61s9wm","geo_precision":"range","address":"300 E  MARIPOSA AVE","state":"CA"},"type":"Feature","geometry":{"type":"Point","coordinates":[-118.413536,33.923591]}},{"properties":{"city":"EL SEGUNDO","zip":"90245","geo_score":0.83,"id":"a64dnpdzknyl","geo_precision":"range","address":"800 S  NASH","state":"CA"},"type":"Feature","geometry":{"type":"Point","coordinates":[-118.388577,33.904331]}},{"properties":{"city":"EL SEGUNDO","zip":"90245","geo_score":0.913,"id":"a64dnp4xs6en","geo_precision":"range","address":"600 ILLINOIS CT","state":"CA"},"type":"Feature","geometry":{"type":"Point","coordinates":[-118.397885,33.923614]}},{"properties":{"city":"EL SEGUNDO","zip":"90245","geo_score":0.855,"id":"a64dnp2s73dm","geo_precision":"range","address":"400  ILLINOIS","state":"CA"},"type":"Feature","geometry":{"type":"Point","coordinates":[-118.398314,33.920873]}},{"properties":{"city":"EL SEGUNDO","zip":"90245","geo_score":0.913,"id":"a64dnp5ad24q","geo_precision":"range","address":"1112   E  IMPERIAL AVE","state":"CA"},"type":"Feature","geometry":{"type":"Point","coordinates":[-118.404576,33.930866]}},{"properties":{"city":"EL SEGUNDO","zip":"90245","geo_score":0.913,"id":"a64dnp8zyjgl","geo_precision":"range","address":"100  EUCALYPTUS DR","state":"CA"},"type":"Feature","geometry":{"type":"Point","coordinates":[-118.413506,33.916354]}},{"properties":{"city":"EL SEGUNDO","zip":"90245","geo_score":0.86,"id":"a64dnp15i5kj","geo_precision":"range","address":"900  HILLCREST","state":"CA"},"type":"Feature","geometry":{"type":"Point","coordinates":[-118.425034,33.928883]}},{"properties":{"city":"EL SEGUNDO","zip":"90245","geo_score":0.913,"id":"a64dnp31gy3w","geo_precision":"range","address":"700 N  SEPULVEDA BLVD","state":"CA"},"type":"Feature","geometry":{"type":"Point","coordinates":[-118.396267,33.925092]}},{"properties":{"city":"EL SEGUNDO","zip":"90245","geo_score":0.816,"id":"a64dnpaxu2u7","geo_precision":"range","address":"900 MAIN","state":"CA"},"type":"Feature","geometry":{"type":"Point","coordinates":[-118.415952,33.928902]}},{"properties":{"city":"EL SEGUNDO","zip":"90245","geo_score":0.913,"id":"a64dnp1qr24f","geo_precision":"range","address":"2200   E  IMPERIAL  HWY","state":"CA"},"type":"Feature","geometry":{"type":"Point","coordinates":[-118.387474,33.930884]}},{"properties":{"city":"EL SEGUNDO","zip":"90245","geo_score":0.778,"id":"a64dnp4k0slk","geo_precision":"street","address":"CONCORD  /EL SEGUND","state":"CA"},"type":"Feature","geometry":{"type":"Point","coordinates":[-118.418305,33.916537]}},{"properties":{"city":"EL SEGUNDO","zip":"90245","geo_score":0.913,"id":"a64dnp9yi9v3","geo_precision":"range","address":"900 MCCARTHY CT","state":"CA"},"type":"Feature","geometry":{"type":"Point","coordinates":[-118.408728,33.928917]}},{"properties":{"city":"EL SEGUNDO","zip":"90245","geo_score":0.751,"id":"a64dnpbbhaj6","geo_precision":"street","address":"SELBY/WALNUT","state":"CA"},"type":"Feature","geometry":{"type":"Point","coordinates":[-118.394157,33.929051]}},{"properties":{"city":"EL SEGUNDO","zip":"90245","geo_score":0.913,"id":"a64dnp97bsdr","geo_precision":"range","address":"300 W  EL SEGUNDO BLVD","state":"CA"},"type":"Feature","geometry":{"type":"Point","coordinates":[-118.418304,33.91635]}},{"properties":{"city":"EL SEGUNDO","zip":"90245","geo_score":0.913,"id":"a64dnp6t51gq","geo_precision":"range","address":"2500 E  EL SEGUNDO BLVD","state":"CA"},"type":"Feature","geometry":{"type":"Point","coordinates":[-118.376527,33.916307]}},{"properties":{"city":"EL SEGUNDO","zip":"90245","geo_score":0.913,"id":"a64dnp7a0kjo","geo_precision":"range","address":"100 W  WALNUT AVE","state":"CA"},"type":"Feature","geometry":{"type":"Point","coordinates":[-118.415952,33.928902]}},{"properties":{"city":"EL SEGUNDO","zip":"90245","geo_score":0.816,"id":"a64dnp8c8l2z","geo_precision":"street","address":"2300 E  IMPERIAL HWY","state":"CA"},"type":"Feature","geometry":{"type":"Point","coordinates":[-118.383153,33.930887]}},{"properties":{"city":"EL SEGUNDO","zip":"90245","geo_score":0.778,"id":"a64dnpao6n9e","geo_precision":"street","address":"CONCORD/GRAND AV","state":"CA"},"type":"Feature","geometry":{"type":"Point","coordinates":[-118.418305,33.916537]}},{"properties":{"city":"EL SEGUNDO","zip":"90245","geo_score":0.873,"id":"a64dnoz4wbeb","geo_precision":"zip","address":"UNKNOWN","state":"CA"},"type":"Feature","geometry":{"type":"Point","coordinates":[-118.378687,33.922236]}},{"properties":{"city":"EL SEGUNDO","zip":"90245","geo_score":0.913,"id":"a64dnp1b5s3j","geo_precision":"range","address":"1900  E  GRAND AVE","state":"CA"},"type":"Feature","geometry":{"type":"Point","coordinates":[-118.396013,33.919453]}},{"properties":{"city":"EL SEGUNDO","zip":"90245","geo_score":0.891,"id":"a64dnp62cgt6","geo_precision":"range","address":"700  EUCALYPTUS  DR   1","state":"CA"},"type":"Feature","geometry":{"type":"Point","coordinates":[-118.413536,33.926032]}},{"properties":{"city":"EL SEGUNDO","zip":"90245","geo_score":0.913,"id":"a64dnpedvbdz","geo_precision":"range","address":"707 E  PINE AVE","state":"CA"},"type":"Feature","geometry":{"type":"Point","coordinates":[-118.408844,33.922231]}},{"properties":{"city":"EL SEGUNDO","zip":"90245","geo_score":0.855,"id":"a64dnpbyg0hm","geo_precision":"range","address":"100 RICHMOND","state":"CA"},"type":"Feature","geometry":{"type":"Point","coordinates":[-118.417131,33.916356]}},{"properties":{"city":"EL SEGUNDO","zip":"90245","geo_score":0.913,"id":"a64dnozubac4","geo_precision":"range","address":"100  E  OAK  AVE","state":"CA"},"type":"Feature","geometry":{"type":"Point","coordinates":[-118.415945,33.92602]}},{"properties":{"city":"EL SEGUNDO","zip":"90245","geo_score":0.83,"id":"a64dnoz45u1g","geo_precision":"range","address":"800    S  NASH","state":"CA"},"type":"Feature","geometry":{"type":"Point","coordinates":[-118.388577,33.904331]}},{"properties":{"city":"EL SEGUNDO","zip":"90245","geo_score":0.816,"id":"a64dnp2v6qm5","geo_precision":"range","address":"700  MAIN","state":"CA"},"type":"Feature","geometry":{"type":"Point","coordinates":[-118.415938,33.925056]}},{"properties":{"city":"EL SEGUNDO","zip":"90245","geo_score":0.855,"id":"a64dnp3ksgoa","geo_precision":"range","address":"400 ILLINOIS","state":"CA"},"type":"Feature","geometry":{"type":"Point","coordinates":[-118.398314,33.920873]}},{"properties":{"city":"EL SEGUNDO","zip":"90245","geo_score":0.913,"id":"a64dnoyczu6x","geo_precision":"range","address":"200 W  OAK  AVE","state":"CA"},"type":"Feature","geometry":{"type":"Point","coordinates":[-118.417121,33.926016]}},{"properties":{"city":"EL SEGUNDO","zip":"90245","geo_score":0.848,"id":"a64dnozyibda","geo_precision":"range","address":"300  WHITING","state":"CA"},"type":"Feature","geometry":{"type":"Point","coordinates":[-118.420622,33.918886]}},{"properties":{"city":"EL SEGUNDO","zip":"90245","geo_score":0.913,"id":"a64dnp3ho2v8","geo_precision":"range","address":"1200  E  WALNUT AVE","state":"CA"},"type":"Feature","geometry":{"type":"Point","coordinates":[-118.403935,33.929051]}},{"properties":{"city":"EL SEGUNDO","zip":"90245","geo_score":0.913,"id":"a64dnpdd4dwv","geo_precision":"range","address":"2200 E  IMPERIAL HWY","state":"CA"},"type":"Feature","geometry":{"type":"Point","coordinates":[-118.387474,33.930884]}},{"properties":{"city":"EL SEGUNDO","zip":"90245","geo_score":0.913,"id":"a64dnp3h8c5v","geo_precision":"range","address":"300  W  GRAND AVE","state":"CA"},"type":"Feature","geometry":{"type":"Point","coordinates":[-118.418317,33.918969]}},{"properties":{"city":"EL SEGUNDO","zip":"90245","geo_score":0.789,"id":"a64dnpbws34m","geo_precision":"street","address":"700 S  ALLIED WAY  A","state":"CA"},"type":"Feature","geometry":{"type":"Point","coordinates":[-118.391523,33.907244]}},{"properties":{"city":"EL SEGUNDO","zip":"90245","geo_score":0.787,"id":"a64dnp8iqof0","geo_precision":"street","address":"ILLINOIS /MARIPOSA","state":"CA"},"type":"Feature","geometry":{"type":"Point","coordinates":[-118.398319,33.922247]}},{"properties":{"city":"EL SEGUNDO","zip":"90245","geo_score":0.913,"id":"a64dnpawrfni","geo_precision":"range","address":"500 W  IMPERIAL AVE","state":"CA"},"type":"Feature","geometry":{"type":"Point","coordinates":[-118.420735,33.930837]}},{"properties":{"city":"EL SEGUNDO","zip":"90245","geo_score":0.913,"id":"a64dnp12oeo8","geo_precision":"range","address":"2100  E  GRAND AVE","state":"CA"},"type":"Feature","geometry":{"type":"Point","coordinates":[-118.390852,33.919456]}},{"properties":{"city":"EL SEGUNDO","zip":"90245","geo_score":0.913,"id":"a64dnp71aadn","geo_precision":"range","address":"1700 E  WALNUT AVE","state":"CA"},"type":"Feature","geometry":{"type":"Point","coordinates":[-118.398093,33.929058]}},{"properties":{"city":"EL SEGUNDO","zip":"90245","geo_score":0.913,"id":"a64dnp20j1jv","geo_precision":"range","address":"2000 E  MAPLE AVE","state":"CA"},"type":"Feature","geometry":{"type":"Point","coordinates":[-118.392707,33.926919]}},{"properties":{"city":"EL SEGUNDO","zip":"90245","geo_score":0.913,"id":"a64dnpd7dcnl","geo_precision":"range","address":"500 E  WALNUT  AVE","state":"CA"},"type":"Feature","geometry":{"type":"Point","coordinates":[-118.411221,33.928915]}},{"properties":{"city":"EL SEGUNDO","zip":"90245","geo_score":0.816,"id":"a64dnpbolek3","geo_precision":"range","address":"100 MAIN","state":"CA"},"type":"Feature","geometry":{"type":"Point","coordinates":[-118.415911,33.916349]}},{"properties":{"city":"EL SEGUNDO","zip":"90245","geo_score":0.84,"id":"a64dnpc2i5c1","geo_precision":"range","address":"400 SIERRA","state":"CA"},"type":"Feature","geometry":{"type":"Point","coordinates":[-118.408897,33.920848]}},{"properties":{"city":"EL SEGUNDO","zip":"90245","geo_score":0.913,"id":"a64dnp66urf8","geo_precision":"range","address":"2200 E  IMPERIAL HWY","state":"CA"},"type":"Feature","geometry":{"type":"Point","coordinates":[-118.387474,33.930884]}},{"properties":{"city":"EL SEGUNDO","zip":"90245","geo_score":0.679,"id":"a64dnp45w5rt","geo_precision":"range","address":"500 LOMA VISTA","state":"CA"},"type":"Feature","geometry":{"type":"Point","coordinates":[-118.396108,33.857714]}},{"properties":{"city":"EL SEGUNDO","zip":"90245","geo_score":0.913,"id":"a64dnp2vgmvq","geo_precision":"range","address":"600 W  FRANKLIN AVE","state":"CA"},"type":"Feature","geometry":{"type":"Point","coordinates":[-118.42172,33.917843]}},{"properties":{"city":"EL SEGUNDO","zip":"90245","geo_score":0.913,"id":"a64dnp42g6fi","geo_precision":"range","address":"300 W  EL SEGUNDO  BLVD","state":"CA"},"type":"Feature","geometry":{"type":"Point","coordinates":[-118.418304,33.91635]}},{"properties":{"city":"EL SEGUNDO","zip":"90245","geo_score":0.913,"id":"a64dnp5bwnal","geo_precision":"range","address":"500 N  SEPULVEDA BLVD","state":"CA"},"type":"Feature","geometry":{"type":"Point","coordinates":[-118.396261,33.922137]}},{"properties":{"city":"EL SEGUNDO","zip":"90245","geo_score":0.913,"id":"a64dnpczb0fj","geo_precision":"range","address":"800 MCCARTHY CT","state":"CA"},"type":"Feature","geometry":{"type":"Point","coordinates":[-118.408607,33.927779]}},{"properties":{"city":"EL SEGUNDO","zip":"90245","geo_score":0.892,"id":"a64dnp6wexpj","geo_precision":"range","address":"300 EL SEGUNDO BLVD","state":"CA"},"type":"Feature","geometry":{"type":"Point","coordinates":[-118.418304,33.91635]}},{"properties":{"city":"EL SEGUNDO","zip":"90245","geo_score":0.84,"id":"a64dnp9y3bvg","geo_precision":"range","address":"500 CENTER","state":"CA"},"type":"Feature","geometry":{"type":"Point","coordinates":[-118.404837,33.922239]}},{"properties":{"city":"EL SEGUNDO","zip":"90245","geo_score":0.855,"id":"a64dnp62pshk","geo_precision":"range","address":"400  STANDARD","state":"CA"},"type":"Feature","geometry":{"type":"Point","coordinates":[-118.414717,33.920829]}},{"properties":{"city":"EL SEGUNDO","zip":"90245","geo_score":0.84,"id":"a64dnp8dk4ke","geo_precision":"range","address":"800  PEPPER","state":"CA"},"type":"Feature","geometry":{"type":"Point","coordinates":[-118.414934,33.926985]}},{"properties":{"city":"EL SEGUNDO","zip":"90245","geo_score":0.913,"id":"a64dnp2i6bao","geo_precision":"range","address":"900 EUCALYPTUS  DR","state":"CA"},"type":"Feature","geometry":{"type":"Point","coordinates":[-118.41355,33.928909]}},{"properties":{"city":"EL SEGUNDO","zip":"90245","geo_score":0.816,"id":"a64dnpdty3bv","geo_precision":"range","address":"600 PENN","state":"CA"},"type":"Feature","geometry":{"type":"Point","coordinates":[-118.409719,33.923598]}},{"properties":{"city":"EL SEGUNDO","zip":"90245","geo_score":0.913,"id":"a64dnpckgqnr","geo_precision":"range","address":"500 N SEPULVEDA BLVD","state":"CA"},"type":"Feature","geometry":{"type":"Point","coordinates":[-118.396261,33.922137]}},{"properties":{"city":"EL SEGUNDO","zip":"90245","geo_score":0.791,"id":"a64dnpc0r6sw","geo_precision":"range","address":"900 BLK HILLCREST","state":"CA"},"type":"Feature","geometry":{"type":"Point","coordinates":[-118.425034,33.928883]}},{"properties":{"city":"EL SEGUNDO","zip":"90245","geo_score":0.913,"id":"a64dnpc5r25m","geo_precision":"range","address":"1800   E  WALNUT AVE","state":"CA"},"type":"Feature","geometry":{"type":"Point","coordinates":[-118.397333,33.92906]}},{"properties":{"city":"EL SEGUNDO","zip":"90245","geo_score":0.83,"id":"a64dnpd2pfqd","geo_precision":"range","address":"800 S  NASH","state":"CA"},"type":"Feature","geometry":{"type":"Point","coordinates":[-118.388577,33.904331]}},{"properties":{"city":"EL SEGUNDO","zip":"90245","geo_score":0.73,"id":"a64dnp5w1q0p","geo_precision":"street","address":"CALIFORNI/IMPERIAL","state":"CA"},"type":"Feature","geometry":{"type":"Point","coordinates":[-118.416978,33.930844]}},{"properties":{"city":"EL SEGUNDO","zip":"90245","geo_score":0.913,"id":"a64dnozdgw1l","geo_precision":"range","address":"500 N  SEPULVEDA   BLVD","state":"CA"},"type":"Feature","geometry":{"type":"Point","coordinates":[-118.396261,33.922137]}},{"properties":{"city":"EL SEGUNDO","zip":"90245","geo_score":0.84,"id":"a64dnpehl5dj","geo_precision":"range","address":"400 BLK  E  GRAND AVE","state":"CA"},"type":"Feature","geometry":{"type":"Point","coordinates":[-118.41235,33.919405]}},{"properties":{"city":"EL SEGUNDO","zip":"90245","geo_score":0.855,"id":"a64dnp6w6dko","geo_precision":"range","address":"400 BLK W IMPERIAL AVE","state":"CA"},"type":"Feature","geometry":{"type":"Point","coordinates":[-118.4195,33.930838]}},{"properties":{"city":"EL SEGUNDO","zip":"90245","geo_score":0.73,"id":"a64dnp6ywrsp","geo_precision":"street","address":"CALIFORNI/IMPERIAL","state":"CA"},"type":"Feature","geometry":{"type":"Point","coordinates":[-118.416978,33.930844]}},{"properties":{"city":"EL SEGUNDO","zip":"90245","geo_score":0.913,"id":"a64dnp1qbzft","geo_precision":"range","address":"400 S  SEPULVEDA BLVD","state":"CA"},"type":"Feature","geometry":{"type":"Point","coordinates":[-118.395916,33.91159]}},{"properties":{"city":"EL SEGUNDO","zip":"90245","geo_score":0.855,"id":"a64dnp304etv","geo_precision":"range","address":"200 BLK  E  IMPERIAL AVE","state":"CA"},"type":"Feature","geometry":{"type":"Point","coordinates":[-118.414947,33.930848]}},{"properties":{"city":"EL SEGUNDO","zip":"90245","geo_score":0.816,"id":"a64dnp8q54du","geo_precision":"range","address":"200  S  AVIATION BLVD","state":"CA"},"type":"Feature","geometry":{"type":"Point","coordinates":[-118.378673,33.914992]}},{"properties":{"city":"EL SEGUNDO","zip":"90245","geo_score":0.862,"id":"a64dnp9fp1m8","geo_precision":"range","address":"300 BLK    N  SEPULVEDA BLVD","state":"CA"},"type":"Feature","geometry":{"type":"Point","coordinates":[-118.396013,33.919453]}},{"properties":{"city":"EL SEGUNDO","zip":"90245","geo_score":0.855,"id":"a64dnp9qfvej","geo_precision":"range","address":"300 RICHMOND","state":"CA"},"type":"Feature","geometry":{"type":"Point","coordinates":[-118.417142,33.918973]}},{"properties":{"city":"EL SEGUNDO","zip":"90245","geo_score":0.805,"id":"a64dnp979phj","geo_precision":"range","address":"2100 E  ROSECRANS AVE","state":"CA"},"type":"Feature","geometry":{"type":"Point","coordinates":[-118.201155,33.903527]}},{"properties":{"city":"EL SEGUNDO","zip":"90245","geo_score":0.862,"id":"a64dnparq255","geo_precision":"range","address":"500 BLK  N  SEPULVEDA BLVD","state":"CA"},"type":"Feature","geometry":{"type":"Point","coordinates":[-118.396261,33.922137]}},{"properties":{"city":"EL SEGUNDO","zip":"90245","geo_score":0.913,"id":"a64dnpbdwzfe","geo_precision":"range","address":"1400  E  IMPERIAL AVE","state":"CA"},"type":"Feature","geometry":{"type":"Point","coordinates":[-118.401862,33.930873]}},{"properties":{"city":"EL SEGUNDO","zip":"90245","geo_score":0.862,"id":"a64dnp30ca44","geo_precision":"range","address":"800 BLK  N  SEPULVEDA BLVD","state":"CA"},"type":"Feature","geometry":{"type":"Point","coordinates":[-118.396278,33.927016]}},{"properties":{"city":"EL SEGUNDO","zip":"90245","geo_score":0.84,"id":"a64dnp666ot1","geo_precision":"range","address":"300  LOMITA","state":"CA"},"type":"Feature","geometry":{"type":"Point","coordinates":[-118.407737,33.919424]}},{"properties":{"city":"EL SEGUNDO","zip":"90245","geo_score":0.84,"id":"a64dnpaa6ty0","geo_precision":"range","address":"800 LOMITA","state":"CA"},"type":"Feature","geometry":{"type":"Point","coordinates":[-118.408109,33.926992]}},{"properties":{"city":"EL SEGUNDO","zip":"90245","geo_score":0.73,"id":"a64dnpa3ls7t","geo_precision":"range","address":"900 BLK    N  NASH","state":"CA"},"type":"Feature","geometry":{"type":"Point","coordinates":[-118.387463,33.928862]}},{"properties":{"city":"EL SEGUNDO","zip":"90245","geo_score":0.816,"id":"a64dnpbbfjhe","geo_precision":"street","address":"2300 E  IMPERIAL HWY","state":"CA"},"type":"Feature","geometry":{"type":"Point","coordinates":[-118.383153,33.930887]}},{"properties":{"city":"EL SEGUNDO","zip":"90245","geo_score":0.855,"id":"a64dnp1z62k5","geo_precision":"range","address":"800 S  DOUGLAS","state":"CA"},"type":"Feature","geometry":{"type":"Point","coordinates":[-118.383132,33.904313]}},{"properties":{"city":"EL SEGUNDO","zip":"90245","geo_score":0.855,"id":"a64dnpcawncf","geo_precision":"range","address":"2200 BLK  E  IMPERIAL HWY","state":"CA"},"type":"Feature","geometry":{"type":"Point","coordinates":[-118.387474,33.930884]}},{"properties":{"city":"EL SEGUNDO","zip":"90245","geo_score":0.72,"id":"a64dnp2sc24t","geo_precision":"street","address":"1000 S SEPULVEDA BLVD","state":"CA"},"type":"Feature","geometry":{"type":"Point","coordinates":[-118.396173,33.901866]}},{"properties":{"city":"EL SEGUNDO","zip":"90245","geo_score":0.73,"id":"a64dnoyzxs4g","geo_precision":"street","address":"IMPERIAL/SEPULVEDA","state":"CA"},"type":"Feature","geometry":{"type":"Point","coordinates":[-118.416978,33.930844]}},{"properties":{"city":"EL SEGUNDO","zip":"90245","geo_score":0.84,"id":"a64dnp6pmd9n","geo_precision":"range","address":"1700 BLK E  GRAND AVE","state":"CA"},"type":"Feature","geometry":{"type":"Point","coordinates":[-118.398784,33.919446]}},{"properties":{"city":"EL SEGUNDO","zip":"90245","geo_score":0.84,"id":"a64dnp0g4sd5","geo_precision":"range","address":"2100 BLK E  MAPLE AVE","state":"CA"},"type":"Feature","geometry":{"type":"Point","coordinates":[-118.390389,33.926921]}},{"properties":{"city":"EL SEGUNDO","zip":"90245","geo_score":0.751,"id":"a64dnpayaexi","geo_precision":"street","address":"S  NASH/DOUGLAS","state":"CA"},"type":"Feature","geometry":{"type":"Point","coordinates":[-118.388585,33.901872]}},{"properties":{"city":"EL SEGUNDO","zip":"90245","geo_score":0.913,"id":"a64dnp6lrzo1","geo_precision":"range","address":"1100 E MARIPOSA  AVE","state":"CA"},"type":"Feature","geometry":{"type":"Point","coordinates":[-118.404838,33.923609]}},{"properties":{"city":"EL SEGUNDO","zip":"90245","geo_score":0.73,"id":"a64dnp693amp","geo_precision":"street","address":"AVIATION /IMPERIAL   BLVD","state":"CA"},"type":"Feature","geometry":{"type":"Point","coordinates":[-118.378697,33.904782]}},{"properties":{"city":"EL SEGUNDO","zip":"90245","geo_score":0.73,"id":"a64dnoy8z1zw","geo_precision":"range","address":"800 BLK  S  NASH","state":"CA"},"type":"Feature","geometry":{"type":"Point","coordinates":[-118.388577,33.904331]}},{"properties":{"city":"EL SEGUNDO","zip":"90245","geo_score":0.833,"id":"a64dnoys0zhx","geo_precision":"range","address":"700 BLK E  PALM AVE","state":"CA"},"type":"Feature","geometry":{"type":"Point","coordinates":[-118.407985,33.925067]}},{"properties":{"city":"EL SEGUNDO","zip":"90245","geo_score":0.78,"id":"a64dnp9uctua","geo_precision":"range","address":"200 BLK  N  DOUGLAS","state":"CA"},"type":"Feature","geometry":{"type":"Point","coordinates":[-118.383206,33.918196]}},{"properties":{"city":"EL SEGUNDO","zip":"90245","geo_score":0.855,"id":"a64dnp33mup2","geo_precision":"range","address":"700  BLK  E  FRANKLIN AVE","state":"CA"},"type":"Feature","geometry":{"type":"Point","coordinates":[-118.408882,33.917882]}},{"properties":{"city":"EL SEGUNDO","zip":"90245","geo_score":0.913,"id":"a64dnpcu2j2j","geo_precision":"range","address":"2500 E  EL SEGUNDO BLVD","state":"CA"},"type":"Feature","geometry":{"type":"Point","coordinates":[-118.376527,33.916307]}},{"properties":{"city":"EL SEGUNDO","zip":"90245","geo_score":0.59,"id":"a64dnp5agma0","geo_precision":"street","address":"1200 BLK  VISTA DEL MAR BLVD","state":"CA"},"type":"Feature","geometry":{"type":"Point","coordinates":[-118.421926,33.90747]}}],"is_temporal":false,"author":{"url":"","metadata":"","contact_name":"","contact_address":"","source":"","contact_phone":""},"source":"","pagination":{"sort":null,"start":0,"total":236,"limit":1000000},"state":"complete","tags":"","published":"2012-03-04T04:10:16Z","id":211463}