{"type":"FeatureCollection","data_type":"Dataset","url_type":null,"permissions":[{"permissions":{"download":true,"view":true},"group_id":"everyone"}],"classification":null,"title":"election","count":27,"stream_id":212437,"contributor":{"url":"http://geocommons.com/users/34626","name":"yula_la_la"},"data_attributes":null,"calculation_params":null,"icon_link":null,"link":"http://geocommons.com/overlays/212437.json","extent":[0.0,0.0,0.0,0.0],"geometry_types":[],"unique_name":null,"name":"election","feature_count":27,"description":"","next_feature":null,"is_raster":false,"short_classification":"Y","stats":{"rating":{"max":2,"mean":1.62962962962963,"variance":0.242165242165242,"stdev":0.492102877623411,"min":1,"median":2},"% for yanuk":{"max":0.9,"mean":0.438888888888889,"variance":0.071348717948718,"stdev":0.267111807954493,"min":0.07,"median":0.37},"por":{"max":23,"mean":8.33333333333333,"variance":24.3076923076923,"stdev":4.93028318737294,"min":2,"median":6},"ideal":{"max":21,"mean":8.33333333333333,"variance":19.5384615384615,"stdev":4.42023319955651,"min":2,"median":7}},"features":[{"properties":{"rating":2,"region":"Ivano-Frankivs'k","% for yanuk":0.07,"geo_score":0.0,", %":"57849 (7,02%)","por":5,"id":"a65xz8m3hzje","geo_precision":"unmatched","ideal":7},"type":"Feature","geometry":null},{"properties":{"rating":2,"region":"Ternopil'","% for yanuk":0.08,"geo_score":0.0,", %":"53773 (7,92%)","por":4,"id":"a65xz8l9vbat","geo_precision":"unmatched","ideal":5},"type":"Feature","geometry":null},{"properties":{"rating":2,"region":"L'viv","% for yanuk":0.09,"geo_score":0.0,", %":"131136 (8,6%)","por":10,"id":"a65xz8dan6x9","geo_precision":"unmatched","ideal":12},"type":"Feature","geometry":null},{"properties":{"rating":2,"region":"Volyn","% for yanuk":0.14,"geo_score":0.0,", %":"84212 (14,01%)","por":4,"id":"a65xz8aan2pn","geo_precision":"unmatched","ideal":5},"type":"Feature","geometry":null},{"properties":{"rating":2,"region":"Rivne","% for yanuk":0.19,"geo_score":0.0,", %":"121446 (18,91%)","por":4,"id":"a65xz8miy1dm","geo_precision":"unmatched","ideal":5},"type":"Feature","geometry":null},{"properties":{"rating":2,"region":"Kiev","% for yanuk":0.24,"geo_score":0.0,", %":"229858 (23,61%)","por":8,"id":"a65xz8lar078","geo_precision":"unmatched","ideal":9},"type":"Feature","geometry":null},{"properties":{"rating":2,"region":"Vinnytsya","% for yanuk":0.24,"geo_score":0.0,", %":"227633 (24,26%)","por":7,"id":"a65xz8mftldn","geo_precision":"unmatched","ideal":8},"type":"Feature","geometry":null},{"properties":{"rating":2,"region":"Khmel'nyts'kyy","% for yanuk":0.25,"geo_score":0.0,", %":"191484 (24,94%)","por":5,"id":"a65xz8kg9mro","geo_precision":"unmatched","ideal":7},"type":"Feature","geometry":null},{"properties":{"rating":2,"region":"Kiev City","% for yanuk":0.26,"geo_score":0.0,", %":"376099 (25,72%)","por":16,"id":"a65xz8csuwip","geo_precision":"unmatched","ideal":16},"type":"Feature","geometry":null},{"properties":{"rating":2,"region":"Chernivtsi","% for yanuk":0.28,"geo_score":0.0,", %":"121381 (27,64%)","por":4,"id":"a65xz87s0n9l","geo_precision":"unmatched","ideal":4},"type":"Feature","geometry":null},{"properties":{"rating":2,"region":"Cherkasy","% for yanuk":0.29,"geo_score":0.0,", %":"202512 (28,84%)","por":6,"id":"a65xz8frf0bx","geo_precision":"unmatched","ideal":6},"type":"Feature","geometry":null},{"properties":{"rating":2,"region":"Sumy","% for yanuk":0.3,"geo_score":0.0,", %":"194608 (30,4%)","por":6,"id":"a65xz8ke1m7s","geo_precision":"unmatched","ideal":6},"type":"Feature","geometry":null},{"properties":{"rating":2,"region":"Chernihiv","% for yanuk":0.31,"geo_score":0.0,", %":"194069 (30,95%)","por":6,"id":"a65xz8dkvgm8","geo_precision":"unmatched","ideal":6},"type":"Feature","geometry":null},{"properties":{"rating":2,"region":"Zhytomyr","% for yanuk":0.37,"geo_score":0.0,", %":"258695 (36,7%)","por":7,"id":"a65xz8fyd1j7","geo_precision":"unmatched","ideal":6},"type":"Feature","geometry":null},{"properties":{"rating":2,"region":"Poltava","% for yanuk":0.39,"geo_score":0.0,", %":"318405 (38,99%)","por":8,"id":"a65xz87qrfvy","geo_precision":"unmatched","ideal":7},"type":"Feature","geometry":null},{"properties":{"rating":2,"region":"Kirovohrad","% for yanuk":0.4,"geo_score":0.0,", %":"203999 (39,61%)","por":5,"id":"a65xz8hpr2vh","geo_precision":"unmatched","ideal":5},"type":"Feature","geometry":null},{"properties":{"rating":2,"region":"Transcarpathia","% for yanuk":0.42,"geo_score":0.0,", %":"224917 (41,55%)","por":6,"id":"a65xz86occ3y","geo_precision":"unmatched","ideal":6},"type":"Feature","geometry":null},{"properties":{"rating":1,"region":"Kherson","% for yanuk":0.6,"geo_score":0.0,", %":"323201 (59,98%)","por":6,"id":"a65xz8hln6eh","geo_precision":"unmatched","ideal":5},"type":"Feature","geometry":null},{"properties":{"rating":1,"region":"Dnipropetrovs'k","% for yanuk":0.63,"geo_score":0.0,", %":"1154274 (62,7%)","por":18,"id":"a65xz8meex4c","geo_precision":"unmatched","ideal":17},"type":"Feature","geometry":null},{"properties":{"rating":1,"region":"Kharkiv","% for yanuk":0.71,"geo_score":0.0,", %":"1076962 (71,35%)","por":15,"id":"a65xz8g0nbvl","geo_precision":"unmatched","ideal":14},"type":"Feature","geometry":null},{"properties":{"rating":1,"region":"Zaporizhzhya","% for yanuk":0.72,"geo_score":0.0,", %":"731932 (71,5%)","por":10,"id":"a65xz8jx6emz","geo_precision":"unmatched","ideal":9},"type":"Feature","geometry":null},{"properties":{"rating":1,"region":"Mykolayiv","% for yanuk":0.72,"geo_score":0.0,", %":"446050 (71,53%)","por":6,"id":"a65xz87crxri","geo_precision":"unmatched","ideal":6},"type":"Feature","geometry":null},{"properties":{"rating":1,"region":"Odessa","% for yanuk":0.74,"geo_score":0.0,", %":"868533 (74,14%)","por":12,"id":"a65xz8kdli8t","geo_precision":"unmatched","ideal":11},"type":"Feature","geometry":null},{"properties":{"rating":1,"region":"Crimea","% for yanuk":0.78,"geo_score":0.0,", %":"821244 (78,24%)","por":10,"id":"a65xz8iiohgb","geo_precision":"unmatched","ideal":9},"type":"Feature","geometry":null},{"properties":{"rating":1,"region":"Sevastopol'","% for yanuk":0.84,"geo_score":0.0,", %":"178201 (84,35%)","por":2,"id":"a65xz8l5e4di","geo_precision":"unmatched","ideal":2},"type":"Feature","geometry":null},{"properties":{"rating":1,"region":"Luhans'k","% for yanuk":0.89,"geo_score":0.0,", %":"1237922 (88,96%)","por":12,"id":"a65xz8e1gjl9","geo_precision":"unmatched","ideal":11},"type":"Feature","geometry":null},{"properties":{"rating":1,"region":"Donets'k","% for yanuk":0.9,"geo_score":0.0,", %":"2435522 (90,44%)","por":23,"id":"a65xz8jlawil","geo_precision":"unmatched","ideal":21},"type":"Feature","geometry":null}],"is_temporal":false,"author":{"url":"","metadata":null,"contact_name":null,"contact_address":null,"source":null,"contact_phone":null},"source":"","pagination":{"sort":null,"start":0,"total":27,"limit":1000000},"state":"complete","tags":"","published":"2014-08-14T18:46:29-04:00","id":212437}