{"type":"FeatureCollection","data_type":"Dataset","url_type":null,"permissions":[{"permissions":{"download":true,"view":true},"group_id":"everyone"}],"classification":null,"title":"East_Coast_2_10_2012","count":380,"stream_id":213015,"contributor":{"url":"http://geocommons.com/users/41497","name":"thebirdinthesky"},"data_attributes":null,"calculation_params":null,"icon_link":null,"link":"http://geocommons.com/overlays/213015.json","extent":[0.0,0.0,0.0,0.0],"geometry_types":null,"unique_name":null,"name":"East_Coast_2_10_2012","feature_count":380,"description":"","next_feature":null,"is_raster":false,"short_classification":"Y","features":[{"properties":{"zipcode":"28204","id":"ap4bj4y4uw5r"},"type":"Feature","geometry":null},{"properties":{"zipcode":"32792","id":"ap4bj59czvew"},"type":"Feature","geometry":null},{"properties":{"zipcode":"65804","id":"ap4bj59h6dg8"},"type":"Feature","geometry":null},{"properties":{"zipcode":"2043","id":"ap4bj579fa2s"},"type":"Feature","geometry":null},{"properties":{"zipcode":"33071","id":"ap4bj51prxws"},"type":"Feature","geometry":null},{"properties":{"zipcode":"33071","id":"ap4bj4yrm6iz"},"type":"Feature","geometry":null},{"properties":{"zipcode":"33071","id":"ap4bj58ghs1p"},"type":"Feature","geometry":null},{"properties":{"zipcode":"27606","id":"ap4bj57mw0nh"},"type":"Feature","geometry":null},{"properties":{"zipcode":"2043","id":"ap4bj4wj5k0r"},"type":"Feature","geometry":null},{"properties":{"zipcode":"2043","id":"ap4bj50pjxc1"},"type":"Feature","geometry":null},{"properties":{"zipcode":"33603","id":"ap4bj5abxmrp"},"type":"Feature","geometry":null},{"properties":{"zipcode":"33328","id":"ap4bj4xtw6ux"},"type":"Feature","geometry":null},{"properties":{"zipcode":"6880","id":"ap4bj57difwu"},"type":"Feature","geometry":null},{"properties":{"zipcode":"2043","id":"ap4bj598regm"},"type":"Feature","geometry":null},{"properties":{"zipcode":"65065","id":"ap4bj4yts5u3"},"type":"Feature","geometry":null},{"properties":{"zipcode":"65065","id":"ap4bj4vz5is0"},"type":"Feature","geometry":null},{"properties":{"zipcode":"29482","id":"ap4bj4z0aw77"},"type":"Feature","geometry":null},{"properties":{"zipcode":"30342","id":"ap4bj567aal2"},"type":"Feature","geometry":null},{"properties":{"zipcode":"10001","id":"ap4bj562swvi"},"type":"Feature","geometry":null},{"properties":{"zipcode":"49009","id":"ap4bj52mk5qs"},"type":"Feature","geometry":null},{"properties":{"zipcode":"30907","id":"ap4bj50jknxl"},"type":"Feature","geometry":null},{"properties":{"zipcode":"22901","id":"ap4bj515wpro"},"type":"Feature","geometry":null},{"properties":{"zipcode":"7090","id":"ap4bj56nmnza"},"type":"Feature","geometry":null},{"properties":{"zipcode":"45242","id":"ap4bj56z71n8"},"type":"Feature","geometry":null},{"properties":{"zipcode":"45238","id":"ap4bj59jgvlg"},"type":"Feature","geometry":null},{"properties":{"zipcode":"45238","id":"ap4bj51ln6qy"},"type":"Feature","geometry":null},{"properties":{"zipcode":"4330","id":"ap4bj4y4c8w0"},"type":"Feature","geometry":null},{"properties":{"zipcode":"1913","id":"ap4bj52dhl6p"},"type":"Feature","geometry":null},{"properties":{"zipcode":"2135","id":"ap4bj51uwwvq"},"type":"Feature","geometry":null},{"properties":{"zipcode":"11580","id":"ap4bj594lkpd"},"type":"Feature","geometry":null},{"properties":{"zipcode":"30338","id":"ap4bj579jnok"},"type":"Feature","geometry":null},{"properties":{"zipcode":"10003","id":"ap4bj4yatkpy"},"type":"Feature","geometry":null},{"properties":{"zipcode":"30060","id":"ap4bj56i8f6c"},"type":"Feature","geometry":null},{"properties":{"zipcode":"10128","id":"ap4bj50mfjja"},"type":"Feature","geometry":null},{"properties":{"zipcode":"2148","id":"ap4bj59bvkvj"},"type":"Feature","geometry":null},{"properties":{"zipcode":"33162","id":"ap4bj5961cmi"},"type":"Feature","geometry":null},{"properties":{"zipcode":"31909","id":"ap4bj50qbc5c"},"type":"Feature","geometry":null},{"properties":{"zipcode":"48009","id":"ap4bj5bdo06w"},"type":"Feature","geometry":null},{"properties":{"zipcode":"47250","id":"ap4bj51pcn3i"},"type":"Feature","geometry":null},{"properties":{"zipcode":"10025","id":"ap4bj52yqhne"},"type":"Feature","geometry":null},{"properties":{"zipcode":"10605","id":"ap4bj59fso1a"},"type":"Feature","geometry":null},{"properties":{"zipcode":"12208","id":"ap4bj51prnkp"},"type":"Feature","geometry":null},{"properties":{"zipcode":"46220","id":"ap4bj5ahioof"},"type":"Feature","geometry":null},{"properties":{"zipcode":"30907","id":"ap4bj4zxw79v"},"type":"Feature","geometry":null},{"properties":{"zipcode":"65102","id":"ap4bj54u4wkn"},"type":"Feature","geometry":null},{"properties":{"zipcode":"32401","id":"ap4bj575893n"},"type":"Feature","geometry":null},{"properties":{"zipcode":"65101","id":"ap4bj54yqn8w"},"type":"Feature","geometry":null},{"properties":{"zipcode":"3053","id":"ap4bj4ze8fbe"},"type":"Feature","geometry":null},{"properties":{"zipcode":"20170","id":"ap4bj50yvgdu"},"type":"Feature","geometry":null},{"properties":{"zipcode":"43205","id":"ap4bj556os0e"},"type":"Feature","geometry":null},{"properties":{"zipcode":"33409","id":"ap4bj58fcgta"},"type":"Feature","geometry":null},{"properties":{"zipcode":"33409","id":"ap4bj55pe6r5"},"type":"Feature","geometry":null},{"properties":{"zipcode":"33467","id":"ap4bj53rajjr"},"type":"Feature","geometry":null},{"properties":{"zipcode":"19103","id":"ap4bj50h99i5"},"type":"Feature","geometry":null},{"properties":{"zipcode":"32065","id":"ap4bj53ywh7o"},"type":"Feature","geometry":null},{"properties":{"zipcode":"23505","id":"ap4bj50c9cdy"},"type":"Feature","geometry":null},{"properties":{"zipcode":"30341","id":"ap4bj4xta71h"},"type":"Feature","geometry":null},{"properties":{"zipcode":"33409","id":"ap4bj59qduyf"},"type":"Feature","geometry":null},{"properties":{"zipcode":"7052","id":"ap4bj4z5zk90"},"type":"Feature","geometry":null},{"properties":{"zipcode":"33139","id":"ap4bj55x7un6"},"type":"Feature","geometry":null},{"properties":{"zipcode":"23505","id":"ap4bj4vzeehk"},"type":"Feature","geometry":null},{"properties":{"zipcode":"18235","id":"ap4bj53kns16"},"type":"Feature","geometry":null},{"properties":{"zipcode":"43085","id":"ap4bj5boeqlg"},"type":"Feature","geometry":null},{"properties":{"zipcode":"30144","id":"ap4bj4z7hnui"},"type":"Feature","geometry":null},{"properties":{"zipcode":"43214","id":"ap4bj4x85aiw"},"type":"Feature","geometry":null},{"properties":{"zipcode":"64116","id":"ap4bj51morx5"},"type":"Feature","geometry":null},{"properties":{"zipcode":"48009","id":"ap4bj5281mv0"},"type":"Feature","geometry":null},{"properties":{"zipcode":"48917","id":"ap4bj4zy9oqx"},"type":"Feature","geometry":null},{"properties":{"zipcode":"48917","id":"ap4bj5bz7qf6"},"type":"Feature","geometry":null},{"properties":{"zipcode":"34209","id":"ap4bj4wc26ru"},"type":"Feature","geometry":null},{"properties":{"zipcode":"33763","id":"ap4bj55dkylt"},"type":"Feature","geometry":null},{"properties":{"zipcode":"11787","id":"ap4bj5bapwxv"},"type":"Feature","geometry":null},{"properties":{"zipcode":"63123","id":"ap4bj4xefwjp"},"type":"Feature","geometry":null},{"properties":{"zipcode":"32746","id":"ap4bj52bmyvo"},"type":"Feature","geometry":null},{"properties":{"zipcode":"32713","id":"ap4bj56smcj2"},"type":"Feature","geometry":null},{"properties":{"zipcode":"23505","id":"ap4bj5ar4mz4"},"type":"Feature","geometry":null},{"properties":{"zipcode":"23505","id":"ap4bj4wh55le"},"type":"Feature","geometry":null},{"properties":{"zipcode":"44805","id":"ap4bj51wg93t"},"type":"Feature","geometry":null},{"properties":{"zipcode":"10016","id":"ap4bj4w0u7v9"},"type":"Feature","geometry":null},{"properties":{"zipcode":"14580","id":"ap4bj55b2acs"},"type":"Feature","geometry":null},{"properties":{"zipcode":"2906","id":"ap4bj4wdjp2g"},"type":"Feature","geometry":null},{"properties":{"zipcode":"19063","id":"ap4bj540nkvk"},"type":"Feature","geometry":null},{"properties":{"zipcode":"44130","id":"ap4bj56d9f01"},"type":"Feature","geometry":null},{"properties":{"zipcode":"21286","id":"ap4bj55neqna"},"type":"Feature","geometry":null},{"properties":{"zipcode":"10003","id":"ap4bj5bpgr3y"},"type":"Feature","geometry":null},{"properties":{"zipcode":"33071","id":"ap4bj58awaxp"},"type":"Feature","geometry":null},{"properties":{"zipcode":"33071","id":"ap4bj58ek14w"},"type":"Feature","geometry":null},{"properties":{"zipcode":"10570","id":"ap4bj4y2xu9e"},"type":"Feature","geometry":null},{"properties":{"zipcode":"17013","id":"ap4bj541dj49"},"type":"Feature","geometry":null},{"properties":{"zipcode":"8753","id":"ap4bj58quhvg"},"type":"Feature","geometry":null},{"properties":{"zipcode":"46202","id":"ap4bj4xhg8qu"},"type":"Feature","geometry":null},{"properties":{"zipcode":"4938","id":"ap4bj56d4ojg"},"type":"Feature","geometry":null},{"properties":{"zipcode":"3110","id":"ap4bj4yhwzp2"},"type":"Feature","geometry":null},{"properties":{"zipcode":"44130","id":"ap4bj53w8712"},"type":"Feature","geometry":null},{"properties":{"zipcode":"19608","id":"ap4bj5737gfd"},"type":"Feature","geometry":null},{"properties":{"zipcode":"19608","id":"ap4bj500lg6n"},"type":"Feature","geometry":null},{"properties":{"zipcode":"19608","id":"ap4bj55rb0i6"},"type":"Feature","geometry":null},{"properties":{"zipcode":"19608","id":"ap4bj4vpjzs9"},"type":"Feature","geometry":null},{"properties":{"zipcode":"45459","id":"ap4bj50uveya"},"type":"Feature","geometry":null},{"properties":{"zipcode":"27604","id":"ap4bj556ae7o"},"type":"Feature","geometry":null},{"properties":{"zipcode":"27604","id":"ap4bj56yrq4u"},"type":"Feature","geometry":null},{"properties":{"zipcode":"63703","id":"ap4bj58pquyn"},"type":"Feature","geometry":null},{"properties":{"zipcode":"1810","id":"ap4bj50sxmeb"},"type":"Feature","geometry":null},{"properties":{"zipcode":"44313","id":"ap4bj4wlncxs"},"type":"Feature","geometry":null},{"properties":{"zipcode":"30087","id":"ap4bj528o6rm"},"type":"Feature","geometry":null},{"properties":{"zipcode":"30214","id":"ap4bj52upqx0"},"type":"Feature","geometry":null},{"properties":{"zipcode":"2886","id":"ap4bj5c5ryow"},"type":"Feature","geometry":null},{"properties":{"zipcode":"30214","id":"ap4bj54d7nf0"},"type":"Feature","geometry":null},{"properties":{"zipcode":"2906","id":"ap4bj5c4aqmf"},"type":"Feature","geometry":null},{"properties":{"zipcode":"33071","id":"ap4bj57f61hr"},"type":"Feature","geometry":null},{"properties":{"zipcode":"19608","id":"ap4bj5bdrcl7"},"type":"Feature","geometry":null},{"properties":{"zipcode":"19608","id":"ap4bj53qbyzz"},"type":"Feature","geometry":null},{"properties":{"zipcode":"27401","id":"ap4bj4zkqbtk"},"type":"Feature","geometry":null},{"properties":{"zipcode":"32714","id":"ap4bj56n1gvp"},"type":"Feature","geometry":null},{"properties":{"zipcode":"1845","id":"ap4bj5axy6ux"},"type":"Feature","geometry":null},{"properties":{"zipcode":"29841","id":"ap4bj57q0haq"},"type":"Feature","geometry":null},{"properties":{"zipcode":"6511","id":"ap4bj4vqrxo3"},"type":"Feature","geometry":null},{"properties":{"zipcode":"1913","id":"ap4bj4vnw2v5"},"type":"Feature","geometry":null},{"properties":{"zipcode":"65101","id":"ap4bj524tugg"},"type":"Feature","geometry":null},{"properties":{"zipcode":"30143","id":"ap4bj4xfb6jk"},"type":"Feature","geometry":null},{"properties":{"zipcode":"17013","id":"ap4bj4xbeby2"},"type":"Feature","geometry":null},{"properties":{"zipcode":"17013","id":"ap4bj59csnx0"},"type":"Feature","geometry":null},{"properties":{"zipcode":"17013","id":"ap4bj56kz3rl"},"type":"Feature","geometry":null},{"properties":{"zipcode":"17013","id":"ap4bj4zhkn7u"},"type":"Feature","geometry":null},{"properties":{"zipcode":"17013","id":"ap4bj57fdmkh"},"type":"Feature","geometry":null},{"properties":{"zipcode":"6614","id":"ap4bj51zii2g"},"type":"Feature","geometry":null},{"properties":{"zipcode":"33781","id":"ap4bj5bbwh5j"},"type":"Feature","geometry":null},{"properties":{"zipcode":"4043","id":"ap4bj52v8y6y"},"type":"Feature","geometry":null},{"properties":{"zipcode":"45402","id":"ap4bj572y735"},"type":"Feature","geometry":null},{"properties":{"zipcode":"44312","id":"ap4bj562b5ih"},"type":"Feature","geometry":null},{"properties":{"zipcode":"44305","id":"ap4bj55dh2co"},"type":"Feature","geometry":null},{"properties":{"zipcode":"32803","id":"ap4bj57exb36"},"type":"Feature","geometry":null},{"properties":{"zipcode":"33071","id":"ap4bj56vvczb"},"type":"Feature","geometry":null},{"properties":{"zipcode":"3801","id":"ap4bj4xky6kx"},"type":"Feature","geometry":null},{"properties":{"zipcode":"46250","id":"ap4bj4ygj413"},"type":"Feature","geometry":null},{"properties":{"zipcode":"10901","id":"ap4bj5bvoena"},"type":"Feature","geometry":null},{"properties":{"zipcode":"10962","id":"ap4bj4zk0eiu"},"type":"Feature","geometry":null},{"properties":{"zipcode":"33021","id":"ap4bj584cg4w"},"type":"Feature","geometry":null},{"properties":{"zipcode":"10003","id":"ap4bj55y73rj"},"type":"Feature","geometry":null},{"properties":{"zipcode":"7860","id":"ap4bj5avszc1"},"type":"Feature","geometry":null},{"properties":{"zipcode":"63141","id":"ap4bj4wfjmak"},"type":"Feature","geometry":null},{"properties":{"zipcode":"33712","id":"ap4bj51jmrqy"},"type":"Feature","geometry":null},{"properties":{"zipcode":"34205","id":"ap4bj506dq9r"},"type":"Feature","geometry":null},{"properties":{"zipcode":"10011","id":"ap4bj57hkmvi"},"type":"Feature","geometry":null},{"properties":{"zipcode":"33928","id":"ap4bj59esva7"},"type":"Feature","geometry":null},{"properties":{"zipcode":"30329","id":"ap4bj54zcik5"},"type":"Feature","geometry":null},{"properties":{"zipcode":"49507","id":"ap4bj50k574k"},"type":"Feature","geometry":null},{"properties":{"zipcode":"32714","id":"ap4bj55n2nga"},"type":"Feature","geometry":null},{"properties":{"zipcode":"32225","id":"ap4bj583138j"},"type":"Feature","geometry":null},{"properties":{"zipcode":"7405","id":"ap4bj55srb33"},"type":"Feature","geometry":null},{"properties":{"zipcode":"7005","id":"ap4bj51qprrx"},"type":"Feature","geometry":null},{"properties":{"zipcode":"30345","id":"ap4bj5a2145j"},"type":"Feature","geometry":null},{"properties":{"zipcode":"44685","id":"ap4bj5bqm7ue"},"type":"Feature","geometry":null},{"properties":{"zipcode":"44663","id":"ap4bj58e35f0"},"type":"Feature","geometry":null},{"properties":{"zipcode":"33441","id":"ap4bj4w1uj2q"},"type":"Feature","geometry":null},{"properties":{"zipcode":"32561","id":"ap4bj4zyitl9"},"type":"Feature","geometry":null},{"properties":{"zipcode":"32503","id":"ap4bj4ym2ops"},"type":"Feature","geometry":null},{"properties":{"zipcode":"3301","id":"ap4bj589nl9j"},"type":"Feature","geometry":null},{"properties":{"zipcode":"32714","id":"ap4bj59mpyh9"},"type":"Feature","geometry":null},{"properties":{"zipcode":"12110","id":"ap4bj5avnh4e"},"type":"Feature","geometry":null},{"properties":{"zipcode":"12205","id":"ap4bj58nopkx"},"type":"Feature","geometry":null},{"properties":{"zipcode":"33024","id":"ap4bj536hiv4"},"type":"Feature","geometry":null},{"properties":{"zipcode":"32504","id":"ap4bj4zhyxdv"},"type":"Feature","geometry":null},{"properties":{"zipcode":"14424","id":"ap4bj4vxjjqo"},"type":"Feature","geometry":null},{"properties":{"zipcode":"7871","id":"ap4bj5311xsv"},"type":"Feature","geometry":null},{"properties":{"zipcode":"33071","id":"ap4bj4zok542"},"type":"Feature","geometry":null},{"properties":{"zipcode":"45426","id":"ap4bj5bjjy8x"},"type":"Feature","geometry":null},{"properties":{"zipcode":"45402","id":"ap4bj51jvpby"},"type":"Feature","geometry":null},{"properties":{"zipcode":"6450","id":"ap4bj56u3pa9"},"type":"Feature","geometry":null},{"properties":{"zipcode":"15216","id":"ap4bj5369osa"},"type":"Feature","geometry":null},{"properties":{"zipcode":"46208","id":"ap4bj55d7hji"},"type":"Feature","geometry":null},{"properties":{"zipcode":"48104","id":"ap4bj4y817ah"},"type":"Feature","geometry":null},{"properties":{"zipcode":"48201","id":"ap4bj4wsingj"},"type":"Feature","geometry":null},{"properties":{"zipcode":"18360","id":"ap4bj51gk8tj"},"type":"Feature","geometry":null},{"properties":{"zipcode":"02171-2122","id":"ap4bj558puno"},"type":"Feature","geometry":null},{"properties":{"zipcode":"63050","id":"ap4bj4vrb2uk"},"type":"Feature","geometry":null},{"properties":{"zipcode":"63044","id":"ap4bj51rb398"},"type":"Feature","geometry":null},{"properties":{"zipcode":"63123","id":"ap4bj54tvdn6"},"type":"Feature","geometry":null},{"properties":{"zipcode":"63628","id":"ap4bj56rrsh5"},"type":"Feature","geometry":null},{"properties":{"zipcode":"30329","id":"ap4bj4wbsdqj"},"type":"Feature","geometry":null},{"properties":{"zipcode":"20008","id":"ap4bj536he7z"},"type":"Feature","geometry":null},{"properties":{"zipcode":"49319","id":"ap4bj541hiky"},"type":"Feature","geometry":null},{"properties":{"zipcode":"43160","id":"ap4bj56k2yp8"},"type":"Feature","geometry":null},{"properties":{"zipcode":"43123","id":"ap4bj4wjndcs"},"type":"Feature","geometry":null},{"properties":{"zipcode":"34744","id":"ap4bj58e1gk1"},"type":"Feature","geometry":null},{"properties":{"zipcode":"45220","id":"ap4bj5993ylz"},"type":"Feature","geometry":null},{"properties":{"zipcode":"27104","id":"ap4bj4w9924h"},"type":"Feature","geometry":null},{"properties":{"zipcode":"10016","id":"ap4bj4wujum3"},"type":"Feature","geometry":null},{"properties":{"zipcode":"10019","id":"ap4bj59obw90"},"type":"Feature","geometry":null},{"properties":{"zipcode":"11743","id":"ap4bj55a8hg9"},"type":"Feature","geometry":null},{"properties":{"zipcode":"47025","id":"ap4bj5bjl8yr"},"type":"Feature","geometry":null},{"properties":{"zipcode":"45030","id":"ap4bj54w788r"},"type":"Feature","geometry":null},{"properties":{"zipcode":"10019","id":"ap4bj58m66bw"},"type":"Feature","geometry":null},{"properties":{"zipcode":"10019","id":"ap4bj53avojk"},"type":"Feature","geometry":null},{"properties":{"zipcode":"34108","id":"ap4bj55f03fk"},"type":"Feature","geometry":null},{"properties":{"zipcode":"6360","id":"ap4bj4wzbc1t"},"type":"Feature","geometry":null},{"properties":{"zipcode":"10128","id":"ap4bj52ugiqi"},"type":"Feature","geometry":null},{"properties":{"zipcode":"89118","id":"ap4bj5by8bne"},"type":"Feature","geometry":null},{"properties":{"zipcode":"6074","id":"ap4bj51tpr4i"},"type":"Feature","geometry":null},{"properties":{"zipcode":"6074","id":"ap4bj5250kol"},"type":"Feature","geometry":null},{"properties":{"zipcode":"3060","id":"ap4bj542xglh"},"type":"Feature","geometry":null},{"properties":{"zipcode":"6798","id":"ap4bj5ah5zjl"},"type":"Feature","geometry":null},{"properties":{"zipcode":"10010","id":"ap4bj4ydbw9j"},"type":"Feature","geometry":null},{"properties":{"zipcode":"25701","id":"ap4bj507x2xs"},"type":"Feature","geometry":null},{"properties":{"zipcode":"44305","id":"ap4bj549du9f"},"type":"Feature","geometry":null},{"properties":{"zipcode":"33606","id":"ap4bj5amqlyr"},"type":"Feature","geometry":null},{"properties":{"zipcode":"33134","id":"ap4bj4x49l22"},"type":"Feature","geometry":null},{"properties":{"zipcode":"40207","id":"ap4bj59eidy1"},"type":"Feature","geometry":null},{"properties":{"zipcode":"10017","id":"ap4bj4zw5wyl"},"type":"Feature","geometry":null},{"properties":{"zipcode":"40503","id":"ap4bj56dg884"},"type":"Feature","geometry":null},{"properties":{"zipcode":"32714","id":"ap4bj5c3lmmo"},"type":"Feature","geometry":null},{"properties":{"zipcode":"63701","id":"ap4bj59x3n5i"},"type":"Feature","geometry":null},{"properties":{"zipcode":"25504","id":"ap4bj56l56lk"},"type":"Feature","geometry":null},{"properties":{"zipcode":"28804","id":"ap4bj5bbl1ea"},"type":"Feature","geometry":null},{"properties":{"zipcode":"19018","id":"ap4bj55zx7mh"},"type":"Feature","geometry":null},{"properties":{"zipcode":"21401","id":"ap4bj5bzndqc"},"type":"Feature","geometry":null},{"properties":{"zipcode":"11201","id":"ap4bj4xxzjh3"},"type":"Feature","geometry":null},{"properties":{"zipcode":"7073","id":"ap4bj58fzt0l"},"type":"Feature","geometry":null},{"properties":{"zipcode":"1028","id":"ap4bj58yfs9n"},"type":"Feature","geometry":null},{"properties":{"zipcode":"1106","id":"ap4bj4wlrjwt"},"type":"Feature","geometry":null},{"properties":{"zipcode":"13203","id":"ap4bj5832x4v"},"type":"Feature","geometry":null},{"properties":{"zipcode":"18104","id":"ap4bj52oczqs"},"type":"Feature","geometry":null},{"properties":{"zipcode":"48867","id":"ap4bj50zezbq"},"type":"Feature","geometry":null},{"properties":{"zipcode":"6235","id":"ap4bj54m66yn"},"type":"Feature","geometry":null},{"properties":{"zipcode":"28801","id":"ap4bj539mce4"},"type":"Feature","geometry":null},{"properties":{"zipcode":"27707","id":"ap4bj57t2jw4"},"type":"Feature","geometry":null},{"properties":{"zipcode":"27607","id":"ap4bj51cegyg"},"type":"Feature","geometry":null},{"properties":{"zipcode":"63701","id":"ap4bj56zsyar"},"type":"Feature","geometry":null},{"properties":{"zipcode":"10024","id":"ap4bj4xkqm06"},"type":"Feature","geometry":null},{"properties":{"zipcode":"12603","id":"ap4bj57uer0e"},"type":"Feature","geometry":null},{"properties":{"zipcode":"12942","id":"ap4bj59ujn7a"},"type":"Feature","geometry":null},{"properties":{"zipcode":"19103","id":"ap4bj4w59szo"},"type":"Feature","geometry":null},{"properties":{"zipcode":"22206","id":"ap4bj50dok29"},"type":"Feature","geometry":null},{"properties":{"zipcode":"44663","id":"ap4bj53o9qdd"},"type":"Feature","geometry":null},{"properties":{"zipcode":"30132","id":"ap4bj50ijcna"},"type":"Feature","geometry":null},{"properties":{"zipcode":"44663","id":"ap4bj54dwr0r"},"type":"Feature","geometry":null},{"properties":{"zipcode":"44663","id":"ap4bj58xyxp9"},"type":"Feature","geometry":null},{"properties":{"zipcode":"28105","id":"ap4bj531gyt5"},"type":"Feature","geometry":null},{"properties":{"zipcode":"28105","id":"ap4bj5b0c0xp"},"type":"Feature","geometry":null},{"properties":{"zipcode":"30122","id":"ap4bj4yg5vol"},"type":"Feature","geometry":null},{"properties":{"zipcode":"30076","id":"ap4bj53zffi4"},"type":"Feature","geometry":null},{"properties":{"zipcode":"7419","id":"ap4bj54tdho3"},"type":"Feature","geometry":null},{"properties":{"zipcode":"64801","id":"ap4bj5c1aw8y"},"type":"Feature","geometry":null},{"properties":{"zipcode":"19904","id":"ap4bj5209e62"},"type":"Feature","geometry":null},{"properties":{"zipcode":"46368","id":"ap4bj5bzjmna"},"type":"Feature","geometry":null},{"properties":{"zipcode":"46383","id":"ap4bj5aiim6o"},"type":"Feature","geometry":null},{"properties":{"zipcode":"8840","id":"ap4bj56rhfwn"},"type":"Feature","geometry":null},{"properties":{"zipcode":"7040","id":"ap4bj5a5e99g"},"type":"Feature","geometry":null},{"properties":{"zipcode":"7435","id":"ap4bj4xc37od"},"type":"Feature","geometry":null},{"properties":{"zipcode":"8055","id":"ap4bj50bf17v"},"type":"Feature","geometry":null},{"properties":{"zipcode":"14224","id":"ap4bj4wdrora"},"type":"Feature","geometry":null},{"properties":{"zipcode":"10924","id":"ap4bj53st6vb"},"type":"Feature","geometry":null},{"properties":{"zipcode":"10924","id":"ap4bj4x335z9"},"type":"Feature","geometry":null},{"properties":{"zipcode":"31405","id":"ap4bj52zfu2f"},"type":"Feature","geometry":null},{"properties":{"zipcode":"30161","id":"ap4bj4x8jxsl"},"type":"Feature","geometry":null},{"properties":{"zipcode":"30165","id":"ap4bj5b5long"},"type":"Feature","geometry":null},{"properties":{"zipcode":"31602","id":"ap4bj4zmbrjk"},"type":"Feature","geometry":null},{"properties":{"zipcode":"39817","id":"ap4bj52emfvk"},"type":"Feature","geometry":null},{"properties":{"zipcode":"39819","id":"ap4bj542qzc9"},"type":"Feature","geometry":null},{"properties":{"zipcode":"30606","id":"ap4bj4w4ubso"},"type":"Feature","geometry":null},{"properties":{"zipcode":"30605","id":"ap4bj53xdf5x"},"type":"Feature","geometry":null},{"properties":{"zipcode":"30606","id":"ap4bj595i4sg"},"type":"Feature","geometry":null},{"properties":{"zipcode":"31906","id":"ap4bj4wy3929"},"type":"Feature","geometry":null},{"properties":{"zipcode":"10457","id":"ap4bj589kovx"},"type":"Feature","geometry":null},{"properties":{"zipcode":"31709","id":"ap4bj4xikn86"},"type":"Feature","geometry":null},{"properties":{"zipcode":"8003","id":"ap4bj524nfpl"},"type":"Feature","geometry":null},{"properties":{"zipcode":"30093","id":"ap4bj4zi85fx"},"type":"Feature","geometry":null},{"properties":{"zipcode":"40502","id":"ap4bj59hcxiv"},"type":"Feature","geometry":null},{"properties":{"zipcode":"14111","id":"ap4bj4ww7nor"},"type":"Feature","geometry":null},{"properties":{"zipcode":"14221","id":"ap4bj53veuxd"},"type":"Feature","geometry":null},{"properties":{"zipcode":"7871","id":"ap4bj5c6o2qk"},"type":"Feature","geometry":null},{"properties":{"zipcode":"18342","id":"ap4bj4ytwue5"},"type":"Feature","geometry":null},{"properties":{"zipcode":"30214","id":"ap4bj527zkcj"},"type":"Feature","geometry":null},{"properties":{"zipcode":"7076","id":"ap4bj53i4sha"},"type":"Feature","geometry":null},{"properties":{"zipcode":"8234","id":"ap4bj4zzdpde"},"type":"Feature","geometry":null},{"properties":{"zipcode":"30253","id":"ap4bj5817u07"},"type":"Feature","geometry":null},{"properties":{"zipcode":"32250","id":"ap4bj4yfny3f"},"type":"Feature","geometry":null},{"properties":{"zipcode":"32224","id":"ap4bj51tasuk"},"type":"Feature","geometry":null},{"properties":{"zipcode":"6040","id":"ap4bj4xdqv1u"},"type":"Feature","geometry":null},{"properties":{"zipcode":"2828","id":"ap4bj4w3ypyz"},"type":"Feature","geometry":null},{"properties":{"zipcode":"6238","id":"ap4bj5bdfp6l"},"type":"Feature","geometry":null},{"properties":{"zipcode":"14623","id":"ap4bj56yof3w"},"type":"Feature","geometry":null},{"properties":{"zipcode":"27705","id":"ap4bj55susxq"},"type":"Feature","geometry":null},{"properties":{"zipcode":"48034","id":"ap4bj52vkmyt"},"type":"Feature","geometry":null},{"properties":{"zipcode":"33176","id":"ap4bj56novai"},"type":"Feature","geometry":null},{"properties":{"zipcode":"2150","id":"ap4bj5bg2ijv"},"type":"Feature","geometry":null},{"properties":{"zipcode":"31406","id":"ap4bj548ab6x"},"type":"Feature","geometry":null},{"properties":{"zipcode":"18360","id":"ap4bj52fl25d"},"type":"Feature","geometry":null},{"properties":{"zipcode":"18940","id":"ap4bj54wrc2l"},"type":"Feature","geometry":null},{"properties":{"zipcode":"18940","id":"ap4bj52digfq"},"type":"Feature","geometry":null},{"properties":{"zipcode":"19355","id":"ap4bj59g0910"},"type":"Feature","geometry":null},{"properties":{"zipcode":"40207","id":"ap4bj51hdtpq"},"type":"Feature","geometry":null},{"properties":{"zipcode":"27546","id":"ap4bj5ahoj6h"},"type":"Feature","geometry":null},{"properties":{"zipcode":"44663","id":"ap4bj5b0hbmp"},"type":"Feature","geometry":null},{"properties":{"zipcode":"44663","id":"ap4bj4xz48bm"},"type":"Feature","geometry":null},{"properties":{"zipcode":"44622","id":"ap4bj54q2ipu"},"type":"Feature","geometry":null},{"properties":{"zipcode":"10016","id":"ap4bj58nkl70"},"type":"Feature","geometry":null},{"properties":{"zipcode":"16505","id":"ap4bj4yd8h1e"},"type":"Feature","geometry":null},{"properties":{"zipcode":"65401","id":"ap4bj5c1pbau"},"type":"Feature","geometry":null},{"properties":{"zipcode":"46383","id":"ap4bj51agb6b"},"type":"Feature","geometry":null},{"properties":{"zipcode":"46383","id":"ap4bj5bk66ed"},"type":"Feature","geometry":null},{"properties":{"zipcode":"32257","id":"ap4bj4vtuk8l"},"type":"Feature","geometry":null},{"properties":{"zipcode":"65201","id":"ap4bj53oaybi"},"type":"Feature","geometry":null},{"properties":{"zipcode":"22304","id":"ap4bj590mp6l"},"type":"Feature","geometry":null},{"properties":{"zipcode":"2144","id":"ap4bj58zv80d"},"type":"Feature","geometry":null},{"properties":{"zipcode":"5055","id":"ap4bj4wouz7p"},"type":"Feature","geometry":null},{"properties":{"zipcode":"65301","id":"ap4bj522y6gy"},"type":"Feature","geometry":null},{"properties":{"zipcode":"48009","id":"ap4bj58vd299"},"type":"Feature","geometry":null},{"properties":{"zipcode":"19087","id":"ap4bj4y35sfg"},"type":"Feature","geometry":null},{"properties":{"zipcode":"32257","id":"ap4bj54tla1k"},"type":"Feature","geometry":null},{"properties":{"zipcode":"32257","id":"ap4bj4xodgge"},"type":"Feature","geometry":null},{"properties":{"zipcode":"32257","id":"ap4bj4voihp0"},"type":"Feature","geometry":null},{"properties":{"zipcode":"65301","id":"ap4bj55vf4a9"},"type":"Feature","geometry":null},{"properties":{"zipcode":"65301","id":"ap4bj5a55y16"},"type":"Feature","geometry":null},{"properties":{"zipcode":"65301","id":"ap4bj4yrpf27"},"type":"Feature","geometry":null},{"properties":{"zipcode":"46228","id":"ap4bj56b3b0i"},"type":"Feature","geometry":null},{"properties":{"zipcode":"27713","id":"ap4bj58h0jgj"},"type":"Feature","geometry":null},{"properties":{"zipcode":"27713","id":"ap4bj55e1ugw"},"type":"Feature","geometry":null},{"properties":{"zipcode":"27615","id":"ap4bj557kt61"},"type":"Feature","geometry":null},{"properties":{"zipcode":"37919","id":"ap4bj59w43ao"},"type":"Feature","geometry":null},{"properties":{"zipcode":"27713","id":"ap4bj55ayli2"},"type":"Feature","geometry":null},{"properties":{"zipcode":"27517","id":"ap4bj583kwvh"},"type":"Feature","geometry":null},{"properties":{"zipcode":"2740","id":"ap4bj54mnpw3"},"type":"Feature","geometry":null},{"properties":{"zipcode":"7630","id":"ap4bj51hn89k"},"type":"Feature","geometry":null},{"properties":{"zipcode":"46038","id":"ap4bj55ot6uj"},"type":"Feature","geometry":null},{"properties":{"zipcode":"2740","id":"ap4bj523z4pw"},"type":"Feature","geometry":null},{"properties":{"zipcode":"40351","id":"ap4bj4w3snxe"},"type":"Feature","geometry":null},{"properties":{"zipcode":"32792","id":"ap4bj54l0p2n"},"type":"Feature","geometry":null},{"properties":{"zipcode":"2370","id":"ap4bj51mae01"},"type":"Feature","geometry":null},{"properties":{"zipcode":"28211","id":"ap4bj56m457m"},"type":"Feature","geometry":null},{"properties":{"zipcode":"29201","id":"ap4bj5c36hja"},"type":"Feature","geometry":null},{"properties":{"zipcode":"33606","id":"ap4bj4vyvxrw"},"type":"Feature","geometry":null},{"properties":{"zipcode":"31088","id":"ap4bj4wc5vv4"},"type":"Feature","geometry":null},{"properties":{"zipcode":"28117","id":"ap4bj4y0d4jq"},"type":"Feature","geometry":null},{"properties":{"zipcode":"14221","id":"ap4bj57m4ncj"},"type":"Feature","geometry":null},{"properties":{"zipcode":"20874","id":"ap4bj4zlobcw"},"type":"Feature","geometry":null},{"properties":{"zipcode":"20874","id":"ap4bj5b3kkdq"},"type":"Feature","geometry":null},{"properties":{"zipcode":"12208","id":"ap4bj58h1rt2"},"type":"Feature","geometry":null},{"properties":{"zipcode":"19103","id":"ap4bj596lt45"},"type":"Feature","geometry":null},{"properties":{"zipcode":"19103","id":"ap4bj512vvuv"},"type":"Feature","geometry":null},{"properties":{"zipcode":"29102","id":"ap4bj55npcs6"},"type":"Feature","geometry":null},{"properties":{"zipcode":"19103","id":"ap4bj56eud5k"},"type":"Feature","geometry":null},{"properties":{"zipcode":"12585","id":"ap4bj5b9ch9x"},"type":"Feature","geometry":null},{"properties":{"zipcode":"32257","id":"ap4bj5bd6ewu"},"type":"Feature","geometry":null},{"properties":{"zipcode":"30064","id":"ap4bj58gzcuw"},"type":"Feature","geometry":null},{"properties":{"zipcode":"49930","id":"ap4bj5c125vn"},"type":"Feature","geometry":null},{"properties":{"zipcode":"12603","id":"ap4bj4waiite"},"type":"Feature","geometry":null},{"properties":{"zipcode":"44106","id":"ap4bj4z1c55i"},"type":"Feature","geometry":null},{"properties":{"zipcode":"28117","id":"ap4bj53kigr5"},"type":"Feature","geometry":null},{"properties":{"zipcode":"10017","id":"ap4bj5a3mapb"},"type":"Feature","geometry":null},{"properties":{"zipcode":"44106","id":"ap4bj4xzs40b"},"type":"Feature","geometry":null},{"properties":{"zipcode":"20706","id":"ap4bj55s95jh"},"type":"Feature","geometry":null},{"properties":{"zipcode":"30046","id":"ap4bj51wbaok"},"type":"Feature","geometry":null},{"properties":{"zipcode":"44107","id":"ap4bj5b4j5sm"},"type":"Feature","geometry":null},{"properties":{"zipcode":"44107","id":"ap4bj5bu15ce"},"type":"Feature","geometry":null},{"properties":{"zipcode":"44107","id":"ap4bj4wovv06"},"type":"Feature","geometry":null},{"properties":{"zipcode":"44107","id":"ap4bj53iksd2"},"type":"Feature","geometry":null},{"properties":{"zipcode":"44107","id":"ap4bj54sakx4"},"type":"Feature","geometry":null},{"properties":{"zipcode":"33155","id":"ap4bj4xydrpp"},"type":"Feature","geometry":null},{"properties":{"zipcode":"33155","id":"ap4bj57e4o7x"},"type":"Feature","geometry":null},{"properties":{"zipcode":"33155","id":"ap4bj5aet4m0"},"type":"Feature","geometry":null},{"properties":{"zipcode":"33155","id":"ap4bj4wkyv1l"},"type":"Feature","geometry":null},{"properties":{"zipcode":"49085","id":"ap4bj55w41ob"},"type":"Feature","geometry":null},{"properties":{"zipcode":"10001","id":"ap4bj57gz4pp"},"type":"Feature","geometry":null},{"properties":{"zipcode":"33157","id":"ap4bj586xy1e"},"type":"Feature","geometry":null},{"properties":{"zipcode":"12309","id":"ap4bj5c1clm6"},"type":"Feature","geometry":null},{"properties":{"zipcode":"12866","id":"ap4bj5belo2h"},"type":"Feature","geometry":null},{"properties":{"zipcode":"21030","id":"ap4bj53ogas1"},"type":"Feature","geometry":null},{"properties":{"zipcode":"6114","id":"ap4bj53gfhu6"},"type":"Feature","geometry":null},{"properties":{"zipcode":"20774","id":"ap4bj52qc97p"},"type":"Feature","geometry":null},{"properties":{"zipcode":"33324","id":"ap4bj57ybly6"},"type":"Feature","geometry":null},{"properties":{"zipcode":"46131","id":"ap4bj4y97ag3"},"type":"Feature","geometry":null},{"properties":{"zipcode":"46131","id":"ap4bj55adccm"},"type":"Feature","geometry":null},{"properties":{"zipcode":"19141","id":"ap4bj4yfi97v"},"type":"Feature","geometry":null},{"properties":{"zipcode":"40207","id":"ap4bj4ydn2qn"},"type":"Feature","geometry":null},{"properties":{"zipcode":"2128","id":"ap4bj554xad7"},"type":"Feature","geometry":null},{"properties":{"zipcode":"8816","id":"ap4bj5bdu296"},"type":"Feature","geometry":null},{"properties":{"zipcode":"48507","id":"ap4bj4vof4v1"},"type":"Feature","geometry":null},{"properties":{"zipcode":"12801","id":"ap4bj51owzi4"},"type":"Feature","geometry":null},{"properties":{"zipcode":"10940","id":"ap4bj56oyxsn"},"type":"Feature","geometry":null}],"is_temporal":false,"author":{"url":"","metadata":null,"contact_name":null,"contact_address":null,"source":null,"contact_phone":null},"source":"","pagination":{"sort":null,"start":0,"total":380,"limit":1000000},"state":"parsed","tags":"","published":"2014-08-14T19:42:53-04:00","id":213015}