{"type":"FeatureCollection","data_type":"Dataset","url_type":null,"permissions":[{"permissions":{"download":true,"view":true},"group_id":"everyone"}],"classification":null,"title":"Mountain_2_10_2012","count":35,"stream_id":213006,"contributor":{"url":"http://geocommons.com/users/41497","name":"thebirdinthesky"},"data_attributes":null,"calculation_params":null,"icon_link":null,"link":"http://geocommons.com/overlays/213006.json","extent":[0.0,0.0,0.0,0.0],"geometry_types":null,"unique_name":null,"name":"Mountain_2_10_2012","feature_count":35,"description":"","next_feature":null,"is_raster":false,"short_classification":"Y","features":[{"properties":{"zipcode":"80211","id":"ap4bisf0e3lg"},"type":"Feature","geometry":null},{"properties":{"zipcode":"80501","id":"ap4bisci8on0"},"type":"Feature","geometry":null},{"properties":{"zipcode":"80903","id":"ap4bis88cv2f"},"type":"Feature","geometry":null},{"properties":{"zipcode":"84121","id":"ap4bisfndjj1"},"type":"Feature","geometry":null},{"properties":{"zipcode":"84105","id":"ap4bis9f99m1"},"type":"Feature","geometry":null},{"properties":{"zipcode":"80222","id":"ap4biseekiu9"},"type":"Feature","geometry":null},{"properties":{"zipcode":"80304","id":"ap4bis3lnkyw"},"type":"Feature","geometry":null},{"properties":{"zipcode":"81301","id":"ap4bis6rwnnl"},"type":"Feature","geometry":null},{"properties":{"zipcode":"80301","id":"ap4bis4104k2"},"type":"Feature","geometry":null},{"properties":{"zipcode":"80108","id":"ap4bis5vdcb2"},"type":"Feature","geometry":null},{"properties":{"zipcode":"80031","id":"ap4bis9hsxjd"},"type":"Feature","geometry":null},{"properties":{"zipcode":"83404","id":"ap4bisgyw110"},"type":"Feature","geometry":null},{"properties":{"zipcode":"83616","id":"ap4bisasryhg"},"type":"Feature","geometry":null},{"properties":{"zipcode":"81301","id":"ap4bis3vsuyn"},"type":"Feature","geometry":null},{"properties":{"zipcode":"81301","id":"ap4bis1mut3s"},"type":"Feature","geometry":null},{"properties":{"zipcode":"83713","id":"ap4bis19fu5h"},"type":"Feature","geometry":null},{"properties":{"zipcode":"84025","id":"ap4bisbvur0c"},"type":"Feature","geometry":null},{"properties":{"zipcode":"84401","id":"ap4bis2qpu31"},"type":"Feature","geometry":null},{"properties":{"zipcode":"80210","id":"ap4bis0qwrr3"},"type":"Feature","geometry":null},{"properties":{"zipcode":"80210","id":"ap4bis4s4v70"},"type":"Feature","geometry":null},{"properties":{"zipcode":"80215","id":"ap4bis1a85xs"},"type":"Feature","geometry":null},{"properties":{"zipcode":"83404","id":"ap4bisgtffc9"},"type":"Feature","geometry":null},{"properties":{"zipcode":"80634","id":"ap4bis5skt2c"},"type":"Feature","geometry":null},{"properties":{"zipcode":"81301","id":"ap4bis2hbxpr"},"type":"Feature","geometry":null},{"properties":{"zipcode":"80909","id":"ap4bis32iir3"},"type":"Feature","geometry":null},{"properties":{"zipcode":"84720","id":"ap4bisdmhcbf"},"type":"Feature","geometry":null},{"properties":{"zipcode":"68506","id":"ap4bis9epzt5"},"type":"Feature","geometry":null},{"properties":{"zipcode":"83340","id":"ap4bis2f0aj4"},"type":"Feature","geometry":null},{"properties":{"zipcode":"84058","id":"ap4bis7q0ph1"},"type":"Feature","geometry":null},{"properties":{"zipcode":"84770","id":"ap4bis76e2ev"},"type":"Feature","geometry":null},{"properties":{"zipcode":"84770","id":"ap4bis6qixbe"},"type":"Feature","geometry":null},{"properties":{"zipcode":"82001","id":"ap4bis3i604b"},"type":"Feature","geometry":null},{"properties":{"zipcode":"82001","id":"ap4bisd10ncw"},"type":"Feature","geometry":null},{"properties":{"zipcode":"82001","id":"ap4bis6vr041"},"type":"Feature","geometry":null},{"properties":{"zipcode":"80016","id":"ap4bis91xqc8"},"type":"Feature","geometry":null}],"is_temporal":false,"author":{"url":"","metadata":null,"contact_name":null,"contact_address":null,"source":null,"contact_phone":null},"source":"","pagination":{"sort":null,"start":0,"total":35,"limit":1000000},"state":"parsed","tags":"","published":"2014-08-14T19:42:24-04:00","id":213006}