{"type":"FeatureCollection","data_type":"Dataset","url_type":null,"permissions":[{"permissions":{"download":true,"view":true},"group_id":"everyone"}],"classification":null,"title":"AZ_NM_OK_LA_2_10_2012","count":389,"stream_id":213017,"contributor":{"url":"http://geocommons.com/users/41497","name":"thebirdinthesky"},"data_attributes":null,"calculation_params":null,"icon_link":null,"link":"http://geocommons.com/overlays/213017.json","extent":[0.0,0.0,0.0,0.0],"geometry_types":null,"unique_name":null,"name":"AZ_NM_OK_LA_2_10_2012","feature_count":389,"description":"","next_feature":null,"is_raster":false,"short_classification":"Y","features":[{"properties":{"zipcode":"70175","id":"ap4bj7cqp341"},"type":"Feature","geometry":null},{"properties":{"zipcode":"71106","id":"ap4bj7dlutio"},"type":"Feature","geometry":null},{"properties":{"zipcode":"71101","id":"ap4bj79bwar7"},"type":"Feature","geometry":null},{"properties":{"zipcode":"70810","id":"ap4bj7dppvyj"},"type":"Feature","geometry":null},{"properties":{"zipcode":"73942","id":"ap4bj7hdbipm"},"type":"Feature","geometry":null},{"properties":{"zipcode":"87505","id":"ap4bj7d7owhp"},"type":"Feature","geometry":null},{"properties":{"zipcode":"87109","id":"ap4bj77ptl09"},"type":"Feature","geometry":null},{"properties":{"zipcode":"73132","id":"ap4bj76e6f3q"},"type":"Feature","geometry":null},{"properties":{"zipcode":"74145","id":"ap4bj7gevk6r"},"type":"Feature","geometry":null},{"properties":{"zipcode":"73116","id":"ap4bj7gxbi4u"},"type":"Feature","geometry":null},{"properties":{"zipcode":"88011","id":"ap4bj7jyc379"},"type":"Feature","geometry":null},{"properties":{"zipcode":"70433","id":"ap4bj7ax5p9t"},"type":"Feature","geometry":null},{"properties":{"zipcode":"87401","id":"ap4bj7iao6s0"},"type":"Feature","geometry":null},{"properties":{"zipcode":"73116","id":"ap4bj7j5wftl"},"type":"Feature","geometry":null},{"properties":{"zipcode":"73116","id":"ap4bj7k2uqz0"},"type":"Feature","geometry":null},{"properties":{"zipcode":"73034","id":"ap4bj78hq7ua"},"type":"Feature","geometry":null},{"properties":{"zipcode":"73013","id":"ap4bj7993a9p"},"type":"Feature","geometry":null},{"properties":{"zipcode":"73118","id":"ap4bj7l969e9"},"type":"Feature","geometry":null},{"properties":{"zipcode":"70072","id":"ap4bj7emjn92"},"type":"Feature","geometry":null},{"properties":{"zipcode":"87109","id":"ap4bj7imfojo"},"type":"Feature","geometry":null},{"properties":{"zipcode":"73505","id":"ap4bj7bcah8a"},"type":"Feature","geometry":null},{"properties":{"zipcode":"87106","id":"ap4bj78i7sk6"},"type":"Feature","geometry":null},{"properties":{"zipcode":"87505","id":"ap4bj7bzjpo5"},"type":"Feature","geometry":null},{"properties":{"zipcode":"87106","id":"ap4bj7ce21tl"},"type":"Feature","geometry":null},{"properties":{"zipcode":"87107","id":"ap4bj7dtmfap"},"type":"Feature","geometry":null},{"properties":{"zipcode":"74604","id":"ap4bj7mbtl4t"},"type":"Feature","geometry":null},{"properties":{"zipcode":"70809-2879","id":"ap4bj7alhmmm"},"type":"Feature","geometry":null},{"properties":{"zipcode":"87107","id":"ap4bj7hovp5t"},"type":"Feature","geometry":null},{"properties":{"zipcode":"73072","id":"ap4bj7isvhhf"},"type":"Feature","geometry":null},{"properties":{"zipcode":"87506","id":"ap4bj78sfcqq"},"type":"Feature","geometry":null},{"properties":{"zipcode":"73013","id":"ap4bj79nu9rw"},"type":"Feature","geometry":null},{"properties":{"zipcode":"73118","id":"ap4bj7a2qsgf"},"type":"Feature","geometry":null},{"properties":{"zipcode":"73118","id":"ap4bj7clvf6k"},"type":"Feature","geometry":null},{"properties":{"zipcode":"73118","id":"ap4bj7e5n92s"},"type":"Feature","geometry":null},{"properties":{"zipcode":"73110","id":"ap4bj76nw6rz"},"type":"Feature","geometry":null},{"properties":{"zipcode":"71303","id":"ap4bj7aznd6m"},"type":"Feature","geometry":null},{"properties":{"zipcode":"71104","id":"ap4bj7gs8q19"},"type":"Feature","geometry":null},{"properties":{"zipcode":"73103-1899","id":"ap4bj7jdln74"},"type":"Feature","geometry":null},{"properties":{"zipcode":"85283","id":"ap4bj7mfqsrb"},"type":"Feature","geometry":null},{"properties":{"zipcode":"73026","id":"ap4bj7m9ngs7"},"type":"Feature","geometry":null},{"properties":{"zipcode":"73120","id":"ap4bj7awwkkn"},"type":"Feature","geometry":null},{"properties":{"zipcode":"73142","id":"ap4bj77shy3q"},"type":"Feature","geometry":null},{"properties":{"zipcode":"88240","id":"ap4bj7cz7gti"},"type":"Feature","geometry":null},{"properties":{"zipcode":"88240","id":"ap4bj7cf5pos"},"type":"Feature","geometry":null},{"properties":{"zipcode":"88240","id":"ap4bj7bx26sw"},"type":"Feature","geometry":null},{"properties":{"zipcode":"70005","id":"ap4bj7bc2099"},"type":"Feature","geometry":null},{"properties":{"zipcode":"70001","id":"ap4bj7cczqvk"},"type":"Feature","geometry":null},{"properties":{"zipcode":"70714","id":"ap4bj794phfj"},"type":"Feature","geometry":null},{"properties":{"zipcode":"71106","id":"ap4bj7epmpuh"},"type":"Feature","geometry":null},{"properties":{"zipcode":"71106","id":"ap4bj76knkfd"},"type":"Feature","geometry":null},{"properties":{"zipcode":"70808","id":"ap4bj78wc1kn"},"type":"Feature","geometry":null},{"properties":{"zipcode":"70808","id":"ap4bj7bytq8f"},"type":"Feature","geometry":null},{"properties":{"zipcode":"70810","id":"ap4bj7fr2nk2"},"type":"Feature","geometry":null},{"properties":{"zipcode":"70503","id":"ap4bj78jr0og"},"type":"Feature","geometry":null},{"properties":{"zipcode":"71101","id":"ap4bj7lyjtol"},"type":"Feature","geometry":null},{"properties":{"zipcode":"70502","id":"ap4bj77g57wi"},"type":"Feature","geometry":null},{"properties":{"zipcode":"71111","id":"ap4bj7hg8nto"},"type":"Feature","geometry":null},{"properties":{"zipcode":"70816","id":"ap4bj78r3y4z"},"type":"Feature","geometry":null},{"properties":{"zipcode":"70508","id":"ap4bj7fhkf9x"},"type":"Feature","geometry":null},{"properties":{"zipcode":"71201","id":"ap4bj7cf3ntk"},"type":"Feature","geometry":null},{"properties":{"zipcode":"73116","id":"ap4bj7d7cig4"},"type":"Feature","geometry":null},{"properties":{"zipcode":"74105","id":"ap4bj7lgtids"},"type":"Feature","geometry":null},{"properties":{"zipcode":"74105","id":"ap4bj78biyoj"},"type":"Feature","geometry":null},{"properties":{"zipcode":"73069","id":"ap4bj7e5vmdh"},"type":"Feature","geometry":null},{"properties":{"zipcode":"74105","id":"ap4bj7jcp7cx"},"type":"Feature","geometry":null},{"properties":{"zipcode":"87110","id":"ap4bj7b6p2kn"},"type":"Feature","geometry":null},{"properties":{"zipcode":"87109","id":"ap4bj7du9xll"},"type":"Feature","geometry":null},{"properties":{"zipcode":"87106","id":"ap4bj7hr819w"},"type":"Feature","geometry":null},{"properties":{"zipcode":"70808","id":"ap4bj7glir70"},"type":"Feature","geometry":null},{"properties":{"zipcode":"73034","id":"ap4bj79jofun"},"type":"Feature","geometry":null},{"properties":{"zipcode":"85283","id":"ap4bj78w6e3y"},"type":"Feature","geometry":null},{"properties":{"zipcode":"85018-2135","id":"ap4bj7mtl7bo"},"type":"Feature","geometry":null},{"properties":{"zipcode":"85254","id":"ap4bj7ccfld1"},"type":"Feature","geometry":null},{"properties":{"zipcode":"85018","id":"ap4bj76vglrr"},"type":"Feature","geometry":null},{"properties":{"zipcode":"86336","id":"ap4bj7humadq"},"type":"Feature","geometry":null},{"properties":{"zipcode":"85614","id":"ap4bj7bmrcfa"},"type":"Feature","geometry":null},{"properties":{"zipcode":"85003","id":"ap4bj76kg81t"},"type":"Feature","geometry":null},{"properties":{"zipcode":"85306","id":"ap4bj7fwueu0"},"type":"Feature","geometry":null},{"properties":{"zipcode":"85013","id":"ap4bj7bgdm0i"},"type":"Feature","geometry":null},{"properties":{"zipcode":"85712","id":"ap4bj7jzll4t"},"type":"Feature","geometry":null},{"properties":{"zipcode":"73069","id":"ap4bj79xv7hs"},"type":"Feature","geometry":null},{"properties":{"zipcode":"73069","id":"ap4bj7h4m4zy"},"type":"Feature","geometry":null},{"properties":{"zipcode":"70471","id":"ap4bj7had54c"},"type":"Feature","geometry":null},{"properties":{"zipcode":"85053","id":"ap4bj79z04y6"},"type":"Feature","geometry":null},{"properties":{"zipcode":"71104","id":"ap4bj7983dsh"},"type":"Feature","geometry":null},{"properties":{"zipcode":"73099","id":"ap4bj7g5owd2"},"type":"Feature","geometry":null},{"properties":{"zipcode":"70310","id":"ap4bj7a1sm2x"},"type":"Feature","geometry":null},{"properties":{"zipcode":"70131","id":"ap4bj780z3yh"},"type":"Feature","geometry":null},{"properties":{"zipcode":"85718","id":"ap4bj7h7y9lm"},"type":"Feature","geometry":null},{"properties":{"zipcode":"70401","id":"ap4bj77nqu12"},"type":"Feature","geometry":null},{"properties":{"zipcode":"87035","id":"ap4bj7gfnvr4"},"type":"Feature","geometry":null},{"properties":{"zipcode":"73069","id":"ap4bj7kvkdx2"},"type":"Feature","geometry":null},{"properties":{"zipcode":"70002","id":"ap4bj7fbjlpf"},"type":"Feature","geometry":null},{"properties":{"zipcode":"70471","id":"ap4bj7aerncz"},"type":"Feature","geometry":null},{"properties":{"zipcode":"73501","id":"ap4bj7lxgmfr"},"type":"Feature","geometry":null},{"properties":{"zipcode":"73505","id":"ap4bj7mahpxh"},"type":"Feature","geometry":null},{"properties":{"zipcode":"71303","id":"ap4bj7fiwlbs"},"type":"Feature","geometry":null},{"properties":{"zipcode":"73701","id":"ap4bj7bvyozi"},"type":"Feature","geometry":null},{"properties":{"zipcode":"73110","id":"ap4bj7l2gwf7"},"type":"Feature","geometry":null},{"properties":{"zipcode":"73505","id":"ap4bj7l60ozo"},"type":"Feature","geometry":null},{"properties":{"zipcode":"73116","id":"ap4bj7ar6qsi"},"type":"Feature","geometry":null},{"properties":{"zipcode":"73112","id":"ap4bj7f673wg"},"type":"Feature","geometry":null},{"properties":{"zipcode":"70119","id":"ap4bj78ns944"},"type":"Feature","geometry":null},{"properties":{"zipcode":"87110","id":"ap4bj76cq2xz"},"type":"Feature","geometry":null},{"properties":{"zipcode":"73110","id":"ap4bj7fv0hx0"},"type":"Feature","geometry":null},{"properties":{"zipcode":"85254","id":"ap4bj7bwj1q1"},"type":"Feature","geometry":null},{"properties":{"zipcode":"71119","id":"ap4bj7jun90s"},"type":"Feature","geometry":null},{"properties":{"zipcode":"73701","id":"ap4bj7m8r9n7"},"type":"Feature","geometry":null},{"properties":{"zipcode":"70806","id":"ap4bj7bbb332"},"type":"Feature","geometry":null},{"properties":{"zipcode":"73701","id":"ap4bj7g7yuxd"},"type":"Feature","geometry":null},{"properties":{"zipcode":"73521","id":"ap4bj79waxkd"},"type":"Feature","geometry":null},{"properties":{"zipcode":"70508","id":"ap4bj7gb1481"},"type":"Feature","geometry":null},{"properties":{"zipcode":"71101","id":"ap4bj7i2zghl"},"type":"Feature","geometry":null},{"properties":{"zipcode":"73069","id":"ap4bj7jlcoi2"},"type":"Feature","geometry":null},{"properties":{"zipcode":"73069","id":"ap4bj7en9wx5"},"type":"Feature","geometry":null},{"properties":{"zipcode":"74401","id":"ap4bj7dm9zpz"},"type":"Feature","geometry":null},{"properties":{"zipcode":"74017","id":"ap4bj7kkj2tx"},"type":"Feature","geometry":null},{"properties":{"zipcode":"74037","id":"ap4bj7fm6u2e"},"type":"Feature","geometry":null},{"properties":{"zipcode":"70448","id":"ap4bj7gnb6zn"},"type":"Feature","geometry":null},{"properties":{"zipcode":"70310","id":"ap4bj79dk7ja"},"type":"Feature","geometry":null},{"properties":{"zipcode":"71111","id":"ap4bj7af6vbr"},"type":"Feature","geometry":null},{"properties":{"zipcode":"71111","id":"ap4bj7lu43lx"},"type":"Feature","geometry":null},{"properties":{"zipcode":"87106","id":"ap4bj7h60heh"},"type":"Feature","geometry":null},{"properties":{"zipcode":"70004","id":"ap4bj7f3egcg"},"type":"Feature","geometry":null},{"properties":{"zipcode":"70806","id":"ap4bj7l4pkgu"},"type":"Feature","geometry":null},{"properties":{"zipcode":"70808","id":"ap4bj7fi76vl"},"type":"Feature","geometry":null},{"properties":{"zipcode":"70808","id":"ap4bj7iy2aeo"},"type":"Feature","geometry":null},{"properties":{"zipcode":"70808","id":"ap4bj7cxux31"},"type":"Feature","geometry":null},{"properties":{"zipcode":"70808","id":"ap4bj7d1cxbd"},"type":"Feature","geometry":null},{"properties":{"zipcode":"70808","id":"ap4bj7k8ri9a"},"type":"Feature","geometry":null},{"properties":{"zipcode":"74003","id":"ap4bj7h8z7ih"},"type":"Feature","geometry":null},{"properties":{"zipcode":"73703","id":"ap4bj76eibcp"},"type":"Feature","geometry":null},{"properties":{"zipcode":"73116","id":"ap4bj79v0dah"},"type":"Feature","geometry":null},{"properties":{"zipcode":"74105","id":"ap4bj7mq569v"},"type":"Feature","geometry":null},{"properties":{"zipcode":"73106","id":"ap4bj7cgxpol"},"type":"Feature","geometry":null},{"properties":{"zipcode":"73505","id":"ap4bj7cpxybv"},"type":"Feature","geometry":null},{"properties":{"zipcode":"73013","id":"ap4bj78xrahd"},"type":"Feature","geometry":null},{"properties":{"zipcode":"73110","id":"ap4bj7inm35l"},"type":"Feature","geometry":null},{"properties":{"zipcode":"74074","id":"ap4bj7mnar0t"},"type":"Feature","geometry":null},{"properties":{"zipcode":"88240","id":"ap4bj7be2z3b"},"type":"Feature","geometry":null},{"properties":{"zipcode":"88240","id":"ap4bj7gdj0yc"},"type":"Feature","geometry":null},{"properties":{"zipcode":"73132","id":"ap4bj7cblwr3"},"type":"Feature","geometry":null},{"properties":{"zipcode":"73103","id":"ap4bj7kfwovl"},"type":"Feature","geometry":null},{"properties":{"zipcode":"87544","id":"ap4bj7l0w3wj"},"type":"Feature","geometry":null},{"properties":{"zipcode":"73102","id":"ap4bj77xpcju"},"type":"Feature","geometry":null},{"properties":{"zipcode":"87110","id":"ap4bj78lxwdx"},"type":"Feature","geometry":null},{"properties":{"zipcode":"73159","id":"ap4bj7f7wkfn"},"type":"Feature","geometry":null},{"properties":{"zipcode":"73102","id":"ap4bj77an6kh"},"type":"Feature","geometry":null},{"properties":{"zipcode":"73103","id":"ap4bj7lwxqs3"},"type":"Feature","geometry":null},{"properties":{"zipcode":"73118","id":"ap4bj7l8ho9w"},"type":"Feature","geometry":null},{"properties":{"zipcode":"73018","id":"ap4bj7czl0rf"},"type":"Feature","geometry":null},{"properties":{"zipcode":"87110","id":"ap4bj7i9yd7e"},"type":"Feature","geometry":null},{"properties":{"zipcode":"73118","id":"ap4bj7d728av"},"type":"Feature","geometry":null},{"properties":{"zipcode":"73116","id":"ap4bj78wtuss"},"type":"Feature","geometry":null},{"properties":{"zipcode":"73013","id":"ap4bj78f2wgr"},"type":"Feature","geometry":null},{"properties":{"zipcode":"73142","id":"ap4bj7hczue8"},"type":"Feature","geometry":null},{"properties":{"zipcode":"87144","id":"ap4bj7lr2yxi"},"type":"Feature","geometry":null},{"properties":{"zipcode":"74801","id":"ap4bj7ccd7t7"},"type":"Feature","geometry":null},{"properties":{"zipcode":"73120","id":"ap4bj7m736qp"},"type":"Feature","geometry":null},{"properties":{"zipcode":"73142","id":"ap4bj76ivl06"},"type":"Feature","geometry":null},{"properties":{"zipcode":"73120","id":"ap4bj7ck7stu"},"type":"Feature","geometry":null},{"properties":{"zipcode":"87107","id":"ap4bj7f8p1f7"},"type":"Feature","geometry":null},{"properties":{"zipcode":"87110","id":"ap4bj7k2ikx6"},"type":"Feature","geometry":null},{"properties":{"zipcode":"73507","id":"ap4bj7merp3o"},"type":"Feature","geometry":null},{"properties":{"zipcode":"87048","id":"ap4bj7iefjv3"},"type":"Feature","geometry":null},{"properties":{"zipcode":"74023","id":"ap4bj76evqi9"},"type":"Feature","geometry":null},{"properties":{"zipcode":"73112","id":"ap4bj7i65018"},"type":"Feature","geometry":null},{"properties":{"zipcode":"73072","id":"ap4bj7ggwa0v"},"type":"Feature","geometry":null},{"properties":{"zipcode":"85296","id":"ap4bj7df43km"},"type":"Feature","geometry":null},{"properties":{"zipcode":"73160","id":"ap4bj7mkm46i"},"type":"Feature","geometry":null},{"properties":{"zipcode":"87110","id":"ap4bj7e0gugx"},"type":"Feature","geometry":null},{"properties":{"zipcode":"85024","id":"ap4bj7gd8q5f"},"type":"Feature","geometry":null},{"properties":{"zipcode":"73160","id":"ap4bj7gwv21o"},"type":"Feature","geometry":null},{"properties":{"zipcode":"73112","id":"ap4bj7a7vs1x"},"type":"Feature","geometry":null},{"properties":{"zipcode":"74801","id":"ap4bj77axzc8"},"type":"Feature","geometry":null},{"properties":{"zipcode":"87501","id":"ap4bj7d2w06v"},"type":"Feature","geometry":null},{"properties":{"zipcode":"73118","id":"ap4bj7f16rzr"},"type":"Feature","geometry":null},{"properties":{"zipcode":"74501","id":"ap4bj78gogtt"},"type":"Feature","geometry":null},{"properties":{"zipcode":"74501","id":"ap4bj78erlao"},"type":"Feature","geometry":null},{"properties":{"zipcode":"71101","id":"ap4bj7ml3413"},"type":"Feature","geometry":null},{"properties":{"zipcode":"74501","id":"ap4bj7ib1da9"},"type":"Feature","geometry":null},{"properties":{"zipcode":"73120","id":"ap4bj7j1993v"},"type":"Feature","geometry":null},{"properties":{"zipcode":"87112","id":"ap4bj79s5w6i"},"type":"Feature","geometry":null},{"properties":{"zipcode":"73527","id":"ap4bj7j4htz9"},"type":"Feature","geometry":null},{"properties":{"zipcode":"74146","id":"ap4bj7g2362w"},"type":"Feature","geometry":null},{"properties":{"zipcode":"87108","id":"ap4bj7hwyk86"},"type":"Feature","geometry":null},{"properties":{"zipcode":"87111","id":"ap4bj786srty"},"type":"Feature","geometry":null},{"properties":{"zipcode":"73112","id":"ap4bj7fb8sst"},"type":"Feature","geometry":null},{"properties":{"zipcode":"74701","id":"ap4bj7igivqh"},"type":"Feature","geometry":null},{"properties":{"zipcode":"73112","id":"ap4bj7a3v1k5"},"type":"Feature","geometry":null},{"properties":{"zipcode":"73013","id":"ap4bj7m8r4ec"},"type":"Feature","geometry":null},{"properties":{"zipcode":"73008","id":"ap4bj7mq7qq3"},"type":"Feature","geometry":null},{"properties":{"zipcode":"73112","id":"ap4bj79w2pui"},"type":"Feature","geometry":null},{"properties":{"zipcode":"88061","id":"ap4bj7e85nqg"},"type":"Feature","geometry":null},{"properties":{"zipcode":"87109","id":"ap4bj7bhuhhr"},"type":"Feature","geometry":null},{"properties":{"zipcode":"73110","id":"ap4bj7i2b304"},"type":"Feature","geometry":null},{"properties":{"zipcode":"88201","id":"ap4bj7mpw3mk"},"type":"Feature","geometry":null},{"properties":{"zipcode":"85712","id":"ap4bj7foxmyj"},"type":"Feature","geometry":null},{"properties":{"zipcode":"85712","id":"ap4bj7a8ed7p"},"type":"Feature","geometry":null},{"properties":{"zipcode":"73080","id":"ap4bj7i7quau"},"type":"Feature","geometry":null},{"properties":{"zipcode":"74801","id":"ap4bj7jqemrs"},"type":"Feature","geometry":null},{"properties":{"zipcode":"88130","id":"ap4bj7a57w2s"},"type":"Feature","geometry":null},{"properties":{"zipcode":"85546","id":"ap4bj7m69hdh"},"type":"Feature","geometry":null},{"properties":{"zipcode":"86301","id":"ap4bj7f0tum3"},"type":"Feature","geometry":null},{"properties":{"zipcode":"86401","id":"ap4bj7jtp2yk"},"type":"Feature","geometry":null},{"properties":{"zipcode":"85390","id":"ap4bj7ltt8me"},"type":"Feature","geometry":null},{"properties":{"zipcode":"86314","id":"ap4bj7mj78uy"},"type":"Feature","geometry":null},{"properties":{"zipcode":"85635","id":"ap4bj7msn91e"},"type":"Feature","geometry":null},{"properties":{"zipcode":"85546","id":"ap4bj7ao56t0"},"type":"Feature","geometry":null},{"properties":{"zipcode":"86301","id":"ap4bj7hs9bjv"},"type":"Feature","geometry":null},{"properties":{"zipcode":"86314","id":"ap4bj7h4q01z"},"type":"Feature","geometry":null},{"properties":{"zipcode":"86040","id":"ap4bj79znn7d"},"type":"Feature","geometry":null},{"properties":{"zipcode":"85615","id":"ap4bj7me6roa"},"type":"Feature","geometry":null},{"properties":{"zipcode":"85541","id":"ap4bj7cw9x7t"},"type":"Feature","geometry":null},{"properties":{"zipcode":"86303","id":"ap4bj79mhfev"},"type":"Feature","geometry":null},{"properties":{"zipcode":"85603","id":"ap4bj7bsfcmc"},"type":"Feature","geometry":null},{"properties":{"zipcode":"86040","id":"ap4bj7fkyfdq"},"type":"Feature","geometry":null},{"properties":{"zipcode":"86403","id":"ap4bj78xo5e8"},"type":"Feature","geometry":null},{"properties":{"zipcode":"85546","id":"ap4bj7h91i1q"},"type":"Feature","geometry":null},{"properties":{"zipcode":"86403","id":"ap4bj7e0h882"},"type":"Feature","geometry":null},{"properties":{"zipcode":"85541","id":"ap4bj7is6aaz"},"type":"Feature","geometry":null},{"properties":{"zipcode":"85712","id":"ap4bj7mu25pq"},"type":"Feature","geometry":null},{"properties":{"zipcode":"85704","id":"ap4bj7jge5jz"},"type":"Feature","geometry":null},{"properties":{"zipcode":"85712","id":"ap4bj7a6o43n"},"type":"Feature","geometry":null},{"properties":{"zipcode":"85704","id":"ap4bj7md7sop"},"type":"Feature","geometry":null},{"properties":{"zipcode":"85715","id":"ap4bj7mtekj8"},"type":"Feature","geometry":null},{"properties":{"zipcode":"85705","id":"ap4bj7lga855"},"type":"Feature","geometry":null},{"properties":{"zipcode":"85711","id":"ap4bj7f25pqb"},"type":"Feature","geometry":null},{"properties":{"zipcode":"85741","id":"ap4bj7a5k7na"},"type":"Feature","geometry":null},{"properties":{"zipcode":"85742","id":"ap4bj77h3x7p"},"type":"Feature","geometry":null},{"properties":{"zipcode":"85614","id":"ap4bj7irpfwu"},"type":"Feature","geometry":null},{"properties":{"zipcode":"85623","id":"ap4bj7h5t14s"},"type":"Feature","geometry":null},{"properties":{"zipcode":"85701","id":"ap4bj7lrwmqw"},"type":"Feature","geometry":null},{"properties":{"zipcode":"73008","id":"ap4bj7aiu3fc"},"type":"Feature","geometry":null},{"properties":{"zipcode":"85705","id":"ap4bj7cqrjs3"},"type":"Feature","geometry":null},{"properties":{"zipcode":"85755","id":"ap4bj7igohnk"},"type":"Feature","geometry":null},{"properties":{"zipcode":"86326","id":"ap4bj7j4re2g"},"type":"Feature","geometry":null},{"properties":{"zipcode":"86339","id":"ap4bj7cy970k"},"type":"Feature","geometry":null},{"properties":{"zipcode":"86326","id":"ap4bj79s0788"},"type":"Feature","geometry":null},{"properties":{"zipcode":"86001","id":"ap4bj7gl1p97"},"type":"Feature","geometry":null},{"properties":{"zipcode":"86001","id":"ap4bj77ydqjw"},"type":"Feature","geometry":null},{"properties":{"zipcode":"85234","id":"ap4bj78yn0f1"},"type":"Feature","geometry":null},{"properties":{"zipcode":"85381","id":"ap4bj7luvxub"},"type":"Feature","geometry":null},{"properties":{"zipcode":"85392","id":"ap4bj7ggos1p"},"type":"Feature","geometry":null},{"properties":{"zipcode":"85032","id":"ap4bj7f0qe2y"},"type":"Feature","geometry":null},{"properties":{"zipcode":"85234","id":"ap4bj7crwm4p"},"type":"Feature","geometry":null},{"properties":{"zipcode":"85340","id":"ap4bj7ius4rr"},"type":"Feature","geometry":null},{"properties":{"zipcode":"85381","id":"ap4bj76epx47"},"type":"Feature","geometry":null},{"properties":{"zipcode":"85381","id":"ap4bj7j6wx74"},"type":"Feature","geometry":null},{"properties":{"zipcode":"85340","id":"ap4bj7e5h426"},"type":"Feature","geometry":null},{"properties":{"zipcode":"85374","id":"ap4bj7lubf3b"},"type":"Feature","geometry":null},{"properties":{"zipcode":"85284","id":"ap4bj7eaf7gw"},"type":"Feature","geometry":null},{"properties":{"zipcode":"85374","id":"ap4bj7aqjr15"},"type":"Feature","geometry":null},{"properties":{"zipcode":"85224","id":"ap4bj7l1m3kt"},"type":"Feature","geometry":null},{"properties":{"zipcode":"85282","id":"ap4bj7mj3q3u"},"type":"Feature","geometry":null},{"properties":{"zipcode":"85051","id":"ap4bj7glqz7u"},"type":"Feature","geometry":null},{"properties":{"zipcode":"85381","id":"ap4bj7lg61bm"},"type":"Feature","geometry":null},{"properties":{"zipcode":"85381","id":"ap4bj7dcoud6"},"type":"Feature","geometry":null},{"properties":{"zipcode":"85224","id":"ap4bj7lfvn00"},"type":"Feature","geometry":null},{"properties":{"zipcode":"85381","id":"ap4bj77a83v8"},"type":"Feature","geometry":null},{"properties":{"zipcode":"73116","id":"ap4bj7k2hfnv"},"type":"Feature","geometry":null},{"properties":{"zipcode":"85122","id":"ap4bj7bf4swp"},"type":"Feature","geometry":null},{"properties":{"zipcode":"87109","id":"ap4bj7m4o7ik"},"type":"Feature","geometry":null},{"properties":{"zipcode":"73034","id":"ap4bj7hdazih"},"type":"Feature","geometry":null},{"properties":{"zipcode":"73118","id":"ap4bj79zv93c"},"type":"Feature","geometry":null},{"properties":{"zipcode":"85925","id":"ap4bj79dm76g"},"type":"Feature","geometry":null},{"properties":{"zipcode":"85306","id":"ap4bj7it0nav"},"type":"Feature","geometry":null},{"properties":{"zipcode":"73069","id":"ap4bj7f4vbl3"},"type":"Feature","geometry":null},{"properties":{"zipcode":"87109","id":"ap4bj7ibrqk0"},"type":"Feature","geometry":null},{"properties":{"zipcode":"87122","id":"ap4bj7gp7niu"},"type":"Feature","geometry":null},{"properties":{"zipcode":"85306","id":"ap4bj7glmpsi"},"type":"Feature","geometry":null},{"properties":{"zipcode":"85364","id":"ap4bj7emp13m"},"type":"Feature","geometry":null},{"properties":{"zipcode":"87401","id":"ap4bj7ibv4md"},"type":"Feature","geometry":null},{"properties":{"zipcode":"73401","id":"ap4bj7mnild6"},"type":"Feature","geometry":null},{"properties":{"zipcode":"74868","id":"ap4bj7jdvqwh"},"type":"Feature","geometry":null},{"properties":{"zipcode":"74868","id":"ap4bj7itgyfo"},"type":"Feature","geometry":null},{"properties":{"zipcode":"74037","id":"ap4bj789cj0r"},"type":"Feature","geometry":null},{"properties":{"zipcode":"73112","id":"ap4bj7a53r9d"},"type":"Feature","geometry":null},{"properties":{"zipcode":"73103","id":"ap4bj7ghg6oa"},"type":"Feature","geometry":null},{"properties":{"zipcode":"73116","id":"ap4bj7hgmvcx"},"type":"Feature","geometry":null},{"properties":{"zipcode":"85938","id":"ap4bj7mupzk8"},"type":"Feature","geometry":null},{"properties":{"zipcode":"85936","id":"ap4bj7lrnacg"},"type":"Feature","geometry":null},{"properties":{"zipcode":"74501","id":"ap4bj7fpjpp8"},"type":"Feature","geometry":null},{"properties":{"zipcode":"85219","id":"ap4bj76sv1av"},"type":"Feature","geometry":null},{"properties":{"zipcode":"85219","id":"ap4bj790d83a"},"type":"Feature","geometry":null},{"properties":{"zipcode":"85219","id":"ap4bj7lmqm3d"},"type":"Feature","geometry":null},{"properties":{"zipcode":"74037","id":"ap4bj79zdvhg"},"type":"Feature","geometry":null},{"properties":{"zipcode":"70601","id":"ap4bj7hxhtmj"},"type":"Feature","geometry":null},{"properties":{"zipcode":"73118","id":"ap4bj76kpr8z"},"type":"Feature","geometry":null},{"properties":{"zipcode":"74403","id":"ap4bj7i3l4hx"},"type":"Feature","geometry":null},{"properties":{"zipcode":"73139","id":"ap4bj7coszj8"},"type":"Feature","geometry":null},{"properties":{"zipcode":"85936","id":"ap4bj7b3w7ej"},"type":"Feature","geometry":null},{"properties":{"zipcode":"73072","id":"ap4bj7h66yhw"},"type":"Feature","geometry":null},{"properties":{"zipcode":"73120","id":"ap4bj7e7q05y"},"type":"Feature","geometry":null},{"properties":{"zipcode":"74868","id":"ap4bj7iqlnie"},"type":"Feature","geometry":null},{"properties":{"zipcode":"86442","id":"ap4bj7atp8r7"},"type":"Feature","geometry":null},{"properties":{"zipcode":"86401","id":"ap4bj77ihp0m"},"type":"Feature","geometry":null},{"properties":{"zipcode":"73120","id":"ap4bj7izrgvr"},"type":"Feature","geometry":null},{"properties":{"zipcode":"85901","id":"ap4bj7jtncni"},"type":"Feature","geometry":null},{"properties":{"zipcode":"85933","id":"ap4bj7gzcnrx"},"type":"Feature","geometry":null},{"properties":{"zipcode":"85602","id":"ap4bj7jn09th"},"type":"Feature","geometry":null},{"properties":{"zipcode":"85635","id":"ap4bj7fgehbz"},"type":"Feature","geometry":null},{"properties":{"zipcode":"85364","id":"ap4bj7dkmv63"},"type":"Feature","geometry":null},{"properties":{"zipcode":"73072","id":"ap4bj7aahswu"},"type":"Feature","geometry":null},{"properties":{"zipcode":"85224","id":"ap4bj78tk85i"},"type":"Feature","geometry":null},{"properties":{"zipcode":"85224","id":"ap4bj7ajn5cr"},"type":"Feature","geometry":null},{"properties":{"zipcode":"85142","id":"ap4bj7ctzwux"},"type":"Feature","geometry":null},{"properties":{"zipcode":"87107","id":"ap4bj7dcb737"},"type":"Feature","geometry":null},{"properties":{"zipcode":"85621","id":"ap4bj7gwx5qe"},"type":"Feature","geometry":null},{"properties":{"zipcode":"87106","id":"ap4bj7dgw90m"},"type":"Feature","geometry":null},{"properties":{"zipcode":"71104","id":"ap4bj7kt0tm1"},"type":"Feature","geometry":null},{"properties":{"zipcode":"85024","id":"ap4bj7k5zw4x"},"type":"Feature","geometry":null},{"properties":{"zipcode":"87113","id":"ap4bj7id1mh8"},"type":"Feature","geometry":null},{"properties":{"zipcode":"74344","id":"ap4bj78mcbsy"},"type":"Feature","geometry":null},{"properties":{"zipcode":"85705","id":"ap4bj7dalybd"},"type":"Feature","geometry":null},{"properties":{"zipcode":"86314","id":"ap4bj7jci90n"},"type":"Feature","geometry":null},{"properties":{"zipcode":"85340","id":"ap4bj79nb4lg"},"type":"Feature","geometry":null},{"properties":{"zipcode":"85737","id":"ap4bj794aa3w"},"type":"Feature","geometry":null},{"properties":{"zipcode":"85085","id":"ap4bj7gkfpo6"},"type":"Feature","geometry":null},{"properties":{"zipcode":"86301","id":"ap4bj7jd288n"},"type":"Feature","geometry":null},{"properties":{"zipcode":"85122","id":"ap4bj7cwarr3"},"type":"Feature","geometry":null},{"properties":{"zipcode":"74401","id":"ap4bj7ipnbvs"},"type":"Feature","geometry":null},{"properties":{"zipcode":"85374","id":"ap4bj7dmlmcg"},"type":"Feature","geometry":null},{"properties":{"zipcode":"85395","id":"ap4bj7h9luf4"},"type":"Feature","geometry":null},{"properties":{"zipcode":"73034","id":"ap4bj7blgibc"},"type":"Feature","geometry":null},{"properties":{"zipcode":"85395","id":"ap4bj7h3tyek"},"type":"Feature","geometry":null},{"properties":{"zipcode":"87410","id":"ap4bj78zddlr"},"type":"Feature","geometry":null},{"properties":{"zipcode":"87110","id":"ap4bj76qjwy1"},"type":"Feature","geometry":null},{"properties":{"zipcode":"85344","id":"ap4bj7flwj85"},"type":"Feature","geometry":null},{"properties":{"zipcode":"86442","id":"ap4bj76qcxx7"},"type":"Feature","geometry":null},{"properties":{"zipcode":"85344","id":"ap4bj7ihwcno"},"type":"Feature","geometry":null},{"properties":{"zipcode":"73013","id":"ap4bj7f4j0bu"},"type":"Feature","geometry":null},{"properties":{"zipcode":"85283","id":"ap4bj7cziv0d"},"type":"Feature","geometry":null},{"properties":{"zipcode":"85741","id":"ap4bj7cennov"},"type":"Feature","geometry":null},{"properties":{"zipcode":"85364","id":"ap4bj7huy0yj"},"type":"Feature","geometry":null},{"properties":{"zipcode":"87301","id":"ap4bj77ggy5e"},"type":"Feature","geometry":null},{"properties":{"zipcode":"85381","id":"ap4bj7g9xomr"},"type":"Feature","geometry":null},{"properties":{"zipcode":"85381","id":"ap4bj7ktlvee"},"type":"Feature","geometry":null},{"properties":{"zipcode":"85716","id":"ap4bj7i2btcr"},"type":"Feature","geometry":null},{"properties":{"zipcode":"85340","id":"ap4bj7j0jikm"},"type":"Feature","geometry":null},{"properties":{"zipcode":"85635","id":"ap4bj76w28hp"},"type":"Feature","geometry":null},{"properties":{"zipcode":"85635","id":"ap4bj7bblahp"},"type":"Feature","geometry":null},{"properties":{"zipcode":"85014","id":"ap4bj7kmnjg2"},"type":"Feature","geometry":null},{"properties":{"zipcode":"85358","id":"ap4bj7logrvm"},"type":"Feature","geometry":null},{"properties":{"zipcode":"74464","id":"ap4bj7doc2wi"},"type":"Feature","geometry":null},{"properties":{"zipcode":"73118","id":"ap4bj7aho6sb"},"type":"Feature","geometry":null},{"properties":{"zipcode":"85028","id":"ap4bj7lw1vao"},"type":"Feature","geometry":null},{"properties":{"zipcode":"85122","id":"ap4bj78fk5qu"},"type":"Feature","geometry":null},{"properties":{"zipcode":"85711","id":"ap4bj7k1zlpj"},"type":"Feature","geometry":null},{"properties":{"zipcode":"85381","id":"ap4bj7dyadpg"},"type":"Feature","geometry":null},{"properties":{"zipcode":"85381","id":"ap4bj7j0obtu"},"type":"Feature","geometry":null},{"properties":{"zipcode":"85607","id":"ap4bj7jlobp9"},"type":"Feature","geometry":null},{"properties":{"zipcode":"85258","id":"ap4bj7hz0fmb"},"type":"Feature","geometry":null},{"properties":{"zipcode":"85142","id":"ap4bj7knm224"},"type":"Feature","geometry":null},{"properties":{"zipcode":"85381","id":"ap4bj7lhwuc1"},"type":"Feature","geometry":null},{"properties":{"zipcode":"73103","id":"ap4bj7c0l153"},"type":"Feature","geometry":null},{"properties":{"zipcode":"85364","id":"ap4bj7egx2dd"},"type":"Feature","geometry":null},{"properties":{"zipcode":"73069","id":"ap4bj7hlvi40"},"type":"Feature","geometry":null},{"properties":{"zipcode":"86040","id":"ap4bj7bbqpn8"},"type":"Feature","geometry":null},{"properties":{"zipcode":"86040","id":"ap4bj7bc1anp"},"type":"Feature","geometry":null},{"properties":{"zipcode":"86040","id":"ap4bj7lfuyqs"},"type":"Feature","geometry":null},{"properties":{"zipcode":"85304","id":"ap4bj7ehzkb7"},"type":"Feature","geometry":null},{"properties":{"zipcode":"85297","id":"ap4bj7i4dqg1"},"type":"Feature","geometry":null},{"properties":{"zipcode":"73099","id":"ap4bj7kwoslg"},"type":"Feature","geometry":null},{"properties":{"zipcode":"85381","id":"ap4bj7k3ovcy"},"type":"Feature","geometry":null},{"properties":{"zipcode":"85381","id":"ap4bj7kap82y"},"type":"Feature","geometry":null},{"properties":{"zipcode":"87501","id":"ap4bj77rn5iv"},"type":"Feature","geometry":null},{"properties":{"zipcode":"73116","id":"ap4bj79c2gvy"},"type":"Feature","geometry":null},{"properties":{"zipcode":"73112","id":"ap4bj7hy16id"},"type":"Feature","geometry":null},{"properties":{"zipcode":"85646","id":"ap4bj7j14tpo"},"type":"Feature","geometry":null},{"properties":{"zipcode":"85122","id":"ap4bj7ct2i3a"},"type":"Feature","geometry":null},{"properties":{"zipcode":"78756","id":"ap4bj787pamo"},"type":"Feature","geometry":null},{"properties":{"zipcode":"86403","id":"ap4bj7kl22sf"},"type":"Feature","geometry":null},{"properties":{"zipcode":"85282","id":"ap4bj7k75fu7"},"type":"Feature","geometry":null},{"properties":{"zipcode":"85374","id":"ap4bj76j5s0x"},"type":"Feature","geometry":null},{"properties":{"zipcode":"88001","id":"ap4bj7ku74af"},"type":"Feature","geometry":null},{"properties":{"zipcode":"73072","id":"ap4bj77sw0pj"},"type":"Feature","geometry":null},{"properties":{"zipcode":"86401","id":"ap4bj7jdedn0"},"type":"Feature","geometry":null},{"properties":{"zipcode":"85173","id":"ap4bj7j1yzj9"},"type":"Feature","geometry":null},{"properties":{"zipcode":"86314","id":"ap4bj7ftemif"},"type":"Feature","geometry":null},{"properties":{"zipcode":"73018","id":"ap4bj76qaeyy"},"type":"Feature","geometry":null},{"properties":{"zipcode":"85712","id":"ap4bj76nv16u"},"type":"Feature","geometry":null},{"properties":{"zipcode":"73501","id":"ap4bj79su3du"},"type":"Feature","geometry":null},{"properties":{"zipcode":"73501","id":"ap4bj7hbzrcg"},"type":"Feature","geometry":null},{"properties":{"zipcode":"85712","id":"ap4bj7dqzuhu"},"type":"Feature","geometry":null},{"properties":{"zipcode":"85308","id":"ap4bj7a9q0fz"},"type":"Feature","geometry":null},{"properties":{"zipcode":"73118","id":"ap4bj7a559k9"},"type":"Feature","geometry":null},{"properties":{"zipcode":"85122","id":"ap4bj7f701av"},"type":"Feature","geometry":null},{"properties":{"zipcode":"85712","id":"ap4bj7774ljc"},"type":"Feature","geometry":null}],"is_temporal":false,"author":{"url":"","metadata":null,"contact_name":null,"contact_address":null,"source":null,"contact_phone":null},"source":"","pagination":{"sort":null,"start":0,"total":389,"limit":1000000},"state":"parsed","tags":"","published":"2014-08-14T19:42:57-04:00","id":213017}