{"type":"FeatureCollection","data_type":"Dataset","url_type":null,"permissions":[{"permissions":{"download":true,"view":true},"group_id":"everyone"}],"classification":null,"title":"West Coast 2012 Network Map","count":191,"stream_id":213003,"contributor":{"url":"http://geocommons.com/users/41497","name":"thebirdinthesky"},"data_attributes":null,"calculation_params":null,"icon_link":null,"link":"http://geocommons.com/overlays/213003.json","extent":[0.0,0.0,0.0,0.0],"geometry_types":null,"unique_name":null,"name":"West Coast 2012 Network Map","feature_count":191,"description":"","next_feature":null,"is_raster":false,"short_classification":"Y","features":[{"properties":{"zipcode":"91316","id":"anh46nyfgnp7"},"type":"Feature","geometry":null},{"properties":{"zipcode":"90266","id":"anh46nsjgjwg"},"type":"Feature","geometry":null},{"properties":{"zipcode":"98102","id":"anh46nr5rg7m"},"type":"Feature","geometry":null},{"properties":{"zipcode":"94901-2143","id":"anh46ns18yu7"},"type":"Feature","geometry":null},{"properties":{"zipcode":"94901","id":"anh46o1z3l3q"},"type":"Feature","geometry":null},{"properties":{"zipcode":"98225-7816","id":"anh46nqjjq99"},"type":"Feature","geometry":null},{"properties":{"zipcode":"94706","id":"anh46o490qip"},"type":"Feature","geometry":null},{"properties":{"zipcode":"95476","id":"anh46o4szchm"},"type":"Feature","geometry":null},{"properties":{"zipcode":"95616","id":"anh46nw4o7l2"},"type":"Feature","geometry":null},{"properties":{"zipcode":"96733","id":"anh46nx11pbt"},"type":"Feature","geometry":null},{"properties":{"zipcode":"94583","id":"anh46o52268k"},"type":"Feature","geometry":null},{"properties":{"zipcode":"95219","id":"anh46o4khaym"},"type":"Feature","geometry":null},{"properties":{"zipcode":"94010","id":"anh46nse4lpg"},"type":"Feature","geometry":null},{"properties":{"zipcode":"91910","id":"anh46o1hbwh0"},"type":"Feature","geometry":null},{"properties":{"zipcode":"91724","id":"anh46nrka3od"},"type":"Feature","geometry":null},{"properties":{"zipcode":"90212","id":"anh46nppaqsh"},"type":"Feature","geometry":null},{"properties":{"zipcode":"94607","id":"anh46o4napr6"},"type":"Feature","geometry":null},{"properties":{"zipcode":"94598","id":"anh46o1y7b8i"},"type":"Feature","geometry":null},{"properties":{"zipcode":"90262","id":"anh46o1ix9hm"},"type":"Feature","geometry":null},{"properties":{"zipcode":"93727","id":"anh46nxttm3o"},"type":"Feature","geometry":null},{"properties":{"zipcode":"93727","id":"anh46o0oyulg"},"type":"Feature","geometry":null},{"properties":{"zipcode":"93727","id":"anh46nszhz40"},"type":"Feature","geometry":null},{"properties":{"zipcode":"94102","id":"anh46nvlv1c1"},"type":"Feature","geometry":null},{"properties":{"zipcode":"94070","id":"anh46nyz4usy"},"type":"Feature","geometry":null},{"properties":{"zipcode":"94044","id":"anh46nztd7ec"},"type":"Feature","geometry":null},{"properties":{"zipcode":"92116","id":"anh46nv0kfdx"},"type":"Feature","geometry":null},{"properties":{"zipcode":"94588","id":"anh46nz04q48"},"type":"Feature","geometry":null},{"properties":{"zipcode":"94566","id":"anh46nz5b3j9"},"type":"Feature","geometry":null},{"properties":{"zipcode":"90069","id":"anh46o35iyss"},"type":"Feature","geometry":null},{"properties":{"zipcode":"95404","id":"anh46nu3unjz"},"type":"Feature","geometry":null},{"properties":{"zipcode":"94102","id":"anh46nt69qpi"},"type":"Feature","geometry":null},{"properties":{"zipcode":"97470","id":"anh46nxghwn0"},"type":"Feature","geometry":null},{"properties":{"zipcode":"95051","id":"anh46nvae7r9"},"type":"Feature","geometry":null},{"properties":{"zipcode":"92708","id":"anh46o3mdhne"},"type":"Feature","geometry":null},{"properties":{"zipcode":"92705","id":"anh46ntt5062"},"type":"Feature","geometry":null},{"properties":{"zipcode":"92604","id":"anh46nvic3fa"},"type":"Feature","geometry":null},{"properties":{"zipcode":"93003","id":"anh46nuh6lne"},"type":"Feature","geometry":null},{"properties":{"zipcode":"91208","id":"anh46ny6cbh4"},"type":"Feature","geometry":null},{"properties":{"zipcode":"92584","id":"anh46nu4d0cw"},"type":"Feature","geometry":null},{"properties":{"zipcode":"91321","id":"anh46nqga1nx"},"type":"Feature","geometry":null},{"properties":{"zipcode":"92626","id":"anh46nuxn8pe"},"type":"Feature","geometry":null},{"properties":{"zipcode":"91320","id":"anh46o543y3v"},"type":"Feature","geometry":null},{"properties":{"zipcode":"90505","id":"anh46nph7odg"},"type":"Feature","geometry":null},{"properties":{"zipcode":"95661","id":"anh46nx5mhp0"},"type":"Feature","geometry":null},{"properties":{"zipcode":"95354","id":"anh46nxhhxxb"},"type":"Feature","geometry":null},{"properties":{"zipcode":"89502","id":"anh46nzwv6wx"},"type":"Feature","geometry":null},{"properties":{"zipcode":"95678","id":"anh46ns43l4f"},"type":"Feature","geometry":null},{"properties":{"zipcode":"89005","id":"anh46nppw8v4"},"type":"Feature","geometry":null},{"properties":{"zipcode":"89015","id":"anh46o2mcq5b"},"type":"Feature","geometry":null},{"properties":{"zipcode":"89014","id":"anh46o48fv2c"},"type":"Feature","geometry":null},{"properties":{"zipcode":"91711","id":"anh46nqvdvca"},"type":"Feature","geometry":null},{"properties":{"zipcode":"91711","id":"anh46o4moctx"},"type":"Feature","geometry":null},{"properties":{"zipcode":"94550","id":"anh46nz01lhd"},"type":"Feature","geometry":null},{"properties":{"zipcode":"89052","id":"anh46nv4go2j"},"type":"Feature","geometry":null},{"properties":{"zipcode":"89123","id":"anh46o2bfj2g"},"type":"Feature","geometry":null},{"properties":{"zipcode":"89052","id":"anh46ntnjar5"},"type":"Feature","geometry":null},{"properties":{"zipcode":"89052","id":"anh46nsx1z0b"},"type":"Feature","geometry":null},{"properties":{"zipcode":"92025","id":"anh46nvflf0h"},"type":"Feature","geometry":null},{"properties":{"zipcode":"94118","id":"anh46nustu7p"},"type":"Feature","geometry":null},{"properties":{"zipcode":"98248","id":"anh46nzczuko"},"type":"Feature","geometry":null},{"properties":{"zipcode":"99352","id":"anh46o2zdi55"},"type":"Feature","geometry":null},{"properties":{"zipcode":"99352","id":"anh46nsaon3j"},"type":"Feature","geometry":null},{"properties":{"zipcode":"95695","id":"anh46npfyrjd"},"type":"Feature","geometry":null},{"properties":{"zipcode":"97005","id":"anh46nz9pypq"},"type":"Feature","geometry":null},{"properties":{"zipcode":"93561","id":"anh46nwou93t"},"type":"Feature","geometry":null},{"properties":{"zipcode":"95503","id":"anh46nqcdj0p"},"type":"Feature","geometry":null},{"properties":{"zipcode":"94606","id":"anh46nzeo7zs"},"type":"Feature","geometry":null},{"properties":{"zipcode":"89119","id":"anh46ntg2cj1"},"type":"Feature","geometry":null},{"properties":{"zipcode":"97205","id":"anh46nwkabq4"},"type":"Feature","geometry":null},{"properties":{"zipcode":"92103","id":"anh46nu49dhx"},"type":"Feature","geometry":null},{"properties":{"zipcode":"99218","id":"anh46nrimz5m"},"type":"Feature","geometry":null},{"properties":{"zipcode":"95818","id":"anh46nwj7kzn"},"type":"Feature","geometry":null},{"properties":{"zipcode":"95354","id":"anh46nx15peq"},"type":"Feature","geometry":null},{"properties":{"zipcode":"95630","id":"anh46nwypt30"},"type":"Feature","geometry":null},{"properties":{"zipcode":"95377","id":"anh46o0tvcqq"},"type":"Feature","geometry":null},{"properties":{"zipcode":"89102","id":"anh46nyhtsj5"},"type":"Feature","geometry":null},{"properties":{"zipcode":"93561","id":"anh46o4lc8t9"},"type":"Feature","geometry":null},{"properties":{"zipcode":"92008","id":"anh46ntuvlgi"},"type":"Feature","geometry":null},{"properties":{"zipcode":"90601","id":"anh46nyahuex"},"type":"Feature","geometry":null},{"properties":{"zipcode":"95356","id":"anh46o04cm4f"},"type":"Feature","geometry":null},{"properties":{"zipcode":"96701-5310","id":"anh46nulkbm6"},"type":"Feature","geometry":null},{"properties":{"zipcode":"97501","id":"anh46ns26o67"},"type":"Feature","geometry":null},{"properties":{"zipcode":"97501","id":"anh46nvbzyzy"},"type":"Feature","geometry":null},{"properties":{"zipcode":"90703","id":"anh46nqf0l9z"},"type":"Feature","geometry":null},{"properties":{"zipcode":"92866","id":"anh46o4v28ce"},"type":"Feature","geometry":null},{"properties":{"zipcode":"97030","id":"anh46o2ahka4"},"type":"Feature","geometry":null},{"properties":{"zipcode":"95827","id":"anh46nsgas1k"},"type":"Feature","geometry":null},{"properties":{"zipcode":"93036","id":"anh46o0e8ix0"},"type":"Feature","geometry":null},{"properties":{"zipcode":"97302-5000","id":"anh46ntfiv8t"},"type":"Feature","geometry":null},{"properties":{"zipcode":"95814","id":"anh46nrqw6le"},"type":"Feature","geometry":null},{"properties":{"zipcode":"95128","id":"anh46nv5dtfo"},"type":"Feature","geometry":null},{"properties":{"zipcode":"94704","id":"anh46nrr8ie4"},"type":"Feature","geometry":null},{"properties":{"zipcode":"94610","id":"anh46o09btqg"},"type":"Feature","geometry":null},{"properties":{"zipcode":"98335","id":"anh46ny9vica"},"type":"Feature","geometry":null},{"properties":{"zipcode":"92253","id":"anh46nvqq0id"},"type":"Feature","geometry":null},{"properties":{"zipcode":"92868","id":"anh46o0yfm0i"},"type":"Feature","geometry":null},{"properties":{"zipcode":"91350","id":"anh46npt6vi1"},"type":"Feature","geometry":null},{"properties":{"zipcode":"94611","id":"anh46nrcr8io"},"type":"Feature","geometry":null},{"properties":{"zipcode":"95128","id":"anh46o4srdjz"},"type":"Feature","geometry":null},{"properties":{"zipcode":"92780-2941","id":"anh46o2i1pa1"},"type":"Feature","geometry":null},{"properties":{"zipcode":"95816","id":"anh46o22fq2x"},"type":"Feature","geometry":null},{"properties":{"zipcode":"95816","id":"anh46nsakm1l"},"type":"Feature","geometry":null},{"properties":{"zipcode":"94531","id":"anh46npa4c4a"},"type":"Feature","geometry":null},{"properties":{"zipcode":"94523","id":"anh46nq67gvs"},"type":"Feature","geometry":null},{"properties":{"zipcode":"94523","id":"anh46nwa07gk"},"type":"Feature","geometry":null},{"properties":{"zipcode":"94805","id":"anh46nz172hl"},"type":"Feature","geometry":null},{"properties":{"zipcode":"92054","id":"anh46nqzyqfm"},"type":"Feature","geometry":null},{"properties":{"zipcode":"91942","id":"anh46ns8yyg3"},"type":"Feature","geometry":null},{"properties":{"zipcode":"98133","id":"anh46nz2hd00"},"type":"Feature","geometry":null},{"properties":{"zipcode":"98104","id":"anh46ny8qqf3"},"type":"Feature","geometry":null},{"properties":{"zipcode":"98115","id":"anh46o4fxctp"},"type":"Feature","geometry":null},{"properties":{"zipcode":"98116","id":"anh46nux15uo"},"type":"Feature","geometry":null},{"properties":{"zipcode":"98104","id":"anh46ny9g4qm"},"type":"Feature","geometry":null},{"properties":{"zipcode":"98020","id":"anh46o0joto0"},"type":"Feature","geometry":null},{"properties":{"zipcode":"98072","id":"anh46npakj9x"},"type":"Feature","geometry":null},{"properties":{"zipcode":"98005","id":"anh46nw1er6k"},"type":"Feature","geometry":null},{"properties":{"zipcode":"98155","id":"anh46nx09a6l"},"type":"Feature","geometry":null},{"properties":{"zipcode":"98201","id":"anh46nrob0nv"},"type":"Feature","geometry":null},{"properties":{"zipcode":"97031","id":"anh46o1zbdve"},"type":"Feature","geometry":null},{"properties":{"zipcode":"98512","id":"anh46noug0m1"},"type":"Feature","geometry":null},{"properties":{"zipcode":"98506","id":"anh46nyymz8w"},"type":"Feature","geometry":null},{"properties":{"zipcode":"98003","id":"anh46o0chh6m"},"type":"Feature","geometry":null},{"properties":{"zipcode":"98402","id":"anh46nvkn7te"},"type":"Feature","geometry":null},{"properties":{"zipcode":"98407","id":"anh46nx9ddbq"},"type":"Feature","geometry":null},{"properties":{"zipcode":"98003","id":"anh46o24s4uo"},"type":"Feature","geometry":null},{"properties":{"zipcode":"98512","id":"anh46npuhl8d"},"type":"Feature","geometry":null},{"properties":{"zipcode":"98383","id":"anh46nxwa4k4"},"type":"Feature","geometry":null},{"properties":{"zipcode":"98366","id":"anh46ns2gw2b"},"type":"Feature","geometry":null},{"properties":{"zipcode":"98166","id":"anh46o0rzeat"},"type":"Feature","geometry":null},{"properties":{"zipcode":"98201","id":"anh46nrd6nsa"},"type":"Feature","geometry":null},{"properties":{"zipcode":"98501","id":"anh46nsxf7yk"},"type":"Feature","geometry":null},{"properties":{"zipcode":"98107","id":"anh46nta7ipz"},"type":"Feature","geometry":null},{"properties":{"zipcode":"98188","id":"anh46o4gis79"},"type":"Feature","geometry":null},{"properties":{"zipcode":"98663","id":"anh46nykg3bn"},"type":"Feature","geometry":null},{"properties":{"zipcode":"98661","id":"anh46nxa5apl"},"type":"Feature","geometry":null},{"properties":{"zipcode":"98663","id":"anh46o0js6ft"},"type":"Feature","geometry":null},{"properties":{"zipcode":"98684","id":"anh46nqe24ot"},"type":"Feature","geometry":null},{"properties":{"zipcode":"98660","id":"anh46o1h37y5"},"type":"Feature","geometry":null},{"properties":{"zipcode":"98038","id":"anh46nymzwmq"},"type":"Feature","geometry":null},{"properties":{"zipcode":"98003","id":"anh46nven0jq"},"type":"Feature","geometry":null},{"properties":{"zipcode":"98038","id":"anh46nxqta1i"},"type":"Feature","geometry":null},{"properties":{"zipcode":"98112","id":"anh46nv45jmc"},"type":"Feature","geometry":null},{"properties":{"zipcode":"98011","id":"anh46o2n5yhi"},"type":"Feature","geometry":null},{"properties":{"zipcode":"98661","id":"anh46o0r9x4p"},"type":"Feature","geometry":null},{"properties":{"zipcode":"98661","id":"anh46o0bz8go"},"type":"Feature","geometry":null},{"properties":{"zipcode":"98258","id":"anh46o4svge4"},"type":"Feature","geometry":null},{"properties":{"zipcode":"94115","id":"anh46nxniu56"},"type":"Feature","geometry":null},{"properties":{"zipcode":"91910","id":"anh46nt10fxj"},"type":"Feature","geometry":null},{"properties":{"zipcode":"97470","id":"anh46o434lrv"},"type":"Feature","geometry":null},{"properties":{"zipcode":"97470","id":"anh46ny7u8y0"},"type":"Feature","geometry":null},{"properties":{"zipcode":"97471","id":"anh46o0zadq3"},"type":"Feature","geometry":null},{"properties":{"zipcode":"97701","id":"anh46nwd28yj"},"type":"Feature","geometry":null},{"properties":{"zipcode":"97701","id":"anh46nw6a387"},"type":"Feature","geometry":null},{"properties":{"zipcode":"98362","id":"anh46nsdgw7e"},"type":"Feature","geometry":null},{"properties":{"zipcode":"97401","id":"anh46nry4h5a"},"type":"Feature","geometry":null},{"properties":{"zipcode":"97401","id":"anh46ntzsdpn"},"type":"Feature","geometry":null},{"properties":{"zipcode":"97401","id":"anh46nv08u8i"},"type":"Feature","geometry":null},{"properties":{"zipcode":"97470","id":"anh46nsyjl21"},"type":"Feature","geometry":null},{"properties":{"zipcode":"98908","id":"anh46nyhdkyf"},"type":"Feature","geometry":null},{"properties":{"zipcode":"98104","id":"anh46nypb555"},"type":"Feature","geometry":null},{"properties":{"zipcode":"91942","id":"anh46nq147f6"},"type":"Feature","geometry":null},{"properties":{"zipcode":"91767","id":"anh46nuk2bss"},"type":"Feature","geometry":null},{"properties":{"zipcode":"99503","id":"anh46nqtwdwq"},"type":"Feature","geometry":null},{"properties":{"zipcode":"90025","id":"anh46nvok77i"},"type":"Feature","geometry":null},{"properties":{"zipcode":"98225","id":"anh46nsge2dc"},"type":"Feature","geometry":null},{"properties":{"zipcode":"98226","id":"anh46nwsr42o"},"type":"Feature","geometry":null},{"properties":{"zipcode":"91730","id":"anh46nxllq9u"},"type":"Feature","geometry":null},{"properties":{"zipcode":"94118","id":"anh46nv3248k"},"type":"Feature","geometry":null},{"properties":{"zipcode":"92653","id":"anh46nwsv21x"},"type":"Feature","geometry":null},{"properties":{"zipcode":"89145","id":"anh46o0a4qpc"},"type":"Feature","geometry":null},{"properties":{"zipcode":"93101","id":"anh46o18ql9e"},"type":"Feature","geometry":null},{"properties":{"zipcode":"92108","id":"anh46nvpb85s"},"type":"Feature","geometry":null},{"properties":{"zipcode":"98115","id":"anh46o44pa4s"},"type":"Feature","geometry":null},{"properties":{"zipcode":"95126","id":"anh46nxopvua"},"type":"Feature","geometry":null},{"properties":{"zipcode":"92612","id":"anh46nu9g6ow"},"type":"Feature","geometry":null},{"properties":{"zipcode":"98532","id":"anh46o2tdpxc"},"type":"Feature","geometry":null},{"properties":{"zipcode":"95688","id":"anh46nvo69gz"},"type":"Feature","geometry":null},{"properties":{"zipcode":"98105","id":"anh46o35iacs"},"type":"Feature","geometry":null},{"properties":{"zipcode":"95661","id":"anh46ns2wq3p"},"type":"Feature","geometry":null},{"properties":{"zipcode":"94558","id":"anh46o4c1s7n"},"type":"Feature","geometry":null},{"properties":{"zipcode":"925915211","id":"anh46nqryqoe"},"type":"Feature","geometry":null},{"properties":{"zipcode":"98290","id":"anh46nxfhkp4"},"type":"Feature","geometry":null},{"properties":{"zipcode":"97214","id":"anh46ntqe6l4"},"type":"Feature","geometry":null},{"properties":{"zipcode":"99218","id":"anh46o3ixjth"},"type":"Feature","geometry":null},{"properties":{"zipcode":"91711","id":"anh46nzjm3x0"},"type":"Feature","geometry":null},{"properties":{"zipcode":"91730","id":"anh46nqrrzoi"},"type":"Feature","geometry":null},{"properties":{"zipcode":"92656","id":"anh46o3vuyxq"},"type":"Feature","geometry":null},{"properties":{"zipcode":"92116","id":"anh46o280ne5"},"type":"Feature","geometry":null},{"properties":{"zipcode":"91320","id":"anh46nyy4ngx"},"type":"Feature","geometry":null},{"properties":{"zipcode":"91364","id":"anh46o4q9roz"},"type":"Feature","geometry":null},{"properties":{"zipcode":"92656","id":"anh46nxxixd1"},"type":"Feature","geometry":null}],"is_temporal":false,"author":{"url":"","metadata":null,"contact_name":null,"contact_address":null,"source":null,"contact_phone":null},"source":"","pagination":{"sort":null,"start":0,"total":191,"limit":1000000},"state":"parsed","tags":"","published":"2014-08-14T19:42:16-04:00","id":213003}