{"type":"FeatureCollection","data_type":"Dataset","url_type":null,"permissions":[{"permissions":{"download":true,"view":true},"group_id":"everyone"}],"classification":null,"title":"19807addresses","count":64,"stream_id":213426,"contributor":{"url":"http://geocommons.com/users/41642","name":"cjohansen@christianacare.org"},"data_attributes":null,"calculation_params":null,"icon_link":null,"link":"http://geocommons.com/overlays/213426.json","extent":[-75.6381,39.7379,-75.4896,39.8332],"geometry_types":["point"],"unique_name":null,"name":"19807addresses","feature_count":64,"description":"","next_feature":null,"is_raster":false,"short_classification":"Y","stats":{},"features":[{"properties":{"city":"Greenville","zip":"19807","geo_score":0.922,"street":"318 Centennial Circle","id":"a63uh3uxwx3e","geo_precision":"range","state":"DE"},"type":"Feature","geometry":{"type":"Point","coordinates":[-75.583374,39.779471]}},{"properties":{"city":"Wilmington","zip":"19807","geo_score":0.912,"street":"2 Halsey Drive","id":"a63uh3kjfopd","geo_precision":"range","state":"DE"},"type":"Feature","geometry":{"type":"Point","coordinates":[-75.604535,39.778475]}},{"properties":{"city":"greenville","zip":"19807","geo_score":0.922,"street":"5685 lancaster pike","id":"a63uh3hlr7ap","geo_precision":"range","state":"DE"},"type":"Feature","geometry":{"type":"Point","coordinates":[-75.631407,39.762763]}},{"properties":{"city":"Wilmington","zip":"19807","geo_score":0.912,"street":"3 Gale Lane","id":"a63uh3t4l7fz","geo_precision":"range","state":"DE"},"type":"Feature","geometry":{"type":"Point","coordinates":[-75.605869,39.773017]}},{"properties":{"city":"Wilmington","zip":"19807","geo_score":0.912,"street":"16 Gale Lane","id":"a63uh3ktqxsl","geo_precision":"range","state":"DE"},"type":"Feature","geometry":{"type":"Point","coordinates":[-75.605867,39.772899]}},{"properties":{"city":"Wilmington","zip":"19807","geo_score":0.912,"street":"1000 Berkeley Road","id":"a63uh3kein7k","geo_precision":"range","state":"DE"},"type":"Feature","geometry":{"type":"Point","coordinates":[-75.591518,39.766732]}},{"properties":{"city":"Wilmington","zip":"19807","geo_score":0.912,"street":"1000 Berkeley Road","id":"a63uh3lems1e","geo_precision":"range","state":"DE"},"type":"Feature","geometry":{"type":"Point","coordinates":[-75.591518,39.766732]}},{"properties":{"city":"Wilmington","zip":"19807","geo_score":0.912,"street":"4830 Kennett Pike","id":"a63uh3naafp6","geo_precision":"range","state":"DE"},"type":"Feature","geometry":{"type":"Point","coordinates":[-75.60895,39.799197]}},{"properties":{"city":"Wilmington","zip":"19807","geo_score":0.912,"street":"16 Gale Lane","id":"a63uh3xi00x9","geo_precision":"range","state":"DE"},"type":"Feature","geometry":{"type":"Point","coordinates":[-75.605867,39.772899]}},{"properties":{"city":"Wilmington","zip":"19807","geo_score":0.912,"street":"16 Harlech Drive","id":"a63uh3pzcpbp","geo_precision":"range","state":"DE"},"type":"Feature","geometry":{"type":"Point","coordinates":[-75.61514,39.756879]}},{"properties":{"city":"Wilmington","zip":"19807","geo_score":0.912,"street":"16 Harlech Drive","id":"a63uh3n6nh99","geo_precision":"range","state":"DE"},"type":"Feature","geometry":{"type":"Point","coordinates":[-75.61514,39.756879]}},{"properties":{"city":"Wilmington","zip":"19807","geo_score":0.912,"street":"1002 Oriente Ave","id":"a63uh3hiryz4","geo_precision":"range","state":"DE"},"type":"Feature","geometry":{"type":"Point","coordinates":[-75.604441,39.772884]}},{"properties":{"city":"Wilmington","zip":"19807","geo_score":0.528,"street":"10 Brian Lane","id":"a63uh3ku8ygy","geo_precision":"street","state":"DE"},"type":"Feature","geometry":{"type":"Point","coordinates":[-75.501046,39.814182]}},{"properties":{"city":"Wilmington","zip":"19807","geo_score":0.912,"street":"6410 Kennett Pike","id":"a63uh3psmixp","geo_precision":"range","state":"DE"},"type":"Feature","geometry":{"type":"Point","coordinates":[-75.626347,39.831407]}},{"properties":{"city":"wilmington","zip":"19807","geo_score":0.664,"street":"1005 westover dr","id":"a63uh3p96uf9","geo_precision":"street","state":"DE"},"type":"Feature","geometry":{"type":"Point","coordinates":[-75.595942,39.762374]}},{"properties":{"city":"greenville","zip":"19807","geo_score":0.488,"street":"9 berkshire court","id":"a63uh3ws5huj","geo_precision":"street","state":"DE"},"type":"Feature","geometry":{"type":"Point","coordinates":[-75.512442,39.804304]}},{"properties":{"city":"Wilmington","zip":"19807","geo_score":0.912,"street":"1529 Barley Mill Road","id":"a63uh3skf5bg","geo_precision":"range","state":"DE"},"type":"Feature","geometry":{"type":"Point","coordinates":[-75.618839,39.770117]}},{"properties":{"city":"Wilmington","zip":"19807","geo_score":0.912,"street":"1529 Barley Mill Road","id":"a63uh3t0q6uw","geo_precision":"range","state":"DE"},"type":"Feature","geometry":{"type":"Point","coordinates":[-75.618839,39.770117]}},{"properties":{"city":"Wilmington","zip":"19807","geo_score":0.912,"street":"5 Westover Circle","id":"a63uh3qvdvw1","geo_precision":"range","state":"DE"},"type":"Feature","geometry":{"type":"Point","coordinates":[-75.594518,39.761217]}},{"properties":{"city":"Greenville","zip":"19807","geo_score":0.824,"street":"3600 Centerville Road","id":"a63uh3wfs64u","geo_precision":"street","state":"DE"},"type":"Feature","geometry":{"type":"Point","coordinates":[-75.624926,39.76008]}},{"properties":{"city":"Wilmington","zip":"19807","geo_score":0.912,"street":"5 Haslet Way","id":"a63uh3kr3ove","geo_precision":"range","state":"DE"},"type":"Feature","geometry":{"type":"Point","coordinates":[-75.590074,39.756722]}},{"properties":{"city":"Wilmington","zip":"19807","geo_score":0.912,"street":"919 Westover Road","id":"a63uh3o52j6x","geo_precision":"range","state":"DE"},"type":"Feature","geometry":{"type":"Point","coordinates":[-75.590506,39.765299]}},{"properties":{"city":"Greenville","zip":"19807","geo_score":0.922,"street":"1007 Thaxten Lane","id":"a63uh3ht1p6p","geo_precision":"range","state":"DE"},"type":"Feature","geometry":{"type":"Point","coordinates":[-75.604023,39.770398]}},{"properties":{"city":"Wilmington","zip":"19807","geo_score":0.912,"street":"919 Westover Road","id":"a63uh3t3n51y","geo_precision":"range","state":"DE"},"type":"Feature","geometry":{"type":"Point","coordinates":[-75.590506,39.765299]}},{"properties":{"city":"Wilmington","zip":"19807","geo_score":0.912,"street":"919 Westover Road","id":"a63uh3qkw2qu","geo_precision":"range","state":"DE"},"type":"Feature","geometry":{"type":"Point","coordinates":[-75.590506,39.765299]}},{"properties":{"city":"Wilmington","zip":"19807","geo_score":0.595,"street":"376 Cassel Court","id":"a63uh3mkfbhv","geo_precision":"zip","state":"DE"},"type":"Feature","geometry":{"type":"Point","coordinates":[-75.636873,39.766223]}},{"properties":{"city":"Wilmington","zip":"19807","geo_score":0.912,"street":"49 Selborne Drive","id":"a63uh3l0tgcm","geo_precision":"range","state":"DE"},"type":"Feature","geometry":{"type":"Point","coordinates":[-75.618196,39.83318]}},{"properties":{"city":"Wilmington","zip":"19807","geo_score":0.912,"street":"117 Dickinson Lane","id":"a63uh3s2dvo9","geo_precision":"range","state":"DE"},"type":"Feature","geometry":{"type":"Point","coordinates":[-75.592542,39.758491]}},{"properties":{"city":"Wilmington","zip":"19807","geo_score":0.912,"street":"2 Halsey Dr","id":"a63uh3n5jbfh","geo_precision":"range","state":"DE"},"type":"Feature","geometry":{"type":"Point","coordinates":[-75.604535,39.778475]}},{"properties":{"city":"Wilmington","zip":"19807","geo_score":0.753,"street":"8 Buck Ridge Drive Barley Woods","id":"a63uh3vxmfuh","geo_precision":"range","state":"DE"},"type":"Feature","geometry":{"type":"Point","coordinates":[-75.612715,39.772784]}},{"properties":{"city":"Wilmington","zip":"19807","geo_score":0.912,"street":"702 Westover Road","id":"a63uh3tng4by","geo_precision":"range","state":"DE"},"type":"Feature","geometry":{"type":"Point","coordinates":[-75.595927,39.762391]}},{"properties":{"city":"Wilmington","zip":"19807","geo_score":0.912,"street":"4005 Valley Green Road","id":"a63uh3sdpl2w","geo_precision":"range","state":"DE"},"type":"Feature","geometry":{"type":"Point","coordinates":[-75.612075,39.776047]}},{"properties":{"city":"Wilmington","zip":"19807","geo_score":0.618,"street":"122 Chestnut St","id":"a63uh3n6revl","geo_precision":"street","state":"DE"},"type":"Feature","geometry":{"type":"Point","coordinates":[-75.489561,39.81526]}},{"properties":{"city":"Wilmington","zip":"19807","geo_score":0.893,"street":"15 B Presidential Dr","id":"a63uh3ndu3at","geo_precision":"range","state":"DE"},"type":"Feature","geometry":{"type":"Point","coordinates":[-75.594567,39.772258]}},{"properties":{"city":"Wilmington","zip":"19807","geo_score":0.912,"street":"108 Wayland Rd","id":"a63uh3lmz73c","geo_precision":"range","state":"DE"},"type":"Feature","geometry":{"type":"Point","coordinates":[-75.623257,39.766321]}},{"properties":{"city":"Wilmington","zip":"19807","geo_score":0.912,"street":"103 Dickinson Ln","id":"a63uh3n7qtkk","geo_precision":"range","state":"DE"},"type":"Feature","geometry":{"type":"Point","coordinates":[-75.591787,39.759075]}},{"properties":{"city":"Wilmington","zip":"19807","geo_score":0.912,"street":"28 Beethoven Drive","id":"a63uh3xtfpx3","geo_precision":"range","state":"DE"},"type":"Feature","geometry":{"type":"Point","coordinates":[-75.627865,39.770138]}},{"properties":{"city":"Wilmington","zip":"19807","geo_score":0.912,"street":"30 Beethoven Drive","id":"a63uh3s428un","geo_precision":"range","state":"DE"},"type":"Feature","geometry":{"type":"Point","coordinates":[-75.627941,39.770111]}},{"properties":{"city":"Wilmington","zip":"19807","geo_score":0.815,"street":"99 Chandler Ave","id":"a63uh3jz7rex","geo_precision":"street","state":"DE"},"type":"Feature","geometry":{"type":"Point","coordinates":[-75.624592,39.823423]}},{"properties":{"city":"Wilmington","zip":"19807","geo_score":0.912,"street":"501 Dogwood Dr","id":"a63uh3i7z3k9","geo_precision":"range","state":"DE"},"type":"Feature","geometry":{"type":"Point","coordinates":[-75.623426,39.810743]}},{"properties":{"city":"Wilmington","zip":"19807","geo_score":0.893,"street":"256 E Presidential Drive","id":"a63uh3uzqu3u","geo_precision":"range","state":"DE"},"type":"Feature","geometry":{"type":"Point","coordinates":[-75.597811,39.772053]}},{"properties":{"city":"Wilmington","zip":"19807","geo_score":0.912,"street":"8 Hearth Ln","id":"a63uh3m708t6","geo_precision":"range","state":"DE"},"type":"Feature","geometry":{"type":"Point","coordinates":[-75.579467,39.773712]}},{"properties":{"city":"Wilmington","zip":"19807","geo_score":0.912,"street":"32 Oxford Way","id":"a63uh3i6wgrl","geo_precision":"range","state":"DE"},"type":"Feature","geometry":{"type":"Point","coordinates":[-75.630415,39.764892]}},{"properties":{"city":"Greenville","zip":"19807","geo_score":0.857,"street":"28 Guyen Ct Rd","id":"a63uh3tt6yy0","geo_precision":"range","state":"DE"},"type":"Feature","geometry":{"type":"Point","coordinates":[-75.583204,39.816354]}},{"properties":{"city":"Wilmington","zip":"19807","geo_score":0.89,"street":"1525-A Barley Mill Rd","id":"a63uh3qqfp7m","geo_precision":"range","state":"DE"},"type":"Feature","geometry":{"type":"Point","coordinates":[-75.618644,39.770174]}},{"properties":{"city":"Wilmington","zip":"19807","geo_score":0.333,"street":"PO Box 4426","id":"a63uh3m2hjvu","geo_precision":"street","state":"DE"},"type":"Feature","geometry":{"type":"Point","coordinates":[-75.565739,39.737939]}},{"properties":{"city":"Wilmington","zip":"19807","geo_score":0.912,"street":"201 Owl's Nest Rd.","id":"a63uh3w4659x","geo_precision":"range","state":"DE"},"type":"Feature","geometry":{"type":"Point","coordinates":[-75.620794,39.817514]}},{"properties":{"city":"Greenville","zip":"19807","geo_score":0.808,"street":"4830 Kennett Pike Apt 1537","id":"a63uh3plmhy3","geo_precision":"range","state":"DE"},"type":"Feature","geometry":{"type":"Point","coordinates":[-75.60895,39.799197]}},{"properties":{"city":"Greenville","zip":"19807","geo_score":0.922,"street":"20 Foxhill Ln","id":"a63uh3wj5h0q","geo_precision":"range","state":"DE"},"type":"Feature","geometry":{"type":"Point","coordinates":[-75.638099,39.766826]}},{"properties":{"city":"Wilmington","zip":"19807","geo_score":0.912,"street":"925 Centre Rd","id":"a63uh3lq9yi5","geo_precision":"range","state":"DE"},"type":"Feature","geometry":{"type":"Point","coordinates":[-75.599988,39.762838]}},{"properties":{"city":"Greenville","zip":"19807","geo_score":0.922,"street":"5681 Lancaster Pike","id":"a63uh3hkh2kz","geo_precision":"range","state":"DE"},"type":"Feature","geometry":{"type":"Point","coordinates":[-75.630974,39.762746]}},{"properties":{"city":"Wilmington","zip":"19807","geo_score":0.815,"street":"601 N Dupont Rd","id":"a63uh3k190cg","geo_precision":"street","state":"DE"},"type":"Feature","geometry":{"type":"Point","coordinates":[-75.587673,39.757166]}},{"properties":{"city":"Greenville","zip":"19807","geo_score":0.333,"street":"Po Box 4351","id":"a63uh3r48mso","geo_precision":"street","state":"DE"},"type":"Feature","geometry":{"type":"Point","coordinates":[-75.565739,39.737939]}},{"properties":{"city":"Wilmington","zip":"19807","geo_score":0.912,"street":"14 Gale Ln","id":"a63uh3vi1ibc","geo_precision":"range","state":"DE"},"type":"Feature","geometry":{"type":"Point","coordinates":[-75.605867,39.772918]}},{"properties":{"city":"Wilmington","zip":"19807","geo_score":0.912,"street":"3202 Swarthmore Rd","id":"a63uh3t90kwo","geo_precision":"range","state":"DE"},"type":"Feature","geometry":{"type":"Point","coordinates":[-75.585729,39.756615]}},{"properties":{"city":"wilmington","zip":"19807","geo_score":0.912,"street":"4031 kennett pike","id":"a63uh3hx4s2q","geo_precision":"range","state":"DE"},"type":"Feature","geometry":{"type":"Point","coordinates":[-75.598766,39.779413]}},{"properties":{"city":"Greenville","zip":"19807","geo_score":0.333,"street":"PO Box 3766","id":"a63uh3qb9msh","geo_precision":"street","state":"DE"},"type":"Feature","geometry":{"type":"Point","coordinates":[-75.565739,39.737939]}},{"properties":{"city":"Greenville","zip":"19807","geo_score":0.922,"street":"42 Oxford Way","id":"a63uh3u9tvg0","geo_precision":"range","state":"DE"},"type":"Feature","geometry":{"type":"Point","coordinates":[-75.630687,39.765086]}},{"properties":{"city":"Greenville","zip":"19807","geo_score":0.922,"street":"1007 Thaxten Ln","id":"a63uh3iaz0h5","geo_precision":"range","state":"DE"},"type":"Feature","geometry":{"type":"Point","coordinates":[-75.604023,39.770398]}},{"properties":{"city":"Wilmington","zip":"19807","geo_score":0.333,"street":"Po Box 3552","id":"a63uh3poinlt","geo_precision":"street","state":"DE"},"type":"Feature","geometry":{"type":"Point","coordinates":[-75.565739,39.737939]}},{"properties":{"city":"Wilmington","zip":"19807","geo_score":0.912,"street":"205 Greenock Dr","id":"a63uh3uts6yx","geo_precision":"range","state":"DE"},"type":"Feature","geometry":{"type":"Point","coordinates":[-75.590024,39.777499]}},{"properties":{"city":"Greenville","zip":"19807","geo_score":0.619,"street":"1159 Senatorial Dr apt 129A","id":"a63uh3huz739","geo_precision":"street","state":"DE"},"type":"Feature","geometry":{"type":"Point","coordinates":[-75.596628,39.774371]}},{"properties":{"city":"Greenville","zip":"19807","geo_score":0.883,"street":"605 Swallow Hollow","id":"a63uh3r96c4p","geo_precision":"range","state":"DE"},"type":"Feature","geometry":{"type":"Point","coordinates":[-75.617706,39.815498]}},{"properties":{"city":"Wilmington","zip":"19807","geo_score":0.912,"street":"14 Mount Airy Dr","id":"a63uh3mxss6k","geo_precision":"range","state":"DE"},"type":"Feature","geometry":{"type":"Point","coordinates":[-75.61796,39.826443]}}],"is_temporal":false,"author":{"url":"","metadata":null,"contact_name":null,"contact_address":null,"source":null,"contact_phone":null},"source":"","pagination":{"sort":null,"start":0,"total":64,"limit":1000000},"state":"complete","tags":"","published":"2014-08-14T20:18:30-04:00","id":213426}