{"type":"FeatureCollection","data_type":"Dataset","url_type":null,"permissions":[{"permissions":{"download":true,"edit":true,"view":true},"group_id":32422},{"permissions":{"download":true,"edit":true,"view":true},"group_id":"everyone"}],"classification":null,"title":"dc independent schools","count":62,"stream_id":213594,"contributor":{"url":"http://geocommons.com/users/34311","name":"jodickerson"},"data_attributes":null,"calculation_params":null,"icon_link":null,"link":"http://geocommons.com/overlays/213594.json","extent":[-77.0945,38.825,-76.9289,38.9848],"geometry_types":["point"],"unique_name":null,"name":"dc independent schools","feature_count":62,"description":"","next_feature":null,"is_raster":false,"short_classification":"Y","stats":{"ID":{"max":66.0,"variance":372.986779481756,"mean":33.6451612903226,"stdev":19.3128656465517,"min":1.0,"median":33.0}},"features":[{"properties":{"NAME":"Academy for Ideal Education","ZIP":"20011","GIS_ID":"IND_002","TELEPHONE":"202-726-0313","ID":10.0,"WEB_URL":"http://members.tripod.com/~idealschool/","id":"0","ADDRESS":"1501 Gallatin St NW"},"type":"Feature","geometry":{"type":"Point","coordinates":[-77.0347543515374,38.9521082313619]}},{"properties":{"NAME":"Bridges Academy","ZIP":"20011","GIS_ID":"IND_003","TELEPHONE":"202-829-1901","ID":15.0,"WEB_URL":"http://bridges-academy.org","id":"1","ADDRESS":"6119 Georgia Ave NW"},"type":"Feature","geometry":{"type":"Point","coordinates":[-77.027420337224,38.9643746125399]}},{"properties":{"NAME":"Holy Redeemer School","ZIP":"20001","GIS_ID":"IND_004","TELEPHONE":"202-638-5789","ID":24.0,"WEB_URL":"http://www.holyredeemerdc.org/","id":"2","ADDRESS":"1135 New Jersey Ave NW"},"type":"Feature","geometry":{"type":"Point","coordinates":[-77.0142021616671,38.9049151905542]}},{"properties":{"NAME":"Holy Trinity School","ZIP":"20007","GIS_ID":"IND_005","TELEPHONE":"202-337-2339","ID":25.0,"WEB_URL":"http://www.htsdc.org/","id":"3","ADDRESS":"1325 36th St NW"},"type":"Feature","geometry":{"type":"Point","coordinates":[-77.0704776960374,38.9074516906496]}},{"properties":{"NAME":"Kingsbury Day School","ZIP":"20008","GIS_ID":"IND_006","TELEPHONE":"202-722-5555","ID":27.0,"WEB_URL":"http://www.kingsbury.org/","id":"4","ADDRESS":"5000 14th Street NW"},"type":"Feature","geometry":{"type":"Point","coordinates":[-77.0340888105993,38.9509839472072]}},{"properties":{"NAME":"Maret School","ZIP":"20008","GIS_ID":"IND_007","TELEPHONE":"202-939-8800","ID":30.0,"WEB_URL":"http://www.maret.org","id":"5","ADDRESS":"3000 Cathedral Ave NW"},"type":"Feature","geometry":{"type":"Point","coordinates":[-77.0605685712214,38.9282144787339]}},{"properties":{"NAME":"Nation House Watoto School","ZIP":"20010","GIS_ID":"IND_008","TELEPHONE":"202-291-5600","ID":33.0,"WEB_URL":"http://www.nationhouse.org","id":"6","ADDRESS":"770 Park Rd NW"},"type":"Feature","geometry":{"type":"Point","coordinates":[-77.0264957962076,38.9326272965063]}},{"properties":{"NAME":"Parkmont School","ZIP":"20011","GIS_ID":"IND_009","TELEPHONE":"202-726-0740","ID":38.0,"WEB_URL":"http://www.parkmont.org","id":"7","ADDRESS":"4842 16th St NW"},"type":"Feature","geometry":{"type":"Point","coordinates":[-77.0367676545235,38.9499855996519]}},{"properties":{"NAME":"Sheridan School","ZIP":"20008","GIS_ID":"IND_011","TELEPHONE":"202-362-7900","ID":49.0,"WEB_URL":"http://www.sheridanschool.org","id":"8","ADDRESS":"4400 36th St NW"},"type":"Feature","geometry":{"type":"Point","coordinates":[-77.0705200938121,38.9467661280903]}},{"properties":{"NAME":"Sidwell Friends School","ZIP":"20016","GIS_ID":"IND_012","TELEPHONE":"202-537-8100","ID":50.0,"WEB_URL":"http://www.sidwell.edu","id":"9","ADDRESS":"3825 Wisconsin Ave NW"},"type":"Feature","geometry":{"type":"Point","coordinates":[-77.0739854138616,38.9393645143341]}},{"properties":{"NAME":"Washington Hebrew Congregation Tyser Ecc","ZIP":"20016","GIS_ID":"IND_013","TELEPHONE":"202-895-6334","ID":51.0,"WEB_URL":"http://www.whcecc.org/ETECC.htm","id":"10","ADDRESS":"3935 Macomb St NW"},"type":"Feature","geometry":{"type":"Point","coordinates":[-77.078358347954,38.9338311174299]}},{"properties":{"NAME":"Washington International School","ZIP":"20008","GIS_ID":"IND_014","TELEPHONE":"202-243-1800","ID":52.0,"WEB_URL":"http://www.wis.edu","id":"11","ADDRESS":"3100 Macomb St NW"},"type":"Feature","geometry":{"type":"Point","coordinates":[-77.0611219276652,38.9324698245133]}},{"properties":{"NAME":"Assumption School","ZIP":"20032","GIS_ID":"IND_015","TELEPHONE":"202-562-7070","ID":53.0,"WEB_URL":"http://www.assumptionchurch-dc.org/","id":"12","ADDRESS":"220 High View Pl SE"},"type":"Feature","geometry":{"type":"Point","coordinates":[-77.0045275986265,38.8414963147375]}},{"properties":{"NAME":"Clara Muhammad School","ZIP":"20020","GIS_ID":"IND_016","TELEPHONE":"202-610-1090","ID":55.0,"WEB_URL":"http://dccms.org","id":"13","ADDRESS":"2313-15 Martin Luther King Jr Ave SE"},"type":"Feature","geometry":{"type":"Point","coordinates":[-76.9918690333961,38.8632829314283]}},{"properties":{"NAME":"Dupont Park Adventist School","ZIP":"20020","GIS_ID":"IND_017","TELEPHONE":"202-583-8500","ID":57.0,"WEB_URL":"http://dupont22.adventistschoolconnect.org/","id":"14","ADDRESS":"3942 Alabama Ave SE"},"type":"Feature","geometry":{"type":"Point","coordinates":[-76.9480404952622,38.8696677074853]}},{"properties":{"NAME":"Naylor Road School","ZIP":"20020","GIS_ID":"IND_018","TELEPHONE":"202-584-5114","ID":59.0,"WEB_URL":"http://www.naylorroadschool.com","id":"15","ADDRESS":"2403 Naylor Rd SE"},"type":"Feature","geometry":{"type":"Point","coordinates":[-76.9721598943843,38.8692152497877]}},{"properties":{"NAME":"Our Lady of Perpetual Help","ZIP":"20020","GIS_ID":"IND_019","TELEPHONE":"202-678-0211","ID":60.0,"WEB_URL":"http://www.privateschoolreview.com/school_ov/school_id/5854","id":"16","ADDRESS":"1409 V Street SE"},"type":"Feature","geometry":{"type":"Point","coordinates":[-76.9847346293727,38.8646464780368]}},{"properties":{"NAME":"Our Lady Queen of Peace School","ZIP":"20019","GIS_ID":"IND_021","TELEPHONE":"202-582-8600","ID":62.0,"WEB_URL":"http://www.parishes.org","id":"17","ADDRESS":"3740 Ely Pl SE"},"type":"Feature","geometry":{"type":"Point","coordinates":[-76.9481109423463,38.8832110351506]}},{"properties":{"NAME":"Calvary Christian Academy","ZIP":"20018","GIS_ID":"IND_022","TELEPHONE":"202-526-5176","ID":2.0,"WEB_URL":"http://www.calvarychristianacad.org","id":"18","ADDRESS":"806 Rhode Island Ave NE"},"type":"Feature","geometry":{"type":"Point","coordinates":[-76.9942901765707,38.9221295748839]}},{"properties":{"NAME":"Nannie Helen Burroughs School, Inc.","ZIP":"20019","GIS_ID":"IND_023","TELEPHONE":"202-398-5266","ID":5.0,"WEB_URL":"http://www.nhburroughs.org/","id":"19","ADDRESS":"601 50th St NE"},"type":"Feature","geometry":{"type":"Point","coordinates":[-76.9289127081421,38.8972039994825]}},{"properties":{"NAME":"St. Anselm's Abbey School","ZIP":"20017","GIS_ID":"IND_024","TELEPHONE":"202-269-2350","ID":6.0,"WEB_URL":"http://www.saintanselms.org/","id":"20","ADDRESS":"4501 South Dakota Ave NE"},"type":"Feature","geometry":{"type":"Point","coordinates":[-76.9847788355647,38.945767616009]}},{"properties":{"NAME":"St. Anthony's School","ZIP":"20017","GIS_ID":"IND_025","TELEPHONE":"202-526-4657","ID":7.0,"WEB_URL":"http://www.stanthonyschooldc.org/","id":"21","ADDRESS":"12th and Lawrence St NE"},"type":"Feature","geometry":{"type":"Point","coordinates":[-76.991352032438,38.9317254558936]}},{"properties":{"NAME":"St. Benedict The Moor School","ZIP":"20002","GIS_ID":"IND_026","TELEPHONE":"202-397-3897","ID":8.0,"WEB_URL":"http://www.stbenedictofdc.org/","id":"22","ADDRESS":"330 21st St NE"},"type":"Feature","geometry":{"type":"Point","coordinates":[-76.9754698918406,38.8945977993101]}},{"properties":{"NAME":"St. Francis De Sales School","ZIP":"20018","GIS_ID":"IND_027","TELEPHONE":"202-529-5394","ID":9.0,"WEB_URL":"http://www.stfrancisdesaleswdc.org/","id":"23","ADDRESS":"2019 Rhode Island Ave NE"},"type":"Feature","geometry":{"type":"Point","coordinates":[-76.9754083452202,38.9289477648648]}},{"properties":{"NAME":"Annunciation School","ZIP":"20016","GIS_ID":"IND_028","TELEPHONE":"202-362-1408","ID":12.0,"WEB_URL":"http://www.annunciationschool.net/","id":"24","ADDRESS":"3825 Klingle Pl NW"},"type":"Feature","geometry":{"type":"Point","coordinates":[-77.0764140662545,38.929898079914]}},{"properties":{"NAME":"Aidan Montessori School","ZIP":"20008","GIS_ID":"IND_029","TELEPHONE":"202-387-2700","ID":11.0,"WEB_URL":"www.aidanschool.org","id":"25","ADDRESS":"2700 27th St NW"},"type":"Feature","geometry":{"type":"Point","coordinates":[-77.0556113034785,38.9261827390201]}},{"properties":{"NAME":"Georgetown Day School Lower/Middle School","ZIP":"20007","GIS_ID":"IND_031","TELEPHONE":"202-295-6200","ID":21.0,"WEB_URL":"http://www.gds.org","id":"26","ADDRESS":"4530 MacArthur Blvd NW"},"type":"Feature","geometry":{"type":"Point","coordinates":[-77.0863004861096,38.9076334839947]}},{"properties":{"NAME":"Immaculate Conception School","ZIP":"20001","GIS_ID":"IND_032","TELEPHONE":"202-234-1093","ID":26.0,"WEB_URL":"http://www.privateschoolreview.com/school_ov/school_id/5836","id":"27","ADDRESS":"711 N St NW"},"type":"Feature","geometry":{"type":"Point","coordinates":[-77.0226615871858,38.9075165840907]}},{"properties":{"NAME":"St. Albans School","ZIP":"20016","GIS_ID":"IND_033","TELEPHONE":"202-537-6435","ID":42.0,"WEB_URL":"http://www.sta.cathedral.org","id":"28","ADDRESS":"3001 Wisconsin Ave NW"},"type":"Feature","geometry":{"type":"Point","coordinates":[-77.0727872908972,38.9290445241247]}},{"properties":{"NAME":"St. Ann's Academy","ZIP":"20016","GIS_ID":"IND_034","TELEPHONE":"202-363-4460","ID":43.0,"WEB_URL":"http://www.stannsacademy.net/","id":"29","ADDRESS":"4404 Wisconsin Ave NW"},"type":"Feature","geometry":{"type":"Point","coordinates":[-77.0800849404842,38.9469052164218]}},{"properties":{"NAME":"St. Augustine School","ZIP":"20009","GIS_ID":"IND_035","TELEPHONE":"202-667-2608","ID":44.0,"WEB_URL":"http://www.staug-dc.org/","id":"30","ADDRESS":"1421 V St NW"},"type":"Feature","geometry":{"type":"Point","coordinates":[-77.0333176561933,38.9183808884322]}},{"properties":{"NAME":"St. Gabriel's School","ZIP":"20011","GIS_ID":"IND_036","TELEPHONE":"202-726-9212","ID":45.0,"WEB_URL":"http://www.parishes.org/gabriel.html","id":"31","ADDRESS":"510 Webster Strreet, NW"},"type":"Feature","geometry":{"type":"Point","coordinates":[-77.0203204096423,38.9436807475193]}},{"properties":{"NAME":"Nativity Catholic Academy","ZIP":"20011","GIS_ID":"IND_037","TELEPHONE":"202-723-3322","ID":34.0,"WEB_URL":"http://washington-dc.schooltree.org/private/Nativity-Catholic-Academy-006691.htm","id":"32","ADDRESS":"6008 Georgia Ave NW"},"type":"Feature","geometry":{"type":"Point","coordinates":[-77.0283473284952,38.9631920586201]}},{"properties":{"NAME":"Roots Activity Learning Center","ZIP":"20011","GIS_ID":"IND_038","TELEPHONE":"202-882-5155","ID":40.0,"WEB_URL":"http://www.rootsactivitylc.org/","id":"33","ADDRESS":"6222 North Capitol St NW"},"type":"Feature","geometry":{"type":"Point","coordinates":[-77.0094348926852,38.9662034096639]}},{"properties":{"NAME":"St. Peter's Interparish School","ZIP":"20003","GIS_ID":"IND_039","TELEPHONE":"202-544-1618","ID":64.0,"WEB_URL":"http://www.stpetersinterparish.org/","id":"34","ADDRESS":"422 3rd St SE"},"type":"Feature","geometry":{"type":"Point","coordinates":[-77.0015630623778,38.8834647595301]}},{"properties":{"NAME":"St. Thomas More Catholic School","ZIP":"20032","GIS_ID":"IND_040","TELEPHONE":"202-561-1189","ID":65.0,"WEB_URL":"http://www.privateschoolreview.com/school_ov/school_id/5876","id":"35","ADDRESS":"4265 4th St SE"},"type":"Feature","geometry":{"type":"Point","coordinates":[-76.9999550123923,38.8250336490977]}},{"properties":{"NAME":"Sacred Heart School","ZIP":"20010","GIS_ID":"IND_041","TELEPHONE":"202-265-4828","ID":41.0,"WEB_URL":"http://sacredheartschooldc.org","id":"36","ADDRESS":"1625 Park Rd NW"},"type":"Feature","geometry":{"type":"Point","coordinates":[-77.0376668065937,38.9323072279612]}},{"properties":{"NAME":"St. John's College High School","ZIP":"20015","GIS_ID":"IND_042","TELEPHONE":"202-363-2316","ID":46.0,"WEB_URL":"http://www.stjohns-chs.org","id":"37","ADDRESS":"2607 Military Rd NW"},"type":"Feature","geometry":{"type":"Point","coordinates":[-77.0549693476888,38.9624720569993]}},{"properties":{"NAME":"St. Francis Xavier School","ZIP":"20020","GIS_ID":"IND_043","TELEPHONE":"202-581-2010","ID":63.0,"WEB_URL":"http://www.privateschoolreview.com/school_ov/school_id/5871","id":"38","ADDRESS":"2700 O St SE"},"type":"Feature","geometry":{"type":"Point","coordinates":[-76.9685938040208,38.8731413608297]}},{"properties":{"NAME":"Capitol Hill Day School","ZIP":"20003","GIS_ID":"IND_044","TELEPHONE":"202-547-2244","ID":54.0,"WEB_URL":"http://www.chds.org","id":"39","ADDRESS":"210 South Carolina Ave SE"},"type":"Feature","geometry":{"type":"Point","coordinates":[-77.0031788655674,38.8823012126429]}},{"properties":{"NAME":"Holy Comforter - St. Cyprian School","ZIP":"20003","GIS_ID":"IND_045","TELEPHONE":"202-547-7556","ID":58.0,"WEB_URL":"http://www.holycomforterstcypriandc.parishesonline.com/scripts/HostedSites","id":"40","ADDRESS":"1503 East Capitol St SE"},"type":"Feature","geometry":{"type":"Point","coordinates":[-76.9832356948586,38.889409638325]}},{"properties":{"NAME":"Anacostia Bible Church School","ZIP":"20020","GIS_ID":"IND_046","TELEPHONE":"202-678-6555","ID":56.0,"WEB_URL":"http://www.anacostiabible.org/","id":"41","ADDRESS":"1610 T St SE"},"type":"Feature","geometry":{"type":"Point","coordinates":[-76.9818905652708,38.8674789558515]}},{"properties":{"NAME":"St. Patrick's Episcopal Day School","ZIP":"20007","GIS_ID":"IND_047","TELEPHONE":"202-342-2805","ID":48.0,"WEB_URL":"http://www.stpatsdc.org","id":"42","ADDRESS":"4700 Whitehaven Pkwy NW"},"type":"Feature","geometry":{"type":"Point","coordinates":[-77.0913605717335,38.9160874895928]}},{"properties":{"NAME":"Holy Name School","ZIP":"20002","GIS_ID":"IND_048","TELEPHONE":"202-397-1614","ID":66.0,"WEB_URL":"http://www.privateschoolreview.com/school_ov/school_id/5830","id":"43","ADDRESS":"1217 W est Virginia                  Ave  NE"},"type":"Feature","geometry":{"type":"Point","coordinates":[-76.9912120797077,38.9053028841345]}},{"properties":{"NAME":"Archbishop Carroll High","ZIP":"20017","GIS_ID":"IND_049","TELEPHONE":"202-529-0900","ID":1.0,"WEB_URL":"http://www.archbishopcarroll.org/","id":"44","ADDRESS":"4300 Harewood NE                                                   R d"},"type":"Feature","geometry":{"type":"Point","coordinates":[-77.0065159334483,38.9408594049336]}},{"properties":{"NAME":"Jewels of Ann School","ZIP":"20018","GIS_ID":"IND_050","TELEPHONE":"202-529-5446","ID":4.0,"WEB_URL":null,"id":"45","ADDRESS":"2011 Bunker Hill Rd NE"},"type":"Feature","geometry":{"type":"Point","coordinates":[-76.9757179360398,38.9401168351664]}},{"properties":{"NAME":"Beauvoir","ZIP":"20016","GIS_ID":"IND_051","TELEPHONE":"202-537-6485","ID":13.0,"WEB_URL":"http://www.beauvoirschool.org/","id":"46","ADDRESS":"3500 Woodley Rd NW"},"type":"Feature","geometry":{"type":"Point","coordinates":[-77.0721736536423,38.9312711917314]}},{"properties":{"NAME":"Blessed Sacrament School","ZIP":"20015","GIS_ID":"IND_052","TELEPHONE":"202-966-6682","ID":14.0,"WEB_URL":"http://www.bsstoday.org","id":"47","ADDRESS":"5841 Chevy Chase Pkwy NW"},"type":"Feature","geometry":{"type":"Point","coordinates":[-77.0751355277128,38.9679004426373]}},{"properties":{"NAME":"Edmund Burke School","ZIP":"20008","GIS_ID":"IND_053","TELEPHONE":"202-362-8882","ID":17.0,"WEB_URL":"http://www.eburke.org","id":"48","ADDRESS":"4101 Connecticut Ave NW"},"type":"Feature","geometry":{"type":"Point","coordinates":[-77.0614245266046,38.9423454812275]}},{"properties":{"NAME":"Emerson Preparatory School","ZIP":"20036","GIS_ID":"IND_054","TELEPHONE":"202-785-2877","ID":18.0,"WEB_URL":"http://www.emersonprep.net","id":"49","ADDRESS":"1324 18th St NW"},"type":"Feature","geometry":{"type":"Point","coordinates":[-77.0418998680369,38.9085348421013]}},{"properties":{"NAME":"The Field School","ZIP":"20008","GIS_ID":"IND_055","TELEPHONE":"202-232-0733","ID":19.0,"WEB_URL":"http://www.fieldschool.com","id":"50","ADDRESS":"2126 Wyoming Ave NW"},"type":"Feature","geometry":{"type":"Point","coordinates":[-77.047840864975,38.9172380929051]}},{"properties":{"NAME":"Georgetown Day School High School","ZIP":"20016","GIS_ID":"IND_056","TELEPHONE":"202-274-3200","ID":20.0,"WEB_URL":"http://www.gds.org","id":"51","ADDRESS":"4200 Davenport St NW"},"type":"Feature","geometry":{"type":"Point","coordinates":[-77.0825703878314,38.9517998563872]}},{"properties":{"NAME":"Georgetown Visitation Preparatory School","ZIP":"20007","GIS_ID":"IND_057","TELEPHONE":"202-337-3350","ID":22.0,"WEB_URL":"http://www.visi.org","id":"52","ADDRESS":"1524 35th St NW"},"type":"Feature","geometry":{"type":"Point","coordinates":[-77.069319853262,38.9092046510716]}},{"properties":{"NAME":"Gonzaga College High School","ZIP":"20001","GIS_ID":"IND_058","TELEPHONE":"202-336-7100","ID":23.0,"WEB_URL":"http://www.gonzaga.org","id":"53","ADDRESS":"19 Eye St NW"},"type":"Feature","geometry":{"type":"Point","coordinates":[-77.0108867623784,38.9016120302572]}},{"properties":{"NAME":"The Lab School of Washington","ZIP":"20007","GIS_ID":"IND_059","TELEPHONE":"202-965-6600","ID":28.0,"WEB_URL":"http://www.labschool.org","id":"54","ADDRESS":"4759 Reservoir Rd NW"},"type":"Feature","geometry":{"type":"Point","coordinates":[-77.0924940742604,38.9154577078131]}},{"properties":{"NAME":"Lowell School","ZIP":"20012","GIS_ID":"IND_060","TELEPHONE":"202-577-2000","ID":29.0,"WEB_URL":"http://www.lowellschool.org","id":"55","ADDRESS":"1640 Kalmia Rd NW"},"type":"Feature","geometry":{"type":"Point","coordinates":[-77.0383829456089,38.9847880624681]}},{"properties":{"NAME":"National Cathedral School","ZIP":"20016","GIS_ID":"IND_061","TELEPHONE":"202-537-6300","ID":31.0,"WEB_URL":"http://www.ncs.cathedral.org","id":"56","ADDRESS":"3609 Woodley Rd NW"},"type":"Feature","geometry":{"type":"Point","coordinates":[-77.0721817093412,38.9320627198269]}},{"properties":{"NAME":"National Presbyterian School","ZIP":"20016","GIS_ID":"IND_062","TELEPHONE":"202-537-7500","ID":32.0,"WEB_URL":"http://www.nps-dc.org","id":"57","ADDRESS":"4121 Nebraska Ave NW"},"type":"Feature","geometry":{"type":"Point","coordinates":[-77.0809774466076,38.9417716341798]}},{"properties":{"NAME":"Our Lady of Victory School","ZIP":"20007","GIS_ID":"IND_064","TELEPHONE":"202-337-1421","ID":36.0,"WEB_URL":"http://www.olvschooldc.net","id":"58","ADDRESS":"4755 Whitehaven Pkwy NW"},"type":"Feature","geometry":{"type":"Point","coordinates":[-77.0945012022152,38.915964316175]}},{"properties":{"NAME":"The Owl School","ZIP":"20006","GIS_ID":"IND_065","TELEPHONE":"202-828-1001","ID":37.0,"WEB_URL":"http://www.owlschool.com","id":"59","ADDRESS":"1920 G Street NW"},"type":"Feature","geometry":{"type":"Point","coordinates":[-77.0446884459982,38.8981204036375]}},{"properties":{"NAME":"British School of Washington","ZIP":"20011","GIS_ID":"IND_030","TELEPHONE":"202-829-3700","ID":16.0,"WEB_URL":"http://www.britishschool.org","id":"60","ADDRESS":"2001 Wisconsin Avenue NW"},"type":"Feature","geometry":{"type":"Point","coordinates":[-77.0676900490373,38.9168730487663]}},{"properties":{"NAME":"Our Lady of Perpetual Help","ZIP":"20020","GIS_ID":"IND_019","TELEPHONE":"202-678-0211","ID":60.0,"WEB_URL":"http://www.privateschoolreview.com/school_ov/school_id/5854","id":"61","ADDRESS":"1604 Morris Road SE"},"type":"Feature","geometry":{"type":"Point","coordinates":[-76.9821156157855,38.8581146242154]}}],"is_temporal":false,"author":{"url":"","metadata":"","contact_name":"","contact_address":"","source":"","contact_phone":""},"source":"","pagination":{"sort":null,"start":0,"total":62,"limit":1000000},"state":"complete","tags":"columbia,dc,district,kaboom,kaboom!,playspace,washington","published":"2014-08-14T20:33:18-04:00","id":213594}