{"type":"FeatureCollection","data_type":"Dataset","url_type":null,"permissions":[{"permissions":{"download":true,"edit":true,"view":true},"group_id":32422},{"permissions":{"download":true,"view":true},"group_id":"everyone"}],"classification":null,"title":"dc charter schools","count":102,"stream_id":213600,"contributor":{"url":"http://geocommons.com/users/34311","name":"jodickerson"},"data_attributes":null,"calculation_params":null,"icon_link":null,"link":"http://geocommons.com/overlays/213600.json","extent":[-77.0452,38.8317,-76.9206,38.9657],"geometry_types":["point"],"unique_name":null,"name":"dc charter schools","feature_count":102,"description":"","next_feature":null,"is_raster":false,"short_classification":"Y","stats":{"ADDRID":{"max":306605,"mean":229907.274509804,"variance":8907877613.84469,"stdev":94381.5533557522,"min":1655,"median":278579},"X":{"max":406885.3425,"mean":400220.348129289,"variance":6804977.25054603,"stdev":2608.63513173959,"min":396080.1600625,"median":400359.5705},"Y":{"max":144200.689875,"mean":137508.771816789,"variance":14844724.6179594,"stdev":3852.88523290785,"min":129328.943,"median":137913.33},"ENROLLMENT":{"max":1400.0,"mean":260.460784313725,"variance":66118.0132983887,"stdev":257.134232062533,"min":0.0,"median":200.0},"AUTHORIZAT":{"max":2010,"mean":1589.72549019608,"variance":661705.607066589,"stdev":813.452891731653,"min":0,"median":2000}},"features":[{"properties":{"NAME":"District of Columbia Bilingual PCS","DIRECTOR":"Tehani Collazo","ADDRID":234355,"AUTHORIZER":"PCSB","GIS_ID":"chrt_1","X":397111.8805,"PHONE":"202-332-4200","Y":139924.73,"ENROLLMENT":225.0,"AUTHORIZAT":2004,"WEB_URL":"http://www.dcbilingual.org","id":"0","ADDRESS":"1420 COLUMBIA ROAD NW","GRADES":"PK3-5"},"type":"Feature","geometry":{"type":"Point","coordinates":[-77.0333074972965,38.9271952817564]}},{"properties":{"NAME":"Roots PCS","DIRECTOR":"Bernida Thompson","ADDRID":259404,"AUTHORIZER":"BOE","GIS_ID":"chrt_2","X":399106.4205,"PHONE":"202-882-8073","Y":143217.68,"ENROLLMENT":60.0,"AUTHORIZAT":1998,"WEB_URL":"http://www.rootspcs.org","id":"1","ADDRESS":"15 KENNEDY STREET NW","GRADES":"PS-8"},"type":"Feature","geometry":{"type":"Point","coordinates":[-77.0103095749905,38.9568634158872]}},{"properties":{"NAME":"Two Rivers PCS-Lower","DIRECTOR":"Jessica Wodatch","ADDRID":306605,"AUTHORIZER":"PCSB","GIS_ID":"chrt_3","X":399974.0115,"PHONE":"202-546-4477","Y":137654.97,"ENROLLMENT":419.0,"AUTHORIZAT":2004,"WEB_URL":"http://www.tworiverspcs.org","id":"2","ADDRESS":"1227 4TH STREET NE","GRADES":"PS-5"},"type":"Feature","geometry":{"type":"Point","coordinates":[-77.0002996288055,38.9067532791351]}},{"properties":{"NAME":"Friendship PCS-Woodridge Campus","DIRECTOR":"Kimberly Campbell","ADDRID":42808,"AUTHORIZER":"PCSB","GIS_ID":"chrt_4","X":402903.4505,"PHONE":"202-635-6500","Y":140185.72,"ENROLLMENT":653.0,"AUTHORIZAT":1998,"WEB_URL":"http://www.friendshipschools.org","id":"3","ADDRESS":"2959 CARLTON AVENUE NE","GRADES":"PK3-8"},"type":"Feature","geometry":{"type":"Point","coordinates":[-76.9665145925323,38.9295463103154]}},{"properties":{"NAME":"Capital City PCS Lower School Campus","DIRECTOR":"Karen Dresden","ADDRID":243343,"AUTHORIZER":"PCSB","GIS_ID":"chrt_5","X":396892.2305,"PHONE":"202-387-0309","Y":140071.02,"ENROLLMENT":244.0,"AUTHORIZAT":1999,"WEB_URL":"http://www.ccpcs.org","id":"4","ADDRESS":"3047 15TH STREET NW","GRADES":"PK4-8"},"type":"Feature","geometry":{"type":"Point","coordinates":[-77.0358412927634,38.9285123582925]}},{"properties":{"NAME":"Elsie Whitlow Stokes Community Freedom PCS","DIRECTOR":"Linda Moore","ADDRID":289754,"AUTHORIZER":"BOE","GIS_ID":"chrt_6","X":400859.4395,"PHONE":"202-265-7237","Y":140789.481,"ENROLLMENT":320.0,"AUTHORIZAT":1998,"WEB_URL":"http://www.ewstokes.org","id":"5","ADDRESS":"3700 OAKVIEW TERRACE NE","GRADES":"PK3-6"},"type":"Feature","geometry":{"type":"Point","coordinates":[-76.9900873535365,38.9349895501612]}},{"properties":{"NAME":"Community Academy PCS-RAND Technology Campus","DIRECTOR":"Sadia White","ADDRID":155991,"AUTHORIZER":"BOE","GIS_ID":"chrt_7","X":399424.6505,"PHONE":"202-723-4011","Y":143002.17,"ENROLLMENT":400.0,"AUTHORIZAT":1997,"WEB_URL":"http://www.capcs.org","id":"6","ADDRESS":"33 RIGGS ROAD NE","GRADES":"PK3-5"},"type":"Feature","geometry":{"type":"Point","coordinates":[-77.0066378506625,38.9549223110183]}},{"properties":{"NAME":"Howard University Middle School of Math and Science PCS","DIRECTOR":"Yohance C. Maqubela","ADDRID":291490,"AUTHORIZER":"PCSB","GIS_ID":"chrt_8","X":398341.1315,"PHONE":"202-806-7725","Y":139441.74,"ENROLLMENT":300.0,"AUTHORIZAT":2004,"WEB_URL":"http://www.howard.edu/ms2","id":"7","ADDRESS":"405 HOWARD PLACE NW","GRADES":"6-8"},"type":"Feature","geometry":{"type":"Point","coordinates":[-77.0191298831593,38.9228475351637]}},{"properties":{"NAME":"Friendship PCS-Woodson Campus","DIRECTOR":"Kimberly Campbell","ADDRID":288100,"AUTHORIZER":"PCSB","GIS_ID":"chrt_9","X":404654.2605,"PHONE":"202-396-5500","Y":136634.64,"ENROLLMENT":1353.0,"AUTHORIZAT":2000,"WEB_URL":"http://www.friendshipschools.org","id":"8","ADDRESS":"4095 MINNESOTA AVENUE NE","GRADES":"9-12"},"type":"Feature","geometry":{"type":"Point","coordinates":[-76.9463466274872,38.8975494636525]}},{"properties":{"NAME":"KIPP DC: AIM Academy PCS","DIRECTOR":"Susan Schaeffler","ADDRID":155368,"AUTHORIZER":"PCSB","GIS_ID":"chrt_10","X":401037.2385,"PHONE":"202-678-5477","Y":132089.751,"ENROLLMENT":320.0,"AUTHORIZAT":2001,"WEB_URL":"http://www.kippdc.org","id":"9","ADDRESS":"2600 DOUGLASS PLACE SE","GRADES":"5-8"},"type":"Feature","geometry":{"type":"Point","coordinates":[-76.9880497818184,38.8566190199793]}},{"properties":{"NAME":"Early Childhood Academy PCS","DIRECTOR":"Wendy Edwards","ADDRID":278471,"AUTHORIZER":"PCSB","GIS_ID":"chrt_11","X":400822.3085,"PHONE":"202-373-0035","Y":129328.943,"ENROLLMENT":188.0,"AUTHORIZAT":2005,"WEB_URL":"http://www.ecapcs.org","id":"10","ADDRESS":"4025 9TH STREET SE","GRADES":"PS-3"},"type":"Feature","geometry":{"type":"Point","coordinates":[-76.9905293302873,38.8317486625764]}},{"properties":{"NAME":"AppleTree Early Learning PCS - Douglass Knoll","DIRECTOR":"Russ Williams","ADDRID":278045,"AUTHORIZER":"PCSB","GIS_ID":"chrt_12","X":402177.09,"PHONE":"202-646-0500","Y":131217.9,"ENROLLMENT":0.0,"AUTHORIZAT":0,"WEB_URL":"http://www.appletreeinstitute.org","id":"11","ADDRESS":"2017 SAVANNAH TERRACE SE","GRADES":"PS-PS"},"type":"Feature","geometry":{"type":"Point","coordinates":[-76.9749201002359,38.8487629273199]}},{"properties":{"NAME":"AppleTree Early Learning PCS - Lincoln","DIRECTOR":"Russ Williams","ADDRID":65489,"AUTHORIZER":"PCSB","GIS_ID":"chrt_13","X":400821.0700625,"PHONE":"202-646-0500","Y":135963.2299375,"ENROLLMENT":0.0,"AUTHORIZAT":0,"WEB_URL":"http://www.appletreeinstitute.org","id":"12","ADDRESS":"138 12TH STREET NE","GRADES":"PS-PS"},"type":"Feature","geometry":{"type":"Point","coordinates":[-76.9905356719693,38.8915130928744]}},{"properties":{"NAME":"Options Academy","DIRECTOR":"Dr. Donna Montgomery","ADDRID":225561,"AUTHORIZER":"PCSB","GIS_ID":"chrt_14","X":397674.09,"PHONE":"202-232-4627","Y":137997.92,"ENROLLMENT":0.0,"AUTHORIZAT":0,"WEB_URL":"http://www.optionsschool.org","id":"13","ADDRESS":"1501 11TH STREET NW","GRADES":"6-12"},"type":"Feature","geometry":{"type":"Point","coordinates":[-77.0268172384538,38.9098396138755]}},{"properties":{"NAME":"Potomac Lighthouse PCS","DIRECTOR":"Keirston Woods","ADDRID":22543,"AUTHORIZER":"PCSB","GIS_ID":"chrt_15","X":400474.03,"PHONE":"202-526-6003","Y":141675.39,"ENROLLMENT":200.0,"AUTHORIZAT":2007,"WEB_URL":"http://www.lighthouse-academics.org","id":"14","ADDRESS":"4401 8TH STREET NE","GRADES":"PK3-6"},"type":"Feature","geometry":{"type":"Point","coordinates":[-76.994531996932,38.9429703708819]}},{"properties":{"NAME":"Richard Wright PCS","DIRECTOR":"Dr. Marco Clark","ADDRID":294468,"AUTHORIZER":"PCSB","GIS_ID":"chrt_16","X":404787.0005,"PHONE":"202-526-7283","Y":135910.06,"ENROLLMENT":127.0,"AUTHORIZAT":2003,"WEB_URL":"http://www.richardwrightpcs.org","id":"15","ADDRESS":"100 41ST STREET NE","GRADES":"8-9"},"type":"Feature","geometry":{"type":"Point","coordinates":[-76.9448214767979,38.8910214690078]}},{"properties":{"NAME":"Shining Stars Montessori","DIRECTOR":"Dana Clark","ADDRID":218743,"AUTHORIZER":"PCSB","GIS_ID":"chrt_17","X":397941.62,"PHONE":"202-319-2307","Y":139606.8,"ENROLLMENT":0.0,"AUTHORIZAT":0,"WEB_URL":"http://ssmapcs.org","id":"16","ADDRESS":"733 EUCLID STREET NW","GRADES":"PS-K"},"type":"Feature","geometry":{"type":"Point","coordinates":[-77.0237374991706,38.924333603368]}},{"properties":{"NAME":"Septima Clark PCS","DIRECTOR":"Jenny DuFresne","ADDRID":24445,"AUTHORIZER":"PCSB","GIS_ID":"chrt_18","X":400403.1905625,"PHONE":"202-563-6556","Y":132438.56,"ENROLLMENT":136.0,"AUTHORIZAT":2005,"WEB_URL":"http://www.scpcs.org","id":"17","ADDRESS":"2501 MARTIN LUTHER KING JR AVENUE SE","GRADES":"PK3-5"},"type":"Feature","geometry":{"type":"Point","coordinates":[-76.9953545618194,38.8597617583496]}},{"properties":{"NAME":"Mundo Verde PCS","DIRECTOR":"Kristin Scotchmer","ADDRID":242564,"AUTHORIZER":"PCSB","GIS_ID":"chrt_19","X":396080.1600625,"PHONE":"202-630-8373","Y":138491.1399375,"ENROLLMENT":100.0,"AUTHORIZAT":2010,"WEB_URL":"http://www.mundoverdepcs.org","id":"18","ADDRESS":"2001 S STREET NW","GRADES":"PS-K"},"type":"Feature","geometry":{"type":"Point","coordinates":[-77.0451977185015,38.9142770422819]}},{"properties":{"NAME":"YouthBuild LAYC PCS","DIRECTOR":"Arthur Dade","ADDRID":302258,"AUTHORIZER":"PCSB","GIS_ID":"chrt_20","X":397159.9535,"PHONE":"202-319-0141","Y":139985.562,"ENROLLMENT":100.0,"AUTHORIZAT":2005,"WEB_URL":"http://www.youthbuildpcs.org","id":"19","ADDRESS":"3014 14TH STREET NW","GRADES":"Adult Ed/GED"},"type":"Feature","geometry":{"type":"Point","coordinates":[-77.032753342867,38.927743432114]}},{"properties":{"NAME":"Washington Mathematics, Science, and Technology PCS (WMST)","DIRECTOR":"Dr. N'deye Diagne","ADDRID":286539,"AUTHORIZER":"PCSB","GIS_ID":"chrt_21","X":402273.0705,"PHONE":"202-636-8011","Y":138728.17,"ENROLLMENT":400.0,"AUTHORIZAT":1998,"WEB_URL":"http://www.wmstdc.org","id":"20","ADDRESS":"1920 BLADENSBURG ROAD NE","GRADES":"9-12"},"type":"Feature","geometry":{"type":"Point","coordinates":[-76.9737895720886,38.9164180899698]}},{"properties":{"NAME":"Hope Community PCS - Tolson Campus","DIRECTOR":"Michael DePass","ADDRID":43392,"AUTHORIZER":"PCSB","GIS_ID":"chrt_22","X":400466.8305,"PHONE":"202-832-7370","Y":139897.04,"ENROLLMENT":650.0,"AUTHORIZAT":2005,"WEB_URL":"http://www.hopecommunitycs.org","id":"21","ADDRESS":"2917 8TH STREET NE","GRADES":"PK3-8"},"type":"Feature","geometry":{"type":"Point","coordinates":[-76.9946162539684,38.9269504638359]}},{"properties":{"NAME":"AppleTree Early Learning PCS - Columbia Heights Campus","DIRECTOR":"Russ Williams","ADDRID":297626,"AUTHORIZER":"PCSB","GIS_ID":"chrt_23","X":397160.6795,"PHONE":"202-667-9490","Y":139708.07,"ENROLLMENT":108.0,"AUTHORIZAT":2005,"WEB_URL":"http://www.appletreeinstitute.org","id":"22","ADDRESS":"2750 14TH STREET NW","GRADES":"PS-PS"},"type":"Feature","geometry":{"type":"Point","coordinates":[-77.0327438222701,38.9252436993432]}},{"properties":{"NAME":"Hospitality High School PCS","DIRECTOR":"Tiffany Godbout","ADDRID":252605,"AUTHORIZER":"PCSB","GIS_ID":"chrt_24","X":397468.8821875,"PHONE":"202-737-4150","Y":141682.29875,"ENROLLMENT":200.0,"AUTHORIZAT":1999,"WEB_URL":"http://www.washingtonhospitality.org","id":"23","ADDRESS":"4301 13TH STREET NW","GRADES":"9-12"},"type":"Feature","geometry":{"type":"Point","coordinates":[-77.0291968263424,38.9430290885393]}},{"properties":{"NAME":"KIPP DC: Grow Academy PCS","DIRECTOR":"Susan Schaeffler","ADDRID":294487,"AUTHORIZER":"PCSB","GIS_ID":"chrt_25","X":398428.6495,"PHONE":"202-986-4769","Y":138002.099,"ENROLLMENT":320.0,"AUTHORIZAT":2001,"WEB_URL":"http://www.kippdc.org","id":"24","ADDRESS":"421 P STREET NW","GRADES":"PK-K"},"type":"Feature","geometry":{"type":"Point","coordinates":[-77.0181173407198,38.9098789326489]}},{"properties":{"NAME":"Maya Angelou PCS (Lower - Middle School)","DIRECTOR":"Lucretia Murphy","ADDRID":289793,"AUTHORIZER":"PCSB","GIS_ID":"chrt_26","X":406885.3425,"PHONE":"202-232-2885","Y":135830.531,"ENROLLMENT":200.0,"AUTHORIZAT":1997,"WEB_URL":"http://www.seeforever.org","id":"25","ADDRESS":"5600 EAST CAPITOL STREET NE","GRADES":"6-8"},"type":"Feature","geometry":{"type":"Point","coordinates":[-76.9206352357122,38.8902911126685]}},{"properties":{"NAME":"St. Coletta Special Education PCS","DIRECTOR":"Sharon Raimo","ADDRID":302511,"AUTHORIZER":"PCSB","GIS_ID":"chrt_27","X":402023.6705,"PHONE":"202-350-8680","Y":135486.49,"ENROLLMENT":225.0,"AUTHORIZAT":2005,"WEB_URL":"http://www.stcoletta.org","id":"26","ADDRESS":"1901 INDEPENDENCE AVENUE SE","GRADES":"PK3-Adult Ed/GED"},"type":"Feature","geometry":{"type":"Point","coordinates":[-76.9766749159427,38.8872164949669]}},{"properties":{"NAME":"Hope Community PCS - Lamond Campus","DIRECTOR":"Michael DePass","ADDRID":304055,"AUTHORIZER":"PCSB","GIS_ID":"chrt_28","X":399254.0705625,"PHONE":"202-722-4421","Y":144200.689875,"ENROLLMENT":250.0,"AUTHORIZAT":2005,"WEB_URL":"http://www.hopecommunitycs.org","id":"27","ADDRESS":"6200 KANSAS AVENUE NE","GRADES":"PK3-8"},"type":"Feature","geometry":{"type":"Point","coordinates":[-77.0086071480019,38.9657187566888]}},{"properties":{"NAME":"D.C. Preparatory Academy PCES - Edgewood Elementary Campus","DIRECTOR":"Emiliy Lawson","ADDRID":289577,"AUTHORIZER":"PCSB","GIS_ID":"chrt_29","X":400368.6565,"PHONE":"202-635-4411","Y":139600.974,"ENROLLMENT":360.0,"AUTHORIZAT":2003,"WEB_URL":"http://www.dcprep.org","id":"28","ADDRESS":"707 EDGEWOOD STREET NE","GRADES":"PS-3"},"type":"Feature","geometry":{"type":"Point","coordinates":[-76.995748609531,38.9242834543577]}},{"properties":{"NAME":"E.L. Haynes PCS - Georgia Ave (Grades 3-8)","DIRECTOR":"Jennifer Niles","ADDRID":306085,"AUTHORIZER":"PCSB","GIS_ID":"chrt_30","X":397898.0505,"PHONE":"202-667-4446","Y":140715.53,"ENROLLMENT":370.0,"AUTHORIZAT":2004,"WEB_URL":"http://www.elhaynes.org","id":"29","ADDRESS":"3600 GEORGIA AVENUE NW","GRADES":"PS-9"},"type":"Feature","geometry":{"type":"Point","coordinates":[-77.0242433437078,38.934321283374]}},{"properties":{"NAME":"Cesar Chavez PCS - Bruce Prep Campus","DIRECTOR":"Jeff Cooper","ADDRID":285409,"AUTHORIZER":"PCSB","GIS_ID":"chrt_31","X":397756.3695,"PHONE":"202-723-3795","Y":140192.11,"ENROLLMENT":147.0,"AUTHORIZAT":1998,"WEB_URL":"http://www.chavezschools.org","id":"30","ADDRESS":"770 KENYON STREET NW","GRADES":"6-9"},"type":"Feature","geometry":{"type":"Point","coordinates":[-77.0258757445691,38.929605805935]}},{"properties":{"NAME":"Mary McLeod Bethune PCS - Brookland","DIRECTOR":"Linda McKay","ADDRID":294522,"AUTHORIZER":"PCSB","GIS_ID":"chrt_32","X":401138.9405,"PHONE":"202-459-4710","Y":140192.641,"ENROLLMENT":320.0,"AUTHORIZAT":2004,"WEB_URL":"http://www.mmbethune.org","id":"31","ADDRESS":"1404 JACKSON STREET NE","GRADES":"PS-8"},"type":"Feature","geometry":{"type":"Point","coordinates":[-76.9868646214159,38.9296127156548]}},{"properties":{"NAME":"AppleTree Early Learning PCS - Amidon Campus","DIRECTOR":"Russ Williams","ADDRID":294482,"AUTHORIZER":"PCSB","GIS_ID":"chrt_33","X":398427.2905,"PHONE":"202-646-0094","Y":134631.47,"ENROLLMENT":36.0,"AUTHORIZAT":2005,"WEB_URL":"http://www.appletreeinstitute.org","id":"32","ADDRESS":"401 I STREET SW","GRADES":"PS-PS"},"type":"Feature","geometry":{"type":"Point","coordinates":[-77.0181252935421,38.8795150681843]}},{"properties":{"NAME":"Center City PCS-Brightwood Campus","DIRECTOR":"Beverly R. Wheeler","ADDRID":253198,"AUTHORIZER":"PCSB","GIS_ID":"chrt_34","X":397544.8505,"PHONE":"202-723-3322","Y":143920.5,"ENROLLMENT":178.0,"AUTHORIZAT":2008,"WEB_URL":"http://www.centercitypcs.org","id":"33","ADDRESS":"6008 GEORGIA AVENUE NW","GRADES":"PK4-8"},"type":"Feature","geometry":{"type":"Point","coordinates":[-77.0283285322439,38.9631916217711]}},{"properties":{"NAME":"Center City PCS- Capitol Hill Campus","DIRECTOR":"Beverly R. Wheeler","ADDRID":295125,"AUTHORIZER":"PCSB","GIS_ID":"chrt_35","X":401448.4405,"PHONE":"202-547-7556","Y":135742.68,"ENROLLMENT":185.0,"AUTHORIZAT":2008,"WEB_URL":"http://www.centercitypcs.org","id":"34","ADDRESS":"1503 EAST CAPITOL STREET SE","GRADES":"PK4-8"},"type":"Feature","geometry":{"type":"Point","coordinates":[-76.9833045500044,38.8895254868869]}},{"properties":{"NAME":"Center City PCS- Congress Heights Campus","DIRECTOR":"Beverly R. Wheeler","ADDRID":303702,"AUTHORIZER":"PCSB","GIS_ID":"chrt_36","X":399614.1395,"PHONE":"202-562-7070","Y":130420.96,"ENROLLMENT":128.0,"AUTHORIZAT":2008,"WEB_URL":"http://www.centercitypcs.org","id":"35","ADDRESS":"220 HIGHVIEW PLACE SE","GRADES":"PK4-8"},"type":"Feature","geometry":{"type":"Point","coordinates":[-77.0044446347039,38.8415863483564]}},{"properties":{"NAME":"Center City PCS Petworth Campus","DIRECTOR":"Beverly R. Wheeler","ADDRID":303332,"AUTHORIZER":"PCSB","GIS_ID":"chrt_37","X":398187.5905,"PHONE":"202-726-9212","Y":141775.54,"ENROLLMENT":180.0,"AUTHORIZAT":2008,"WEB_URL":"http://www.centercitypcs.org","id":"36","ADDRESS":"510 WEBSTER STREET NW","GRADES":"PK4-8"},"type":"Feature","geometry":{"type":"Point","coordinates":[-77.0209066640502,38.9438708090447]}},{"properties":{"NAME":"Center City PCS-Trinidad Campus","DIRECTOR":"Beverly R. Wheeler","ADDRID":285938,"AUTHORIZER":"PCSB","GIS_ID":"chrt_38","X":400763.1005,"PHONE":"202-397-1614","Y":137493.55,"ENROLLMENT":255.0,"AUTHORIZAT":2008,"WEB_URL":"http://www.centercitypcs.org","id":"37","ADDRESS":"1217 WEST VIRGINIA AVENUE NE","GRADES":"PK4-8"},"type":"Feature","geometry":{"type":"Point","coordinates":[-76.991202176755,38.9052988206234]}},{"properties":{"NAME":"D.C. Preparatory Academy PCES -Benning Elementary Campus","DIRECTOR":"Emily Lawson","ADDRID":294468,"AUTHORIZER":"PCSB","GIS_ID":"chrt_39","X":404787.0005,"PHONE":"202-398-2838","Y":135910.06,"ENROLLMENT":127.0,"AUTHORIZAT":2003,"WEB_URL":"http://www.dcprep.org","id":"38","ADDRESS":"100 41ST STREET NE","GRADES":"PS-1"},"type":"Feature","geometry":{"type":"Point","coordinates":[-76.9448214767979,38.8910214690078]}},{"properties":{"NAME":"Howard Road Academy PCS Pennsylvania Avenue Campus","DIRECTOR":"Stiles X. Simmons","ADDRID":42549,"AUTHORIZER":"PCSB","GIS_ID":"chrt_40","X":403140.2705,"PHONE":"202-582-3322","Y":133701.05,"ENROLLMENT":173.0,"AUTHORIZAT":2001,"WEB_URL":"http://www.HowardRoadAcademy.org","id":"39","ADDRESS":"3000 PENNSYLVANIA AVENUE SE","GRADES":"PS-2"},"type":"Feature","geometry":{"type":"Point","coordinates":[-76.9638130008157,38.8711292746498]}},{"properties":{"NAME":"Ideal Academy PCS","DIRECTOR":"George Rutherford","ADDRID":285311,"AUTHORIZER":"BOE","GIS_ID":"chrt_41","X":399139.1305,"PHONE":"202-729-6660","Y":144111.98,"ENROLLMENT":272.0,"AUTHORIZAT":1999,"WEB_URL":"http://www.iapcs.com/","id":"40","ADDRESS":"6130 NORTH CAPITOL STREET NW","GRADES":"PK-8"},"type":"Feature","geometry":{"type":"Point","coordinates":[-77.0099333096867,38.9649195310638]}},{"properties":{"NAME":"Imagine Southeast PCS","DIRECTOR":"Michael Depass","ADDRID":301280,"AUTHORIZER":"PCSB","GIS_ID":"chrt_42","X":400161.2300625,"PHONE":"202-561-1622","Y":130633.04,"ENROLLMENT":340.0,"AUTHORIZAT":2007,"WEB_URL":"http://www.imaginesoutheastpcs.org","id":"41","ADDRESS":"3100 MARTIN LUTHER KING JR AVENUE SE","GRADES":"PK-8"},"type":"Feature","geometry":{"type":"Point","coordinates":[-76.9981427798164,38.8434969295638]}},{"properties":{"NAME":"Washington Yu Ying PCS","DIRECTOR":"Mary Shaffner","ADDRID":22543,"AUTHORIZER":"PCSB","GIS_ID":"chrt_43","X":400474.03,"PHONE":"202-635-1950","Y":141675.39,"ENROLLMENT":200.0,"AUTHORIZAT":2007,"WEB_URL":"http://www.washingtonyuying.org","id":"42","ADDRESS":"4401 8TH STREET NE","GRADES":"PK4-3"},"type":"Feature","geometry":{"type":"Point","coordinates":[-76.994531996932,38.9429703708819]}},{"properties":{"NAME":"William E. Doar PCS - Soldier's Home","DIRECTOR":"John Goldman","ADDRID":291848,"AUTHORIZER":"PCSB","GIS_ID":"chrt_44","X":399397.0905,"PHONE":"202-882-1932","Y":140962.44,"ENROLLMENT":160.0,"AUTHORIZAT":2004,"WEB_URL":"http://www.wedjschool.us","id":"43","ADDRESS":"3700 NORTH CAPITOL STREET NW","GRADES":"PK3-5"},"type":"Feature","geometry":{"type":"Point","coordinates":[-77.0069540198439,38.9365478300245]}},{"properties":{"NAME":"Eagle Academy PCS - SE","DIRECTOR":"Cassandra Pinkney","ADDRID":288946,"AUTHORIZER":"PCSB","GIS_ID":"chrt_45","X":400383.8205,"PHONE":"202-544-2646","Y":134351.84,"ENROLLMENT":262.0,"AUTHORIZAT":2003,"WEB_URL":"http://www.eagleacademy.org","id":"44","ADDRESS":"770 M STREET SE","GRADES":"PK3-3"},"type":"Feature","geometry":{"type":"Point","coordinates":[-76.9955766696069,38.8769973739949]}},{"properties":{"NAME":"IDEA - Intergrated Design and Electronic Academy","DIRECTOR":"Norman Johnson","ADDRID":75296,"AUTHORIZER":"BOE","GIS_ID":"chrt_46","X":405455.5305,"PHONE":"202-399-4750","Y":137412.11,"ENROLLMENT":485.0,"AUTHORIZAT":1997,"WEB_URL":"http://www.ideapcs.org","id":"45","ADDRESS":"1027 45TH STREET NE","GRADES":"7-12"},"type":"Feature","geometry":{"type":"Point","coordinates":[-76.93710357686,38.9045485816075]}},{"properties":{"NAME":"Thurgood Marshall Academy PCS","DIRECTOR":"Alexandra Pardo","ADDRID":278159,"AUTHORIZER":"PCSB","GIS_ID":"chrt_47","X":400548.0105,"PHONE":"202-563-6862","Y":132717.75,"ENROLLMENT":380.0,"AUTHORIZAT":2000,"WEB_URL":"http://www.thurgoodmarshallacademy.org","id":"46","ADDRESS":"2427 MARTIN LUTHER KING JR AVENUE SE","GRADES":"9-11"},"type":"Feature","geometry":{"type":"Point","coordinates":[-76.9936857683613,38.8622767406089]}},{"properties":{"NAME":"School of Educational Evolution and Development (SEED) PCS","DIRECTOR":"Charles Adams","ADDRID":288154,"AUTHORIZER":"PCSB","GIS_ID":"chrt_48","X":404658.7205,"PHONE":"202-248-7773","Y":135477.99,"ENROLLMENT":327.0,"AUTHORIZAT":1997,"WEB_URL":"http://www.seedschooldc.org","id":"47","ADDRESS":"4300 C STREET SE","GRADES":"6-12"},"type":"Feature","geometry":{"type":"Point","coordinates":[-76.9463030565136,38.8871299098258]}},{"properties":{"NAME":"Achievement Preparatory Academy PCS","DIRECTOR":"Shantelle Wright","ADDRID":294502,"AUTHORIZER":"PCSB","GIS_ID":"chrt_49","X":400671.2505,"PHONE":"202-562-1214","Y":129615.24,"ENROLLMENT":110.0,"AUTHORIZAT":2007,"WEB_URL":"http://www.aprepacademy.org/","id":"48","ADDRESS":"908 WAHLER PLACE SE","GRADES":"4-8"},"type":"Feature","geometry":{"type":"Point","coordinates":[-76.9922688122316,38.8343278859471]}},{"properties":{"NAME":"Center City PCS- Shaw Campus","DIRECTOR":"Beverly R. Wheeler","ADDRID":290191,"AUTHORIZER":"PCSB","GIS_ID":"chrt_50","X":398034.1105,"PHONE":"202-234-1093","Y":137731.91,"ENROLLMENT":166.0,"AUTHORIZAT":2008,"WEB_URL":"http://www.centercitypcs.org","id":"49","ADDRESS":"711 N STREET NW","GRADES":"PK4-8"},"type":"Feature","geometry":{"type":"Point","coordinates":[-77.022665518766,38.9074441832465]}},{"properties":{"NAME":"KIPP DC: College Preparatory","DIRECTOR":"Susan Schaeffler","ADDRID":155368,"AUTHORIZER":"PCSB","GIS_ID":"chrt_51","X":401037.2385,"PHONE":"202-678-2527","Y":132089.751,"ENROLLMENT":320.0,"AUTHORIZAT":2001,"WEB_URL":"http://www.kippdc.org","id":"50","ADDRESS":"2600 DOUGLASS PLACE SE","GRADES":"9-11"},"type":"Feature","geometry":{"type":"Point","coordinates":[-76.9880497818184,38.8566190199793]}},{"properties":{"NAME":"KIPP DC: Discover Academy","DIRECTOR":"Susan Schaeffler","ADDRID":155368,"AUTHORIZER":"PCSB","GIS_ID":"chrt_52","X":401037.2385,"PHONE":"202-678-7735","Y":132089.751,"ENROLLMENT":320.0,"AUTHORIZAT":2001,"WEB_URL":"http://www.kippdc.org","id":"51","ADDRESS":"2600 DOUGLASS PLACE SE","GRADES":"PS-K"},"type":"Feature","geometry":{"type":"Point","coordinates":[-76.9880497818184,38.8566190199793]}},{"properties":{"NAME":"D.C. Preparatory Academy PCES - Central Office","DIRECTOR":"Emiliy Lawson","ADDRID":289577,"AUTHORIZER":"PCSB","GIS_ID":"chrt_53","X":400368.6565,"PHONE":"202-635-4590","Y":139600.974,"ENROLLMENT":360.0,"AUTHORIZAT":2003,"WEB_URL":"http://www.dcprep.org","id":"52","ADDRESS":"707 EDGEWOOD STREET NE","GRADES":"PS-8"},"type":"Feature","geometry":{"type":"Point","coordinates":[-76.995748609531,38.9242834543577]}},{"properties":{"NAME":"Two Rivers PCS - Upper","DIRECTOR":"Jessica Wodatch","ADDRID":70272,"AUTHORIZER":"PCSB","GIS_ID":"chrt_54","X":399917.7715,"PHONE":"202-543-8477","Y":137618.01,"ENROLLMENT":0.0,"AUTHORIZAT":0,"WEB_URL":"http://www.tworiverspcs.org","id":"53","ADDRESS":"1234 4TH STREET NE","GRADES":"6-8"},"type":"Feature","geometry":{"type":"Point","coordinates":[-77.0009480313304,38.9064203271392]}},{"properties":{"NAME":"Tree of Life PCS","DIRECTOR":"Patricia L. Williams-Ofori","ADDRID":48796,"AUTHORIZER":"PCSB","GIS_ID":"chrt_55","X":401921.8205,"PHONE":"202-832-1108","Y":139212.16,"ENROLLMENT":340.0,"AUTHORIZAT":1999,"WEB_URL":"http://www.treeoflifepcs.org","id":"54","ADDRESS":"2315 18TH PLACE NE","GRADES":"PK4-8"},"type":"Feature","geometry":{"type":"Point","coordinates":[-76.9778384270644,38.9207788687941]}},{"properties":{"NAME":"Cesar Chavez PCS - Parkside Lower","DIRECTOR":"Jeff Cooper","ADDRID":304053,"AUTHORIZER":"PCSB","GIS_ID":"chrt_56","X":404414.8435,"PHONE":"202-398-2230","Y":137066.13,"ENROLLMENT":727.0,"AUTHORIZAT":1998,"WEB_URL":"http://www.chavezschools.org","id":"55","ADDRESS":"3701 HAYES STREET NE","GRADES":"6-8"},"type":"Feature","geometry":{"type":"Point","coordinates":[-76.9491038043591,38.9014377149888]}},{"properties":{"NAME":"Community Academy PCS-Butler Bilingual Campus","DIRECTOR":"Sadia White","ADDRID":243014,"AUTHORIZER":"BOE","GIS_ID":"chrt_57","X":397172.3605,"PHONE":"202-332-6565","Y":137624.15,"ENROLLMENT":150.0,"AUTHORIZAT":1997,"WEB_URL":"http://www.capcs.org","id":"56","ADDRESS":"5 THOMAS CIRCLE NW","GRADES":"PK3-5"},"type":"Feature","geometry":{"type":"Point","coordinates":[-77.0326005314702,38.9064710939558]}},{"properties":{"NAME":"Arts and Technology Academy PCS (ATA)","DIRECTOR":"Marva P. McClure","ADDRID":304054,"AUTHORIZER":"PCSB","GIS_ID":"chrt_58","X":406537.3325,"PHONE":"202-398-6811","Y":136014.188,"ENROLLMENT":615.0,"AUTHORIZAT":1999,"WEB_URL":"http://www.dcata.org","id":"57","ADDRESS":"5300 BLAINE STREET NE","GRADES":"PK3-5"},"type":"Feature","geometry":{"type":"Point","coordinates":[-76.9246448673179,38.8919482194497]}},{"properties":{"NAME":"Maya Angelou PCS (Upper - High School)","DIRECTOR":"Lucretia Murphy","ADDRID":289793,"AUTHORIZER":"PCSB","GIS_ID":"chrt_59","X":406885.3405,"PHONE":"202-232-2885","Y":135830.53,"ENROLLMENT":118.0,"AUTHORIZAT":1997,"WEB_URL":"http://www.seeforever.org","id":"58","ADDRESS":"5600 EAST CAPITOL STREET NE","GRADES":"9-Adult Ed/GED"},"type":"Feature","geometry":{"type":"Point","coordinates":[-76.9206352587754,38.8902911036758]}},{"properties":{"NAME":"E.L. Haynes PCS - Kansas Avenue (Grade 9)","DIRECTOR":"Jennie Niles","ADDRID":284930,"AUTHORIZER":"PCSB","GIS_ID":"chrt_60","X":398056.76,"PHONE":"202-706-5838","Y":141967.7,"ENROLLMENT":0.0,"AUTHORIZAT":0,"WEB_URL":"http://www.elhaynes.org","id":"59","ADDRESS":"4501 KANSAS AVENUE NW","GRADES":"9"},"type":"Feature","geometry":{"type":"Point","coordinates":[-77.0224163756826,38.9456015611049]}},{"properties":{"NAME":"E.L. Haynes PCS - Kansas Avenue (Grades PK3-2)","DIRECTOR":"Jennie Niles","ADDRID":284930,"AUTHORIZER":"PCSB","GIS_ID":"chrt_61","X":398056.76,"PHONE":"202-706-5828","Y":141967.7,"ENROLLMENT":0.0,"AUTHORIZAT":0,"WEB_URL":"http://www.elhaynes.org","id":"60","ADDRESS":"4501 KANSAS AVENUE NW","GRADES":"PK3-2"},"type":"Feature","geometry":{"type":"Point","coordinates":[-77.0224163756826,38.9456015611049]}},{"properties":{"NAME":"KIPP DC: Key Academy PCS","DIRECTOR":"Susan Schaeffler","ADDRID":17421,"AUTHORIZER":"PCSB","GIS_ID":"chrt_62","X":405692.2505,"PHONE":"202-582-5477","Y":134978.82,"ENROLLMENT":272.0,"AUTHORIZAT":2001,"WEB_URL":"http://www.kippdc.org","id":"61","ADDRESS":"4801 BENNING ROAD SE","GRADES":"4-8"},"type":"Feature","geometry":{"type":"Point","coordinates":[-76.9343946104632,38.8826271126922]}},{"properties":{"NAME":"Friendship PCS-Southeast Elementary Academy","DIRECTOR":"Kimberly Campbell","ADDRID":1655,"AUTHORIZER":"PCSB","GIS_ID":"chrt_63","X":400259.7505,"PHONE":"202-562-1680","Y":131109.73,"ENROLLMENT":511.0,"AUTHORIZAT":2005,"WEB_URL":"http://www.friendshipschools.org","id":"62","ADDRESS":"645 MILWAUKEE PLACE SE","GRADES":"PK3-5"},"type":"Feature","geometry":{"type":"Point","coordinates":[-76.9970077361332,38.8477911402556]}},{"properties":{"NAME":"AppleTree Early Learning PCS - Riverside Campus","DIRECTOR":"Russ Williams","ADDRID":276717,"AUTHORIZER":"PCSB","GIS_ID":"chrt_64","X":398098.0805,"PHONE":"202-646-0500","Y":134559.17,"ENROLLMENT":36.0,"AUTHORIZAT":2005,"WEB_URL":"http://www.appletreeinstitute.org","id":"63","ADDRESS":"680 I STREET SW","GRADES":"PS-PS"},"type":"Feature","geometry":{"type":"Point","coordinates":[-77.0219192001883,38.8788631110437]}},{"properties":{"NAME":"D.C. Preparatory Academy PCES - Edgewood Middle School Campus","DIRECTOR":"Emily Lawson","ADDRID":289579,"AUTHORIZER":"PCSB","GIS_ID":"chrt_65","X":400346.0705,"PHONE":"202-832-5700","Y":139651.51,"ENROLLMENT":278.0,"AUTHORIZAT":2003,"WEB_URL":"http://www.dcprep.org","id":"64","ADDRESS":"701 EDGEWOOD STREET NE","GRADES":"4-8"},"type":"Feature","geometry":{"type":"Point","coordinates":[-76.9960090484824,38.9247387079055]}},{"properties":{"NAME":"Howard Road Academy PCS Howard Road","DIRECTOR":"Stiles Simmons","ADDRID":300872,"AUTHORIZER":"PCSB","GIS_ID":"chrt_66","X":400070.6355,"PHONE":"202-610-5713","Y":132929.98,"ENROLLMENT":649.0,"AUTHORIZAT":2001,"WEB_URL":"http://www.HowardRoadAcademy.org","id":"65","ADDRESS":"701 HOWARD ROAD SE","GRADES":"PK4-6"},"type":"Feature","geometry":{"type":"Point","coordinates":[-76.9991861089211,38.8641887646155]}},{"properties":{"NAME":"William E. Doar PCS - Edgewood","DIRECTOR":"John Goldman","ADDRID":289576,"AUTHORIZER":"PCSB","GIS_ID":"chrt_67","X":400359.5705,"PHONE":"202-269-4646","Y":139530.04,"ENROLLMENT":550.0,"AUTHORIZAT":2004,"WEB_URL":"http://www.wedjschool.us","id":"66","ADDRESS":"705 EDGEWOOD STREET NE","GRADES":"PK3-8"},"type":"Feature","geometry":{"type":"Point","coordinates":[-76.9958534275169,38.9236444620224]}},{"properties":{"NAME":"Cesar Chavez PCS - Capitol Hill (Central Office Location)","DIRECTOR":"Jeff Cooper","ADDRID":76726,"AUTHORIZER":"PCSB","GIS_ID":"chrt_68","X":400812.1105,"PHONE":"202-547-3424","Y":134762.27,"ENROLLMENT":435.0,"AUTHORIZAT":1998,"WEB_URL":"http://www.chavezschools.org","id":"67","ADDRESS":"709 12TH STREET SE","GRADES":"9-12"},"type":"Feature","geometry":{"type":"Point","coordinates":[-76.9906403665678,38.8806943970446]}},{"properties":{"NAME":"Friendship PCS-Blow Pierce Junior Academy Campus","DIRECTOR":"Kimberly Campbell","ADDRID":288919,"AUTHORIZER":"PCSB","GIS_ID":"chrt_69","X":402040.1705,"PHONE":"202-572-1070","Y":136663.58,"ENROLLMENT":744.0,"AUTHORIZAT":1999,"WEB_URL":"http://www.friendshipschools.org","id":"68","ADDRESS":"725 19TH STREET NE","GRADES":"PK3-8"},"type":"Feature","geometry":{"type":"Point","coordinates":[-76.9764812394923,38.8978201192486]}},{"properties":{"NAME":"KIPP DC: LEAP Academy PCS","DIRECTOR":"Susan Schaeffler","ADDRID":17421,"AUTHORIZER":"PCSB","GIS_ID":"chrt_70","X":405692.2505,"PHONE":"202-582-5327","Y":134978.82,"ENROLLMENT":272.0,"AUTHORIZAT":2001,"WEB_URL":"http://www.kippdc.org","id":"69","ADDRESS":"4801 BENNING ROAD SE","GRADES":"PS-K"},"type":"Feature","geometry":{"type":"Point","coordinates":[-76.9343946104632,38.8826271126922]}},{"properties":{"NAME":"Paul PCS","DIRECTOR":"Jami Dunham","ADDRID":294613,"AUTHORIZER":"PCSB","GIS_ID":"chrt_71","X":397857.2705,"PHONE":"202-291-7499","Y":143717.65,"ENROLLMENT":705.0,"AUTHORIZAT":2000,"WEB_URL":"http://www.paulcharter.org","id":"70","ADDRESS":"5800 8TH STREET NW","GRADES":"6-9"},"type":"Feature","geometry":{"type":"Point","coordinates":[-77.0247230671385,38.9613651155674]}},{"properties":{"NAME":"Perry Street Prep - Lower and Upper","DIRECTOR":"Dr. Jo Ann Casson","ADDRID":294529,"AUTHORIZER":"BOE","GIS_ID":"chrt_72","X":401855.7500625,"PHONE":"202-529-4400","Y":140990.2,"ENROLLMENT":760.0,"AUTHORIZAT":2001,"WEB_URL":"http://www.pspdc.org","id":"71","ADDRESS":"1800 PERRY STREET NE","GRADES":"PK-12"},"type":"Feature","geometry":{"type":"Point","coordinates":[-76.9785955142328,38.9367961473842]}},{"properties":{"NAME":"AppleTree Early Learning PCS - Oklahoma Ave (East Capitol)","DIRECTOR":"Russ Williams","ADDRID":287504,"AUTHORIZER":"PCSB","GIS_ID":"chrt_73","X":402129.080125,"PHONE":"202-646-0500","Y":136264.619875,"ENROLLMENT":0.0,"AUTHORIZAT":0,"WEB_URL":"http://www.appletreeinstitue.org","id":"72","ADDRESS":"320 21ST STREET NE","GRADES":"PS-PS"},"type":"Feature","geometry":{"type":"Point","coordinates":[-76.975457540006,38.8942259301684]}},{"properties":{"NAME":"AppleTree Early Learning PCS - Parkland","DIRECTOR":"Russ Williams","ADDRID":278045,"AUTHORIZER":"PCSB","GIS_ID":"chrt_74","X":402177.0899375,"PHONE":"202-646-0500","Y":131217.9,"ENROLLMENT":0.0,"AUTHORIZAT":0,"WEB_URL":"http://www.appletreeinstitute.org","id":"73","ADDRESS":"2017 SAVANNAH TERRACE SE","GRADES":"PS-PS"},"type":"Feature","geometry":{"type":"Point","coordinates":[-76.974920100956,38.8487629273201]}},{"properties":{"NAME":"Capital City PCS Upper School Campus","DIRECTOR":"Karen Dresden","ADDRID":301528,"AUTHORIZER":"PCSB","GIS_ID":"chrt_75","X":396808.36,"PHONE":"202-387-1102","Y":140381.9599375,"ENROLLMENT":0.0,"AUTHORIZAT":0,"WEB_URL":"http://www.ccpcs.org","id":"74","ADDRESS":"3220 16TH STREET NW","GRADES":"9-12"},"type":"Feature","geometry":{"type":"Point","coordinates":[-77.0368100005724,38.9313131004578]}},{"properties":{"NAME":"Community Academy PCS-Amos III","DIRECTOR":"Sadia White","ADDRID":238253,"AUTHORIZER":"PCSB","GIS_ID":"chrt_76","X":398853.47,"PHONE":"202-234-2122","Y":137913.33,"ENROLLMENT":0.0,"AUTHORIZAT":0,"WEB_URL":"http://www.capcs.org","id":"75","ADDRESS":"1400 FIRST STREET NW","GRADES":"PK3-8"},"type":"Feature","geometry":{"type":"Point","coordinates":[-77.0132191015931,38.9090799278881]}},{"properties":{"NAME":"Carlos Rosario International PCS","DIRECTOR":"Sonia Gutierrez","ADDRID":300733,"AUTHORIZER":"PCSB","GIS_ID":"chrt_77","X":397610.2715,"PHONE":"202-797-4700","Y":139843.407,"ENROLLMENT":1400.0,"AUTHORIZAT":1997,"WEB_URL":"http://www.carlosrosario.org","id":"76","ADDRESS":"1100 HARVARD STREET NW","GRADES":"Adult Ed/GED"},"type":"Feature","geometry":{"type":"Point","coordinates":[-77.027559475616,38.9264641954123]}},{"properties":{"NAME":"Bridges PCS","DIRECTOR":"Olivia Smith","ADDRID":224852,"AUTHORIZER":"PCSB","GIS_ID":"chrt_78","X":397518.4705,"PHONE":"202-545-0515","Y":141401.5,"ENROLLMENT":85.0,"AUTHORIZAT":2005,"WEB_URL":"http://www.bridgespcs.org","id":"77","ADDRESS":"1250 TAYLOR STREET NW","GRADES":"PS-PK4"},"type":"Feature","geometry":{"type":"Point","coordinates":[-77.0286238020879,38.9404997139317]}},{"properties":{"NAME":"Community Academy PCS-Amos I","DIRECTOR":"Sadia White","ADDRID":255251,"AUTHORIZER":"BOE","GIS_ID":"chrt_79","X":397352.4495,"PHONE":"202-723-4100","Y":141867.84,"ENROLLMENT":380.0,"AUTHORIZAT":1997,"WEB_URL":"http://www.capcs.org","id":"78","ADDRESS":"1300 ALLISON STREET NW","GRADES":"PK3-5"},"type":"Feature","geometry":{"type":"Point","coordinates":[-77.0305406109045,38.944700153742]}},{"properties":{"NAME":"Meridian PCS","DIRECTOR":"Robinette Breedlove","ADDRID":240295,"AUTHORIZER":"PCSB","GIS_ID":"chrt_80","X":397329.1995,"PHONE":"202-387-9830","Y":139135.4,"ENROLLMENT":550.0,"AUTHORIZAT":1997,"WEB_URL":"http://mpcs.learningstation.com/school","id":"79","ADDRESS":"1328 FLORIDA AVENUE NW","GRADES":"PK3-8"},"type":"Feature","geometry":{"type":"Point","coordinates":[-77.0307981755233,38.9200854326963]}},{"properties":{"NAME":"Friendship PCS-Chamberlain Campus","DIRECTOR":"Kimberly Campbell","ADDRID":66334,"AUTHORIZER":"PCSB","GIS_ID":"chrt_81","X":401145.1505,"PHONE":"202-547-5800","Y":134616.92,"ENROLLMENT":770.0,"AUTHORIZAT":1997,"WEB_URL":"http://www.friendshipschools.org","id":"80","ADDRESS":"1345 POTOMAC AVENUE SE","GRADES":"PK3-8"},"type":"Feature","geometry":{"type":"Point","coordinates":[-76.9868022982224,38.8793846568821]}},{"properties":{"NAME":"Booker T. Washington PCS for Technical Arts","DIRECTOR":"Edward Pinkard","ADDRID":240288,"AUTHORIZER":"BOE","GIS_ID":"chrt_82","X":397295.6395,"PHONE":"202-232-6090","Y":139117.57,"ENROLLMENT":250.0,"AUTHORIZAT":1998,"WEB_URL":"http://www.btwschool.org","id":"81","ADDRESS":"1346 FLORIDA AVENUE NW","GRADES":"9-Adult Ed/GED"},"type":"Feature","geometry":{"type":"Point","coordinates":[-77.0311851003803,38.9199247116247]}},{"properties":{"NAME":"Community Academy PCS-Amos II","DIRECTOR":"Sadia White","ADDRID":257768,"AUTHORIZER":"BOE","GIS_ID":"chrt_83","X":397261.7615,"PHONE":"202-723-5136","Y":143623.712,"ENROLLMENT":150.0,"AUTHORIZAT":1997,"WEB_URL":"http://www.capcs.org","id":"82","ADDRESS":"1351 NICHOLSON STREET NW","GRADES":"PK3-5"},"type":"Feature","geometry":{"type":"Point","coordinates":[-77.0315937450176,38.9605172434385]}},{"properties":{"NAME":"Options PCS","DIRECTOR":"Dr. Donna Montgomery","ADDRID":286107,"AUTHORIZER":"BOE","GIS_ID":"chrt_84","X":401195.9705,"PHONE":"202-547-1028","Y":136444.7,"ENROLLMENT":360.0,"AUTHORIZAT":1996,"WEB_URL":"http://www.optionsschool.org","id":"83","ADDRESS":"1375 E STREET NE","GRADES":"6-12"},"type":"Feature","geometry":{"type":"Point","coordinates":[-76.9862134234649,38.8958499225472]}},{"properties":{"NAME":"Next Step - El Proximo Paso PCS","DIRECTOR":"Julie Meyer","ADDRID":234363,"AUTHORIZER":"BOE","GIS_ID":"chrt_85","X":397107.5405,"PHONE":"202-319-2249","Y":139988.13,"ENROLLMENT":114.0,"AUTHORIZAT":1996,"WEB_URL":"http://www.nextsteppcs.org","id":"84","ADDRESS":"1419 COLUMBIA ROAD NW","GRADES":"Adult Ed/GED"},"type":"Feature","geometry":{"type":"Point","coordinates":[-77.0333578159076,38.9277663944928]}},{"properties":{"NAME":"Cesar Chavez PCS - Parkside Upper","DIRECTOR":"Jeff Cooper","ADDRID":304053,"AUTHORIZER":"PCSB","GIS_ID":"chrt_86","X":404414.8435,"PHONE":"202-398-2230","Y":137066.13,"ENROLLMENT":0.0,"AUTHORIZAT":0,"WEB_URL":"http://www.chavezschools.org","id":"85","ADDRESS":"3701 HAYES STREET NE","GRADES":"9-12"},"type":"Feature","geometry":{"type":"Point","coordinates":[-76.9491038043591,38.9014377149888]}},{"properties":{"NAME":"Community Academy PCS Online","DIRECTOR":"Sadia White","ADDRID":257768,"AUTHORIZER":"BOE","GIS_ID":"chrt_87","X":397261.7615,"PHONE":"202-788-1492","Y":143623.712,"ENROLLMENT":150.0,"AUTHORIZAT":1997,"WEB_URL":"http://www.k12.com/capcs","id":"86","ADDRESS":"1351 NICHOLSON STREET NW","GRADES":"K-8"},"type":"Feature","geometry":{"type":"Point","coordinates":[-77.0315937450176,38.9605172434385]}},{"properties":{"NAME":"Education Strengthens Families PCS","DIRECTOR":"Christie McKay","ADDRID":284370,"AUTHORIZER":"PCSB","GIS_ID":"chrt_88","X":396548.0805,"PHONE":"202-797-7337","Y":139234.16,"ENROLLMENT":0.0,"AUTHORIZAT":0,"WEB_URL":"http://www.maryscenter.org","id":"87","ADDRESS":"2333 ONTARIO ROAD NW","GRADES":"PS-Adult Ed/GED"},"type":"Feature","geometry":{"type":"Point","coordinates":[-77.0398060979254,38.9209723736743]}},{"properties":{"NAME":"Excel Academy PCS","DIRECTOR":"Kaye Savage","ADDRID":278172,"AUTHORIZER":"PCSB","GIS_ID":"chrt_89","X":400403.1905625,"PHONE":"202-373-0097","Y":132438.56,"ENROLLMENT":0.0,"AUTHORIZAT":0,"WEB_URL":"http://www.excelpcs.org","id":"88","ADDRESS":"2501 MARTIN LUTHER KING JR AVENUE SE","GRADES":"PK3-3"},"type":"Feature","geometry":{"type":"Point","coordinates":[-76.9953545618194,38.8597617583496]}},{"properties":{"NAME":"Friendship Tech Prep","DIRECTOR":"Kimberly Campbell","ADDRID":278579,"AUTHORIZER":"PCSB","GIS_ID":"chrt_90","X":400210.7105,"PHONE":"202-562-1681","Y":131162.57,"ENROLLMENT":0.0,"AUTHORIZAT":0,"WEB_URL":"http://www.friendshipschools.org","id":"89","ADDRESS":"620 MILWAUKEE PLACE SE","GRADES":"6-8"},"type":"Feature","geometry":{"type":"Point","coordinates":[-76.9975726490623,38.848267159265]}},{"properties":{"NAME":"Howard Road Academy Middle MLK Avenue","DIRECTOR":"Stiles X. Simmons","ADDRID":147816,"AUTHORIZER":"PCSB","GIS_ID":"chrt_91","X":400639.6395,"PHONE":"202-610-5780","Y":132770.45,"ENROLLMENT":0.0,"AUTHORIZAT":0,"WEB_URL":"http://www.howardroadacademy.org","id":"90","ADDRESS":"2405 MARTIN LUTHER KING JR AVENUE SE","GRADES":"6-8"},"type":"Feature","geometry":{"type":"Point","coordinates":[-76.992629960866,38.8627514223175]}},{"properties":{"NAME":"KIPP DC: Promise Academy PCS","DIRECTOR":"Susan Schaeffler","ADDRID":17421,"AUTHORIZER":"PCSB","GIS_ID":"chrt_92","X":405692.2505,"PHONE":"202-610-7766","Y":134978.82,"ENROLLMENT":272.0,"AUTHORIZAT":2001,"WEB_URL":"http://www.kippdc.org","id":"91","ADDRESS":"4801 BENNING ROAD SE","GRADES":"1-3"},"type":"Feature","geometry":{"type":"Point","coordinates":[-76.9343946104632,38.8826271126922]}},{"properties":{"NAME":"Latin American Montessori Billingual (LAMB)","DIRECTOR":"Diane Cottman","ADDRID":284010,"AUTHORIZER":"PCSB","GIS_ID":"chrt_93","X":397192.0305,"PHONE":"202-726-6200","Y":143806.16,"ENROLLMENT":0.0,"AUTHORIZAT":0,"WEB_URL":"http://lambpcs.org","id":"92","ADDRESS":"1375 MISSOURI AVENUE NW","GRADES":"PS-5"},"type":"Feature","geometry":{"type":"Point","coordinates":[-77.0323990470463,38.9621605611574]}},{"properties":{"NAME":"National Collegiate PCS","DIRECTOR":"Walter O. Pryor","ADDRID":294502,"AUTHORIZER":"PCSB","GIS_ID":"chrt_94","X":400671.2505,"PHONE":"202-832-7736","Y":129615.24,"ENROLLMENT":110.0,"AUTHORIZAT":2007,"WEB_URL":"http://www.nationalprepdc.org","id":"93","ADDRESS":"908 WAHLER PLACE SE","GRADES":"9-11"},"type":"Feature","geometry":{"type":"Point","coordinates":[-76.9922688122316,38.8343278859471]}},{"properties":{"NAME":"Eagle Academy - New Jersey Avenue","DIRECTOR":"Wendy Edwards","ADDRID":276169,"AUTHORIZER":"PCSB","GIS_ID":"chrt_95","X":399558.98,"PHONE":"202-459-6825","Y":134445.1,"ENROLLMENT":0.0,"AUTHORIZAT":0,"WEB_URL":"http://www.ecapcs.org","id":"94","ADDRESS":"1017 NEW JERSEY AVENUE SE","GRADES":"1-2"},"type":"Feature","geometry":{"type":"Point","coordinates":[-77.0050825845334,38.8778374700087]}},{"properties":{"NAME":"Friendship Central Office","DIRECTOR":"Kimberly Campbell","ADDRID":155914,"AUTHORIZER":"PCSB","GIS_ID":"chrt_96","X":399524.12,"PHONE":"202-281-1700","Y":138163.01,"ENROLLMENT":0.0,"AUTHORIZAT":0,"WEB_URL":"http://www.friendshipschools.org","id":"95","ADDRESS":"120 Q STREET NE SUITE 200","GRADES":"PK3-12"},"type":"Feature","geometry":{"type":"Point","coordinates":[-77.0054869078718,38.9113297496517]}},{"properties":{"NAME":"Howard Road Academy Central Office","DIRECTOR":"Stiles X. Simmons","ADDRID":155929,"AUTHORIZER":"PCSB","GIS_ID":"chrt_97","X":400940.67,"PHONE":"202-610-5713","Y":133205.37,"ENROLLMENT":0.0,"AUTHORIZAT":0,"WEB_URL":"http://www.HowardRoadAcademy.org","id":"96","ADDRESS":"2005 MARTIN LUTHER KING JR AVENUE SE","GRADES":"PS-8"},"type":"Feature","geometry":{"type":"Point","coordinates":[-76.9891608393699,38.8666690911201]}},{"properties":{"NAME":"Inspired Teaching Demonstration PCS","DIRECTOR":"Deborah Williams","ADDRID":22543,"AUTHORIZER":"PCSB","GIS_ID":"chrt_98","X":400474.03,"PHONE":"202-462-1956","Y":141675.39,"ENROLLMENT":200.0,"AUTHORIZAT":2007,"WEB_URL":"http://www.inspiredteachingschool.org","id":"97","ADDRESS":"4401 8TH STREET NE","GRADES":"PK3-3"},"type":"Feature","geometry":{"type":"Point","coordinates":[-76.994531996932,38.9429703708819]}},{"properties":{"NAME":"KIPP DC: Central Office","DIRECTOR":"Susan Schaeffler","ADDRID":239367,"AUTHORIZER":"PCSB","GIS_ID":"chrt_99","X":397725.23,"PHONE":"202-223-4505","Y":137211.37,"ENROLLMENT":0.0,"AUTHORIZAT":0,"WEB_URL":"http://www.kippdc.org","id":"98","ADDRESS":"1003 K STREET NW","GRADES":"PS-11"},"type":"Feature","geometry":{"type":"Point","coordinates":[-77.0262250001298,38.9027542317019]}},{"properties":{"NAME":"KIPP DC: WILL Academy PCS","DIRECTOR":"Susan Schaeffler","ADDRID":294487,"AUTHORIZER":"PCSB","GIS_ID":"chrt_100","X":398428.6495,"PHONE":"202-328-9455","Y":138002.099,"ENROLLMENT":320.0,"AUTHORIZAT":2001,"WEB_URL":"http://www.kippdc.org","id":"99","ADDRESS":"421 P STREET NW","GRADES":"5-8"},"type":"Feature","geometry":{"type":"Point","coordinates":[-77.0181173407198,38.9098789326489]}},{"properties":{"NAME":"KIPP DC: Heights Academy PCS","DIRECTOR":"Susan Schaeffler","ADDRID":155368,"AUTHORIZER":"PCSB","GIS_ID":"chrt_101","X":401037.2385,"PHONE":"202-610-5323","Y":132089.751,"ENROLLMENT":320.0,"AUTHORIZAT":2001,"WEB_URL":"http://www.kippdc.org","id":"100","ADDRESS":"2600 DOUGLASS PLACE SE","GRADES":"1-1"},"type":"Feature","geometry":{"type":"Point","coordinates":[-76.9880497818184,38.8566190199793]}},{"properties":{"NAME":"Washington Latin PCS","DIRECTOR":"Martha C. Cutts","ADDRID":259140,"AUTHORIZER":"PCSB","GIS_ID":"chrt_102","X":396874.3005,"PHONE":"202-223-1111","Y":141487.48,"ENROLLMENT":315.0,"AUTHORIZAT":2005,"WEB_URL":"http:\\\\www.latinpcs.org","id":"101","ADDRESS":"4115 16TH STREET NW","GRADES":"5-12"},"type":"Feature","geometry":{"type":"Point","coordinates":[-77.0360545277256,38.9412721909951]}}],"is_temporal":false,"author":{"url":"","metadata":"","contact_name":"","contact_address":"","source":"","contact_phone":""},"source":"","pagination":{"sort":null,"start":0,"total":102,"limit":1000000},"state":"complete","tags":"columbia,dc,district,kaboom,kaboom!,playspace,washington","published":"2014-08-14T20:33:42-04:00","id":213600}