{"type":"FeatureCollection","data_type":"Dataset","url_type":null,"permissions":[{"permissions":{"download":true,"view":true},"group_id":"everyone"}],"classification":null,"title":"w chester 6 supervoter","count":64,"stream_id":214015,"contributor":{"url":"http://geocommons.com/users/41736","name":"durbanic"},"data_attributes":null,"calculation_params":null,"icon_link":null,"link":"http://geocommons.com/overlays/214015.json","extent":[-75.7542,39.9544,-75.6032,40.0185],"geometry_types":["point"],"unique_name":null,"name":"w chester 6 supervoter","feature_count":64,"description":"","next_feature":null,"is_raster":false,"short_classification":"Y","stats":{"a":{"max":100,"mean":61.46875,"variance":285.58630952381,"stdev":16.8992990838025,"min":24,"median":61},"phone":{"max":6109422570,"mean":6106326252.4359,"variance":2455805935544.78,"stdev":1567101.12486233,"min":6104293456,"median":6106923925},"address":{"count":49,"counts_by_value":{"201 N BRADFORD AVE":1,"115 W BARNARD ST":2,"136 W CHESTNUT ST":2,"313 W MINER ST":1,"324 W MINER ST":2,"603 W MINER ST":1,"208 N EVERHART AVE":1,"109 S BRANDYWINE ST":1,"111 S CHURCH ST":1,"133 W BARNARD ST":1,"513 W MARKET ST":2,"605 W MARKET ST":1,"422 W MINER ST":2,"203 WOLLERTON ST":1,"203 DEBAPTISTE LN":1,"543 RAYMOND DR":1,"3 S BRADFORD AVE":4,"116 W CHESTNUT ST":1,"205 W GAY ST":2,"415 W MARKET ST":1,"507 W MARKET ST":2,"216 W MINER ST":1,"410 W MINER ST":1,"608 W CHESTNUT ST":2,"413 W MINER ST":1,"15 N CHURCH ST":1,"102 S HIGH ST":1,"341 W MINER ST":1,"615 W CHESTNUT ST":1,"329 W GAY ST":1,"111 W MARKET ST":1,"201 W MINER ST":1,"322 W MINER ST":2,"340 W MINER ST":1,"9 S BRANDYWINE ST":1,"233 W GAY ST":1,"41 W GAY ST":1,"26 W MINER ST":1,"328 W MINER ST":1,"338 W MINER ST":1,"342 W MINER ST":1,"617 W MINER ST":1,"349 HANNUM AVE":1,"429 W MINER ST":1,"19 W BARNARD ST":1,"600 W GAY ST":2,"325 W MINER ST":2,"435 W MINER ST":1,"611 W MINER ST":2},"list":["203 DEBAPTISTE LN","349 HANNUM AVE","201 N BRADFORD AVE","15 N CHURCH ST","208 N EVERHART AVE","543 RAYMOND DR","3 S BRADFORD AVE","109 S BRANDYWINE ST","9 S BRANDYWINE ST","111 S CHURCH ST","102 S HIGH ST","115 W BARNARD ST","133 W BARNARD ST","19 W BARNARD ST","116 W CHESTNUT ST","136 W CHESTNUT ST","608 W CHESTNUT ST","615 W CHESTNUT ST","205 W GAY ST","233 W GAY ST","329 W GAY ST","41 W GAY ST","600 W GAY ST","111 W MARKET ST","415 W MARKET ST","507 W MARKET ST","513 W MARKET ST","605 W MARKET ST","201 W MINER ST","216 W MINER ST","26 W MINER ST","313 W MINER ST","322 W MINER ST","324 W MINER ST","325 W MINER ST","328 W MINER ST","338 W MINER ST","340 W MINER ST","341 W MINER ST","342 W MINER ST","410 W MINER ST","413 W MINER ST","422 W MINER ST","429 W MINER ST","435 W MINER ST","603 W MINER ST","611 W MINER ST","617 W MINER ST","203 WOLLERTON ST"]}},"features":[{"properties":{"middle name":"DAVID","zip":"19382","a":34,"last name":"MILKS","geo_score":0.805,"phone":null,"g":"M","id":"0","first name":"MATT","address":"203 DEBAPTISTE LN","geo_precision":"range"},"type":"Feature","geometry":{"type":"Point","coordinates":[-75.617804,39.958308]}},{"properties":{"middle name":"N","zip":"19380","a":65,"last name":"HOFFMAN","geo_score":0.805,"phone":6104365138,"g":"F","id":"1","first name":"MARJORIE","address":"349 HANNUM AVE","geo_precision":"range"},"type":"Feature","geometry":{"type":"Point","coordinates":[-75.610281,39.958976]}},{"properties":{"middle name":"M","zip":"19382","a":63,"last name":"DOUGHERTY","geo_score":0.805,"phone":null,"g":"M","id":"2","first name":"DONALD","address":"201 N BRADFORD AVE","geo_precision":"range"},"type":"Feature","geometry":{"type":"Point","coordinates":[-75.616594,39.956761]}},{"properties":{"middle name":"M","zip":"19380","a":49,"last name":"ZUKIN","geo_score":0.805,"phone":6104449359,"g":"M","id":"3","first name":"SCOTT","address":"15 N CHURCH ST","geo_precision":"range"},"type":"Feature","geometry":{"type":"Point","coordinates":[-75.606033,39.959492]}},{"properties":{"middle name":"S","zip":"19380","a":31,"last name":"ACKER","geo_score":0.805,"phone":null,"g":"M","id":"4","first name":"KERRY","address":"208 N EVERHART AVE","geo_precision":"range"},"type":"Feature","geometry":{"type":"Point","coordinates":[-75.615037,39.957654]}},{"properties":{"middle name":"MEREDITH","zip":"19380","a":40,"last name":"GASKILL","geo_score":0.552,"phone":null,"g":"F","id":"5","first name":"MEGAN","address":"543 RAYMOND DR","geo_precision":"street"},"type":"Feature","geometry":{"type":"Point","coordinates":[-75.75415,40.01845]}},{"properties":{"middle name":"G","zip":"19382","a":62,"last name":"CHESKO","geo_score":0.805,"phone":6106964461,"g":"F","id":"6","first name":"NANCY","address":"3 S BRADFORD AVE","geo_precision":"range"},"type":"Feature","geometry":{"type":"Point","coordinates":[-75.615146,39.954962]}},{"properties":{"middle name":null,"zip":"19382","a":61,"last name":"CHESKO","geo_score":0.805,"phone":6106964461,"g":"F","id":"7","first name":"PATRICIA","address":"3 S BRADFORD AVE","geo_precision":"range"},"type":"Feature","geometry":{"type":"Point","coordinates":[-75.615146,39.954962]}},{"properties":{"middle name":null,"zip":"19382","a":60,"last name":"CHESKO","geo_score":0.805,"phone":6106964461,"g":"M","id":"8","first name":"ROBERT","address":"3 S BRADFORD AVE","geo_precision":"range"},"type":"Feature","geometry":{"type":"Point","coordinates":[-75.615146,39.954962]}},{"properties":{"middle name":"G","zip":"19382","a":92,"last name":"CHESKO","geo_score":0.805,"phone":null,"g":"F","id":"9","first name":"AGNES","address":"3 S BRADFORD AVE","geo_precision":"range"},"type":"Feature","geometry":{"type":"Point","coordinates":[-75.615146,39.954962]}},{"properties":{"middle name":"P","zip":"19382","a":89,"last name":"BROWN","geo_score":0.805,"phone":6106961921,"g":"F","id":"10","first name":"JEAN","address":"109 S BRANDYWINE ST","geo_precision":"range"},"type":"Feature","geometry":{"type":"Point","coordinates":[-75.61119,39.95486]}},{"properties":{"middle name":"E","zip":"19382","a":70,"last name":"NINOS","geo_score":0.805,"phone":null,"g":"F","id":"11","first name":"NANCY","address":"9 S BRANDYWINE ST","geo_precision":"range"},"type":"Feature","geometry":{"type":"Point","coordinates":[-75.611992,39.955931]}},{"properties":{"middle name":"M","zip":"19382","a":24,"last name":"HISSEY","geo_score":0.805,"phone":null,"g":"M","id":"12","first name":"MATTHEW","address":"111 S CHURCH ST","geo_precision":"range"},"type":"Feature","geometry":{"type":"Point","coordinates":[-75.604568,39.957812]}},{"properties":{"middle name":"B","zip":"19382","a":100,"last name":"CHALFANT","geo_score":0.805,"phone":null,"g":"F","id":"13","first name":"MARGARET","address":"102 S HIGH ST","geo_precision":"range"},"type":"Feature","geometry":{"type":"Point","coordinates":[-75.603487,39.958796]}},{"properties":{"middle name":"P","zip":"19382","a":49,"last name":"KOWALSKI","geo_score":0.805,"phone":null,"g":"M","id":"14","first name":"SCOTT","address":"115 W BARNARD ST","geo_precision":"range"},"type":"Feature","geometry":{"type":"Point","coordinates":[-75.604712,39.956968]}},{"properties":{"middle name":"M","zip":"19382","a":48,"last name":"HUSBANDS","geo_score":0.805,"phone":6104365981,"g":"F","id":"15","first name":"DONNA","address":"115 W BARNARD ST","geo_precision":"range"},"type":"Feature","geometry":{"type":"Point","coordinates":[-75.604712,39.956968]}},{"properties":{"middle name":"A","zip":"19382","a":68,"last name":"SCHWABE","geo_score":0.805,"phone":6106963433,"g":"M","id":"16","first name":"HERBERT","address":"133 W BARNARD ST","geo_precision":"range"},"type":"Feature","geometry":{"type":"Point","coordinates":[-75.604864,39.956884]}},{"properties":{"middle name":"JOSEPH","zip":"19382","a":74,"last name":"BECKER","geo_score":0.805,"phone":null,"g":"M","id":"17","first name":"MARSHALL","address":"19 W BARNARD ST","geo_precision":"range"},"type":"Feature","geometry":{"type":"Point","coordinates":[-75.603159,39.957734]}},{"properties":{"middle name":"N","zip":"19380","a":82,"last name":"WILLIAMS","geo_score":0.805,"phone":6106964677,"g":"F","id":"18","first name":"BARBARA","address":"116 W CHESTNUT ST","geo_precision":"range"},"type":"Feature","geometry":{"type":"Point","coordinates":[-75.608139,39.960485]}},{"properties":{"middle name":"C","zip":"19380","a":42,"last name":"VANRYN","geo_score":0.805,"phone":6104294755,"g":"M","id":"19","first name":"DAVID","address":"136 W CHESTNUT ST","geo_precision":"range"},"type":"Feature","geometry":{"type":"Point","coordinates":[-75.608201,39.960448]}},{"properties":{"middle name":"L","zip":"19380","a":39,"last name":"VANRYN","geo_score":0.805,"phone":6109181791,"g":"F","id":"20","first name":"ERIN","address":"136 W CHESTNUT ST","geo_precision":"range"},"type":"Feature","geometry":{"type":"Point","coordinates":[-75.608201,39.960448]}},{"properties":{"middle name":null,"zip":"19380","a":39,"last name":"LIDLE","geo_score":0.805,"phone":null,"g":"F","id":"21","first name":"AMY","address":"608 W CHESTNUT ST","geo_precision":"range"},"type":"Feature","geometry":{"type":"Point","coordinates":[-75.615071,39.957419]}},{"properties":{"middle name":"T","zip":"19380","a":67,"last name":"LIDLE","geo_score":0.805,"phone":6106924588,"g":"F","id":"22","first name":"BARBARA","address":"608 W CHESTNUT ST","geo_precision":"range"},"type":"Feature","geometry":{"type":"Point","coordinates":[-75.615071,39.957419]}},{"properties":{"middle name":"LANE","zip":"19380","a":60,"last name":"GULLO","geo_score":0.805,"phone":6104294542,"g":"F","id":"23","first name":"LINDA","address":"615 W CHESTNUT ST","geo_precision":"range"},"type":"Feature","geometry":{"type":"Point","coordinates":[-75.615147,39.957375]}},{"properties":{"middle name":"MAUREEN","zip":"19380","a":80,"last name":"GRAVEN","geo_score":0.805,"phone":null,"g":"F","id":"24","first name":"CLARE","address":"205 W GAY ST","geo_precision":"range"},"type":"Feature","geometry":{"type":"Point","coordinates":[-75.607784,39.959365]}},{"properties":{"middle name":"ANTHONY","zip":"19380","a":79,"last name":"KANE","geo_score":0.805,"phone":6106929430,"g":"F","id":"25","first name":"REGINA","address":"205 W GAY ST","geo_precision":"range"},"type":"Feature","geometry":{"type":"Point","coordinates":[-75.607784,39.959365]}},{"properties":{"middle name":"J","zip":"19380","a":57,"last name":"COSSAVELLA","geo_score":0.805,"phone":null,"g":"M","id":"26","first name":"ANTHONY","address":"233 W GAY ST","geo_precision":"range"},"type":"Feature","geometry":{"type":"Point","coordinates":[-75.608089,39.959192]}},{"properties":{"middle name":"RODNEY","zip":"19380","a":85,"last name":"LOPER","geo_score":0.805,"phone":6106960277,"g":"M","id":"27","first name":"F","address":"329 W GAY ST","geo_precision":"range"},"type":"Feature","geometry":{"type":"Point","coordinates":[-75.609645,39.958545]}},{"properties":{"middle name":null,"zip":"19380","a":50,"last name":"OWEN","geo_score":0.805,"phone":null,"g":"M","id":"28","first name":"BJ","address":"41 W GAY ST","geo_precision":"range"},"type":"Feature","geometry":{"type":"Point","coordinates":[-75.605615,39.960267]}},{"properties":{"middle name":"W","zip":"19380","a":81,"last name":"KOENIG","geo_score":0.805,"phone":6106922692,"g":"M","id":"29","first name":"HENRY","address":"600 W GAY ST","geo_precision":"range"},"type":"Feature","geometry":{"type":"Point","coordinates":[-75.614318,39.956554]}},{"properties":{"middle name":"T","zip":"19380","a":77,"last name":"KOENIG","geo_score":0.805,"phone":6106922692,"g":"F","id":"30","first name":"ELIZABETH","address":"600 W GAY ST","geo_precision":"range"},"type":"Feature","geometry":{"type":"Point","coordinates":[-75.614318,39.956554]}},{"properties":{"middle name":"JOHN","zip":"19382","a":49,"last name":"GENTILE","geo_score":0.805,"phone":null,"g":"M","id":"31","first name":"NICHOLAS","address":"111 W MARKET ST","geo_precision":"range"},"type":"Feature","geometry":{"type":"Point","coordinates":[-75.606068,39.958957]}},{"properties":{"middle name":"D","zip":"19382","a":64,"last name":"DUTCHER","geo_score":0.805,"phone":null,"g":"M","id":"32","first name":"MICHAEL","address":"415 W MARKET ST","geo_precision":"range"},"type":"Feature","geometry":{"type":"Point","coordinates":[-75.610544,39.95697]}},{"properties":{"middle name":"T","zip":"19382","a":71,"last name":"PENNINGTON","geo_score":0.805,"phone":6106968625,"g":"F","id":"33","first name":"BARBARA","address":"507 W MARKET ST","geo_precision":"range"},"type":"Feature","geometry":{"type":"Point","coordinates":[-75.612253,39.956238]}},{"properties":{"middle name":"L","zip":"19382","a":72,"last name":"PENNINGTON","geo_score":0.805,"phone":6106968625,"g":"M","id":"34","first name":"MAURICE","address":"507 W MARKET ST","geo_precision":"range"},"type":"Feature","geometry":{"type":"Point","coordinates":[-75.612253,39.956238]}},{"properties":{"middle name":"W","zip":"19382","a":70,"last name":"WHEELER","geo_score":0.805,"phone":6106922208,"g":"M","id":"35","first name":"LARRY","address":"513 W MARKET ST","geo_precision":"range"},"type":"Feature","geometry":{"type":"Point","coordinates":[-75.612345,39.9562]}},{"properties":{"middle name":"S","zip":"19382","a":74,"last name":"WHEELER","geo_score":0.805,"phone":6106922208,"g":"F","id":"36","first name":"BARBARA","address":"513 W MARKET ST","geo_precision":"range"},"type":"Feature","geometry":{"type":"Point","coordinates":[-75.612345,39.9562]}},{"properties":{"middle name":"C","zip":"19382","a":75,"last name":"ANTRIM","geo_score":0.805,"phone":6109422570,"g":"M","id":"37","first name":"ROGER","address":"605 W MARKET ST","geo_precision":"range"},"type":"Feature","geometry":{"type":"Point","coordinates":[-75.613704,39.955618]}},{"properties":{"middle name":"J","zip":"19382","a":71,"last name":"SWISHER","geo_score":0.805,"phone":null,"g":"F","id":"38","first name":"DOROTHY","address":"201 W MINER ST","geo_precision":"range"},"type":"Feature","geometry":{"type":"Point","coordinates":[-75.606268,39.957414]}},{"properties":{"middle name":"RICHARD","zip":"19382","a":80,"last name":"KLEIN","geo_score":0.805,"phone":6106923925,"g":"M","id":"39","first name":"PAUL","address":"216 W MINER ST","geo_precision":"range"},"type":"Feature","geometry":{"type":"Point","coordinates":[-75.606447,39.957312]}},{"properties":{"middle name":"WILLIAM","zip":"19382","a":87,"last name":"DOWLIN","geo_score":0.805,"phone":6106967365,"g":"M","id":"40","first name":"JOHN","address":"26 W MINER ST","geo_precision":"range"},"type":"Feature","geometry":{"type":"Point","coordinates":[-75.604195,39.958396]}},{"properties":{"middle name":"J","zip":"19382","a":60,"last name":"FLYNN","geo_score":0.805,"phone":6107191910,"g":"M","id":"41","first name":"BERNARD","address":"313 W MINER ST","geo_precision":"range"},"type":"Feature","geometry":{"type":"Point","coordinates":[-75.608216,39.956571]}},{"properties":{"middle name":"C","zip":"19382","a":52,"last name":"BROWN","geo_score":0.805,"phone":6106922001,"g":"M","id":"42","first name":"STEVEN","address":"322 W MINER ST","geo_precision":"range"},"type":"Feature","geometry":{"type":"Point","coordinates":[-75.608333,39.956502]}},{"properties":{"middle name":"M","zip":"19382","a":48,"last name":"BROWN","geo_score":0.805,"phone":6106922001,"g":"F","id":"43","first name":"JEANNE","address":"322 W MINER ST","geo_precision":"range"},"type":"Feature","geometry":{"type":"Point","coordinates":[-75.608333,39.956502]}},{"properties":{"middle name":"SCOTT","zip":"19382","a":54,"last name":"UHL","geo_score":0.805,"phone":6104312259,"g":"M","id":"44","first name":"ROBERT","address":"324 W MINER ST","geo_precision":"range"},"type":"Feature","geometry":{"type":"Point","coordinates":[-75.608357,39.956488]}},{"properties":{"middle name":"L","zip":"19382","a":53,"last name":"UHL","geo_score":0.805,"phone":6104312259,"g":"F","id":"45","first name":"LORI","address":"324 W MINER ST","geo_precision":"range"},"type":"Feature","geometry":{"type":"Point","coordinates":[-75.608357,39.956488]}},{"properties":{"middle name":null,"zip":"19382","a":54,"last name":"AURILLO","geo_score":0.805,"phone":null,"g":"M","id":"46","first name":"DAVID","address":"325 W MINER ST","geo_precision":"range"},"type":"Feature","geometry":{"type":"Point","coordinates":[-75.608357,39.956488]}},{"properties":{"middle name":"K","zip":"19382","a":53,"last name":"AURILLO","geo_score":0.805,"phone":6104317793,"g":"F","id":"47","first name":"LAUREN","address":"325 W MINER ST","geo_precision":"range"},"type":"Feature","geometry":{"type":"Point","coordinates":[-75.608357,39.956488]}},{"properties":{"middle name":"J","zip":"19382","a":54,"last name":"TRIPLETT","geo_score":0.805,"phone":6104301567,"g":"M","id":"48","first name":"HENRY","address":"328 W MINER ST","geo_precision":"range"},"type":"Feature","geometry":{"type":"Point","coordinates":[-75.608404,39.956461]}},{"properties":{"middle name":"D","zip":"19382","a":46,"last name":"URBANIC","geo_score":0.805,"phone":null,"g":"M","id":"49","first name":"DONALD","address":"338 W MINER ST","geo_precision":"range"},"type":"Feature","geometry":{"type":"Point","coordinates":[-75.608522,39.956392]}},{"properties":{"middle name":null,"zip":"19382","a":28,"last name":"PAVONE","geo_score":0.805,"phone":null,"g":"F","id":"50","first name":"ANDREA","address":"340 W MINER ST","geo_precision":"range"},"type":"Feature","geometry":{"type":"Point","coordinates":[-75.608545,39.956378]}},{"properties":{"middle name":"ANN","zip":"19382","a":61,"last name":"CURTIN","geo_score":0.805,"phone":null,"g":"F","id":"51","first name":"JUDITH","address":"341 W MINER ST","geo_precision":"range"},"type":"Feature","geometry":{"type":"Point","coordinates":[-75.608545,39.956378]}},{"properties":{"middle name":"L","zip":"19382","a":51,"last name":"CLARK","geo_score":0.805,"phone":null,"g":"M","id":"52","first name":"THOMAS","address":"342 W MINER ST","geo_precision":"range"},"type":"Feature","geometry":{"type":"Point","coordinates":[-75.608569,39.956364]}},{"properties":{"middle name":"E","zip":"19382","a":51,"last name":"CRANEY","geo_score":0.805,"phone":6104364324,"g":"M","id":"53","first name":"JAMES","address":"410 W MINER ST","geo_precision":"range"},"type":"Feature","geometry":{"type":"Point","coordinates":[-75.609696,39.955909]}},{"properties":{"middle name":"J","zip":"19382","a":42,"last name":"KRYGIEL","geo_score":0.805,"phone":6104293456,"g":"M","id":"54","first name":"ROBERT","address":"413 W MINER ST","geo_precision":"range"},"type":"Feature","geometry":{"type":"Point","coordinates":[-75.609725,39.955893]}},{"properties":{"middle name":"M","zip":"19382","a":90,"last name":"OHARA","geo_score":0.805,"phone":6106961622,"g":"F","id":"55","first name":"PATRICIA","address":"422 W MINER ST","geo_precision":"range"},"type":"Feature","geometry":{"type":"Point","coordinates":[-75.609869,39.955813]}},{"properties":{"middle name":"J","zip":"19382","a":85,"last name":"OHARA","geo_score":0.805,"phone":null,"g":"M","id":"56","first name":"WILLIAM","address":"422 W MINER ST","geo_precision":"range"},"type":"Feature","geometry":{"type":"Point","coordinates":[-75.609869,39.955813]}},{"properties":{"middle name":"L","zip":"19382","a":38,"last name":"NAGLE","geo_score":0.805,"phone":null,"g":"M","id":"57","first name":"BRIAN","address":"429 W MINER ST","geo_precision":"range"},"type":"Feature","geometry":{"type":"Point","coordinates":[-75.609955,39.955766]}},{"properties":{"middle name":"E","zip":"19382","a":54,"last name":"VANBEUREN","geo_score":0.805,"phone":6104694991,"g":"F","id":"58","first name":"JUDITH","address":"435 W MINER ST","geo_precision":"range"},"type":"Feature","geometry":{"type":"Point","coordinates":[-75.610042,39.955718]}},{"properties":{"middle name":"B","zip":"19382","a":59,"last name":"ROWAN","geo_score":0.805,"phone":6104311899,"g":"F","id":"59","first name":"KATE","address":"603 W MINER ST","geo_precision":"range"},"type":"Feature","geometry":{"type":"Point","coordinates":[-75.612578,39.954626]}},{"properties":{"middle name":"L","zip":"19382","a":63,"last name":"JUDKINS","geo_score":0.805,"phone":6109181158,"g":"F","id":"60","first name":"TERESE","address":"611 W MINER ST","geo_precision":"range"},"type":"Feature","geometry":{"type":"Point","coordinates":[-75.612644,39.95448]}},{"properties":{"middle name":"SUTTON","zip":"19382","a":64,"last name":"JUDKINS","geo_score":0.805,"phone":null,"g":"M","id":"61","first name":"WILLIAM","address":"611 W MINER ST","geo_precision":"range"},"type":"Feature","geometry":{"type":"Point","coordinates":[-75.612644,39.95448]}},{"properties":{"middle name":"M","zip":"19382","a":77,"last name":"BRADDOCK","geo_score":0.805,"phone":6106961531,"g":"M","id":"62","first name":"KENNETH","address":"617 W MINER ST","geo_precision":"range"},"type":"Feature","geometry":{"type":"Point","coordinates":[-75.612703,39.954372]}},{"properties":{"middle name":"STONE","zip":"19382","a":67,"last name":"HARSHBARGER","geo_score":0.805,"phone":6109184889,"g":"M","id":"63","first name":"BARRY","address":"203 WOLLERTON ST","geo_precision":"range"},"type":"Feature","geometry":{"type":"Point","coordinates":[-75.606686,39.957938]}}],"is_temporal":false,"author":{"url":"","metadata":"","contact_name":"","contact_address":"","source":"","contact_phone":""},"source":"","pagination":{"sort":null,"start":0,"total":64,"limit":1000000},"state":"complete","tags":"","published":"2014-08-14T21:17:49-04:00","id":214015}