{"type":"FeatureCollection","data_type":"Dataset","url_type":null,"permissions":[{"permissions":{"download":true,"view":true},"group_id":"everyone"}],"classification":null,"title":"thematicmapdata police crimes","count":17,"stream_id":214152,"contributor":{"url":"http://geocommons.com/users/41384","name":"genedyngems"},"data_attributes":null,"calculation_params":null,"icon_link":null,"link":"http://geocommons.com/overlays/214152.json","extent":[0.0,0.0,0.0,0.0],"geometry_types":[],"unique_name":null,"name":"thematicmapdata police crimes","feature_count":17,"description":"","next_feature":null,"is_raster":false,"short_classification":"Y","stats":{"number of policemen":{"max":16655,"mean":6897.17647058824,"variance":9654351.90441177,"stdev":3107.14529824593,"min":3866,"median":5886},"number of crimes":{"max":48310,"mean":14234.5882352941,"variance":156029851.132353,"stdev":12491.1909413135,"min":934,"median":9586}},"features":[{"properties":{"region":"I","number of policemen":6400,"number of crimes":10239,"id":"a633yai25qt0"},"type":"Feature","geometry":null},{"properties":{"region":"II","number of policemen":4876,"number of crimes":4473,"id":"a633yakf5rku"},"type":"Feature","geometry":null},{"properties":{"region":"III","number of policemen":9825,"number of crimes":35970,"id":"a633yaelxqxu"},"type":"Feature","geometry":null},{"properties":{"region":"IV-A","number of policemen":9933,"number of crimes":23330,"id":"a633yapen86l"},"type":"Feature","geometry":null},{"properties":{"region":"IV-B","number of policemen":4023,"number of crimes":3502,"id":"a633yalwohjl"},"type":"Feature","geometry":null},{"properties":{"region":"V","number of policemen":6479,"number of crimes":11749,"id":"a633yamjdm0y"},"type":"Feature","geometry":null},{"properties":{"region":"VI","number of policemen":8475,"number of crimes":9181,"id":"a633yak57q8y"},"type":"Feature","geometry":null},{"properties":{"region":"VII","number of policemen":7742,"number of crimes":24775,"id":"a633yail5pt6"},"type":"Feature","geometry":null},{"properties":{"region":"VIII","number of policemen":5886,"number of crimes":7553,"id":"a633yafbbfp8"},"type":"Feature","geometry":null},{"properties":{"region":"IX","number of policemen":5680,"number of crimes":8134,"id":"a633yagkyd4b"},"type":"Feature","geometry":null},{"properties":{"region":"X","number of policemen":5705,"number of crimes":15687,"id":"a633yao1db92"},"type":"Feature","geometry":null},{"properties":{"region":"XI","number of policemen":5863,"number of crimes":15778,"id":"a633yajuufkz"},"type":"Feature","geometry":null},{"properties":{"region":"XII","number of policemen":5164,"number of crimes":9586,"id":"a633yajoxg4y"},"type":"Feature","geometry":null},{"properties":{"region":"NCR","number of policemen":16655,"number of crimes":48310,"id":"a633yae2dtqp"},"type":"Feature","geometry":null},{"properties":{"region":"CAR","number of policemen":3866,"number of crimes":7638,"id":"a633yalolyhs"},"type":"Feature","geometry":null},{"properties":{"region":"ARMM","number of policemen":6655,"number of crimes":934,"id":"a633yaa2rv2b"},"type":"Feature","geometry":null},{"properties":{"region":"XIII","number of policemen":4025,"number of crimes":5149,"id":"a633yaj4v2yx"},"type":"Feature","geometry":null}],"is_temporal":false,"author":{"url":"","metadata":"","contact_name":"","contact_address":"","source":"","contact_phone":""},"source":"","pagination":{"sort":null,"start":0,"total":17,"limit":1000000},"state":"complete","tags":"","published":"2014-08-14T21:27:57-04:00","id":214152}