{"type":"FeatureCollection","data_type":"Dataset","url_type":null,"permissions":[{"permissions":{"download":true,"view":true},"group_id":"everyone"}],"classification":null,"title":"County FIR","count":53,"stream_id":214435,"contributor":{"url":"http://geocommons.com/users/41429","name":"jfedorsRFBO"},"data_attributes":null,"calculation_params":null,"icon_link":null,"link":"http://geocommons.com/overlays/214435.json","extent":[0.0,0.0,0.0,0.0],"geometry_types":null,"unique_name":null,"name":"County FIR","feature_count":53,"description":"","next_feature":null,"is_raster":false,"short_classification":"Y","features":[{"properties":{"county":"ALFALFA","2009 food insecurity rate":"14.60%","id":"a9fhbfo7ng2u"},"type":"Feature","geometry":null},{"properties":{"county":"ATOKA","2009 food insecurity rate":"20.10%","id":"a9fhbfp02raq"},"type":"Feature","geometry":null},{"properties":{"county":"BEAVER","2009 food insecurity rate":"12.90%","id":"a9fhbffki5rg"},"type":"Feature","geometry":null},{"properties":{"county":"BECKHAM","2009 food insecurity rate":"16.40%","id":"a9fhbfk9ud1c"},"type":"Feature","geometry":null},{"properties":{"county":"BLAINE","2009 food insecurity rate":"16.40%","id":"a9fhbfn5bjvr"},"type":"Feature","geometry":null},{"properties":{"county":"BRYAN","2009 food insecurity rate":"17.70%","id":"a9fhbfgdfbz2"},"type":"Feature","geometry":null},{"properties":{"county":"CADDO","2009 food insecurity rate":"18.10%","id":"a9fhbfowdoac"},"type":"Feature","geometry":null},{"properties":{"county":"CANADIAN","2009 food insecurity rate":"13.40%","id":"a9fhbfd5djtk"},"type":"Feature","geometry":null},{"properties":{"county":"CARTER","2009 food insecurity rate":"16.90%","id":"a9fhbflns5wd"},"type":"Feature","geometry":null},{"properties":{"county":"CIMARRON","2009 food insecurity rate":"15.30%","id":"a9fhbfp1z1q1"},"type":"Feature","geometry":null},{"properties":{"county":"CLEVELAND","2009 food insecurity rate":"14.60%","id":"a9fhbfctg038"},"type":"Feature","geometry":null},{"properties":{"county":"COAL","2009 food insecurity rate":"20.20%","id":"a9fhbfhdg3nb"},"type":"Feature","geometry":null},{"properties":{"county":"COMANCHE","2009 food insecurity rate":"17.00%","id":"a9fhbfmnsxr2"},"type":"Feature","geometry":null},{"properties":{"county":"COTTON","2009 food insecurity rate":"15.20%","id":"a9fhbfiavs0o"},"type":"Feature","geometry":null},{"properties":{"county":"CUSTER","2009 food insecurity rate":"16.70%","id":"a9fhbffx7fwu"},"type":"Feature","geometry":null},{"properties":{"county":"DEWEY","2009 food insecurity rate":"14.80%","id":"a9fhbfs2ewh7"},"type":"Feature","geometry":null},{"properties":{"county":"ELLIS","2009 food insecurity rate":"14.40%","id":"a9fhbfk8xctn"},"type":"Feature","geometry":null},{"properties":{"county":"GARFIELD","2009 food insecurity rate":"15.40%","id":"a9fhbfcoqpgp"},"type":"Feature","geometry":null},{"properties":{"county":"GARVIN","2009 food insecurity rate":"16.60%","id":"a9fhbfoq5sgv"},"type":"Feature","geometry":null},{"properties":{"county":"GRADY","2009 food insecurity rate":"17.40%","id":"a9fhbfm5hh4m"},"type":"Feature","geometry":null},{"properties":{"county":"GRANT","2009 food insecurity rate":"13.50%","id":"a9fhbfl3xki6"},"type":"Feature","geometry":null},{"properties":{"county":"GREER","2009 food insecurity rate":"18.00%","id":"a9fhbfnjghgh"},"type":"Feature","geometry":null},{"properties":{"county":"HARMON","2009 food insecurity rate":"19.60%","id":"a9fhbfrdll8q"},"type":"Feature","geometry":null},{"properties":{"county":"HARPER","2009 food insecurity rate":"13.40%","id":"a9fhbfqkgyip"},"type":"Feature","geometry":null},{"properties":{"county":"HUGHES","2009 food insecurity rate":"21.90%","id":"a9fhbfm9fbgu"},"type":"Feature","geometry":null},{"properties":{"county":"JACKSON","2009 food insecurity rate":"16.60%","id":"a9fhbfnwqhku"},"type":"Feature","geometry":null},{"properties":{"county":"JEFFERSON","2009 food insecurity rate":"18.80%","id":"a9fhbfkvhf8n"},"type":"Feature","geometry":null},{"properties":{"county":"JOHNSTON","2009 food insecurity rate":"19.30%","id":"a9fhbfn6fee0"},"type":"Feature","geometry":null},{"properties":{"county":"KAY","2009 food insecurity rate":"18.30%","id":"a9fhbfqaks0s"},"type":"Feature","geometry":null},{"properties":{"county":"KINGFISHER","2009 food insecurity rate":"13.50%","id":"a9fhbfe0mztz"},"type":"Feature","geometry":null},{"properties":{"county":"KIOWA","2009 food insecurity rate":"17.50%","id":"a9fhbfe7u84j"},"type":"Feature","geometry":null},{"properties":{"county":"LINCOLN","2009 food insecurity rate":"17.20%","id":"a9fhbfokt0q7"},"type":"Feature","geometry":null},{"properties":{"county":"LOGAN","2009 food insecurity rate":"16.60%","id":"a9fhbfjs432f"},"type":"Feature","geometry":null},{"properties":{"county":"LOVE","2009 food insecurity rate":"15.40%","id":"a9fhbfk95e8h"},"type":"Feature","geometry":null},{"properties":{"county":"MAJOR","2009 food insecurity rate":"13.60%","id":"a9fhbfnd0kua"},"type":"Feature","geometry":null},{"properties":{"county":"MARSHALL","2009 food insecurity rate":"17.30%","id":"a9fhbfmb43ry"},"type":"Feature","geometry":null},{"properties":{"county":"MCCLAIN","2009 food insecurity rate":"14.40%","id":"a9fhbfsehku9"},"type":"Feature","geometry":null},{"properties":{"county":"MURRAY","2009 food insecurity rate":"14.90%","id":"a9fhbfext44d"},"type":"Feature","geometry":null},{"properties":{"county":"NOBLE","2009 food insecurity rate":"17.50%","id":"a9fhbfds52uq"},"type":"Feature","geometry":null},{"properties":{"county":"OKFUSKEE","2009 food insecurity rate":"21.00%","id":"a9fhbffq39zl"},"type":"Feature","geometry":null},{"properties":{"county":"OKLAHOMA","2009 food insecurity rate":"17.30%","id":"a9fhbfsko33x"},"type":"Feature","geometry":null},{"properties":{"county":"PAWNEE","2009 food insecurity rate":"19.10%","id":"a9fhbfhk4j0o"},"type":"Feature","geometry":null},{"properties":{"county":"PAYNE","2009 food insecurity rate":"19.10%","id":"a9fhbff2a4m3"},"type":"Feature","geometry":null},{"properties":{"county":"PONTOTOC","2009 food insecurity rate":"17.40%","id":"a9fhbfhpn37x"},"type":"Feature","geometry":null},{"properties":{"county":"POTTAWATOMIE","2009 food insecurity rate":"17.20%","id":"a9fhbfp7uv8a"},"type":"Feature","geometry":null},{"properties":{"county":"ROGER MILLS","2009 food insecurity rate":"13.80%","id":"a9fhbfip7bhf"},"type":"Feature","geometry":null},{"properties":{"county":"SEMINOLE","2009 food insecurity rate":"21.10%","id":"a9fhbfin05th"},"type":"Feature","geometry":null},{"properties":{"county":"STEPHENS","2009 food insecurity rate":"16.90%","id":"a9fhbfd2ab0y"},"type":"Feature","geometry":null},{"properties":{"county":"TEXAS","2009 food insecurity rate":"15.00%","id":"a9fhbfdlv55f"},"type":"Feature","geometry":null},{"properties":{"county":"TILLMAN","2009 food insecurity rate":"18.90%","id":"a9fhbfe58nb2"},"type":"Feature","geometry":null},{"properties":{"county":"WASHITA","2009 food insecurity rate":"16.20%","id":"a9fhbflsx56u"},"type":"Feature","geometry":null},{"properties":{"county":"WOODS","2009 food insecurity rate":"14.50%","id":"a9fhbfh1hbll"},"type":"Feature","geometry":null},{"properties":{"county":"WOODWARD","2009 food insecurity rate":"15.10%","id":"a9fhbff92zo9"},"type":"Feature","geometry":null}],"is_temporal":false,"author":{"url":"","metadata":null,"contact_name":null,"contact_address":null,"source":null,"contact_phone":null},"source":"","pagination":{"sort":null,"start":0,"total":53,"limit":1000000},"state":"parsed","tags":"","published":"2014-08-14T21:54:17-04:00","id":214435}