{"type":"FeatureCollection","data_type":"Dataset","url_type":null,"permissions":[{"permissions":{"download":true,"view":true},"group_id":"everyone"}],"classification":null,"title":"Philippines Population Density","count":14,"stream_id":214426,"contributor":{"url":"http://geocommons.com/users/41746","name":"arnon.razon"},"data_attributes":null,"calculation_params":null,"icon_link":null,"link":"http://geocommons.com/overlays/214426.json","extent":[120.583,6.9,125.613,15.15],"geometry_types":["point"],"unique_name":null,"name":"Philippines Population Density","feature_count":14,"description":"","next_feature":null,"is_raster":false,"short_classification":"Y","stats":{"total population":{"max":2377588,"mean":1117292.5,"variance":419786243034.577,"stdev":647909.131772795,"min":263971,"median":1147116},"population density":{"max":41.282,"mean":8.41185714285714,"variance":119.909770285714,"stdev":10.9503319714844,"min":1.21,"median":4.96}},"features":[{"properties":{"city":"Manila","region":"NCR","total population":1581082,"country":"Philippines","id":"a656mp6dhkvs","population density":41.282},"type":"Feature","geometry":{"type":"Point","coordinates":[120.9822222,14.6041667]}},{"properties":{"city":"Caloocan","region":"NCR","total population":1177604,"country":"Philippines","id":"a656mp6mjktv","population density":21.104},"type":"Feature","geometry":{"type":"Point","coordinates":[125.5305556,9.0469444]}},{"properties":{"city":"Quezon","region":"NCR","total population":2173831,"country":"Philippines","id":"a656mp42qj64","population density":13.08},"type":"Feature","geometry":{"type":"Point","coordinates":[121.8833333,13.3166667]}},{"properties":{"city":"Isabella","region":"Cagayan","total population":1287575,"country":"Philippines","id":"a656mp2qen7x","population density":1.21},"type":"Feature","geometry":null},{"properties":{"city":"Angeles","region":"Central Luzon","total population":263971,"country":"Philippines","id":"a656mpbzv33c","population density":4.378},"type":"Feature","geometry":{"type":"Point","coordinates":[120.5833333,15.15]}},{"properties":{"city":"Palawan","region":"Southern Tagalog","total population":755412,"country":"Philippines","id":"a656mp76l35l","population density":5.1},"type":"Feature","geometry":null},{"properties":{"city":"Iloilo","region":"Western Visayas","total population":365820,"country":"Philippines","id":"a656mpdf1d81","population density":6.533},"type":"Feature","geometry":{"type":"Point","coordinates":[122.5644444,10.6969444]}},{"properties":{"city":"Bohol","region":"Central Visayas","total population":1137268,"country":"Philippines","id":"a656mpec25iq","population density":2.76},"type":"Feature","geometry":null},{"properties":{"city":"Cebu island","region":"Central Visayas","total population":2377588,"country":"Philippines","id":"a656mp2jjdo3","population density":4.96},"type":"Feature","geometry":null},{"properties":{"city":"Cebu city","region":"Central Visayas","total population":718821,"country":"Philippines","id":"a656mp50tknb","population density":2.562},"type":"Feature","geometry":null},{"properties":{"city":"Leyte","region":"Eastern Visayas","total population":1592336,"country":"Philippines","id":"a656mpdzlgct","population density":2.79},"type":"Feature","geometry":null},{"properties":{"city":"Zamboanga","region":"Western Mindanao","total population":601794,"country":"Philippines","id":"a656mp94bsxm","population density":1.298},"type":"Feature","geometry":{"type":"Point","coordinates":[122.0666667,6.9]}},{"properties":{"city":"Cagayan de Oro","region":"Northern Mindanao","total population":461877,"country":"Philippines","id":"a656mpfkr2t9","population density":1.239},"type":"Feature","geometry":{"type":"Point","coordinates":[124.65,8.4833333]}},{"properties":{"city":"Davao","region":"Southern Mindanao","total population":1147116,"country":"Philippines","id":"a656mpdt8vhm","population density":9.47},"type":"Feature","geometry":{"type":"Point","coordinates":[125.6127778,7.0730556]}}],"is_temporal":false,"author":{"url":"","metadata":"","contact_name":"","contact_address":"","source":"","contact_phone":""},"source":"","pagination":{"sort":null,"start":0,"total":14,"limit":1000000},"state":"complete","tags":"","published":"2014-08-14T21:49:56-04:00","id":214426}