{"type":"FeatureCollection","data_type":"Dataset","url_type":null,"permissions":[{"permissions":{"download":true,"view":true},"group_id":"everyone"}],"classification":null,"title":"MF_ratio_per_region","count":17,"stream_id":214960,"contributor":{"url":"http://geocommons.com/users/41806","name":"Zac09"},"data_attributes":null,"calculation_params":null,"icon_link":null,"link":"http://geocommons.com/overlays/214960.json","extent":[-99.6672,-25.2667,122.467,57.0],"geometry_types":["point"],"unique_name":null,"name":"MF_ratio_per_region","feature_count":17,"description":"","next_feature":null,"is_raster":false,"short_classification":"Y","stats":{"female":{"max":74.72,"variance":10.5647757352941,"mean":71.1758823529412,"stdev":3.25035009426586,"min":60.43,"median":71.23},"male":{"max":68.37,"variance":4.20768602941177,"mean":65.8911764705882,"stdev":2.05126449523502,"min":59.44,"median":66.11}},"features":[{"properties":{"city":"Conception 2","region":"NCR","geo_score":0.794,"country":"Philippines","female":74.35,"male":67.61,"id":"a6dj8oojpkw5","geo_precision":"zip"},"type":"Feature","geometry":{"type":"Point","coordinates":[-52.99806242,47.499892845]}},{"properties":{"city":"Bangued","region":"CAR","geo_score":0.857,"country":"Philippines","female":71.23,"male":65.86,"id":"a6dj8oxu4nhd","geo_precision":"zip"},"type":"Feature","geometry":{"type":"Point","coordinates":[120.5833333,17.6166667]}},{"properties":{"city":"Adams","region":"Region I","geo_score":0.833,"country":"Philippines","female":74.72,"male":68.37,"id":"a6dj8opubg9z","geo_precision":"zip"},"type":"Feature","geometry":{"type":"Point","coordinates":[24.2333333,46.3]}},{"properties":{"city":"Itbayat","region":"Region II","geo_score":0.857,"country":"Philippines","female":71.76,"male":66.81,"id":"a6dj8oxgwc71","geo_precision":"zip"},"type":"Feature","geometry":{"type":"Point","coordinates":[121.8333333,20.7666667]}},{"properties":{"city":"Baler","region":"Region III","geo_score":0.776,"country":"Philippines","female":74.21,"male":67.52,"id":"a6dj8ovk64bs","geo_precision":"zip"},"type":"Feature","geometry":{"type":"Point","coordinates":[76.9333333,15.15]}},{"properties":{"city":"Agoncillo","region":"Region IVA","geo_score":0.857,"country":"Philippines","female":74.02,"male":67.39,"id":"a6dj8opjooyj","geo_precision":"zip"},"type":"Feature","geometry":{"type":"Point","coordinates":[120.9,13.9666667]}},{"properties":{"city":"Abra de Ilog","region":"Region IVB","geo_score":0.714,"country":"Philippines","female":71.54,"male":66.91,"id":"a6dj8owjnml8","geo_precision":"zip"},"type":"Feature","geometry":{"type":"Point","coordinates":[-99.6672222,19.2883333]}},{"properties":{"city":"Boracay","region":"Region V","geo_score":0.796,"country":"Philippines","female":71.09,"male":66.11,"id":"a6dj8onnyx9a","geo_precision":"zip"},"type":"Feature","geometry":{"type":"Point","coordinates":[-8.4333333,41.55]}},{"properties":{"city":"Altavas","region":"Region VI","geo_score":0.857,"country":"Philippines","female":72.97,"male":66.51,"id":"a6dj8omekun0","geo_precision":"zip"},"type":"Feature","geometry":{"type":"Point","coordinates":[122.4666667,11.5166667]}},{"properties":{"city":"Alburquerque","region":"Region VII","geo_score":0.78,"country":"Philippines","female":72.69,"male":67.41,"id":"a6dj8on7ugtg","geo_precision":"zip"},"type":"Feature","geometry":{"type":"Point","coordinates":[9.95,57.0]}},{"properties":{"city":"Almeria","region":"Region VIII","geo_score":0.786,"country":"Philippines","female":70.15,"male":64.75,"id":"a6dj8ox9aqk4","geo_precision":"zip"},"type":"Feature","geometry":{"type":"Point","coordinates":[47.1752778,31.8452778]}},{"properties":{"city":"Lamitan","region":"Region IX","geo_score":0.857,"country":"Philippines","female":70.18,"male":64.61,"id":"a6dj8oqp6udi","geo_precision":"zip"},"type":"Feature","geometry":{"type":"Point","coordinates":[122.1,6.6333333]}},{"properties":{"city":"Baungon","region":"Region X","geo_score":0.816,"country":"Philippines","female":70.61,"male":65.38,"id":"a6dj8owidw9s","geo_precision":"zip"},"type":"Feature","geometry":{"type":"Point","coordinates":[88.8166667,23.0666667]}},{"properties":{"city":"Asuncion","region":"Region XI","geo_score":0.857,"country":"Philippines","female":69.91,"male":65.62,"id":"a6dj8olddjqz","geo_precision":"zip"},"type":"Feature","geometry":{"type":"Point","coordinates":[-57.6666667,-25.2666667]}},{"properties":{"city":"Alamada","region":"Region XII","geo_score":0.796,"country":"Philippines","female":70.84,"male":65.91,"id":"a6dj8olzgrqo","geo_precision":"zip"},"type":"Feature","geometry":{"type":"Point","coordinates":[76.95,43.25]}},{"properties":{"city":"Lamitan","region":"ARMM","geo_score":0.857,"country":"Philippines","female":60.43,"male":59.44,"id":"a6dj8oo8p48j","geo_precision":"zip"},"type":"Feature","geometry":{"type":"Point","coordinates":[122.1,6.6333333]}},{"properties":{"city":"Buenavista","region":"Caraga","geo_score":0.804,"country":"Philippines","female":69.29,"male":63.94,"id":"a6dj8omlz9o7","geo_precision":"zip"},"type":"Feature","geometry":{"type":"Point","coordinates":[-95.1502724,42.7333121]}}],"is_temporal":false,"author":{"url":"","metadata":null,"contact_name":null,"contact_address":null,"source":null,"contact_phone":null},"source":"","pagination":{"sort":null,"start":0,"total":17,"limit":1000000},"state":"complete","tags":"","published":"2014-08-14T22:37:56-04:00","id":214960}