{"type":"FeatureCollection","data_type":"Dataset","url_type":null,"permissions":[{"permissions":{"download":true,"view":true},"group_id":"everyone"}],"classification":null,"title":"Christine_only_test3","count":125,"stream_id":215377,"contributor":{"url":"http://geocommons.com/users/40951","name":"sam.felipe2"},"data_attributes":null,"calculation_params":null,"icon_link":null,"link":"http://geocommons.com/overlays/215377.json","extent":[-122.716,36.9041,-120.844,38.4596],"geometry_types":["point"],"unique_name":null,"name":"Christine_only_test3","feature_count":125,"description":"","next_feature":null,"is_raster":false,"short_classification":"Y","stats":{"rep code":{"max":1,"mean":0.312,"variance":0.216387096774193,"stdev":0.465174264952602,"min":0,"median":0}},"features":[{"properties":{"zip":"95350","geo_score":0.714,"id":"a6dtschh3g0j","geo_precision":"zip","rep code":1},"type":"Feature","geometry":{"type":"Point","coordinates":[-121.016796,37.669463]}},{"properties":{"zip":"95351","geo_score":0.714,"id":"a6dtscm8q7px","geo_precision":"zip","rep code":0},"type":"Feature","geometry":{"type":"Point","coordinates":[-121.03914,37.617539]}},{"properties":{"zip":"95352","geo_score":0.714,"id":"a6dtscozlho5","geo_precision":"zip","rep code":0},"type":"Feature","geometry":{"type":"Point","coordinates":[-120.937052,37.60396]}},{"properties":{"zip":"95353","geo_score":0.714,"id":"a6dtscs3dog7","geo_precision":"zip","rep code":0},"type":"Feature","geometry":{"type":"Point","coordinates":[-120.937052,37.60396]}},{"properties":{"zip":"95354","geo_score":0.714,"id":"a6dtsch8jkyz","geo_precision":"zip","rep code":1},"type":"Feature","geometry":{"type":"Point","coordinates":[-121.090835,37.533682]}},{"properties":{"zip":"95355","geo_score":0.714,"id":"a6dtscumt8hd","geo_precision":"zip","rep code":1},"type":"Feature","geometry":{"type":"Point","coordinates":[-120.948033,37.685879]}},{"properties":{"zip":"95356","geo_score":0.714,"id":"a6dtscuy8o7q","geo_precision":"zip","rep code":1},"type":"Feature","geometry":{"type":"Point","coordinates":[-121.035846,37.722878]}},{"properties":{"zip":"95357","geo_score":0.714,"id":"a6dtsctdmuuh","geo_precision":"zip","rep code":0},"type":"Feature","geometry":{"type":"Point","coordinates":[-120.875893,37.679529]}},{"properties":{"zip":"95385","geo_score":0.714,"id":"a6dtscmsdr4t","geo_precision":"zip","rep code":0},"type":"Feature","geometry":{"type":"Point","coordinates":[-121.253872,37.889849]}},{"properties":{"zip":"95397","geo_score":0.714,"id":"a6dtschffz0g","geo_precision":"zip","rep code":0},"type":"Feature","geometry":{"type":"Point","coordinates":[-120.937052,37.60396]}},{"properties":{"zip":"95380","geo_score":0.714,"id":"a6dtsco9qrsv","geo_precision":"zip","rep code":1},"type":"Feature","geometry":{"type":"Point","coordinates":[-120.844063,37.540206]}},{"properties":{"zip":"95382","geo_score":0.714,"id":"a6dtscw81exn","geo_precision":"zip","rep code":1},"type":"Feature","geometry":{"type":"Point","coordinates":[-120.851857,37.530174]}},{"properties":{"zip":"95381","geo_score":0.714,"id":"a6dtscghg9ym","geo_precision":"zip","rep code":1},"type":"Feature","geometry":{"type":"Point","coordinates":[-120.937052,37.60396]}},{"properties":{"zip":"95363","geo_score":0.714,"id":"a6dtscl59plh","geo_precision":"zip","rep code":1},"type":"Feature","geometry":{"type":"Point","coordinates":[-121.179381,37.56382]}},{"properties":{"zip":"95062","geo_score":0.714,"id":"a6dtscr70py0","geo_precision":"zip","rep code":1},"type":"Feature","geometry":{"type":"Point","coordinates":[-121.998017,36.967451]}},{"properties":{"zip":"95060","geo_score":0.714,"id":"a6dtscq65wis","geo_precision":"zip","rep code":1},"type":"Feature","geometry":{"type":"Point","coordinates":[-122.043575,37.010227]}},{"properties":{"zip":"95061","geo_score":0.714,"id":"a6dtscqyofr8","geo_precision":"zip","rep code":1},"type":"Feature","geometry":{"type":"Point","coordinates":[-122.075125,37.007399]}},{"properties":{"zip":"95063","geo_score":0.714,"id":"a6dtscv1mjrr","geo_precision":"zip","rep code":1},"type":"Feature","geometry":{"type":"Point","coordinates":[-121.973771,36.9634]}},{"properties":{"zip":"95064","geo_score":0.714,"id":"a6dtscvj4y1v","geo_precision":"zip","rep code":1},"type":"Feature","geometry":{"type":"Point","coordinates":[-122.059073,36.988837]}},{"properties":{"zip":"95065","geo_score":0.714,"id":"a6dtsclsyx4o","geo_precision":"zip","rep code":1},"type":"Feature","geometry":{"type":"Point","coordinates":[-121.982632,37.033568]}},{"properties":{"zip":"95018","geo_score":0.714,"id":"a6dtscrlqads","geo_precision":"zip","rep code":1},"type":"Feature","geometry":{"type":"Point","coordinates":[-122.058574,37.06967]}},{"properties":{"zip":"95066","geo_score":0.714,"id":"a6dtscl61fe4","geo_precision":"zip","rep code":1},"type":"Feature","geometry":{"type":"Point","coordinates":[-122.006276,37.071387]}},{"properties":{"zip":"95067","geo_score":0.714,"id":"a6dtscgjsfco","geo_precision":"zip","rep code":1},"type":"Feature","geometry":{"type":"Point","coordinates":[-121.949418,37.05297]}},{"properties":{"zip":"95010","geo_score":0.714,"id":"a6dtsckktv7b","geo_precision":"zip","rep code":1},"type":"Feature","geometry":{"type":"Point","coordinates":[-122.000537,37.012368]}},{"properties":{"zip":"95062","geo_score":0.714,"id":"a6dtscimm3mw","geo_precision":"zip","rep code":1},"type":"Feature","geometry":{"type":"Point","coordinates":[-121.998017,36.967451]}},{"properties":{"zip":"95076","geo_score":0.714,"id":"a6dtscicekrg","geo_precision":"zip","rep code":1},"type":"Feature","geometry":{"type":"Point","coordinates":[-121.748561,36.90412]}},{"properties":{"zip":"95077","geo_score":0.714,"id":"a6dtscilm6u2","geo_precision":"zip","rep code":1},"type":"Feature","geometry":{"type":"Point","coordinates":[-121.949418,37.05297]}},{"properties":{"zip":"95003","geo_score":0.714,"id":"a6dtscidj0pg","geo_precision":"zip","rep code":1},"type":"Feature","geometry":{"type":"Point","coordinates":[-121.900235,36.968284]}},{"properties":{"zip":"95001","geo_score":0.714,"id":"a6dtschtg9cq","geo_precision":"zip","rep code":1},"type":"Feature","geometry":{"type":"Point","coordinates":[-121.949418,37.05297]}},{"properties":{"zip":"95032","geo_score":0.714,"id":"a6dtscn5wexi","geo_precision":"zip","rep code":1},"type":"Feature","geometry":{"type":"Point","coordinates":[-121.66186,37.070923]}},{"properties":{"zip":"95101","geo_score":0.714,"id":"a6dtscmk7fze","geo_precision":"zip","rep code":0},"type":"Feature","geometry":{"type":"Point","coordinates":[-121.705327,37.189396]}},{"properties":{"zip":"95103","geo_score":0.714,"id":"a6dtscj12f94","geo_precision":"zip","rep code":0},"type":"Feature","geometry":{"type":"Point","coordinates":[-121.705327,37.189396]}},{"properties":{"zip":"95106","geo_score":0.714,"id":"a6dtscwa136x","geo_precision":"zip","rep code":0},"type":"Feature","geometry":{"type":"Point","coordinates":[-121.705327,37.189396]}},{"properties":{"zip":"95108","geo_score":0.714,"id":"a6dtsclpsue0","geo_precision":"zip","rep code":0},"type":"Feature","geometry":{"type":"Point","coordinates":[-121.705327,37.189396]}},{"properties":{"zip":"95109","geo_score":0.714,"id":"a6dtscw2ystj","geo_precision":"zip","rep code":0},"type":"Feature","geometry":{"type":"Point","coordinates":[-121.705327,37.189396]}},{"properties":{"zip":"95110","geo_score":0.714,"id":"a6dtscp2yyng","geo_precision":"zip","rep code":0},"type":"Feature","geometry":{"type":"Point","coordinates":[-121.705327,37.189396]}},{"properties":{"zip":"95111","geo_score":0.714,"id":"a6dtsclg3wzv","geo_precision":"zip","rep code":0},"type":"Feature","geometry":{"type":"Point","coordinates":[-121.800001,37.267947]}},{"properties":{"zip":"95112","geo_score":0.714,"id":"a6dtscpfix1o","geo_precision":"zip","rep code":0},"type":"Feature","geometry":{"type":"Point","coordinates":[-121.892093,37.37004]}},{"properties":{"zip":"95113","geo_score":0.714,"id":"a6dtscrshoqf","geo_precision":"zip","rep code":0},"type":"Feature","geometry":{"type":"Point","coordinates":[-121.705327,37.189396]}},{"properties":{"zip":"95115","geo_score":0.714,"id":"a6dtscjnzr37","geo_precision":"zip","rep code":0},"type":"Feature","geometry":{"type":"Point","coordinates":[-121.705327,37.189396]}},{"properties":{"zip":"95116","geo_score":0.714,"id":"a6dtscjns16b","geo_precision":"zip","rep code":0},"type":"Feature","geometry":{"type":"Point","coordinates":[-121.835344,37.35504]}},{"properties":{"zip":"95117","geo_score":0.714,"id":"a6dtscvh8aff","geo_precision":"zip","rep code":1},"type":"Feature","geometry":{"type":"Point","coordinates":[-121.705327,37.189396]}},{"properties":{"zip":"95118","geo_score":0.714,"id":"a6dtscifz6kq","geo_precision":"zip","rep code":0},"type":"Feature","geometry":{"type":"Point","coordinates":[-121.876343,37.263277]}},{"properties":{"zip":"95119","geo_score":0.714,"id":"a6dtscofvpgb","geo_precision":"zip","rep code":0},"type":"Feature","geometry":{"type":"Point","coordinates":[-121.705327,37.189396]}},{"properties":{"zip":"95120","geo_score":0.714,"id":"a6dtscn4m9jq","geo_precision":"zip","rep code":1},"type":"Feature","geometry":{"type":"Point","coordinates":[-121.895798,37.38478]}},{"properties":{"zip":"95121","geo_score":0.714,"id":"a6dtscq4l50q","geo_precision":"zip","rep code":0},"type":"Feature","geometry":{"type":"Point","coordinates":[-121.797977,37.298592]}},{"properties":{"zip":"95122","geo_score":0.714,"id":"a6dtsckl9xgn","geo_precision":"zip","rep code":0},"type":"Feature","geometry":{"type":"Point","coordinates":[-121.828333,37.33074]}},{"properties":{"zip":"95123","geo_score":0.714,"id":"a6dtscqcj3m9","geo_precision":"zip","rep code":0},"type":"Feature","geometry":{"type":"Point","coordinates":[-121.705327,37.189396]}},{"properties":{"zip":"95124","geo_score":0.714,"id":"a6dtscq0dy1b","geo_precision":"zip","rep code":1},"type":"Feature","geometry":{"type":"Point","coordinates":[-121.930789,37.256888]}},{"properties":{"zip":"95125","geo_score":0.714,"id":"a6dtscij7quh","geo_precision":"zip","rep code":1},"type":"Feature","geometry":{"type":"Point","coordinates":[-121.705327,37.189396]}},{"properties":{"zip":"95126","geo_score":0.714,"id":"a6dtscw9m7pg","geo_precision":"zip","rep code":1},"type":"Feature","geometry":{"type":"Point","coordinates":[-121.705327,37.189396]}},{"properties":{"zip":"95127","geo_score":0.714,"id":"a6dtscwp3m48","geo_precision":"zip","rep code":0},"type":"Feature","geometry":{"type":"Point","coordinates":[-121.817453,37.381051]}},{"properties":{"zip":"95128","geo_score":0.714,"id":"a6dtscqzqdk8","geo_precision":"zip","rep code":1},"type":"Feature","geometry":{"type":"Point","coordinates":[-121.93079,37.321053]}},{"properties":{"zip":"95129","geo_score":0.714,"id":"a6dtscjf6lyt","geo_precision":"zip","rep code":1},"type":"Feature","geometry":{"type":"Point","coordinates":[-121.705327,37.189396]}},{"properties":{"zip":"95130","geo_score":0.714,"id":"a6dtscmodcm5","geo_precision":"zip","rep code":1},"type":"Feature","geometry":{"type":"Point","coordinates":[-121.705327,37.189396]}},{"properties":{"zip":"95131","geo_score":0.714,"id":"a6dtscihbuyk","geo_precision":"zip","rep code":0},"type":"Feature","geometry":{"type":"Point","coordinates":[-121.886316,37.388389]}},{"properties":{"zip":"95132","geo_score":0.714,"id":"a6dtscrgyf7e","geo_precision":"zip","rep code":0},"type":"Feature","geometry":{"type":"Point","coordinates":[-121.721615,37.198833]}},{"properties":{"zip":"95133","geo_score":0.714,"id":"a6dtsct1jdh2","geo_precision":"zip","rep code":0},"type":"Feature","geometry":{"type":"Point","coordinates":[-121.864265,37.372239]}},{"properties":{"zip":"95134","geo_score":0.714,"id":"a6dtscpv7t2v","geo_precision":"zip","rep code":0},"type":"Feature","geometry":{"type":"Point","coordinates":[-121.705327,37.189396]}},{"properties":{"zip":"95135","geo_score":0.714,"id":"a6dtscgmfa3t","geo_precision":"zip","rep code":0},"type":"Feature","geometry":{"type":"Point","coordinates":[-121.723862,37.272289]}},{"properties":{"zip":"95136","geo_score":0.714,"id":"a6dtscsuooa7","geo_precision":"zip","rep code":0},"type":"Feature","geometry":{"type":"Point","coordinates":[-121.705327,37.189396]}},{"properties":{"zip":"95138","geo_score":0.714,"id":"a6dtscr451hq","geo_precision":"zip","rep code":0},"type":"Feature","geometry":{"type":"Point","coordinates":[-121.745159,37.258733]}},{"properties":{"zip":"95139","geo_score":0.714,"id":"a6dtscntjuhc","geo_precision":"zip","rep code":0},"type":"Feature","geometry":{"type":"Point","coordinates":[-121.740059,37.216394]}},{"properties":{"zip":"95141","geo_score":0.714,"id":"a6dtscul0iiu","geo_precision":"zip","rep code":0},"type":"Feature","geometry":{"type":"Point","coordinates":[-121.741809,37.178745]}},{"properties":{"zip":"95148","geo_score":0.714,"id":"a6dtscpv9zbf","geo_precision":"zip","rep code":0},"type":"Feature","geometry":{"type":"Point","coordinates":[-121.776861,37.335928]}},{"properties":{"zip":"95150","geo_score":0.714,"id":"a6dtscslx97w","geo_precision":"zip","rep code":0},"type":"Feature","geometry":{"type":"Point","coordinates":[-121.705327,37.189396]}},{"properties":{"zip":"95152","geo_score":0.714,"id":"a6dtscn28qpe","geo_precision":"zip","rep code":0},"type":"Feature","geometry":{"type":"Point","coordinates":[-121.705327,37.189396]}},{"properties":{"zip":"95153","geo_score":0.714,"id":"a6dtscqhz7o5","geo_precision":"zip","rep code":0},"type":"Feature","geometry":{"type":"Point","coordinates":[-121.743632,37.216184]}},{"properties":{"zip":"95154","geo_score":0.714,"id":"a6dtscs5w9pv","geo_precision":"zip","rep code":0},"type":"Feature","geometry":{"type":"Point","coordinates":[-121.705327,37.189396]}},{"properties":{"zip":"95155","geo_score":0.714,"id":"a6dtscrvyqoj","geo_precision":"zip","rep code":0},"type":"Feature","geometry":{"type":"Point","coordinates":[-121.705327,37.189396]}},{"properties":{"zip":"95156","geo_score":0.714,"id":"a6dtscsgy9k9","geo_precision":"zip","rep code":0},"type":"Feature","geometry":{"type":"Point","coordinates":[-121.705327,37.189396]}},{"properties":{"zip":"95157","geo_score":0.714,"id":"a6dtscimn3rz","geo_precision":"zip","rep code":0},"type":"Feature","geometry":{"type":"Point","coordinates":[-121.705327,37.189396]}},{"properties":{"zip":"95158","geo_score":0.714,"id":"a6dtscmpmnpu","geo_precision":"zip","rep code":0},"type":"Feature","geometry":{"type":"Point","coordinates":[-121.705327,37.189396]}},{"properties":{"zip":"95159","geo_score":0.714,"id":"a6dtscjxschn","geo_precision":"zip","rep code":0},"type":"Feature","geometry":{"type":"Point","coordinates":[-121.705327,37.189396]}},{"properties":{"zip":"95160","geo_score":0.714,"id":"a6dtsch3dcoe","geo_precision":"zip","rep code":0},"type":"Feature","geometry":{"type":"Point","coordinates":[-121.705327,37.189396]}},{"properties":{"zip":"95161","geo_score":0.714,"id":"a6dtsco6s7m0","geo_precision":"zip","rep code":0},"type":"Feature","geometry":{"type":"Point","coordinates":[-121.705327,37.189396]}},{"properties":{"zip":"95164","geo_score":0.714,"id":"a6dtscjjp9v6","geo_precision":"zip","rep code":0},"type":"Feature","geometry":{"type":"Point","coordinates":[-121.705327,37.189396]}},{"properties":{"zip":"95170","geo_score":0.714,"id":"a6dtscuxod3x","geo_precision":"zip","rep code":0},"type":"Feature","geometry":{"type":"Point","coordinates":[-121.705327,37.189396]}},{"properties":{"zip":"95172","geo_score":0.714,"id":"a6dtscsxm32e","geo_precision":"zip","rep code":0},"type":"Feature","geometry":{"type":"Point","coordinates":[-121.705327,37.189396]}},{"properties":{"zip":"95173","geo_score":0.714,"id":"a6dtscuz84qj","geo_precision":"zip","rep code":0},"type":"Feature","geometry":{"type":"Point","coordinates":[-121.705327,37.189396]}},{"properties":{"zip":"95190","geo_score":0.714,"id":"a6dtscwp458q","geo_precision":"zip","rep code":0},"type":"Feature","geometry":{"type":"Point","coordinates":[-121.705327,37.189396]}},{"properties":{"zip":"95191","geo_score":0.714,"id":"a6dtscizf2rc","geo_precision":"zip","rep code":0},"type":"Feature","geometry":{"type":"Point","coordinates":[-121.705327,37.189396]}},{"properties":{"zip":"95192","geo_score":0.714,"id":"a6dtscjqs4wh","geo_precision":"zip","rep code":0},"type":"Feature","geometry":{"type":"Point","coordinates":[-121.705327,37.189396]}},{"properties":{"zip":"95193","geo_score":0.714,"id":"a6dtsclwes3c","geo_precision":"zip","rep code":0},"type":"Feature","geometry":{"type":"Point","coordinates":[-121.705327,37.189396]}},{"properties":{"zip":"95194","geo_score":0.714,"id":"a6dtsclu5fwn","geo_precision":"zip","rep code":0},"type":"Feature","geometry":{"type":"Point","coordinates":[-121.705327,37.189396]}},{"properties":{"zip":"95196","geo_score":0.714,"id":"a6dtsclc0d00","geo_precision":"zip","rep code":0},"type":"Feature","geometry":{"type":"Point","coordinates":[-121.705327,37.189396]}},{"properties":{"zip":"95002","geo_score":0.714,"id":"a6dtscu2wuio","geo_precision":"zip","rep code":0},"type":"Feature","geometry":{"type":"Point","coordinates":[-121.705327,37.189396]}},{"properties":{"zip":"95008","geo_score":0.714,"id":"a6dtscu5w0he","geo_precision":"zip","rep code":1},"type":"Feature","geometry":{"type":"Point","coordinates":[-121.705327,37.189396]}},{"properties":{"zip":"95008","geo_score":0.714,"id":"a6dtsctrrxym","geo_precision":"zip","rep code":1},"type":"Feature","geometry":{"type":"Point","coordinates":[-121.705327,37.189396]}},{"properties":{"zip":"95014","geo_score":0.714,"id":"a6dtscpqe0cs","geo_precision":"zip","rep code":1},"type":"Feature","geometry":{"type":"Point","coordinates":[-122.003015,37.314942]}},{"properties":{"zip":"95020","geo_score":0.714,"id":"a6dtsci13xse","geo_precision":"zip","rep code":0},"type":"Feature","geometry":{"type":"Point","coordinates":[-121.592165,37.054114]}},{"properties":{"zip":"95021","geo_score":0.714,"id":"a6dtscvxe4zq","geo_precision":"zip","rep code":0},"type":"Feature","geometry":{"type":"Point","coordinates":[-121.497349,36.986148]}},{"properties":{"zip":"94022","geo_score":0.714,"id":"a6dtscpgzk8t","geo_precision":"zip","rep code":0},"type":"Feature","geometry":{"type":"Point","coordinates":[-122.100518,37.35133]}},{"properties":{"zip":"94023","geo_score":0.714,"id":"a6dtscr744vt","geo_precision":"zip","rep code":0},"type":"Feature","geometry":{"type":"Point","coordinates":[-121.705327,37.189396]}},{"properties":{"zip":"95035","geo_score":0.714,"id":"a6dtscsbyefy","geo_precision":"zip","rep code":0},"type":"Feature","geometry":{"type":"Point","coordinates":[-121.861989,37.436454]}},{"properties":{"zip":"95036","geo_score":0.714,"id":"a6dtscksu70e","geo_precision":"zip","rep code":0},"type":"Feature","geometry":{"type":"Point","coordinates":[-121.913632,37.456807]}},{"properties":{"zip":"95037","geo_score":0.714,"id":"a6dtscqhnq7a","geo_precision":"zip","rep code":1},"type":"Feature","geometry":{"type":"Point","coordinates":[-121.706337,37.183556]}},{"properties":{"zip":"95038","geo_score":0.714,"id":"a6dtscm84atj","geo_precision":"zip","rep code":1},"type":"Feature","geometry":{"type":"Point","coordinates":[-121.617894,37.225787]}},{"properties":{"zip":"94035","geo_score":0.714,"id":"a6dtsco5gggv","geo_precision":"zip","rep code":0},"type":"Feature","geometry":{"type":"Point","coordinates":[-121.705327,37.189396]}},{"properties":{"zip":"94039","geo_score":0.714,"id":"a6dtscq000c1","geo_precision":"zip","rep code":0},"type":"Feature","geometry":{"type":"Point","coordinates":[-121.705327,37.189396]}},{"properties":{"zip":"94040","geo_score":0.714,"id":"a6dtscmx1xft","geo_precision":"zip","rep code":0},"type":"Feature","geometry":{"type":"Point","coordinates":[-121.705327,37.189396]}},{"properties":{"zip":"94041","geo_score":0.714,"id":"a6dtscoxc46o","geo_precision":"zip","rep code":0},"type":"Feature","geometry":{"type":"Point","coordinates":[-121.705327,37.189396]}},{"properties":{"zip":"94042","geo_score":0.714,"id":"a6dtscqzsfph","geo_precision":"zip","rep code":0},"type":"Feature","geometry":{"type":"Point","coordinates":[-121.705327,37.189396]}},{"properties":{"zip":"94043","geo_score":0.714,"id":"a6dtscvl2tju","geo_precision":"zip","rep code":0},"type":"Feature","geometry":{"type":"Point","coordinates":[-121.705327,37.189396]}},{"properties":{"zip":"94301","geo_score":0.714,"id":"a6dtscplzp9c","geo_precision":"zip","rep code":0},"type":"Feature","geometry":{"type":"Point","coordinates":[-121.705327,37.189396]}},{"properties":{"zip":"94302","geo_score":0.714,"id":"a6dtsck5mcjc","geo_precision":"zip","rep code":0},"type":"Feature","geometry":{"type":"Point","coordinates":[-121.705327,37.189396]}},{"properties":{"zip":"94303","geo_score":0.714,"id":"a6dtscjzux8g","geo_precision":"zip","rep code":0},"type":"Feature","geometry":{"type":"Point","coordinates":[-122.14302,37.441883]}},{"properties":{"zip":"94304","geo_score":0.714,"id":"a6dtscvhrnd8","geo_precision":"zip","rep code":0},"type":"Feature","geometry":{"type":"Point","coordinates":[-121.705327,37.189396]}},{"properties":{"zip":"94306","geo_score":0.714,"id":"a6dtscj5ufpl","geo_precision":"zip","rep code":0},"type":"Feature","geometry":{"type":"Point","coordinates":[-121.705327,37.189396]}},{"properties":{"zip":"94309","geo_score":0.714,"id":"a6dtscgqf4q9","geo_precision":"zip","rep code":0},"type":"Feature","geometry":{"type":"Point","coordinates":[-121.705327,37.189396]}},{"properties":{"zip":"95050","geo_score":0.714,"id":"a6dtscgtrhe5","geo_precision":"zip","rep code":0},"type":"Feature","geometry":{"type":"Point","coordinates":[-121.705327,37.189396]}},{"properties":{"zip":"95051","geo_score":0.714,"id":"a6dtscuouf2w","geo_precision":"zip","rep code":0},"type":"Feature","geometry":{"type":"Point","coordinates":[-121.705327,37.189396]}},{"properties":{"zip":"95052","geo_score":0.714,"id":"a6dtscscl6pr","geo_precision":"zip","rep code":0},"type":"Feature","geometry":{"type":"Point","coordinates":[-121.705327,37.189396]}},{"properties":{"zip":"95053","geo_score":0.714,"id":"a6dtscmv3kjw","geo_precision":"zip","rep code":0},"type":"Feature","geometry":{"type":"Point","coordinates":[-121.705327,37.189396]}},{"properties":{"zip":"95054","geo_score":0.714,"id":"a6dtsckd2snt","geo_precision":"zip","rep code":0},"type":"Feature","geometry":{"type":"Point","coordinates":[-121.959125,37.394663]}},{"properties":{"zip":"95055","geo_score":0.714,"id":"a6dtscuzca19","geo_precision":"zip","rep code":0},"type":"Feature","geometry":{"type":"Point","coordinates":[-121.705327,37.189396]}},{"properties":{"zip":"95056","geo_score":0.714,"id":"a6dtscwgg2jj","geo_precision":"zip","rep code":0},"type":"Feature","geometry":{"type":"Point","coordinates":[-121.705327,37.189396]}},{"properties":{"zip":"95070","geo_score":0.714,"id":"a6dtscuu94om","geo_precision":"zip","rep code":1},"type":"Feature","geometry":{"type":"Point","coordinates":[-122.00857,37.275777]}},{"properties":{"zip":"95071","geo_score":0.714,"id":"a6dtsctah0c6","geo_precision":"zip","rep code":1},"type":"Feature","geometry":{"type":"Point","coordinates":[-121.705327,37.189396]}},{"properties":{"zip":"95406","geo_score":0.714,"id":"a6dtsch1itd5","geo_precision":"zip","rep code":0},"type":"Feature","geometry":{"type":"Point","coordinates":[-122.715654,38.459575]}},{"properties":{"zip":"94085","geo_score":0.714,"id":"a6dtscseq3t6","geo_precision":"zip","rep code":0},"type":"Feature","geometry":{"type":"Point","coordinates":[-122.026548,37.385697]}},{"properties":{"zip":"94086","geo_score":0.714,"id":"a6dtscs4ta3p","geo_precision":"zip","rep code":0},"type":"Feature","geometry":{"type":"Point","coordinates":[-121.705327,37.189396]}},{"properties":{"zip":"94087","geo_score":0.714,"id":"a6dtscl03tf5","geo_precision":"zip","rep code":0},"type":"Feature","geometry":{"type":"Point","coordinates":[-121.705327,37.189396]}},{"properties":{"zip":"94088","geo_score":0.714,"id":"a6dtscvis4cg","geo_precision":"zip","rep code":0},"type":"Feature","geometry":{"type":"Point","coordinates":[-121.705327,37.189396]}},{"properties":{"zip":"94089","geo_score":0.714,"id":"a6dtscggusfi","geo_precision":"zip","rep code":0},"type":"Feature","geometry":{"type":"Point","coordinates":[-121.705327,37.189396]}}],"is_temporal":false,"author":{"url":"","metadata":null,"contact_name":null,"contact_address":null,"source":null,"contact_phone":null},"source":"","pagination":{"sort":null,"start":0,"total":125,"limit":1000000},"state":"complete","tags":"","published":"2014-08-14T23:17:52-04:00","id":215377}