{"type":"FeatureCollection","data_type":"Dataset","url_type":null,"permissions":[{"permissions":{"download":true,"view":true},"group_id":"everyone"}],"classification":null,"title":"Book1","count":14,"stream_id":216165,"contributor":{"url":"http://geocommons.com/users/41911","name":"salazar.jamesbryan"},"data_attributes":null,"calculation_params":null,"icon_link":null,"link":"http://geocommons.com/overlays/216165.json","extent":[0.0,0.0,0.0,0.0],"geometry_types":[],"unique_name":null,"name":"Book1","feature_count":14,"description":"","next_feature":null,"is_raster":false,"short_classification":"Y","stats":{"mean per capita (in pesos)":{"max":29669,"mean":10965.5714285714,"variance":37121942.1098901,"stdev":6092.77786480765,"min":5620,"median":10543}},"features":[{"properties":{"region":"Laoag City, Ilocos Norte, Philippines","geo_score":0.0,"mean per capita (in pesos)":6607,"id":"0","geo_precision":"unmatched"},"type":"Feature","geometry":null},{"properties":{"region":"Tugegarao City, Cagayan, Philippines","geo_score":0.0,"mean per capita (in pesos)":6816,"id":"1","geo_precision":"unmatched"},"type":"Feature","geometry":null},{"properties":{"region":"Tarlac, Tarlac,  Philippines","geo_score":0.0,"mean per capita (in pesos)":10943,"id":"2","geo_precision":"unmatched"},"type":"Feature","geometry":null},{"properties":{"region":"Trece Martires City, Cavite,  Philippines","geo_score":0.0,"mean per capita (in pesos)":13260,"id":"3","geo_precision":"unmatched"},"type":"Feature","geometry":null},{"properties":{"region":"Legaspi, Albay,  Philippines","geo_score":0.0,"mean per capita (in pesos)":5620,"id":"4","geo_precision":"unmatched"},"type":"Feature","geometry":null},{"properties":{"region":"Bacolod, Negros Occidental, Philippines","geo_score":0.0,"mean per capita (in pesos)":10425,"id":"5","geo_precision":"unmatched"},"type":"Feature","geometry":null},{"properties":{"region":"Cebu, Cebu,  Philippines","geo_score":0.0,"mean per capita (in pesos)":11307,"id":"6","geo_precision":"unmatched"},"type":"Feature","geometry":null},{"properties":{"region":"Borongan, Eastern Samar, Philippines","geo_score":0.0,"mean per capita (in pesos)":5809,"id":"7","geo_precision":"unmatched"},"type":"Feature","geometry":null},{"properties":{"region":"Tagum, Davao, Philippines","geo_score":0.0,"mean per capita (in pesos)":8169,"id":"8","geo_precision":"unmatched"},"type":"Feature","geometry":null},{"properties":{"region":"Malaybalay, Bukidnon, Philippines","geo_score":0.0,"mean per capita (in pesos)":10543,"id":"9","geo_precision":"unmatched"},"type":"Feature","geometry":null},{"properties":{"region":"Dipolog, Zamboanga Del Norte, Philippines","geo_score":0.0,"mean per capita (in pesos)":12069,"id":"10","geo_precision":"unmatched"},"type":"Feature","geometry":null},{"properties":{"region":"Kidapawan, North Cotabato, Philippines","geo_score":0.0,"mean per capita (in pesos)":7505,"id":"11","geo_precision":"unmatched"},"type":"Feature","geometry":null},{"properties":{"region":"Diliman, Quezon City,  Philippines","geo_score":0.0,"mean per capita (in pesos)":29669,"id":"12","geo_precision":"unmatched"},"type":"Feature","geometry":null},{"properties":{"region":"CAR","geo_score":0.0,"mean per capita (in pesos)":14776,"id":"13","geo_precision":"unmatched"},"type":"Feature","geometry":null}],"is_temporal":false,"author":{"url":"","metadata":"","contact_name":"","contact_address":"","source":"","contact_phone":""},"source":"","pagination":{"sort":null,"start":0,"total":14,"limit":1000000},"state":"complete","tags":"","published":"2014-08-15T00:29:48-04:00","id":216165}