{"type":"FeatureCollection","data_type":"Dataset","url_type":null,"permissions":[{"permissions":{"download":true,"view":true},"group_id":"everyone"}],"classification":null,"title":"Heatmap 031512","count":54,"stream_id":216308,"contributor":{"url":"http://geocommons.com/users/39387","name":"joshwgnr"},"data_attributes":null,"calculation_params":null,"icon_link":null,"link":"http://geocommons.com/overlays/216308.json","extent":[-123.345,25.9873,-71.161,47.2128],"geometry_types":["point"],"unique_name":null,"name":"Heatmap 031512","feature_count":54,"description":"","next_feature":null,"is_raster":false,"short_classification":"Y","stats":{"quantity":{"max":85,"mean":13.462962962963,"variance":383.234451432565,"stdev":19.5763748286695,"min":1,"median":6}},"features":[{"properties":{"city":"GADSDEN","geo_score":0.857,"quantity":2,"id":"a634eynh2nym","geo_precision":"city","state":"AL"},"type":"Feature","geometry":{"type":"Point","coordinates":[-86.006639,34.014264]}},{"properties":{"city":"HUNTSVILLE","geo_score":0.857,"quantity":2,"id":"a634eyk48e4h","geo_precision":"city","state":"AL"},"type":"Feature","geometry":{"type":"Point","coordinates":[-86.556439,34.718428]}},{"properties":{"city":"TUSCALOOSA","geo_score":0.857,"quantity":3,"id":"a634eygq68lc","geo_precision":"city","state":"AL"},"type":"Feature","geometry":{"type":"Point","coordinates":[-87.569174,33.209841]}},{"properties":{"city":"TUCSON","geo_score":0.857,"quantity":4,"id":"a634eyklkwyt","geo_precision":"city","state":"AZ"},"type":"Feature","geometry":{"type":"Point","coordinates":[-110.926479,32.221743]}},{"properties":{"city":"SAN DIEGO","geo_score":0.857,"quantity":2,"id":"a634eyb3mkgj","geo_precision":"city","state":"CA"},"type":"Feature","geometry":{"type":"Point","coordinates":[-117.157255,32.715329]}},{"properties":{"city":"SANTA MARIA","geo_score":0.743,"quantity":6,"id":"a634eyf5ywhu","geo_precision":"city","state":"CA"},"type":"Feature","geometry":{"type":"Point","coordinates":[-123.34501,39.398219]}},{"properties":{"city":"AURORA","geo_score":0.857,"quantity":85,"id":"a634eyfwh5zu","geo_precision":"city","state":"CO"},"type":"Feature","geometry":{"type":"Point","coordinates":[-104.83192,39.729432]}},{"properties":{"city":"CENTENNIAL","geo_score":0.857,"quantity":15,"id":"a634eyh4b8j6","geo_precision":"city","state":"CO"},"type":"Feature","geometry":{"type":"Point","coordinates":[-104.876923,39.579155]}},{"properties":{"city":"LITTLETON","geo_score":0.857,"quantity":7,"id":"a634eyhsoa02","geo_precision":"city","state":"CO"},"type":"Feature","geometry":{"type":"Point","coordinates":[-105.01665,39.613321]}},{"properties":{"city":"NEW CASTLE","geo_score":0.857,"quantity":76,"id":"a634eyh9tpg2","geo_precision":"city","state":"DE"},"type":"Feature","geometry":{"type":"Point","coordinates":[-75.651466,39.592895]}},{"properties":{"city":"FORT MYERS","geo_score":0.746,"quantity":1,"id":"a634ey9cok2f","geo_precision":"city","state":"FL"},"type":"Feature","geometry":{"type":"Point","coordinates":[-81.92122,30.435237]}},{"properties":{"city":"JACKSONVILLE","geo_score":0.857,"quantity":16,"id":"a634eyojcbcz","geo_precision":"city","state":"FL"},"type":"Feature","geometry":{"type":"Point","coordinates":[-81.655651,30.332184]}},{"properties":{"city":"LEESBURG","geo_score":0.857,"quantity":2,"id":"a634eyfb3p3r","geo_precision":"city","state":"FL"},"type":"Feature","geometry":{"type":"Point","coordinates":[-81.877858,28.810823]}},{"properties":{"city":"MIRAMAR","geo_score":0.857,"quantity":9,"id":"a634eyodtyd8","geo_precision":"city","state":"FL"},"type":"Feature","geometry":{"type":"Point","coordinates":[-80.232271,25.987314]}},{"properties":{"city":"POMPANO BEACH","geo_score":0.796,"quantity":64,"id":"a634eyfhfqj3","geo_precision":"city","state":"FL"},"type":"Feature","geometry":{"type":"Point","coordinates":[-80.106988,26.282858]}},{"properties":{"city":"SARASOTA","geo_score":0.857,"quantity":9,"id":"a634eycytmgf","geo_precision":"city","state":"FL"},"type":"Feature","geometry":{"type":"Point","coordinates":[-82.530653,27.336435]}},{"properties":{"city":"TALLAHASSEE","geo_score":0.857,"quantity":3,"id":"a634ey999f0m","geo_precision":"city","state":"FL"},"type":"Feature","geometry":{"type":"Point","coordinates":[-84.280733,30.438256]}},{"properties":{"city":"VERO BEACH","geo_score":0.857,"quantity":1,"id":"a634ey93p1g7","geo_precision":"city","state":"FL"},"type":"Feature","geometry":{"type":"Point","coordinates":[-80.40294,27.638005]}},{"properties":{"city":"WEST PALM BEACH","geo_score":0.762,"quantity":4,"id":"a634eyl0tocj","geo_precision":"city","state":"FL"},"type":"Feature","geometry":{"type":"Point","coordinates":[-80.035596,26.778118]}},{"properties":{"city":"SAVANNAH","geo_score":0.857,"quantity":11,"id":"a634eyn1ojr4","geo_precision":"city","state":"GA"},"type":"Feature","geometry":{"type":"Point","coordinates":[-81.099834,32.083541]}},{"properties":{"city":"TUCKER","geo_score":0.857,"quantity":10,"id":"a634eydzu93o","geo_precision":"city","state":"GA"},"type":"Feature","geometry":{"type":"Point","coordinates":[-84.215369,33.853945]}},{"properties":{"city":"CHICAGO","geo_score":0.857,"quantity":15,"id":"a634eymzxgk2","geo_precision":"city","state":"IL"},"type":"Feature","geometry":{"type":"Point","coordinates":[-87.650052,41.850033]}},{"properties":{"city":"MOUNT PROSPECT","geo_score":0.758,"quantity":10,"id":"a634eyd21c1t","geo_precision":"city","state":"IL"},"type":"Feature","geometry":{"type":"Point","coordinates":[-88.397826,39.439202]}},{"properties":{"city":"INDIANAPOLIS","geo_score":0.857,"quantity":28,"id":"a634eyl1k7n9","geo_precision":"city","state":"IN"},"type":"Feature","geometry":{"type":"Point","coordinates":[-86.158042,39.768377]}},{"properties":{"city":"ELIZABETHTOWN","geo_score":0.857,"quantity":3,"id":"a634eyhljti6","geo_precision":"city","state":"KY"},"type":"Feature","geometry":{"type":"Point","coordinates":[-85.878391,37.684807]}},{"properties":{"city":"PADUCAH","geo_score":0.857,"quantity":8,"id":"a634eygtbj4d","geo_precision":"city","state":"KY"},"type":"Feature","geometry":{"type":"Point","coordinates":[-88.713292,37.031586]}},{"properties":{"city":"HOUMA","geo_score":0.857,"quantity":1,"id":"a634eyjky8tf","geo_precision":"city","state":"LA"},"type":"Feature","geometry":{"type":"Point","coordinates":[-90.719535,29.59577]}},{"properties":{"city":"LAWRENCE","geo_score":0.857,"quantity":3,"id":"a634eyiut7ld","geo_precision":"city","state":"MA"},"type":"Feature","geometry":{"type":"Point","coordinates":[-71.161052,42.70734]}},{"properties":{"city":"MAYNARD","geo_score":0.857,"quantity":3,"id":"a634eykvl8yk","geo_precision":"city","state":"MA"},"type":"Feature","geometry":{"type":"Point","coordinates":[-71.459405,42.446396]}},{"properties":{"city":"NORTH READING","geo_score":0.798,"quantity":7,"id":"a634eyls4ao5","geo_precision":"city","state":"MA"},"type":"Feature","geometry":{"type":"Point","coordinates":[-71.975909,42.430646]}},{"properties":{"city":"BINGHAM FARMS","geo_score":0.857,"quantity":3,"id":"a634eyf7a3pp","geo_precision":"city","state":"MI"},"type":"Feature","geometry":{"type":"Point","coordinates":[-83.273264,42.515868]}},{"properties":{"city":"STERLING HEIGHTS","geo_score":0.857,"quantity":4,"id":"a634eynj78jg","geo_precision":"city","state":"MI"},"type":"Feature","geometry":{"type":"Point","coordinates":[-83.068475,42.564395]}},{"properties":{"city":"ARDEN HILLS","geo_score":0.857,"quantity":1,"id":"a634eyamdrg4","geo_precision":"city","state":"MN"},"type":"Feature","geometry":{"type":"Point","coordinates":[-93.156611,45.050244]}},{"properties":{"city":"ROSEVILLE","geo_score":0.857,"quantity":16,"id":"a634eydttwhp","geo_precision":"city","state":"MN"},"type":"Feature","geometry":{"type":"Point","coordinates":[-93.156611,45.006077]}},{"properties":{"city":"BLUE SPRINGS","geo_score":0.753,"quantity":6,"id":"a634eyhpz1dc","geo_precision":"city","state":"MO"},"type":"Feature","geometry":{"type":"Point","coordinates":[-91.439048,39.034208]}},{"properties":{"city":"CORINTH","geo_score":0.857,"quantity":2,"id":"a634eyh01w11","geo_precision":"city","state":"MS"},"type":"Feature","geometry":{"type":"Point","coordinates":[-88.591575,34.87589]}},{"properties":{"city":"HATTIESBURG","geo_score":0.857,"quantity":2,"id":"a634eygtdejb","geo_precision":"city","state":"MS"},"type":"Feature","geometry":{"type":"Point","coordinates":[-89.28071,31.245138]}},{"properties":{"city":"MERIDIAN","geo_score":0.857,"quantity":1,"id":"a634eylkh45z","geo_precision":"city","state":"MS"},"type":"Feature","geometry":{"type":"Point","coordinates":[-88.703656,32.36431]}},{"properties":{"city":"TUPELO","geo_score":0.857,"quantity":4,"id":"a634eyogaqjl","geo_precision":"city","state":"MS"},"type":"Feature","geometry":{"type":"Point","coordinates":[-88.683828,34.291889]}},{"properties":{"city":"BELLMAWR","geo_score":0.821,"quantity":44,"id":"a634eylbwttj","geo_precision":"city","state":"NJ"},"type":"Feature","geometry":{"type":"Point","coordinates":[-74.24928,40.302718]}},{"properties":{"city":"MOORESTOWN","geo_score":0.829,"quantity":3,"id":"a634eyeufd8a","geo_precision":"city","state":"NJ"},"type":"Feature","geometry":{"type":"Point","coordinates":[-74.253756,40.425107]}},{"properties":{"city":"ALBUQUERQUE","geo_score":0.857,"quantity":19,"id":"a634eycvs2ox","geo_precision":"city","state":"NM"},"type":"Feature","geometry":{"type":"Point","coordinates":[-106.651137,35.084491]}},{"properties":{"city":"HORSHAM","geo_score":0.857,"quantity":6,"id":"a634eyfol3kq","geo_precision":"city","state":"PA"},"type":"Feature","geometry":{"type":"Point","coordinates":[-75.150577,40.191808]}},{"properties":{"city":"LEBANON","geo_score":0.857,"quantity":26,"id":"a634eydijgp5","geo_precision":"city","state":"PA"},"type":"Feature","geometry":{"type":"Point","coordinates":[-76.397634,40.331594]}},{"properties":{"city":"PHILADELPHIA","geo_score":0.857,"quantity":14,"id":"a634eyotlwek","geo_precision":"city","state":"PA"},"type":"Feature","geometry":{"type":"Point","coordinates":[-75.163789,39.952335]}},{"properties":{"city":"PITTSBURGH","geo_score":0.857,"quantity":67,"id":"a634eyj2ewff","geo_precision":"city","state":"PA"},"type":"Feature","geometry":{"type":"Point","coordinates":[-79.995886,40.440625]}},{"properties":{"city":"RADNOR","geo_score":0.0,"quantity":1,"id":"a634eyg5du3d","geo_precision":"unmatched","state":"PA"},"type":"Feature","geometry":null},{"properties":{"city":"STATE COLLEGE","geo_score":0.738,"quantity":3,"id":"a634eygd2791","geo_precision":"city","state":"PA"},"type":"Feature","geometry":{"type":"Point","coordinates":[-80.446733,40.303681]}},{"properties":{"city":"YORK","geo_score":0.857,"quantity":1,"id":"a634eyofxn0j","geo_precision":"city","state":"PA"},"type":"Feature","geometry":{"type":"Point","coordinates":[-76.727139,39.962998]}},{"properties":{"city":"CHATTANOOGA","geo_score":0.857,"quantity":1,"id":"a634eym3wczo","geo_precision":"city","state":"TN"},"type":"Feature","geometry":{"type":"Point","coordinates":[-85.30968,35.04563]}},{"properties":{"city":"KNOXVILLE","geo_score":0.794,"quantity":4,"id":"a634ey9khpgo","geo_precision":"city","state":"TN"},"type":"Feature","geometry":{"type":"Point","coordinates":[-86.784443,36.16589]}},{"properties":{"city":"NASHVILLE","geo_score":0.857,"quantity":31,"id":"a634eyb4ngku","geo_precision":"city","state":"TN"},"type":"Feature","geometry":{"type":"Point","coordinates":[-86.784443,36.16589]}},{"properties":{"city":"SALT LAKE CITY","geo_score":0.857,"quantity":26,"id":"a634eyl3kkhi","geo_precision":"city","state":"UT"},"type":"Feature","geometry":{"type":"Point","coordinates":[-111.891047,40.760779]}},{"properties":{"city":"PUYALLUP","geo_score":0.857,"quantity":32,"id":"a634eyo53hs2","geo_precision":"city","state":"WA"},"type":"Feature","geometry":{"type":"Point","coordinates":[-122.317148,47.212822]}}],"is_temporal":false,"author":{"url":"","metadata":"","contact_name":"","contact_address":"","source":"","contact_phone":""},"source":"","pagination":{"sort":null,"start":0,"total":54,"limit":1000000},"state":"complete","tags":"","published":"2014-08-15T00:38:34-04:00","id":216308}