{"type":"FeatureCollection","data_type":"Dataset","url_type":null,"permissions":[{"permissions":{"download":true,"view":true},"group_id":"everyone"}],"classification":null,"title":"Mars Hill Portland Community Groups","count":17,"stream_id":216561,"contributor":{"url":"http://geocommons.com/users/42084","name":"pdxpoppadaddy"},"data_attributes":null,"calculation_params":null,"icon_link":null,"link":"http://geocommons.com/overlays/216561.json","extent":[-122.845,45.332,-122.381,45.6546],"geometry_types":["point"],"unique_name":null,"name":"Mars Hill Portland Community Groups","feature_count":17,"description":"","next_feature":null,"is_raster":false,"short_classification":"Y","stats":{"time":{"max":"2030/01/01 18:30:00 -0500","mean":"2030/01/01 18:20:17 -0500","variance":905294.117647059,"stdev":951.469451767664,"min":"2030/01/01 17:45:00 -0500","median":"2030/01/01 18:30:00 -0500"}},"features":[{"properties":{"city":"Gresham","zip":"97080","groupleader":"Orient | Matt Russell","time":{"end_time":"2030/01/01 18:31:00 -0500","original":"6:30 PM","granularity":"min","time":"2030/01/01 18:30:00 -0500"},"region":"Eastside","geo_score":0.817,"day":"Tuesday","phone":"541-205-2545","id":"a66w9hkryglr","geo_precision":"street","address":"1715 SE Barn Owl Lane","email":"mtnadventurer@gmail.com","state":"Oregon"},"type":"Feature","geometry":{"type":"Point","coordinates":[-122.392688,45.484338]}},{"properties":{"city":"Gresham","zip":"97030","groupleader":"Downtown Gresham | Harry Vanmil","time":{"end_time":"2030/01/01 18:31:00 -0500","original":"6:30 PM","granularity":"min","time":"2030/01/01 18:30:00 -0500"},"region":"Eastside","geo_score":0.641,"day":"Wednesday","phone":"503-805-5834","id":"a66w9hjuglsg","geo_precision":"street","address":"1177 NE 5th St.","email":"harry0531@comcast.net","state":"Oregon"},"type":"Feature","geometry":{"type":"Point","coordinates":[-122.42103,45.501031]}},{"properties":{"city":"Gresham","zip":"97080","groupleader":"Kelly Creek | Jeremy Anderson","time":{"end_time":"2030/01/01 18:31:00 -0500","original":"6:30 PM","granularity":"min","time":"2030/01/01 18:30:00 -0500"},"region":"Eastside","geo_score":0.805,"day":"Wednesday","phone":"503-512-9882","id":"a66w9hdl4174","geo_precision":"street","address":"1724 SE Glacier Ave.","email":"janderson@miletwo.net","state":"Oregon"},"type":"Feature","geometry":{"type":"Point","coordinates":[-122.380659,45.478438]}},{"properties":{"city":"Gresham","zip":"97030","groupleader":"North Gresham | Joe Bryant","time":{"end_time":"2030/01/01 19:00:00 -0500","original":"6:00 PM","granularity":"hour","time":"2030/01/01 18:00:00 -0500"},"region":"Eastside","geo_score":0.874,"day":"Thursday","phone":"503-729-7848","id":"a66w9ha4t7us","geo_precision":"range","address":"815 Mawrcrest Dr.","email":"joe.d.bryant@gmail.com","state":"Oregon"},"type":"Feature","geometry":{"type":"Point","coordinates":[-122.456801,45.50293]}},{"properties":{"city":"Portland","zip":"97211","groupleader":"NE Alberta | Travis Quarles","time":{"end_time":"2030/01/01 18:31:00 -0500","original":"6:30 PM","granularity":"min","time":"2030/01/01 18:30:00 -0500"},"region":"NE","geo_score":0.927,"day":"Tuesday","phone":"503-327-9679","id":"a66w9h785fp9","geo_precision":"range","address":"1145 NE Roselawn St.","email":"quarlok@gmail.com","state":"Oregon"},"type":"Feature","geometry":{"type":"Point","coordinates":[-122.654687,45.561221]}},{"properties":{"city":"Portland","zip":"97213","groupleader":"Roseway | Craig Flood","time":{"end_time":"2030/01/01 18:31:00 -0500","original":"6:30 PM","granularity":"min","time":"2030/01/01 18:30:00 -0500"},"region":"NE","geo_score":0.935,"day":"Tuesday","phone":"253-861-7000","id":"a66w9h7x2ljs","geo_precision":"range","address":"730 NE 80th Ave","email":"flood8965@gmail.com","state":"Oregon"},"type":"Feature","geometry":{"type":"Point","coordinates":[-122.581453,45.527944]}},{"properties":{"city":"Wilsonville","zip":"97070","groupleader":"Wilsonville | Brad Salyers","time":{"end_time":"2030/01/01 19:00:00 -0500","original":"6:00 PM","granularity":"hour","time":"2030/01/01 18:00:00 -0500"},"region":"SE","geo_score":0.938,"day":"Monday","phone":"503-482-0600","id":"a66w9hcd8u6t","geo_precision":"range","address":"4585 SW Homesteader Rd","email":"bradleysalyers@gmail.com","state":"Oregon"},"type":"Feature","geometry":{"type":"Point","coordinates":[-122.723085,45.331965]}},{"properties":{"city":"Milwaukie","zip":"97267","groupleader":"SE Milwaukie | Greg Wygle","time":{"end_time":"2030/01/01 18:31:00 -0500","original":"6:30 PM","granularity":"min","time":"2030/01/01 18:30:00 -0500"},"region":"SE","geo_score":0.814,"day":"Monday","phone":"503-913-3527","id":"a66w9haogeoh","geo_precision":"street","address":"15980 SE Bilquist Circle","email":"gewygle@gmail.com","state":"Oregon"},"type":"Feature","geometry":{"type":"Point","coordinates":[-122.590545,45.406895]}},{"properties":{"city":"Portland","zip":"97206","groupleader":"SE Woodstock | John Calhoun","time":{"end_time":"2030/01/01 19:00:00 -0500","original":"6:00 PM","granularity":"hour","time":"2030/01/01 18:00:00 -0500"},"region":"SE","geo_score":0.915,"day":"Monday","phone":"503-706-8925","id":"a66w9him8stu","geo_precision":"range","address":"7656 SE Bybee Blvd.","email":"johnsyardandhome@comcast.net","state":"Oregon"},"type":"Feature","geometry":{"type":"Point","coordinates":[-122.584905,45.472361]}},{"properties":{"city":"Portland","zip":"97202","groupleader":"Kenilworth | Josiah Lewis","time":{"end_time":"2030/01/01 18:31:00 -0500","original":"6:30 PM","granularity":"min","time":"2030/01/01 18:30:00 -0500"},"region":"SE","geo_score":0.829,"day":"Thursday","phone":"971-409-8365","id":"a66w9hab139z","geo_precision":"range","address":"3922 SE 32nd Ave Unit A","email":"lewis.josiah@gmail.com","state":"Oregon"},"type":"Feature","geometry":{"type":"Point","coordinates":[-122.632713,45.494623]}},{"properties":{"city":"Portland","zip":"97216","groupleader":"Cherry Park | Ryan Lane","time":{"end_time":"2030/01/01 17:46:00 -0500","original":"5:45 PM","granularity":"min","time":"2030/01/01 17:45:00 -0500"},"region":"SE","geo_score":0.911,"day":"Tuesday","phone":"503-927-8921","id":"a66w9hk8yut8","geo_precision":"range","address":"9619 SE Lincoln St.","email":"ryanjlane@gmail.com","state":"Oregon"},"type":"Feature","geometry":{"type":"Point","coordinates":[-122.563591,45.508013]}},{"properties":{"city":"Portland","zip":"97219","groupleader":"Willamette Park | Brandon Teng","time":{"end_time":"2030/01/01 18:31:00 -0500","original":"6:30 PM","granularity":"min","time":"2030/01/01 18:30:00 -0500"},"region":"SW","geo_score":0.805,"day":"Thursday","phone":"206-817-7927","id":"a66w9hcb9iei","geo_precision":"range","address":"600 SW Idaho St","email":"brandonteng@gmail.com","state":"Oregon"},"type":"Feature","geometry":{"type":"Point","coordinates":[-122.672906,45.476538]}},{"properties":{"city":"Portland","zip":"97223","groupleader":"The Dugout | Michael Brown","time":{"end_time":"2030/01/01 18:31:00 -0500","original":"6:30 PM","granularity":"min","time":"2030/01/01 18:30:00 -0500"},"region":"SW","geo_score":0.847,"day":"Tuesday","phone":"971-563-5619","id":"a66w9hcrwgwi","geo_precision":"range","address":"7661 SW 74th Ave","email":"whatjobsaw@gmail.com","state":"Oregon"},"type":"Feature","geometry":{"type":"Point","coordinates":[-122.752494,45.464487]}},{"properties":{"city":"Vancouver","zip":"98633","groupleader":"Vancouver West | Jim Swanson","time":{"end_time":"2030/01/01 18:31:00 -0500","original":"6:30 PM","granularity":"min","time":"2030/01/01 18:30:00 -0500"},"region":"The Couve","geo_score":0.501,"day":"Friday","phone":"360-560-6942","id":"a66w9halys1y","geo_precision":"street","address":"808 NW 45th St.","email":"jswanson.lcs@gmail.com","state":"Washington"},"type":"Feature","geometry":{"type":"Point","coordinates":[-122.662119,45.654582]}},{"properties":{"city":"Vancouver","zip":"98861","groupleader":"Vancouver Central | Greg Moore","time":{"end_time":"2030/01/01 18:31:00 -0500","original":"6:30 PM","granularity":"min","time":"2030/01/01 18:30:00 -0500"},"region":"The Couve","geo_score":0.805,"day":"Wednesday","phone":"405-620-3654","id":"a66w9hiesmwe","geo_precision":"range","address":"4426 NE Nicholson Loop","email":"greg.moore@marshill.com","state":"Washington"},"type":"Feature","geometry":{"type":"Point","coordinates":[-122.624907,45.646303]}},{"properties":{"city":"Tigard","zip":"97224","groupleader":"SW Beaverton | Dan Briley","time":{"end_time":"2030/01/01 18:31:00 -0500","original":"6:30 PM","granularity":"min","time":"2030/01/01 18:30:00 -0500"},"region":"Westside","geo_score":0.93,"day":"Friday","phone":"503-577-1076","id":"a66w9hhirsuh","geo_precision":"range","address":"15135 SW 141st Ave","email":"danbriley@gmail.com","state":"Oregon"},"type":"Feature","geometry":{"type":"Point","coordinates":[-122.822177,45.411433]}},{"properties":{"city":"Beaverton","zip":"97006","groupleader":"Bethany | Joel Braun","time":{"end_time":"2030/01/01 19:00:00 -0500","original":"6:00 PM","granularity":"hour","time":"2030/01/01 18:00:00 -0500"},"region":"Westside","geo_score":1.0,"day":"Monday","phone":"425-503-2495","id":"a66w9h7mmor6","geo_precision":"range","address":"3831 NW Craig Dr","email":"jcbnhlb@gmail.com","state":"Oregon"},"type":"Feature","geometry":{"type":"Point","coordinates":[-122.845155,45.546562]}}],"is_temporal":true,"author":{"url":"","metadata":"","contact_name":"Mars Hill Portland","contact_address":"3210 SE Taylor, Portland, OR","source":"","contact_phone":""},"source":"","pagination":{"sort":null,"start":0,"total":17,"limit":1000000},"state":"complete","tags":"","published":"2012-03-16T03:22:29Z","id":216561}