{"type":"FeatureCollection","data_type":"Dataset","url_type":null,"permissions":[{"permissions":{"download":true,"view":true},"group_id":"everyone"}],"classification":null,"title":"Tim's Locations","count":27,"stream_id":216665,"contributor":{"url":"http://geocommons.com/users/6273","name":"lucascioffi"},"data_attributes":null,"calculation_params":null,"icon_link":null,"link":"http://geocommons.com/overlays/216665.json","extent":[-76.8569,38.349,-76.1968,39.5304],"geometry_types":["point"],"unique_name":null,"name":"Tim's Locations","feature_count":27,"description":"","next_feature":null,"is_raster":false,"short_classification":"Y","stats":{},"features":[{"properties":{"city":"Reisterstown","zip":"21136","geo_score":0.919,"street":"100 Business Center Drive","id":"a62l906185ro","geo_precision":"range","state":"MD"},"type":"Feature","geometry":{"type":"Point","coordinates":[-76.827233,39.466023]}},{"properties":{"city":"Cockeysville","zip":"21030","geo_score":0.911,"street":"10151 York Road","id":"a62l8zt23ax0","geo_precision":"range","state":"MD"},"type":"Feature","geometry":{"type":"Point","coordinates":[-76.637359,39.466442]}},{"properties":{"city":"Cockeysville","zip":"21030","geo_score":0.911,"street":"10540 York Road","id":"a62l8zwttvd1","geo_precision":"range","state":"MD"},"type":"Feature","geometry":{"type":"Point","coordinates":[-76.642451,39.477937]}},{"properties":{"city":"Owings Mills","zip":"21117","geo_score":0.716,"street":"11155 Dolfield Boulevard","id":"a62l902c8rwg","geo_precision":"street","state":"MD"},"type":"Feature","geometry":{"type":"Point","coordinates":[-76.789909,39.442167]}},{"properties":{"city":"Owings Mills","zip":"21117","geo_score":0.911,"street":"11403 Cronhill Drive","id":"a62l901gk15q","geo_precision":"range","state":"MD"},"type":"Feature","geometry":{"type":"Point","coordinates":[-76.77306,39.436373]}},{"properties":{"city":"Aberdeen","zip":"21001","geo_score":0.935,"street":"1200 Technology Drive","id":"a62l8zsxriki","geo_precision":"range","state":"MD"},"type":"Feature","geometry":{"type":"Point","coordinates":[-76.196845,39.530395]}},{"properties":{"city":"Belcamp","zip":"21017","geo_score":1.0,"street":"1369 Brass Mill Road","id":"a62l903qu546","geo_precision":"range","state":"MD"},"type":"Feature","geometry":{"type":"Point","coordinates":[-76.238141,39.476289]}},{"properties":{"city":"Timonium","zip":"21093","geo_score":0.902,"street":"1830 York Road","id":"a62l901phafl","geo_precision":"range","state":"MD"},"type":"Feature","geometry":{"type":"Point","coordinates":[-76.622653,39.432561]}},{"properties":{"city":"Lansdowne","zip":"21227","geo_score":0.932,"street":"1900 Lansdowne Road","id":"a62l8zx8i1ra","geo_precision":"range","state":"MD"},"type":"Feature","geometry":{"type":"Point","coordinates":[-76.668318,39.253321]}},{"properties":{"city":"Timonium","zip":"21093","geo_score":0.902,"street":"2125 Greenspring Drive","id":"a62l8zwfl2fg","geo_precision":"range","state":"MD"},"type":"Feature","geometry":{"type":"Point","coordinates":[-76.631638,39.439336]}},{"properties":{"city":"Owings Mills","zip":"21117","geo_score":0.911,"street":"24 Gwynns Mill Court","id":"a62l8zsuf73b","geo_precision":"range","state":"MD"},"type":"Feature","geometry":{"type":"Point","coordinates":[-76.781506,39.414525]}},{"properties":{"city":"Baltimore","zip":"21223","geo_score":1.0,"street":"2900 Stafford Street","id":"a62l8zy49gih","geo_precision":"range","state":"MD"},"type":"Feature","geometry":{"type":"Point","coordinates":[-76.664317,39.278687]}},{"properties":{"city":"Baltimore","zip":"21230","geo_score":0.935,"street":"2901 Whittington Avenue","id":"a62l902hdnfj","geo_precision":"range","state":"MD"},"type":"Feature","geometry":{"type":"Point","coordinates":[-76.654855,39.26011]}},{"properties":{"city":"California","zip":"20619","geo_score":0.39,"street":"3 Notch Road","id":"a62l8zy500dz","geo_precision":"street","state":"MD"},"type":"Feature","geometry":{"type":"Point","coordinates":[-76.406624,38.349025]}},{"properties":{"city":"Baltimore","zip":"21227","geo_score":0.922,"street":"3700 Koppers Street","id":"a62l8zux03a1","geo_precision":"range","state":"MD"},"type":"Feature","geometry":{"type":"Point","coordinates":[-76.6709,39.260887]}},{"properties":{"city":"Dundalk","zip":"21222","geo_score":0.731,"street":"4001 North Point Blvd.","id":"a62l905qwj3m","geo_precision":"street","state":"MD"},"type":"Feature","geometry":{"type":"Point","coordinates":[-76.471554,39.271674]}},{"properties":{"city":"Baltimore","zip":"21213","geo_score":1.0,"street":"4206 Shannon Drive","id":"a62l8zsvhp3h","geo_precision":"range","state":"MD"},"type":"Feature","geometry":{"type":"Point","coordinates":[-76.555676,39.317521]}},{"properties":{"city":"Annapolis","zip":"21401","geo_score":0.93,"street":"441 Defense Highway","id":"a62l8zy2rxdz","geo_precision":"range","state":"MD"},"type":"Feature","geometry":{"type":"Point","coordinates":[-76.577169,38.989473]}},{"properties":{"city":"Sparks","zip":"21152","geo_score":1.0,"street":"47 Loveton Circle","id":"a62l8zzt7qrt","geo_precision":"range","state":"MD"},"type":"Feature","geometry":{"type":"Point","coordinates":[-76.651147,39.516361]}},{"properties":{"city":"Timonium","zip":"21093","geo_score":0.876,"street":"56 Timonium Road","id":"a62l8zz9t3lh","geo_precision":"range","state":"MD"},"type":"Feature","geometry":{"type":"Point","coordinates":[-76.622615,39.443579]}},{"properties":{"city":"Catonsville","zip":"21228","geo_score":0.911,"street":"5700 Executive Drive","id":"a62l8zvgyvhr","geo_precision":"range","state":"MD"},"type":"Feature","geometry":{"type":"Point","coordinates":[-76.730539,39.284147]}},{"properties":{"city":"Baltimore","zip":"21237","geo_score":0.719,"street":"6709 Pulaski Highway","id":"a62l8zrsfahx","geo_precision":"street","state":"MD"},"type":"Feature","geometry":{"type":"Point","coordinates":[-76.529697,39.310193]}},{"properties":{"city":"Towson","zip":"21286","geo_score":0.922,"street":"809 Gleneagles Court","id":"a62l8zvbnxq2","geo_precision":"range","state":"MD"},"type":"Feature","geometry":{"type":"Point","coordinates":[-76.572414,39.400867]}},{"properties":{"city":"Baltimore","zip":"21230","geo_score":0.935,"street":"812 West Patapsco Avenue","id":"a62l900pr6v0","geo_precision":"range","state":"MD"},"type":"Feature","geometry":{"type":"Point","coordinates":[-76.629887,39.243112]}},{"properties":{"city":"Towson","zip":"21286","geo_score":0.922,"street":"8501 LaSalle Road","id":"a62l904w5b0p","geo_precision":"range","state":"MD"},"type":"Feature","geometry":{"type":"Point","coordinates":[-76.576826,39.394384]}},{"properties":{"city":"Laurel","zip":"20707","geo_score":0.939,"street":"8610 Cherry Lane","id":"a62l902hi0iz","geo_precision":"range","state":"MD"},"type":"Feature","geometry":{"type":"Point","coordinates":[-76.85686,39.091557]}},{"properties":{"city":"Columbia","zip":"21046","geo_score":1.0,"street":"9475 Gerwig Lane","id":"a62l8zvt7w71","geo_precision":"range","state":"MD"},"type":"Feature","geometry":{"type":"Point","coordinates":[-76.839351,39.171043]}}],"is_temporal":false,"author":{"url":"","metadata":"","contact_name":"","contact_address":"","source":"","contact_phone":""},"source":"","pagination":{"sort":null,"start":0,"total":27,"limit":1000000},"state":"complete","tags":"","published":"2014-08-15T01:10:28-04:00","id":216665}