{"type":"FeatureCollection","data_type":"Dataset","url_type":null,"permissions":[{"permissions":{"download":true,"view":true},"group_id":"everyone"}],"classification":null,"title":"INC 5000 Companies by City in CA","count":179,"stream_id":216684,"contributor":{"url":"http://geocommons.com/users/28011","name":"niamhkingham"},"data_attributes":null,"calculation_params":null,"icon_link":null,"link":"http://geocommons.com/overlays/216684.json","extent":[-123.618,32.6101,-114.85,41.644],"geometry_types":["point"],"unique_name":null,"name":"INC 5000 Companies by City in CA","feature_count":179,"description":"","next_feature":null,"is_raster":false,"short_classification":"Y","stats":{"number of inc 5000 companies":{"max":66,"mean":3.78212290502793,"variance":64.4634988387421,"stdev":8.02891641747142,"min":1,"median":2}},"features":[{"properties":{"city":"Agoura Hills","number of inc 5000 companies":1,"geo_score":0.792,"id":"a65a9spd0lnu","geo_precision":"city","state":"CA"},"type":"Feature","geometry":{"type":"Point","coordinates":[-118.737867,34.143061]}},{"properties":{"city":"Aliso Viejo","number of inc 5000 companies":8,"geo_score":0.857,"id":"a65a9ssqzsc7","geo_precision":"city","state":"CA"},"type":"Feature","geometry":{"type":"Point","coordinates":[-117.751341,33.603459]}},{"properties":{"city":"Anaheim","number of inc 5000 companies":3,"geo_score":0.857,"id":"a65a9sg5j6bn","geo_precision":"city","state":"CA"},"type":"Feature","geometry":{"type":"Point","coordinates":[-117.914504,33.835293]}},{"properties":{"city":"Arcadia","number of inc 5000 companies":3,"geo_score":0.816,"id":"a65a9sfsbt3p","geo_precision":"city","state":"CA"},"type":"Feature","geometry":{"type":"Point","coordinates":[-121.383092,38.610452]}},{"properties":{"city":"Bakersfield","number of inc 5000 companies":9,"geo_score":0.857,"id":"a65a9sjijw0g","geo_precision":"city","state":"CA"},"type":"Feature","geometry":{"type":"Point","coordinates":[-119.018713,35.373292]}},{"properties":{"city":"Belmont","number of inc 5000 companies":1,"geo_score":0.798,"id":"a65a9sgcg64l","geo_precision":"city","state":"CA"},"type":"Feature","geometry":{"type":"Point","coordinates":[-117.206988,34.624159]}},{"properties":{"city":"Berkeley","number of inc 5000 companies":4,"geo_score":0.857,"id":"a65a9sq788xs","geo_precision":"city","state":"CA"},"type":"Feature","geometry":{"type":"Point","coordinates":[-122.29673,37.860576]}},{"properties":{"city":"Beverly Hills","number of inc 5000 companies":3,"geo_score":0.857,"id":"a65a9sfd52ie","geo_precision":"city","state":"CA"},"type":"Feature","geometry":{"type":"Point","coordinates":[-118.298662,33.786594]}},{"properties":{"city":"Brisbane","number of inc 5000 companies":2,"geo_score":0.857,"id":"a65a9srra3sf","geo_precision":"city","state":"CA"},"type":"Feature","geometry":{"type":"Point","coordinates":[-122.404332,37.689182]}},{"properties":{"city":"Burbank","number of inc 5000 companies":6,"geo_score":0.857,"id":"a65a9so01kaw","geo_precision":"city","state":"CA"},"type":"Feature","geometry":{"type":"Point","coordinates":[-118.308966,34.180839]}},{"properties":{"city":"Calabasas","number of inc 5000 companies":4,"geo_score":0.857,"id":"a65a9shdgkyk","geo_precision":"city","state":"CA"},"type":"Feature","geometry":{"type":"Point","coordinates":[-118.298662,33.786594]}},{"properties":{"city":"Camarillo","number of inc 5000 companies":1,"geo_score":0.857,"id":"a65a9sj8du8q","geo_precision":"city","state":"CA"},"type":"Feature","geometry":{"type":"Point","coordinates":[-119.084253,34.307783]}},{"properties":{"city":"Campbell","number of inc 5000 companies":5,"geo_score":0.857,"id":"a65a9sj6fycc","geo_precision":"city","state":"CA"},"type":"Feature","geometry":{"type":"Point","coordinates":[-121.705327,37.189396]}},{"properties":{"city":"Canoga Park","number of inc 5000 companies":4,"geo_score":0.857,"id":"a65a9sodk9tv","geo_precision":"city","state":"CA"},"type":"Feature","geometry":{"type":"Point","coordinates":[-118.298662,33.786594]}},{"properties":{"city":"Carlsbad","number of inc 5000 companies":8,"geo_score":0.857,"id":"a65a9sic08y5","geo_precision":"city","state":"CA"},"type":"Feature","geometry":{"type":"Point","coordinates":[-116.846046,33.016928]}},{"properties":{"city":"Carpinteria","number of inc 5000 companies":2,"geo_score":0.857,"id":"a65a9sej1ijy","geo_precision":"city","state":"CA"},"type":"Feature","geometry":{"type":"Point","coordinates":[-119.520525,34.405045]}},{"properties":{"city":"Castro Valley","number of inc 5000 companies":1,"geo_score":0.738,"id":"a65a9skq6son","geo_precision":"city","state":"CA"},"type":"Feature","geometry":{"type":"Point","coordinates":[-121.677764,40.517936]}},{"properties":{"city":"Century City","number of inc 5000 companies":1,"geo_score":0.857,"id":"a65a9st49u8o","geo_precision":"city","state":"CA"},"type":"Feature","geometry":{"type":"Point","coordinates":[-118.417857,34.055565]}},{"properties":{"city":"Cerritos","number of inc 5000 companies":1,"geo_score":0.857,"id":"a65a9soi45ka","geo_precision":"city","state":"CA"},"type":"Feature","geometry":{"type":"Point","coordinates":[-118.064787,33.858348]}},{"properties":{"city":"Chatsworth","number of inc 5000 companies":4,"geo_score":0.789,"id":"a65a9skqn2df","geo_precision":"city","state":"CA"},"type":"Feature","geometry":{"type":"Point","coordinates":[-118.637033,34.240837]}},{"properties":{"city":"Chico","number of inc 5000 companies":2,"geo_score":0.857,"id":"a65a9setb64x","geo_precision":"city","state":"CA"},"type":"Feature","geometry":{"type":"Point","coordinates":[-121.840083,39.746159]}},{"properties":{"city":"City of Industry","number of inc 5000 companies":3,"geo_score":0.796,"id":"a65a9slprj6i","geo_precision":"city","state":"CA"},"type":"Feature","geometry":{"type":"Point","coordinates":[-117.958675,34.019734]}},{"properties":{"city":"Colusa","number of inc 5000 companies":1,"geo_score":0.762,"id":"a65a9somb14y","geo_precision":"city","state":"CA"},"type":"Feature","geometry":{"type":"Point","coordinates":[-115.653607,35.012488]}},{"properties":{"city":"Concord","number of inc 5000 companies":3,"geo_score":0.857,"id":"a65a9sf8idvm","geo_precision":"city","state":"CA"},"type":"Feature","geometry":{"type":"Point","coordinates":[-122.022872,37.953672]}},{"properties":{"city":"Corona","number of inc 5000 companies":2,"geo_score":0.857,"id":"a65a9sinsvb8","geo_precision":"city","state":"CA"},"type":"Feature","geometry":{"type":"Point","coordinates":[-116.055617,33.752886]}},{"properties":{"city":"Corte Madera","number of inc 5000 companies":1,"geo_score":0.857,"id":"a65a9smvr9kt","geo_precision":"city","state":"CA"},"type":"Feature","geometry":{"type":"Point","coordinates":[-122.512035,37.925039]}},{"properties":{"city":"Costa Mesa","number of inc 5000 companies":5,"geo_score":0.73,"id":"a65a9splg5gp","geo_precision":"city","state":"CA"},"type":"Feature","geometry":{"type":"Point","coordinates":[-115.967051,34.839964]}},{"properties":{"city":"COTATI","number of inc 5000 companies":2,"geo_score":0.857,"id":"a65a9sr8ascd","geo_precision":"city","state":"CA"},"type":"Feature","geometry":{"type":"Point","coordinates":[-122.989975,38.463088]}},{"properties":{"city":"Covina","number of inc 5000 companies":1,"geo_score":0.857,"id":"a65a9shw63za","geo_precision":"city","state":"CA"},"type":"Feature","geometry":{"type":"Point","coordinates":[-118.298662,33.786594]}},{"properties":{"city":"Culver City","number of inc 5000 companies":3,"geo_score":0.857,"id":"a65a9ssj9gva","geo_precision":"city","state":"CA"},"type":"Feature","geometry":{"type":"Point","coordinates":[-118.298662,33.786594]}},{"properties":{"city":"Cupertino","number of inc 5000 companies":1,"geo_score":0.857,"id":"a65a9shkwqwt","geo_precision":"city","state":"CA"},"type":"Feature","geometry":{"type":"Point","coordinates":[-121.705327,37.189396]}},{"properties":{"city":"Cypress","number of inc 5000 companies":1,"geo_score":0.857,"id":"a65a9smx0fhp","geo_precision":"city","state":"CA"},"type":"Feature","geometry":{"type":"Point","coordinates":[-117.769442,33.640302]}},{"properties":{"city":"Dana Point","number of inc 5000 companies":1,"geo_score":0.762,"id":"a65a9snu0waj","geo_precision":"city","state":"CA"},"type":"Feature","geometry":{"type":"Point","coordinates":[-123.386711,40.944025]}},{"properties":{"city":"Danville","number of inc 5000 companies":2,"geo_score":0.81,"id":"a65a9sr33f46","geo_precision":"city","state":"CA"},"type":"Feature","geometry":{"type":"Point","coordinates":[-119.09066,36.248561]}},{"properties":{"city":"DIAMOND BAR","number of inc 5000 companies":1,"geo_score":0.729,"id":"a65a9su4bh6r","geo_precision":"city","state":"CA"},"type":"Feature","geometry":{"type":"Point","coordinates":[-121.970838,41.644041]}},{"properties":{"city":"Dinuba","number of inc 5000 companies":1,"geo_score":0.786,"id":"a65a9shgr0rr","geo_precision":"city","state":"CA"},"type":"Feature","geometry":{"type":"Point","coordinates":[-115.348038,34.635554]}},{"properties":{"city":"Dublin","number of inc 5000 companies":1,"geo_score":0.857,"id":"a65a9sny9c3s","geo_precision":"city","state":"CA"},"type":"Feature","geometry":{"type":"Point","coordinates":[-121.906329,37.714402]}},{"properties":{"city":"El Cajon","number of inc 5000 companies":1,"geo_score":0.857,"id":"a65a9sjrk3xv","geo_precision":"city","state":"CA"},"type":"Feature","geometry":{"type":"Point","coordinates":[-117.041287,32.865113]}},{"properties":{"city":"El Dorado Hills","number of inc 5000 companies":2,"geo_score":0.802,"id":"a65a9snu6g31","geo_precision":"city","state":"CA"},"type":"Feature","geometry":{"type":"Point","coordinates":[-120.84598,38.676272]}},{"properties":{"city":"El Segundo","number of inc 5000 companies":6,"geo_score":0.857,"id":"a65a9spb6jqx","geo_precision":"city","state":"CA"},"type":"Feature","geometry":{"type":"Point","coordinates":[-118.298662,33.786594]}},{"properties":{"city":"Elk Grove","number of inc 5000 companies":1,"geo_score":0.768,"id":"a65a9sgfby9h","geo_precision":"city","state":"CA"},"type":"Feature","geometry":{"type":"Point","coordinates":[-123.618031,39.076371]}},{"properties":{"city":"Emeryville","number of inc 5000 companies":7,"geo_score":0.857,"id":"a65a9siutt1r","geo_precision":"city","state":"CA"},"type":"Feature","geometry":{"type":"Point","coordinates":[-122.29548,37.833876]}},{"properties":{"city":"Encinitas","number of inc 5000 companies":1,"geo_score":0.857,"id":"a65a9sl0ey2h","geo_precision":"city","state":"CA"},"type":"Feature","geometry":{"type":"Point","coordinates":[-116.846046,33.016928]}},{"properties":{"city":"Encino","number of inc 5000 companies":2,"geo_score":0.857,"id":"a65a9sj0sftw","geo_precision":"city","state":"CA"},"type":"Feature","geometry":{"type":"Point","coordinates":[-118.298662,33.786594]}},{"properties":{"city":"Escondido","number of inc 5000 companies":5,"geo_score":0.857,"id":"a65a9sta02gr","geo_precision":"city","state":"CA"},"type":"Feature","geometry":{"type":"Point","coordinates":[-117.086421,33.119207]}},{"properties":{"city":"Folsom","number of inc 5000 companies":2,"geo_score":0.857,"id":"a65a9sil3tou","geo_precision":"city","state":"CA"},"type":"Feature","geometry":{"type":"Point","coordinates":[-121.310796,38.594181]}},{"properties":{"city":"Foster City","number of inc 5000 companies":2,"geo_score":0.857,"id":"a65a9sijf6ua","geo_precision":"city","state":"CA"},"type":"Feature","geometry":{"type":"Point","coordinates":[-122.271079,37.558547]}},{"properties":{"city":"Fountain Valley","number of inc 5000 companies":1,"geo_score":0.735,"id":"a65a9soopmkc","geo_precision":"city","state":"CA"},"type":"Feature","geometry":{"type":"Point","coordinates":[-121.677764,40.517936]}},{"properties":{"city":"Fremont","number of inc 5000 companies":5,"geo_score":0.857,"id":"a65a9sqmu4ot","geo_precision":"city","state":"CA"},"type":"Feature","geometry":{"type":"Point","coordinates":[-121.988572,37.54827]}},{"properties":{"city":"Fresno","number of inc 5000 companies":4,"geo_score":0.857,"id":"a65a9srhqq19","geo_precision":"city","state":"CA"},"type":"Feature","geometry":{"type":"Point","coordinates":[-119.772366,36.747727]}},{"properties":{"city":"Fullerton","number of inc 5000 companies":1,"geo_score":0.857,"id":"a65a9spa15yn","geo_precision":"city","state":"CA"},"type":"Feature","geometry":{"type":"Point","coordinates":[-117.925338,33.870292]}},{"properties":{"city":"Garden Grove","number of inc 5000 companies":1,"geo_score":0.857,"id":"a65a9sqfqsxq","geo_precision":"city","state":"CA"},"type":"Feature","geometry":{"type":"Point","coordinates":[-117.941448,33.773905]}},{"properties":{"city":"Gardena","number of inc 5000 companies":1,"geo_score":0.857,"id":"a65a9seurzpt","geo_precision":"city","state":"CA"},"type":"Feature","geometry":{"type":"Point","coordinates":[-118.295256,33.888315]}},{"properties":{"city":"Gilroy","number of inc 5000 companies":1,"geo_score":0.857,"id":"a65a9sghp9hq","geo_precision":"city","state":"CA"},"type":"Feature","geometry":{"type":"Point","coordinates":[-121.493849,37.023347]}},{"properties":{"city":"Glendale","number of inc 5000 companies":3,"geo_score":0.857,"id":"a65a9sllk7i6","geo_precision":"city","state":"CA"},"type":"Feature","geometry":{"type":"Point","coordinates":[-118.255075,34.142508]}},{"properties":{"city":"Glendora","number of inc 5000 companies":1,"geo_score":0.857,"id":"a65a9sqgtjaf","geo_precision":"city","state":"CA"},"type":"Feature","geometry":{"type":"Point","coordinates":[-118.298662,33.786594]}},{"properties":{"city":"Gold River","number of inc 5000 companies":1,"geo_score":0.746,"id":"a65a9sjheiae","geo_precision":"city","state":"CA"},"type":"Feature","geometry":{"type":"Point","coordinates":[-122.029407,38.025476]}},{"properties":{"city":"Goleta","number of inc 5000 companies":1,"geo_score":0.738,"id":"a65a9ssxj83y","geo_precision":"city","state":"CA"},"type":"Feature","geometry":{"type":"Point","coordinates":[-122.029407,38.025476]}},{"properties":{"city":"Greenbrae","number of inc 5000 companies":1,"geo_score":0.857,"id":"a65a9skjlgrj","geo_precision":"city","state":"CA"},"type":"Feature","geometry":{"type":"Point","coordinates":[-122.536337,37.947874]}},{"properties":{"city":"Half Moon Bay","number of inc 5000 companies":1,"geo_score":0.857,"id":"a65a9sjbkwuh","geo_precision":"city","state":"CA"},"type":"Feature","geometry":{"type":"Point","coordinates":[-122.415566,37.389057]}},{"properties":{"city":"Harbor City","number of inc 5000 companies":1,"geo_score":0.814,"id":"a65a9sq0jmft","geo_precision":"city","state":"CA"},"type":"Feature","geometry":{"type":"Point","coordinates":[-117.081417,32.610055]}},{"properties":{"city":"Hayward","number of inc 5000 companies":1,"geo_score":0.857,"id":"a65a9stu5omh","geo_precision":"city","state":"CA"},"type":"Feature","geometry":{"type":"Point","coordinates":[-122.080796,37.668821]}},{"properties":{"city":"Hermosa Beach","number of inc 5000 companies":1,"geo_score":0.857,"id":"a65a9snawkut","geo_precision":"city","state":"CA"},"type":"Feature","geometry":{"type":"Point","coordinates":[-118.298662,33.786594]}},{"properties":{"city":"Huntington Beach","number of inc 5000 companies":5,"geo_score":0.857,"id":"a65a9st43f20","geo_precision":"city","state":"CA"},"type":"Feature","geometry":{"type":"Point","coordinates":[-117.999227,33.660297]}},{"properties":{"city":"Huntington Park","number of inc 5000 companies":1,"geo_score":0.819,"id":"a65a9snvg87y","geo_precision":"city","state":"CA"},"type":"Feature","geometry":{"type":"Point","coordinates":[-117.999227,33.660297]}},{"properties":{"city":"Inglewood","number of inc 5000 companies":1,"geo_score":0.857,"id":"a65a9sj5tcd2","geo_precision":"city","state":"CA"},"type":"Feature","geometry":{"type":"Point","coordinates":[-118.298662,33.786594]}},{"properties":{"city":"Irvine","number of inc 5000 companies":32,"geo_score":0.857,"id":"a65a9ss659zi","geo_precision":"city","state":"CA"},"type":"Feature","geometry":{"type":"Point","coordinates":[-117.823111,33.669465]}},{"properties":{"city":"La Jolla","number of inc 5000 companies":1,"geo_score":0.857,"id":"a65a9ska5o48","geo_precision":"city","state":"CA"},"type":"Feature","geometry":{"type":"Point","coordinates":[-117.876447,33.857515]}},{"properties":{"city":"La Puente","number of inc 5000 companies":1,"geo_score":0.857,"id":"a65a9sjhy25k","geo_precision":"city","state":"CA"},"type":"Feature","geometry":{"type":"Point","coordinates":[-118.298662,33.786594]}},{"properties":{"city":"Laguna Hills","number of inc 5000 companies":1,"geo_score":0.857,"id":"a65a9sjlfo85","geo_precision":"city","state":"CA"},"type":"Feature","geometry":{"type":"Point","coordinates":[-117.715535,33.595714]}},{"properties":{"city":"Lake Elsinore","number of inc 5000 companies":1,"geo_score":0.786,"id":"a65a9shsgssa","geo_precision":"city","state":"CA"},"type":"Feature","geometry":{"type":"Point","coordinates":[-117.828119,34.612491]}},{"properties":{"city":"Lake Forest","number of inc 5000 companies":2,"geo_score":0.786,"id":"a65a9sh79cpn","geo_precision":"city","state":"CA"},"type":"Feature","geometry":{"type":"Point","coordinates":[-119.755172,37.698261]}},{"properties":{"city":"Livermore","number of inc 5000 companies":1,"geo_score":0.857,"id":"a65a9sp8aozg","geo_precision":"city","state":"CA"},"type":"Feature","geometry":{"type":"Point","coordinates":[-121.91605,37.676781]}},{"properties":{"city":"Long Beach","number of inc 5000 companies":2,"geo_score":0.857,"id":"a65a9socba0g","geo_precision":"city","state":"CA"},"type":"Feature","geometry":{"type":"Point","coordinates":[-118.189235,33.766962]}},{"properties":{"city":"Los Angeles","number of inc 5000 companies":49,"geo_score":0.857,"id":"a65a9sm0mrar","geo_precision":"city","state":"CA"},"type":"Feature","geometry":{"type":"Point","coordinates":[-118.243685,34.052234]}},{"properties":{"city":"Los Gatos","number of inc 5000 companies":4,"geo_score":0.768,"id":"a65a9sf0zk62","geo_precision":"city","state":"CA"},"type":"Feature","geometry":{"type":"Point","coordinates":[-118.345664,37.400762]}},{"properties":{"city":"Lynwood","number of inc 5000 companies":1,"geo_score":0.837,"id":"a65a9sp5f03z","geo_precision":"city","state":"CA"},"type":"Feature","geometry":{"type":"Point","coordinates":[-117.103931,34.87665]}},{"properties":{"city":"Manhattan Beach","number of inc 5000 companies":2,"geo_score":0.857,"id":"a65a9sk58edb","geo_precision":"city","state":"CA"},"type":"Feature","geometry":{"type":"Point","coordinates":[-118.298662,33.786594]}},{"properties":{"city":"Mill Valley","number of inc 5000 companies":1,"geo_score":0.757,"id":"a65a9sn8ynwi","geo_precision":"city","state":"CA"},"type":"Feature","geometry":{"type":"Point","coordinates":[-121.677764,40.517936]}},{"properties":{"city":"Milpitas","number of inc 5000 companies":3,"geo_score":0.857,"id":"a65a9spv011d","geo_precision":"city","state":"CA"},"type":"Feature","geometry":{"type":"Point","coordinates":[-121.861989,37.436454]}},{"properties":{"city":"Mission Viejo","number of inc 5000 companies":3,"geo_score":0.857,"id":"a65a9st7uyhe","geo_precision":"city","state":"CA"},"type":"Feature","geometry":{"type":"Point","coordinates":[-117.769442,33.640302]}},{"properties":{"city":"Modesto","number of inc 5000 companies":2,"geo_score":0.857,"id":"a65a9spgsu3c","geo_precision":"city","state":"CA"},"type":"Feature","geometry":{"type":"Point","coordinates":[-121.016796,37.669463]}},{"properties":{"city":"MOntebello","number of inc 5000 companies":2,"geo_score":0.798,"id":"a65a9smcw29t","geo_precision":"city","state":"CA"},"type":"Feature","geometry":{"type":"Point","coordinates":[-120.0449,37.507159]}},{"properties":{"city":"Monterey Park","number of inc 5000 companies":1,"geo_score":0.81,"id":"a65a9stbuvft","geo_precision":"city","state":"CA"},"type":"Feature","geometry":{"type":"Point","coordinates":[-121.688623,36.521811]}},{"properties":{"city":"Moorpark","number of inc 5000 companies":2,"geo_score":0.782,"id":"a65a9slx4apv","geo_precision":"city","state":"CA"},"type":"Feature","geometry":{"type":"Point","coordinates":[-118.915098,34.265559]}},{"properties":{"city":"Morgan Hill","number of inc 5000 companies":1,"geo_score":0.857,"id":"a65a9so3qwr7","geo_precision":"city","state":"CA"},"type":"Feature","geometry":{"type":"Point","coordinates":[-121.681557,37.130238]}},{"properties":{"city":"Mountain View","number of inc 5000 companies":10,"geo_score":0.815,"id":"a65a9spat3ck","geo_precision":"city","state":"CA"},"type":"Feature","geometry":{"type":"Point","coordinates":[-117.348935,34.496663]}},{"properties":{"city":"Murrieta","number of inc 5000 companies":2,"geo_score":0.768,"id":"a65a9smmk97a","geo_precision":"city","state":"CA"},"type":"Feature","geometry":{"type":"Point","coordinates":[-118.007297,33.900863]}},{"properties":{"city":"Napa","number of inc 5000 companies":1,"geo_score":0.857,"id":"a65a9slhckqd","geo_precision":"city","state":"CA"},"type":"Feature","geometry":{"type":"Point","coordinates":[-122.311921,38.516158]}},{"properties":{"city":"Nevada City","number of inc 5000 companies":1,"geo_score":0.771,"id":"a65a9shnewef","geo_precision":"city","state":"CA"},"type":"Feature","geometry":{"type":"Point","coordinates":[-122.540951,38.027654]}},{"properties":{"city":"Newark","number of inc 5000 companies":2,"geo_score":0.857,"id":"a65a9shfq2al","geo_precision":"city","state":"CA"},"type":"Feature","geometry":{"type":"Point","coordinates":[-122.025352,37.534102]}},{"properties":{"city":"Newport Beach","number of inc 5000 companies":2,"geo_score":0.857,"id":"a65a9sjnlp9f","geo_precision":"city","state":"CA"},"type":"Feature","geometry":{"type":"Point","coordinates":[-117.928947,33.61891]}},{"properties":{"city":"North Hollywood","number of inc 5000 companies":4,"geo_score":0.857,"id":"a65a9skthz8n","geo_precision":"city","state":"CA"},"type":"Feature","geometry":{"type":"Point","coordinates":[-118.378968,34.172228]}},{"properties":{"city":"Northridge","number of inc 5000 companies":1,"geo_score":0.857,"id":"a65a9snanyy0","geo_precision":"city","state":"CA"},"type":"Feature","geometry":{"type":"Point","coordinates":[-118.298662,33.786594]}},{"properties":{"city":"Novato","number of inc 5000 companies":3,"geo_score":0.857,"id":"a65a9sjs0zlp","geo_precision":"city","state":"CA"},"type":"Feature","geometry":{"type":"Point","coordinates":[-122.540951,38.027654]}},{"properties":{"city":"Oakland","number of inc 5000 companies":9,"geo_score":0.857,"id":"a65a9si9b5pz","geo_precision":"city","state":"CA"},"type":"Feature","geometry":{"type":"Point","coordinates":[-122.270803,37.804372]}},{"properties":{"city":"Ontario","number of inc 5000 companies":2,"geo_score":0.857,"id":"a65a9slm3rbl","geo_precision":"city","state":"CA"},"type":"Feature","geometry":{"type":"Point","coordinates":[-117.650888,34.063344]}},{"properties":{"city":"Orange","number of inc 5000 companies":11,"geo_score":0.857,"id":"a65a9sdslb31","geo_precision":"city","state":"CA"},"type":"Feature","geometry":{"type":"Point","coordinates":[-117.853112,33.787795]}},{"properties":{"city":"Orangevale","number of inc 5000 companies":1,"geo_score":0.857,"id":"a65a9sgullt3","geo_precision":"city","state":"CA"},"type":"Feature","geometry":{"type":"Point","coordinates":[-121.225369,38.687103]}},{"properties":{"city":"Orinda","number of inc 5000 companies":1,"geo_score":0.857,"id":"a65a9skr4g5l","geo_precision":"city","state":"CA"},"type":"Feature","geometry":{"type":"Point","coordinates":[-122.144826,37.893124]}},{"properties":{"city":"Oxnard","number of inc 5000 companies":4,"geo_score":0.792,"id":"a65a9sg8popc","geo_precision":"city","state":"CA"},"type":"Feature","geometry":{"type":"Point","coordinates":[-119.227886,34.163338]}},{"properties":{"city":"Palm Desert","number of inc 5000 companies":1,"geo_score":0.757,"id":"a65a9srmq6cr","geo_precision":"city","state":"CA"},"type":"Feature","geometry":{"type":"Point","coordinates":[-120.763269,38.259361]}},{"properties":{"city":"Palo Alto","number of inc 5000 companies":8,"geo_score":0.857,"id":"a65a9sn4bfv8","geo_precision":"city","state":"CA"},"type":"Feature","geometry":{"type":"Point","coordinates":[-122.14302,37.441883]}},{"properties":{"city":"Paramount","number of inc 5000 companies":1,"geo_score":0.857,"id":"a65a9smdj6kl","geo_precision":"city","state":"CA"},"type":"Feature","geometry":{"type":"Point","coordinates":[-118.165152,33.899015]}},{"properties":{"city":"Pasadena","number of inc 5000 companies":5,"geo_score":0.857,"id":"a65a9sim2x2z","geo_precision":"city","state":"CA"},"type":"Feature","geometry":{"type":"Point","coordinates":[-118.144516,34.147785]}},{"properties":{"city":"Paso Robles","number of inc 5000 companies":1,"geo_score":0.757,"id":"a65a9strb3lr","geo_precision":"city","state":"CA"},"type":"Feature","geometry":{"type":"Point","coordinates":[-120.376547,35.303584]}},{"properties":{"city":"Pleasanton","number of inc 5000 companies":9,"geo_score":0.796,"id":"a65a9snqvo7b","geo_precision":"city","state":"CA"},"type":"Feature","geometry":{"type":"Point","coordinates":[-120.662985,38.68296]}},{"properties":{"city":"Poway","number of inc 5000 companies":3,"geo_score":0.857,"id":"a65a9simn1av","geo_precision":"city","state":"CA"},"type":"Feature","geometry":{"type":"Point","coordinates":[-117.030299,32.994097]}},{"properties":{"city":"Rancho Cordova","number of inc 5000 companies":1,"geo_score":0.857,"id":"a65a9skhwyjf","geo_precision":"city","state":"CA"},"type":"Feature","geometry":{"type":"Point","coordinates":[-121.270426,38.597705]}},{"properties":{"city":"Rancho Cucamonga","number of inc 5000 companies":2,"geo_score":0.857,"id":"a65a9siu9vbg","geo_precision":"city","state":"CA"},"type":"Feature","geometry":{"type":"Point","coordinates":[-115.967051,34.839964]}},{"properties":{"city":"Rancho Dominguez","number of inc 5000 companies":1,"geo_score":0.8,"id":"a65a9srvo6l5","geo_precision":"city","state":"CA"},"type":"Feature","geometry":{"type":"Point","coordinates":[-118.218681,33.834739]}},{"properties":{"city":"Rancho Santa Margarita","number of inc 5000 companies":2,"geo_score":0.829,"id":"a65a9sna13l7","geo_precision":"city","state":"CA"},"type":"Feature","geometry":{"type":"Point","coordinates":[-118.53203,34.439995]}},{"properties":{"city":"Redding","number of inc 5000 companies":1,"geo_score":0.857,"id":"a65a9ssgvlr8","geo_precision":"city","state":"CA"},"type":"Feature","geometry":{"type":"Point","coordinates":[-122.391675,40.58654]}},{"properties":{"city":"Redondo Beach","number of inc 5000 companies":2,"geo_score":0.857,"id":"a65a9sisbe0j","geo_precision":"city","state":"CA"},"type":"Feature","geometry":{"type":"Point","coordinates":[-118.298662,33.786594]}},{"properties":{"city":"Redwood City","number of inc 5000 companies":3,"geo_score":0.74,"id":"a65a9sp48xje","geo_precision":"city","state":"CA"},"type":"Feature","geometry":{"type":"Point","coordinates":[-115.967051,34.839964]}},{"properties":{"city":"Redwood Shores","number of inc 5000 companies":1,"geo_score":0.736,"id":"a65a9spebyp3","geo_precision":"city","state":"CA"},"type":"Feature","geometry":{"type":"Point","coordinates":[-115.967051,34.839964]}},{"properties":{"city":"Riverside","number of inc 5000 companies":1,"geo_score":0.857,"id":"a65a9sos3sjc","geo_precision":"city","state":"CA"},"type":"Feature","geometry":{"type":"Point","coordinates":[-117.396156,33.953349]}},{"properties":{"city":"Rocklin","number of inc 5000 companies":1,"geo_score":0.857,"id":"a65a9spyjakq","geo_precision":"city","state":"CA"},"type":"Feature","geometry":{"type":"Point","coordinates":[-121.230374,38.801233]}},{"properties":{"city":"Rolling Hills Estates","number of inc 5000 companies":1,"geo_score":0.857,"id":"a65a9sj57okv","geo_precision":"city","state":"CA"},"type":"Feature","geometry":{"type":"Point","coordinates":[-118.358128,33.787794]}},{"properties":{"city":"Roseville","number of inc 5000 companies":1,"geo_score":0.857,"id":"a65a9smudmbq","geo_precision":"city","state":"CA"},"type":"Feature","geometry":{"type":"Point","coordinates":[-121.25603,38.74073]}},{"properties":{"city":"Sacramento","number of inc 5000 companies":4,"geo_score":0.857,"id":"a65a9su3zwum","geo_precision":"city","state":"CA"},"type":"Feature","geometry":{"type":"Point","coordinates":[-121.4944,38.581572]}},{"properties":{"city":"Salinas","number of inc 5000 companies":2,"geo_score":0.857,"id":"a65a9spq9nku","geo_precision":"city","state":"CA"},"type":"Feature","geometry":{"type":"Point","coordinates":[-121.655501,36.677737]}},{"properties":{"city":"San Bernardino","number of inc 5000 companies":1,"geo_score":0.857,"id":"a65a9sgcaur8","geo_precision":"city","state":"CA"},"type":"Feature","geometry":{"type":"Point","coordinates":[-117.289765,34.108345]}},{"properties":{"city":"San Bruno","number of inc 5000 companies":2,"geo_score":0.791,"id":"a65a9smzhhhi","geo_precision":"city","state":"CA"},"type":"Feature","geometry":{"type":"Point","coordinates":[-117.289765,34.108345]}},{"properties":{"city":"San Clemente","number of inc 5000 companies":2,"geo_score":0.805,"id":"a65a9shexj2b","geo_precision":"city","state":"CA"},"type":"Feature","geometry":{"type":"Point","coordinates":[-121.044252,38.211127]}},{"properties":{"city":"San Diego","number of inc 5000 companies":66,"geo_score":0.857,"id":"a65a9sgv2xlq","geo_precision":"city","state":"CA"},"type":"Feature","geometry":{"type":"Point","coordinates":[-117.157255,32.715329]}},{"properties":{"city":"San Francisco","number of inc 5000 companies":62,"geo_score":0.857,"id":"a65a9spnmyg7","geo_precision":"city","state":"CA"},"type":"Feature","geometry":{"type":"Point","coordinates":[-122.419416,37.77493]}},{"properties":{"city":"San Gabriel","number of inc 5000 companies":1,"geo_score":0.857,"id":"a65a9sn1cfmc","geo_precision":"city","state":"CA"},"type":"Feature","geometry":{"type":"Point","coordinates":[-118.105833,34.096111]}},{"properties":{"city":"San Jose","number of inc 5000 companies":14,"geo_score":0.857,"id":"a65a9sppf48t","geo_precision":"city","state":"CA"},"type":"Feature","geometry":{"type":"Point","coordinates":[-121.894956,37.339386]}},{"properties":{"city":"San Leandro","number of inc 5000 companies":3,"geo_score":0.8,"id":"a65a9seznc5c","geo_precision":"city","state":"CA"},"type":"Feature","geometry":{"type":"Point","coordinates":[-118.982322,36.022452]}},{"properties":{"city":"San Luis Obispo","number of inc 5000 companies":5,"geo_score":0.736,"id":"a65a9sep4d75","geo_precision":"city","state":"CA"},"type":"Feature","geometry":{"type":"Point","coordinates":[-118.345664,37.400762]}},{"properties":{"city":"San Mateo","number of inc 5000 companies":13,"geo_score":0.857,"id":"a65a9ssqu32e","geo_precision":"city","state":"CA"},"type":"Feature","geometry":{"type":"Point","coordinates":[-122.325525,37.562992]}},{"properties":{"city":"San Rafael","number of inc 5000 companies":3,"geo_score":0.857,"id":"a65a9st43sao","geo_precision":"city","state":"CA"},"type":"Feature","geometry":{"type":"Point","coordinates":[-122.531087,37.973535]}},{"properties":{"city":"San Ramon","number of inc 5000 companies":4,"geo_score":0.786,"id":"a65a9sqr938x","geo_precision":"city","state":"CA"},"type":"Feature","geometry":{"type":"Point","coordinates":[-116.976549,33.031572]}},{"properties":{"city":"Santa Ana","number of inc 5000 companies":5,"geo_score":0.857,"id":"a65a9st2ojuq","geo_precision":"city","state":"CA"},"type":"Feature","geometry":{"type":"Point","coordinates":[-117.867834,33.745573]}},{"properties":{"city":"Santa Barbara","number of inc 5000 companies":5,"geo_score":0.857,"id":"a65a9sjs9c7u","geo_precision":"city","state":"CA"},"type":"Feature","geometry":{"type":"Point","coordinates":[-119.69819,34.420831]}},{"properties":{"city":"Santa Clara","number of inc 5000 companies":10,"geo_score":0.757,"id":"a65a9srqxw7m","geo_precision":"city","state":"CA"},"type":"Feature","geometry":{"type":"Point","coordinates":[-119.045658,36.114674]}},{"properties":{"city":"Santa Clarita","number of inc 5000 companies":2,"geo_score":0.75,"id":"a65a9sgli0yj","geo_precision":"city","state":"CA"},"type":"Feature","geometry":{"type":"Point","coordinates":[-122.168022,37.862148]}},{"properties":{"city":"Santa Cruz","number of inc 5000 companies":1,"geo_score":0.762,"id":"a65a9smvdb0k","geo_precision":"city","state":"CA"},"type":"Feature","geometry":{"type":"Point","coordinates":[-119.045658,36.114674]}},{"properties":{"city":"Santa Fe Springs","number of inc 5000 companies":2,"geo_score":0.755,"id":"a65a9setrto4","geo_precision":"city","state":"CA"},"type":"Feature","geometry":{"type":"Point","coordinates":[-119.045658,36.114674]}},{"properties":{"city":"Santa Maria","number of inc 5000 companies":1,"geo_score":0.743,"id":"a65a9sejc5xx","geo_precision":"city","state":"CA"},"type":"Feature","geometry":{"type":"Point","coordinates":[-123.34501,39.398219]}},{"properties":{"city":"Santa Monica","number of inc 5000 companies":10,"geo_score":0.857,"id":"a65a9sivvmgb","geo_precision":"city","state":"CA"},"type":"Feature","geometry":{"type":"Point","coordinates":[-118.491191,34.019454]}},{"properties":{"city":"Santa Rosa","number of inc 5000 companies":3,"geo_score":0.73,"id":"a65a9shclv9g","geo_precision":"city","state":"CA"},"type":"Feature","geometry":{"type":"Point","coordinates":[-114.849692,34.083625]}},{"properties":{"city":"Scotts Valley","number of inc 5000 companies":1,"geo_score":0.738,"id":"a65a9sl3up4k","geo_precision":"city","state":"CA"},"type":"Feature","geometry":{"type":"Point","coordinates":[-121.677764,40.517936]}},{"properties":{"city":"SHERMAN OAKS","number of inc 5000 companies":2,"geo_score":0.766,"id":"a65a9sr22a63","geo_precision":"city","state":"CA"},"type":"Feature","geometry":{"type":"Point","coordinates":[-120.594892,35.118865]}},{"properties":{"city":"Sierra Madre","number of inc 5000 companies":1,"geo_score":0.753,"id":"a65a9st0u4xa","geo_precision":"city","state":"CA"},"type":"Feature","geometry":{"type":"Point","coordinates":[-120.182423,36.928286]}},{"properties":{"city":"Simi Valley","number of inc 5000 companies":3,"geo_score":0.743,"id":"a65a9sex6g6j","geo_precision":"city","state":"CA"},"type":"Feature","geometry":{"type":"Point","coordinates":[-121.677764,40.517936]}},{"properties":{"city":"Snan Diego","number of inc 5000 companies":1,"geo_score":0.0,"id":"a65a9srm8mp7","geo_precision":"unmatched","state":"CA"},"type":"Feature","geometry":null},{"properties":{"city":"Solana Beach","number of inc 5000 companies":1,"geo_score":0.857,"id":"a65a9skpsga3","geo_precision":"city","state":"CA"},"type":"Feature","geometry":{"type":"Point","coordinates":[-117.256769,33.007075]}},{"properties":{"city":"Solana Bech","number of inc 5000 companies":1,"geo_score":0.844,"id":"a65a9sf2s268","geo_precision":"city","state":"CA"},"type":"Feature","geometry":{"type":"Point","coordinates":[-117.256769,33.007075]}},{"properties":{"city":"South San Francisco","number of inc 5000 companies":6,"geo_score":0.815,"id":"a65a9soj7dxv","geo_precision":"city","state":"CA"},"type":"Feature","geometry":{"type":"Point","coordinates":[-122.419416,37.77493]}},{"properties":{"city":"Studio City","number of inc 5000 companies":1,"geo_score":0.857,"id":"a65a9sjvx478","geo_precision":"city","state":"CA"},"type":"Feature","geometry":{"type":"Point","coordinates":[-118.298662,33.786594]}},{"properties":{"city":"Suite 101","number of inc 5000 companies":1,"geo_score":0.0,"id":"a65a9skz6xss","geo_precision":"unmatched","state":"CA"},"type":"Feature","geometry":null},{"properties":{"city":"Sun Valley","number of inc 5000 companies":1,"geo_score":0.794,"id":"a65a9sdsomwn","geo_precision":"city","state":"CA"},"type":"Feature","geometry":{"type":"Point","coordinates":[-122.03635,37.36883]}},{"properties":{"city":"Sunnyvale","number of inc 5000 companies":9,"geo_score":0.857,"id":"a65a9sikibee","geo_precision":"city","state":"CA"},"type":"Feature","geometry":{"type":"Point","coordinates":[-122.03635,37.36883]}},{"properties":{"city":"Tarzana","number of inc 5000 companies":1,"geo_score":0.857,"id":"a65a9sk7xh2x","geo_precision":"city","state":"CA"},"type":"Feature","geometry":{"type":"Point","coordinates":[-118.298662,33.786594]}},{"properties":{"city":"Temecula","number of inc 5000 companies":3,"geo_score":0.857,"id":"a65a9sjlv5qv","geo_precision":"city","state":"CA"},"type":"Feature","geometry":{"type":"Point","coordinates":[-116.055617,33.752886]}},{"properties":{"city":"Thermal","number of inc 5000 companies":1,"geo_score":0.857,"id":"a65a9sl45bgp","geo_precision":"city","state":"CA"},"type":"Feature","geometry":{"type":"Point","coordinates":[-116.157152,33.5578]}},{"properties":{"city":"Thousand Oaks","number of inc 5000 companies":2,"geo_score":0.857,"id":"a65a9sqm2ddt","geo_precision":"city","state":"CA"},"type":"Feature","geometry":{"type":"Point","coordinates":[-118.837594,34.170561]}},{"properties":{"city":"Torrance","number of inc 5000 companies":11,"geo_score":0.857,"id":"a65a9sian844","geo_precision":"city","state":"CA"},"type":"Feature","geometry":{"type":"Point","coordinates":[-118.340629,33.835849]}},{"properties":{"city":"Truckee","number of inc 5000 companies":1,"geo_score":0.857,"id":"a65a9sj57jdi","geo_precision":"city","state":"CA"},"type":"Feature","geometry":{"type":"Point","coordinates":[-120.186383,39.3781]}},{"properties":{"city":"Turlock","number of inc 5000 companies":1,"geo_score":0.857,"id":"a65a9ss7xvon","geo_precision":"city","state":"CA"},"type":"Feature","geometry":{"type":"Point","coordinates":[-120.844063,37.540206]}},{"properties":{"city":"Tustin","number of inc 5000 companies":1,"geo_score":0.857,"id":"a65a9sfj1yi7","geo_precision":"city","state":"CA"},"type":"Feature","geometry":{"type":"Point","coordinates":[-117.826166,33.745851]}},{"properties":{"city":"Union City","number of inc 5000 companies":2,"geo_score":0.857,"id":"a65a9sns1wsy","geo_precision":"city","state":"CA"},"type":"Feature","geometry":{"type":"Point","coordinates":[-121.97362,37.589084]}},{"properties":{"city":"Valencia","number of inc 5000 companies":4,"geo_score":0.857,"id":"a65a9skvr3d2","geo_precision":"city","state":"CA"},"type":"Feature","geometry":{"type":"Point","coordinates":[-118.298662,33.786594]}},{"properties":{"city":"Van Nuys","number of inc 5000 companies":6,"geo_score":0.755,"id":"a65a9shvrsxm","geo_precision":"city","state":"CA"},"type":"Feature","geometry":{"type":"Point","coordinates":[-118.460079,33.990845]}},{"properties":{"city":"Venice","number of inc 5000 companies":2,"geo_score":0.857,"id":"a65a9sqqrtos","geo_precision":"city","state":"CA"},"type":"Feature","geometry":{"type":"Point","coordinates":[-118.460079,33.990845]}},{"properties":{"city":"Ventura","number of inc 5000 companies":1,"geo_score":0.857,"id":"a65a9sgwfhzz","geo_precision":"city","state":"CA"},"type":"Feature","geometry":{"type":"Point","coordinates":[-119.358352,34.330829]}},{"properties":{"city":"Vineburg","number of inc 5000 companies":1,"geo_score":0.857,"id":"a65a9spj1gup","geo_precision":"city","state":"CA"},"type":"Feature","geometry":{"type":"Point","coordinates":[-122.989975,38.463088]}},{"properties":{"city":"Vista","number of inc 5000 companies":2,"geo_score":0.857,"id":"a65a9su54ily","geo_precision":"city","state":"CA"},"type":"Feature","geometry":{"type":"Point","coordinates":[-116.846046,33.016928]}},{"properties":{"city":"Walnut","number of inc 5000 companies":3,"geo_score":0.857,"id":"a65a9snemfo2","geo_precision":"city","state":"CA"},"type":"Feature","geometry":{"type":"Point","coordinates":[-118.298662,33.786594]}},{"properties":{"city":"Walnut Creek","number of inc 5000 companies":3,"geo_score":0.727,"id":"a65a9smshnhl","geo_precision":"city","state":"CA"},"type":"Feature","geometry":{"type":"Point","coordinates":[-122.481647,38.517964]}},{"properties":{"city":"Watsonville","number of inc 5000 companies":1,"geo_score":0.857,"id":"a65a9srbtmvr","geo_precision":"city","state":"CA"},"type":"Feature","geometry":{"type":"Point","coordinates":[-121.74696,36.98025]}},{"properties":{"city":"Weed","number of inc 5000 companies":1,"geo_score":0.771,"id":"a65a9sqnbmhs","geo_precision":"city","state":"CA"},"type":"Feature","geometry":{"type":"Point","coordinates":[-118.79575,35.608372]}},{"properties":{"city":"West Covina","number of inc 5000 companies":1,"geo_score":0.8,"id":"a65a9sh2suje","geo_precision":"city","state":"CA"},"type":"Feature","geometry":{"type":"Point","coordinates":[-118.298662,33.786594]}},{"properties":{"city":"West Hollywood","number of inc 5000 companies":2,"geo_score":0.813,"id":"a65a9sk1swnx","geo_precision":"city","state":"CA"},"type":"Feature","geometry":{"type":"Point","coordinates":[-118.326743,34.098343]}},{"properties":{"city":"Westlake Village","number of inc 5000 companies":1,"geo_score":0.857,"id":"a65a9sj12ipy","geo_precision":"city","state":"CA"},"type":"Feature","geometry":{"type":"Point","coordinates":[-118.805647,34.145839]}},{"properties":{"city":"Woodland Hills","number of inc 5000 companies":2,"geo_score":0.857,"id":"a65a9sqb9ojz","geo_precision":"city","state":"CA"},"type":"Feature","geometry":{"type":"Point","coordinates":[-118.60592,34.168339]}},{"properties":{"city":"Yorba Linda","number of inc 5000 companies":1,"geo_score":0.757,"id":"a65a9slxpdc3","geo_precision":"city","state":"CA"},"type":"Feature","geometry":{"type":"Point","coordinates":[-119.241544,38.027423]}}],"is_temporal":false,"author":{"url":"","metadata":"","contact_name":"","contact_address":"","source":"","contact_phone":""},"source":"","pagination":{"sort":null,"start":0,"total":179,"limit":1000000},"state":"complete","tags":"","published":"2014-08-15T01:11:04-04:00","id":216684}