{"type":"FeatureCollection","data_type":"Dataset","url_type":null,"permissions":[{"permissions":{"download":true,"view":true},"group_id":"everyone"}],"classification":null,"title":"Locations","count":46,"stream_id":216656,"contributor":{"url":"http://geocommons.com/users/6273","name":"lucascioffi"},"data_attributes":null,"calculation_params":null,"icon_link":null,"link":"http://geocommons.com/overlays/216656.json","extent":[-78.7616,36.7563,-75.1674,40.2091],"geometry_types":["point"],"unique_name":null,"name":"Locations","feature_count":46,"description":"","next_feature":null,"is_raster":false,"short_classification":"Y","stats":{},"features":[{"properties":{"city":"Alexandria","column_5":null,"zip":"22304","column_6":null,"geo_score":0.911,"street":"890 South Pickett Street","id":"a66walpn4dqj","geo_precision":"range","state":"VA"},"type":"Feature","geometry":{"type":"Point","coordinates":[-77.139426,38.803423]}},{"properties":{"city":"Annapolis","column_5":null,"zip":"21401","column_6":null,"geo_score":0.93,"street":"1816 George Avenue","id":"a66walyj68k6","geo_precision":"range","state":"MD"},"type":"Feature","geometry":{"type":"Point","coordinates":[-76.521538,38.975602]}},{"properties":{"city":"Ashland","column_5":null,"zip":"23005","column_6":null,"geo_score":0.462,"street":"625 N. Washington Hwy.","id":"a66walmerki3","geo_precision":"street","state":"VA"},"type":"Feature","geometry":{"type":"Point","coordinates":[-77.462045,37.684518]}},{"properties":{"city":"Baltimore","column_5":null,"zip":"21230","column_6":null,"geo_score":0.519,"street":"600 W. Hamburg St.","id":"a66walss17f4","geo_precision":"street","state":"MD"},"type":"Feature","geometry":{"type":"Point","coordinates":[-76.615042,39.277854]}},{"properties":{"city":"Baltimore","column_5":null,"zip":"21237","column_6":null,"geo_score":0.913,"street":"6905 Golden Ring Rd.","id":"a66walyjbxnm","geo_precision":"range","state":"MD"},"type":"Feature","geometry":{"type":"Point","coordinates":[-76.495645,39.333498]}},{"properties":{"city":"Baltimore","column_5":null,"zip":"21230","column_6":null,"geo_score":0.519,"street":"600 W. Hamburg St.","id":"a66walupv9ke","geo_precision":"street","state":"MD"},"type":"Feature","geometry":{"type":"Point","coordinates":[-76.615042,39.277854]}},{"properties":{"city":"Berlin","column_5":null,"zip":"21811","column_6":null,"geo_score":0.78,"street":"11070 Cathell Rd.","id":"a66walz2zkma","geo_precision":"range","state":"MD"},"type":"Feature","geometry":{"type":"Point","coordinates":[-75.167369,38.377734]}},{"properties":{"city":"Chambersburg","column_5":null,"zip":"17201","column_6":null,"geo_score":0.911,"street":"420 West Commerce Street","id":"a66walpxz18k","geo_precision":"range","state":"PA"},"type":"Feature","geometry":{"type":"Point","coordinates":[-77.664447,39.948753]}},{"properties":{"city":"Charlottesville","column_5":null,"zip":"22911","column_6":null,"geo_score":1.0,"street":"2390 Hunters Way","id":"a66walnqd0in","geo_precision":"range","state":"VA"},"type":"Feature","geometry":{"type":"Point","coordinates":[-78.418163,38.017806]}},{"properties":{"city":"Chesapeake","column_5":null,"zip":"23320","column_6":null,"geo_score":0.92,"street":"1028 Executive Blvd.","id":"a66walnlg1ks","geo_precision":"range","state":"VA"},"type":"Feature","geometry":{"type":"Point","coordinates":[-76.229706,36.756313]}},{"properties":{"city":"Chestertown","column_5":null,"zip":"21620","column_6":null,"geo_score":0.921,"street":"305 College Ave.","id":"a66walr6piy4","geo_precision":"range","state":"MD"},"type":"Feature","geometry":{"type":"Point","coordinates":[-76.070089,39.214087]}},{"properties":{"city":"Colonial Heights","column_5":null,"zip":"23834","column_6":null,"geo_score":0.909,"street":"16425 Jefferson Davis Hwy.","id":"a66wam25h9bg","geo_precision":"range","state":"VA"},"type":"Feature","geometry":{"type":"Point","coordinates":[-77.409727,37.297771]}},{"properties":{"city":"Columbia","column_5":null,"zip":"21045","column_6":null,"geo_score":0.919,"street":"8916 Mcgaw Court","id":"a66walqybevr","geo_precision":"range","state":"MD"},"type":"Feature","geometry":{"type":"Point","coordinates":[-76.82256,39.189489]}},{"properties":{"city":"Cumberland","column_5":null,"zip":"21502","column_6":null,"geo_score":0.967,"street":"86 Wineow Street","id":"a66wam1h4ww4","geo_precision":"range","state":"MD"},"type":"Feature","geometry":{"type":"Point","coordinates":[-78.761548,39.646449]}},{"properties":{"city":"Farmville","column_5":null,"zip":"23901","column_6":null,"geo_score":0.767,"street":"1012-J West 3rd Street","id":"a66waltw31b6","geo_precision":"range","state":"VA"},"type":"Feature","geometry":{"type":"Point","coordinates":[-78.407142,37.303811]}},{"properties":{"city":"Frederick","column_5":null,"zip":"21704","column_6":null,"geo_score":0.955,"street":"270 Interstate Circle","id":"a66walwn8tgh","geo_precision":"range","state":"MD"},"type":"Feature","geometry":{"type":"Point","coordinates":[-77.390299,39.402202]}},{"properties":{"city":"Fredericksburg","column_5":null,"zip":"22408","column_6":null,"geo_score":0.625,"street":"11001 Houser Drive, Suite 18","id":"a66walpb2d5a","geo_precision":"street","state":"VA"},"type":"Feature","geometry":{"type":"Point","coordinates":[-77.506869,38.253565]}},{"properties":{"city":"Gaithersburg","column_5":null,"zip":"20879","column_6":null,"geo_score":0.902,"street":"19050 Woodfield Rd.","id":"a66walp762zp","geo_precision":"range","state":"MD"},"type":"Feature","geometry":{"type":"Point","coordinates":[-77.154891,39.168275]}},{"properties":{"city":"Gettysburg","column_5":null,"zip":"17325","column_6":null,"geo_score":0.912,"street":"1660 Biglerville Road","id":"a66walqz2grb","geo_precision":"range","state":"PA"},"type":"Feature","geometry":{"type":"Point","coordinates":[-77.240671,39.869592]}},{"properties":{"city":"Glen Burnie","column_5":null,"zip":"21061","column_6":null,"geo_score":0.915,"street":"175 Penrod Court","id":"a66walp56sho","geo_precision":"range","state":"MD"},"type":"Feature","geometry":{"type":"Point","coordinates":[-76.625324,39.177378]}},{"properties":{"city":"Hagerstown","column_5":null,"zip":"21740","column_6":null,"geo_score":0.912,"street":"12111 Insurance Way","id":"a66walmcq8b3","geo_precision":"range","state":"MD"},"type":"Feature","geometry":{"type":"Point","coordinates":[-77.762673,39.646498]}},{"properties":{"city":"Hagerstown","column_5":null,"zip":"21740","column_6":null,"geo_score":0.912,"street":"12101 Insurance Way","id":"a66walzko7go","geo_precision":"range","state":"MD"},"type":"Feature","geometry":{"type":"Point","coordinates":[-77.76278,39.646186]}},{"properties":{"city":"Hanover","column_5":null,"zip":"17331","column_6":null,"geo_score":0.924,"street":"425 East Middle Street","id":"a66wals9cdz5","geo_precision":"range","state":"PA"},"type":"Feature","geometry":{"type":"Point","coordinates":[-76.976926,39.804404]}},{"properties":{"city":"Havre De Grace","column_5":null,"zip":"21078","column_6":null,"geo_score":0.923,"street":"1846 Pulaski Hwy","id":"a66wam12vacx","geo_precision":"range","state":"MD"},"type":"Feature","geometry":{"type":"Point","coordinates":[-76.124631,39.530879]}},{"properties":{"city":"Lancaster","column_5":null,"zip":"17601","column_6":null,"geo_score":0.885,"street":"1812A Olde Homestead Lane","id":"a66walno4ygq","geo_precision":"range","state":"PA"},"type":"Feature","geometry":{"type":"Point","coordinates":[-76.248715,40.050225]}},{"properties":{"city":"Manassas","column_5":null,"zip":"20109","column_6":null,"geo_score":1.0,"street":"7239 Gateway Ct.","id":"a66walul0kbe","geo_precision":"range","state":"VA"},"type":"Feature","geometry":{"type":"Point","coordinates":[-77.497207,38.803957]}},{"properties":{"city":"Martinsburg","column_5":null,"zip":"25405","column_6":null,"geo_score":0.711,"street":"48 Brian Drive","id":"a66waloqtjl2","geo_precision":"street","state":"WV"},"type":"Feature","geometry":{"type":"Point","coordinates":[-77.984877,39.433939]}},{"properties":{"city":"McConnellsburg","column_5":null,"zip":"17233","column_6":null,"geo_score":0.909,"street":"22438 Great Cove Road","id":"a66walzkpm56","geo_precision":"range","state":"PA"},"type":"Feature","geometry":{"type":"Point","coordinates":[-77.974307,39.970928]}},{"properties":{"city":"Mechanicsburg","column_5":null,"zip":"17055","column_6":null,"geo_score":0.91,"street":"701 West Simpson Street","id":"a66walntxu04","geo_precision":"range","state":"PA"},"type":"Feature","geometry":{"type":"Point","coordinates":[-77.021953,40.209102]}},{"properties":{"city":"Midlothian","column_5":null,"zip":"23112","column_6":null,"geo_score":0.811,"street":"2931 Oak Lake Boulevard","id":"a66walvdkmh8","geo_precision":"street","state":"VA"},"type":"Feature","geometry":{"type":"Point","coordinates":[-77.627409,37.449515]}},{"properties":{"city":"Richmond","column_5":null,"zip":"23233","column_6":null,"geo_score":0.83,"street":"12925 Plaza Drive","id":"a66walo1l1b8","geo_precision":"range","state":"VA"},"type":"Feature","geometry":{"type":"Point","coordinates":[-77.678289,37.671679]}},{"properties":{"city":"Richmond","column_5":null,"zip":"23230","column_6":null,"geo_score":0.61,"street":"1901 N. Hamilton St.","id":"a66walz4y6im","geo_precision":"street","state":"VA"},"type":"Feature","geometry":{"type":"Point","coordinates":[-77.481659,37.568058]}},{"properties":{"city":"Salisbury","column_5":null,"zip":"21801","column_6":null,"geo_score":0.585,"street":"1774 Westwood Drive","id":"a66walt6dejw","geo_precision":"zip","state":"MD"},"type":"Feature","geometry":{"type":"Point","coordinates":[-75.598814,38.387618]}},{"properties":{"city":"Sterling","column_5":null,"zip":"20166","column_6":null,"geo_score":1.0,"street":"45969 Nokes Blvd.","id":"a66walr7wjmw","geo_precision":"range","state":"VA"},"type":"Feature","geometry":{"type":"Point","coordinates":[-77.410191,39.022967]}},{"properties":{"city":"Suffolk","column_5":null,"zip":"23435","column_6":null,"geo_score":0.679,"street":"6950-B Harbour View Blvd.","id":"a66walsojbi9","geo_precision":"street","state":"VA"},"type":"Feature","geometry":{"type":"Point","coordinates":[-76.437171,36.880478]}},{"properties":{"city":"Timonium","column_5":null,"zip":"21093","column_6":null,"geo_score":0.902,"street":"14 West Aylesbury Road","id":"a66wam1hzteo","geo_precision":"range","state":"MD"},"type":"Feature","geometry":{"type":"Point","coordinates":[-76.626404,39.434551]}},{"properties":{"city":"Upper Marlboro","column_5":null,"zip":"20772","column_6":null,"geo_score":0.608,"street":"8511 Pepco Place","id":"a66walzihlup","geo_precision":"zip","state":"MD"},"type":"Feature","geometry":{"type":"Point","coordinates":[-76.830249,38.897612]}},{"properties":{"city":"Upper Marlboro","column_5":null,"zip":"20772","column_6":null,"geo_score":0.608,"street":"8511 Pepco Place","id":"a66walv17b9q","geo_precision":"zip","state":"MD"},"type":"Feature","geometry":{"type":"Point","coordinates":[-76.830249,38.897612]}},{"properties":{"city":"Upper Marlboro","column_5":null,"zip":"20772","column_6":null,"geo_score":0.608,"street":"8511 Pepco Place","id":"a66wals1vr5l","geo_precision":"zip","state":"MD"},"type":"Feature","geometry":{"type":"Point","coordinates":[-76.830249,38.897612]}},{"properties":{"city":"Westminster","column_5":null,"zip":"21157","column_6":null,"geo_score":0.794,"street":"1101-A Business Pkway South","id":"a66waln37fgq","geo_precision":"range","state":"MD"},"type":"Feature","geometry":{"type":"Point","coordinates":[-76.999731,39.603571]}},{"properties":{"city":"White Marsh","column_5":null,"zip":"21236","column_6":null,"geo_score":0.921,"street":"8009 Corporate Drive","id":"a66walq2gufg","geo_precision":"range","state":"MD"},"type":"Feature","geometry":{"type":"Point","coordinates":[-76.46819,39.371239]}},{"properties":{"city":"White Marsh","column_5":null,"zip":"21236","column_6":null,"geo_score":0.921,"street":"8009 Corporate Drive","id":"a66wam16ob55","geo_precision":"range","state":"MD"},"type":"Feature","geometry":{"type":"Point","coordinates":[-76.46819,39.371239]}},{"properties":{"city":"White Plains","column_5":null,"zip":"20695","column_6":null,"geo_score":0.925,"street":"4382 Crain Hwy.","id":"a66wam1ljtmm","geo_precision":"range","state":"MD"},"type":"Feature","geometry":{"type":"Point","coordinates":[-76.941053,38.591352]}},{"properties":{"city":"Williamsburg","column_5":null,"zip":"23185","column_6":null,"geo_score":0.902,"street":"1637 Merrimac Trail","id":"a66walwntmcu","geo_precision":"range","state":"VA"},"type":"Feature","geometry":{"type":"Point","coordinates":[-76.655571,37.246285]}},{"properties":{"city":"Winchester","column_5":null,"zip":"22601","column_6":null,"geo_score":0.497,"street":"2740 S. Pleasant Valley Road","id":"a66wam1t2wfs","geo_precision":"street","state":"VA"},"type":"Feature","geometry":{"type":"Point","coordinates":[-78.15587,39.177177]}},{"properties":{"city":"York","column_5":null,"zip":"17402","column_6":null,"geo_score":0.535,"street":"1150 N. Sherman St.","id":"a66walviu2ox","geo_precision":"street","state":"PA"},"type":"Feature","geometry":{"type":"Point","coordinates":[-76.711905,39.975186]}}],"is_temporal":false,"author":{"url":"","metadata":"","contact_name":"","contact_address":"","source":"","contact_phone":""},"source":"","pagination":{"sort":null,"start":0,"total":46,"limit":1000000},"state":"complete","tags":"","published":"2014-08-15T01:10:05-04:00","id":216656}