{"type":"FeatureCollection","data_type":"Dataset","url_type":null,"permissions":[{"permissions":{"download":true,"view":true},"group_id":"everyone"}],"classification":null,"title":"CustomersMap","count":10,"stream_id":216722,"contributor":{"url":"http://geocommons.com/users/40539","name":"crystalglassuk"},"data_attributes":null,"calculation_params":null,"icon_link":null,"link":"http://geocommons.com/overlays/216722.json","extent":[0.0,0.0,0.0,0.0],"geometry_types":[],"unique_name":null,"name":"CustomersMap","feature_count":10,"description":"","next_feature":null,"is_raster":false,"short_classification":"Y","stats":{},"features":[{"properties":{"geo_precision0":"unmatched","geo_score0":0.0,"postcode":"NE24 1BW","county":"Northumberland","geo_score":0.0,"contact":"Bev Middleton","store":"Westgate Department Store","town":"Blyth","street":"Northumbria House, Waterloo Road","telephone":"(01670) 352 881","id":"a6fhmvht9854","geo_precision":"unmatched","email":"bev.middleton@arcs.co.uk"},"type":"Feature","geometry":null},{"properties":{"geo_precision0":"unmatched","geo_score0":0.0,"postcode":"DN15 6SU","county":"North Lincolnshire","geo_score":0.0,"contact":null,"store":"Westgate Department Store","town":"Scunthorpe","street":"28-32 Southgate","telephone":"(01724) 281 888","id":"a6fhmv8etv5e","geo_precision":"unmatched","email":null},"type":"Feature","geometry":null},{"properties":{"geo_precision0":"unmatched","geo_score0":0.0,"postcode":"GU6 8AY","county":"Surrey","geo_score":0.0,"contact":"Jo Griffiths","store":"David Mann &amp; Sons Ltd.","town":"Cranleigh","street":"101-105 High Street","telephone":"(01483) 273 777","id":"a6fhmv8uxinu","geo_precision":"unmatched","email":"shop@mannsofcranleigh.co.uk"},"type":"Feature","geometry":null},{"properties":{"geo_precision0":"unmatched","geo_score0":0.0,"postcode":"CT1 2NS","county":null,"geo_score":0.0,"contact":"Barbara Farrant","store":"Nasons of Canterbury","town":"Canterbury","street":"Jewry Lane","telephone":"(01227) 456 755","id":"a6fhmveg548l","geo_precision":"unmatched","email":"barbarafarrant@nasons.co.uk"},"type":"Feature","geometry":null},{"properties":{"geo_precision0":"unmatched","geo_score0":0.0,"postcode":"ST10 1DS","county":"Staffordshire","geo_score":0.0,"contact":"Gavin Atterbury","store":"For Gifts Ltd.","town":"Cheadle","street":"11 Coalport Close","telephone":"07841 741960","id":"a6fhmv9ppq6k","geo_precision":"unmatched","email":"forgifts@btinternet.com"},"type":"Feature","geometry":null},{"properties":{"geo_precision0":"unmatched","geo_score0":0.0,"postcode":"NR30 1LU","county":"Norfolk","geo_score":0.0,"contact":"Ami","store":"For Gifts Ltd. (Palmers Department Store)","town":"Great Yarmouth","street":"37-39 Market Place","telephone":"(01493) 844 291","id":"a6fhmv9vy9qh","geo_precision":"unmatched","email":"forgifts@btinternet.com"},"type":"Feature","geometry":null},{"properties":{"geo_precision0":"unmatched","geo_score0":0.0,"postcode":"BB8 9NW","county":"Lancashire","geo_score":0.0,"contact":"Vanti Palmer","store":"For Gifts Ltd.","town":"Colne","street":"Vivary Way","telephone":"(01282) 856 200","id":"a6fhmv50pz85","geo_precision":"unmatched","email":"forgifts@btinternet.com"},"type":"Feature","geometry":null},{"properties":{"geo_precision0":"unmatched","geo_score0":0.0,"postcode":"NE27 0ST","county":"Newcastle","geo_score":0.0,"contact":"Elaine Mason","store":"For Gifts Ltd.","town":"Shiremoor","street":"Park Lane","telephone":"(0191) 2972420","id":"a6fhmv6bw5eg","geo_precision":"unmatched","email":"forgifts@btinternet.com"},"type":"Feature","geometry":null},{"properties":{"geo_precision0":"unmatched","geo_score0":0.0,"postcode":"WS2 0OL","county":"Walsall","geo_score":0.0,"contact":"Sean Macdonald","store":"For Gifts Ltd.","town":"Bently Mill Lane","street":"Junction 10 Retail Centre","telephone":"(01922) 618 200","id":"a6fhmv8gmpfg","geo_precision":"unmatched","email":"forgifts@btinternet.com"},"type":"Feature","geometry":null},{"properties":{"geo_precision0":"unmatched","geo_score0":0.0,"postcode":"HG4 1DX","county":"North Yorkshire","geo_score":0.0,"contact":"Gavin Atterbury","store":"For Gifts Ltd.","town":"20 Fishergate","street":"Phillip Hall Dept. Store","telephone":null,"id":"a6fhmv834eed","geo_precision":"unmatched","email":"forgifts@btinternet.com"},"type":"Feature","geometry":null}],"is_temporal":false,"author":{"url":"","metadata":"","contact_name":"","contact_address":"","source":"","contact_phone":""},"source":"","pagination":{"sort":null,"start":0,"total":10,"limit":1000000},"state":"complete","tags":"","published":"2014-08-15T01:18:13-04:00","id":216722}