{"type":"FeatureCollection","data_type":"Dataset","url_type":null,"permissions":[{"permissions":{"download":true,"view":true},"group_id":"everyone"}],"classification":null,"title":"Charter APEX1500 Heatmap","count":16,"stream_id":217213,"contributor":{"url":"http://geocommons.com/users/39387","name":"joshwgnr"},"data_attributes":null,"calculation_params":null,"icon_link":null,"link":"http://geocommons.com/overlays/217213.json","extent":[-121.494,30.2752,-78.2086,47.4516],"geometry_types":["point"],"unique_name":null,"name":"Charter APEX1500 Heatmap","feature_count":16,"description":"","next_feature":null,"is_raster":false,"short_classification":"Y","stats":{"quantity":{"max":94,"mean":25.4375,"variance":717.8625,"stdev":26.7929561638876,"min":1,"median":22}},"features":[{"properties":{"city":"BAY CITY","geo_score":0.857,"quantity":94,"id":"a65dlx0p1waw","geo_precision":"city","state":"MI"},"type":"Feature","geometry":{"type":"Point","coordinates":[-83.953007,43.608773]}},{"properties":{"city":"PORTAGE","geo_score":0.857,"quantity":67,"id":"a65dlwnodifq","geo_precision":"city","state":"MI"},"type":"Feature","geometry":{"type":"Point","coordinates":[-85.563901,42.193793]}},{"properties":{"city":"MARYVILLE","geo_score":0.857,"quantity":49,"id":"a65dlwv47dvj","geo_precision":"city","state":"TN"},"type":"Feature","geometry":{"type":"Point","coordinates":[-84.076895,35.688378]}},{"properties":{"city":"WAITE PARK","geo_score":0.762,"quantity":37,"id":"a65dlwu3lcmb","geo_precision":"city","state":"MN"},"type":"Feature","geometry":{"type":"Point","coordinates":[-91.562108,47.451584]}},{"properties":{"city":"ASHEVILLE","geo_score":0.857,"quantity":35,"id":"a65dlwpsi9j0","geo_precision":"city","state":"NC"},"type":"Feature","geometry":{"type":"Point","coordinates":[-82.554015,35.600945]}},{"properties":{"city":"ROCHESTER","geo_score":0.857,"quantity":30,"id":"a65dlwrj59en","geo_precision":"city","state":"MN"},"type":"Feature","geometry":{"type":"Point","coordinates":[-92.516916,44.075285]}},{"properties":{"city":"JACKSON","geo_score":0.857,"quantity":29,"id":"a65dlwnxkeih","geo_precision":"city","state":"TN"},"type":"Feature","geometry":{"type":"Point","coordinates":[-88.813947,35.614517]}},{"properties":{"city":"HAMMOND","geo_score":0.857,"quantity":22,"id":"a65dlwnqzbnc","geo_precision":"city","state":"LA"},"type":"Feature","geometry":{"type":"Point","coordinates":[-90.464466,30.549037]}},{"properties":{"city":"ESCANABA","geo_score":0.857,"quantity":18,"id":"a65dlwwdr63n","geo_precision":"city","state":"MI"},"type":"Feature","geometry":{"type":"Point","coordinates":[-87.057049,45.851343]}},{"properties":{"city":"KEARNEY","geo_score":0.857,"quantity":15,"id":"a65dlwwk45pc","geo_precision":"city","state":"NE"},"type":"Feature","geometry":{"type":"Point","coordinates":[-99.129054,40.75141]}},{"properties":{"city":"GILROY","geo_score":0.857,"quantity":4,"id":"a65dlx0ospws","geo_precision":"city","state":"CA"},"type":"Feature","geometry":{"type":"Point","coordinates":[-121.493849,37.023347]}},{"properties":{"city":"GRAND HAVEN","geo_score":0.757,"quantity":2,"id":"a65dlwwp3em4","geo_precision":"city","state":"MI"},"type":"Feature","geometry":{"type":"Point","coordinates":[-85.306756,46.158336]}},{"properties":{"city":"BOONE","geo_score":0.771,"quantity":2,"id":"a65dlwuz4aft","geo_precision":"city","state":"NC"},"type":"Feature","geometry":{"type":"Point","coordinates":[-78.208581,35.982555]}},{"properties":{"city":"SLIDELL","geo_score":0.857,"quantity":1,"id":"a65dlwz56uqy","geo_precision":"city","state":"LA"},"type":"Feature","geometry":{"type":"Point","coordinates":[-89.781175,30.275195]}},{"properties":{"city":"SAGINAW","geo_score":0.857,"quantity":1,"id":"a65dlx1mk4s8","geo_precision":"city","state":"MI"},"type":"Feature","geometry":{"type":"Point","coordinates":[-83.886873,43.41242]}},{"properties":{"city":"TRAVERSE CITY","geo_score":0.821,"quantity":1,"id":"a65dlx1xrpu9","geo_precision":"city","state":"MI"},"type":"Feature","geometry":{"type":"Point","coordinates":[-88.234001,47.194369]}}],"is_temporal":false,"author":{"url":"","metadata":"","contact_name":"","contact_address":"","source":"","contact_phone":""},"source":"","pagination":{"sort":null,"start":0,"total":16,"limit":1000000},"state":"complete","tags":"","published":"2014-08-15T02:04:42-04:00","id":217213}