{"type":"FeatureCollection","data_type":"Dataset","url_type":null,"permissions":[{"permissions":{"download":true,"view":true},"group_id":"everyone"}],"classification":null,"title":"cornerstone_8","count":8,"stream_id":217482,"contributor":{"url":"http://geocommons.com/users/39447","name":"sam.felipe"},"data_attributes":null,"calculation_params":null,"icon_link":null,"link":"http://geocommons.com/overlays/217482.json","extent":[-122.749,37.2293,-121.914,38.4981],"geometry_types":["point"],"unique_name":null,"name":"cornerstone_8","feature_count":8,"description":"","next_feature":null,"is_raster":false,"short_classification":"Y","stats":{"competitor code":{"max":8,"mean":8.0,"variance":0.0,"stdev":0.0,"min":8,"median":8},"mode":{"max":8,"mean":8.0,"variance":0.0,"stdev":0.0,"min":8,"median":8},"vp code":{"max":7,"mean":5.5,"variance":4.28571428571429,"stdev":2.07019667802706,"min":3,"median":7}},"features":[{"properties":{"city":"Petaluma","name of competitor":"Cornerstone Title","zip":"94952","competitor code":8,"mode":8,"geo_score":0.509,"street address":"165 1st St.","vp name":"Kevin","vp code":3,"id":"a6i0kja6p089","geo_precision":"street"},"type":"Feature","geometry":{"type":"Point","coordinates":[-122.636073,38.233802]}},{"properties":{"city":"San Francisco","name of competitor":"Cornerstone Title","zip":"94132","competitor code":8,"mode":8,"geo_score":0.902,"street address":"2621 Ocean Ave","vp name":"Kevin","vp code":3,"id":"a6i0kjg6lr0l","geo_precision":"range"},"type":"Feature","geometry":{"type":"Point","coordinates":[-122.473872,37.732049]}},{"properties":{"city":"Santa Rosa","name of competitor":"Cornerstone Title","zip":"95403","competitor code":8,"mode":8,"geo_score":0.499,"street address":"600 Bicentennial","vp name":"Kevin","vp code":3,"id":"a6i0kj78b55y","geo_precision":"zip"},"type":"Feature","geometry":{"type":"Point","coordinates":[-122.749005,38.498114]}},{"properties":{"city":"San Jose","name of competitor":"Cornerstone Title","zip":"95125","competitor code":8,"mode":8,"geo_score":0.468,"street address":"1702 Meridian Ave. Suite D","vp name":"Christine","vp code":7,"id":"a6i0kj7a426v","geo_precision":"street"},"type":"Feature","geometry":{"type":"Point","coordinates":[-121.913628,37.307067]}},{"properties":{"city":"Saratoga","name of competitor":"Cornerstone Title","zip":"95070","competitor code":8,"mode":8,"geo_score":0.635,"street address":"20520 Prospect Rd.","vp name":"Christine","vp code":7,"id":"a6i0kj1e1mfr","geo_precision":"street"},"type":"Feature","geometry":{"type":"Point","coordinates":[-122.031457,37.294062]}},{"properties":{"city":"Los Gatos","name of competitor":"Cornerstone Title","zip":"95030","competitor code":8,"mode":8,"geo_score":0.817,"street address":"221 Los Gatos-Saratoga Rd.","vp name":"Christine","vp code":7,"id":"a6i0kjch8ih8","geo_precision":"range"},"type":"Feature","geometry":{"type":"Point","coordinates":[-121.981537,37.229346]}},{"properties":{"city":"Cupertino","name of competitor":"Cornerstone Title","zip":"95014","competitor code":8,"mode":8,"geo_score":0.357,"street address":"10125 S. DeAnza Blvd.","vp name":"Christine","vp code":7,"id":"a6i0kj3zf5y9","geo_precision":"street"},"type":"Feature","geometry":{"type":"Point","coordinates":[-122.064699,37.310041]}},{"properties":{"city":"Los Altos","name of competitor":"Cornerstone Title","zip":"94022","competitor code":8,"mode":8,"geo_score":0.375,"street address":"167 S. San Antonio Rd","vp name":"Christine","vp code":7,"id":"a6i0kjcxnl08","geo_precision":"street"},"type":"Feature","geometry":{"type":"Point","coordinates":[-122.11406,37.38157]}}],"is_temporal":false,"author":{"url":"","metadata":null,"contact_name":null,"contact_address":null,"source":null,"contact_phone":null},"source":"","pagination":{"sort":null,"start":0,"total":8,"limit":1000000},"state":"complete","tags":"","published":"2014-08-15T02:22:38-04:00","id":217482}