{"type":"FeatureCollection","data_type":"Dataset","url_type":null,"permissions":[{"permissions":{"download":true,"view":true},"group_id":"everyone"}],"classification":null,"title":"exxx","count":210,"stream_id":217867,"contributor":{"url":"http://geocommons.com/users/24941","name":"bulionek"},"data_attributes":null,"calculation_params":null,"icon_link":null,"link":"http://geocommons.com/overlays/217867.json","extent":[-122.206,30.1602,-87.726,42.0552],"geometry_types":["point"],"unique_name":null,"name":"exxx","feature_count":210,"description":"","next_feature":null,"is_raster":false,"short_classification":"Y","stats":{"amount":{"max":11000.0,"mean":539.575571428571,"variance":1246614.30898843,"stdev":1116.51883503523,"min":0.0,"median":250.0}},"features":[{"properties":{"city":"Dallas","zip":"75214","st_add":"6222  Vanderbilt Avenue","geo_score":1.0,"amount":250.0,"id":"a64jebo5yeza","geo_precision":"zip","state":"TX"},"type":"Feature","geometry":{"type":"Point","coordinates":[-96.698402,32.841252]}},{"properties":{"city":"Dallas","zip":"75214","st_add":"6222  Vanderbilt Avenue","geo_score":1.0,"amount":250.0,"id":"a64jebsfo9g5","geo_precision":"zip","state":"TX"},"type":"Feature","geometry":{"type":"Point","coordinates":[-96.698402,32.841252]}},{"properties":{"city":"Dallas","zip":"75224","st_add":"627  Monssen Drive","geo_score":1.0,"amount":500.0,"id":"a64jebp2ctdb","geo_precision":"zip","state":"TX"},"type":"Feature","geometry":{"type":"Point","coordinates":[-96.82623,32.710281]}},{"properties":{"city":"Frisco","zip":"75034","st_add":"4500  Preston Road","geo_score":0.881,"amount":250.0,"id":"a64jebk4rcms","geo_precision":"zip","state":"TX"},"type":"Feature","geometry":{"type":"Point","coordinates":[-96.930005,33.220674]}},{"properties":{"city":"Frisco","zip":"75034","st_add":"4500  Preston Road","geo_score":0.881,"amount":250.0,"id":"a64jebjn9ghs","geo_precision":"zip","state":"TX"},"type":"Feature","geometry":{"type":"Point","coordinates":[-96.930005,33.220674]}},{"properties":{"city":"Dallas","zip":"75207","st_add":"2730  Irving Boulevard","geo_score":1.0,"amount":500.0,"id":"a64jebl3xga3","geo_precision":"zip","state":"TX"},"type":"Feature","geometry":{"type":"Point","coordinates":[-96.798372,32.76313]}},{"properties":{"city":"Dallas","zip":"75208","st_add":"1414  W Colorado Boulevard","geo_score":1.0,"amount":250.0,"id":"a64jebsuxtl9","geo_precision":"zip","state":"TX"},"type":"Feature","geometry":{"type":"Point","coordinates":[-96.82303,32.736344]}},{"properties":{"city":"Dallas","zip":"75244","st_add":"4230  LBJ Freeway Suite 140","geo_score":1.0,"amount":1000.0,"id":"a64jebngcasr","geo_precision":"zip","state":"TX"},"type":"Feature","geometry":{"type":"Point","coordinates":[-96.777626,32.767268]}},{"properties":{"city":"Dallas","zip":"75244","st_add":"4230  LBJ Freeway","geo_score":1.0,"amount":1000.0,"id":"a64jebpye6tz","geo_precision":"zip","state":"TX"},"type":"Feature","geometry":{"type":"Point","coordinates":[-96.777626,32.767268]}},{"properties":{"city":"Austin","zip":"78701","st_add":"400  West 15th Street","geo_score":1.0,"amount":125.0,"id":"a64jebmsdmf4","geo_precision":"zip","state":"TX"},"type":"Feature","geometry":{"type":"Point","coordinates":[-97.741382,30.268335]}},{"properties":{"city":"South San Francisco","zip":"94803","st_add":"PO Box 9041","geo_score":0.891,"amount":41.24,"id":"a64jebreq85n","geo_precision":"zip","state":"CA"},"type":"Feature","geometry":{"type":"Point","coordinates":[-122.206177,37.966422]}},{"properties":{"city":"South San Francisco","zip":"94803","st_add":"PO Box 9041","geo_score":0.891,"amount":238.98,"id":"a64jebv3ieh8","geo_precision":"zip","state":"CA"},"type":"Feature","geometry":{"type":"Point","coordinates":[-122.206177,37.966422]}},{"properties":{"city":"South San Francisco","zip":"94803","st_add":"PO Box 9041","geo_score":0.891,"amount":243.25,"id":"a64jebpxfd7k","geo_precision":"zip","state":"CA"},"type":"Feature","geometry":{"type":"Point","coordinates":[-122.206177,37.966422]}},{"properties":{"city":"South San Francisco","zip":"94803","st_add":"PO Box 9041","geo_score":0.891,"amount":41.24,"id":"a64jebwizufp","geo_precision":"zip","state":"CA"},"type":"Feature","geometry":{"type":"Point","coordinates":[-122.206177,37.966422]}},{"properties":{"city":"South San Francisco","zip":"94803","st_add":"PO Box 9041","geo_score":0.891,"amount":41.24,"id":"a64jeboafeia","geo_precision":"zip","state":"CA"},"type":"Feature","geometry":{"type":"Point","coordinates":[-122.206177,37.966422]}},{"properties":{"city":"South San Francisco","zip":"94803","st_add":"PO Box 9041","geo_score":0.891,"amount":190.39,"id":"a64jebt5saex","geo_precision":"zip","state":"CA"},"type":"Feature","geometry":{"type":"Point","coordinates":[-122.206177,37.966422]}},{"properties":{"city":"Dallas","zip":"75356","st_add":"PO Box 560166","geo_score":1.0,"amount":157.0,"id":"a64jebsxllmd","geo_precision":"zip","state":"TX"},"type":"Feature","geometry":{"type":"Point","coordinates":[-96.777626,32.767268]}},{"properties":{"city":"Dallas","zip":"75222","st_add":"PO Box 223667","geo_score":1.0,"amount":200.0,"id":"a64jebiyz07t","geo_precision":"zip","state":"TX"},"type":"Feature","geometry":{"type":"Point","coordinates":[-96.777626,32.767268]}},{"properties":{"city":"Dallas","zip":"75206","st_add":"2020  N Garrett Avenue","geo_score":1.0,"amount":250.0,"id":"a64jebtbmk2y","geo_precision":"zip","state":"TX"},"type":"Feature","geometry":{"type":"Point","coordinates":[-96.771528,32.833881]}},{"properties":{"city":"Dallas","zip":"75204","st_add":"3334  Blackburn Street","geo_score":1.0,"amount":250.0,"id":"a64jebsmac4i","geo_precision":"zip","state":"TX"},"type":"Feature","geometry":{"type":"Point","coordinates":[-96.781229,32.800028]}},{"properties":{"city":"Dallas","zip":"75207","st_add":"2515  Irving Boulevard","geo_score":1.0,"amount":1000.0,"id":"a64jeblrcdm9","geo_precision":"zip","state":"TX"},"type":"Feature","geometry":{"type":"Point","coordinates":[-96.798372,32.76313]}},{"properties":{"city":"Dallas","zip":"75235","st_add":"PO Box 36288","geo_score":1.0,"amount":1000.0,"id":"a64jebnbs5qg","geo_precision":"zip","state":"TX"},"type":"Feature","geometry":{"type":"Point","coordinates":[-96.623022,32.692682]}},{"properties":{"city":"Dallas","zip":"75208","st_add":"1011  N Edgefield Avenue","geo_score":1.0,"amount":25.0,"id":"a64jebr0gmsu","geo_precision":"zip","state":"TX"},"type":"Feature","geometry":{"type":"Point","coordinates":[-96.82303,32.736344]}},{"properties":{"city":"Oklahoma City","zip":"73124","st_add":"PO Box 24128","geo_score":1.0,"amount":250.0,"id":"a64jebwb7n3f","geo_precision":"zip","state":"OK"},"type":"Feature","geometry":{"type":"Point","coordinates":[-97.407537,35.551409]}},{"properties":{"city":"Lubbock","zip":"79413","st_add":"5010  University Avenue","geo_score":1.0,"amount":1000.0,"id":"a64jebhs52kx","geo_precision":"zip","state":"TX"},"type":"Feature","geometry":{"type":"Point","coordinates":[-101.888794,33.546285]}},{"properties":{"city":"Garland","zip":"75041","st_add":"4109  Keystone Street","geo_score":0.878,"amount":1000.0,"id":"a64jebvagmu2","geo_precision":"zip","state":"TX"},"type":"Feature","geometry":{"type":"Point","coordinates":[-96.664718,32.951234]}},{"properties":{"city":"Dallas","zip":"75209","st_add":"8303  Midway Road","geo_score":0.857,"amount":1000.0,"id":"a64jebqirj02","geo_precision":"zip","state":"TX"},"type":"Feature","geometry":{"type":"Point","coordinates":[-96.821668,32.93068]}},{"properties":{"city":"Dallas","zip":"75251","st_add":"12377  Merit Drive","geo_score":1.0,"amount":500.0,"id":"a64jebuwrzo3","geo_precision":"zip","state":"TX"},"type":"Feature","geometry":{"type":"Point","coordinates":[-96.734178,32.895102]}},{"properties":{"city":"Dallas","zip":"75251","st_add":"12377  Merit Drive","geo_score":1.0,"amount":500.0,"id":"a64jebl2k3s2","geo_precision":"zip","state":"TX"},"type":"Feature","geometry":{"type":"Point","coordinates":[-96.734178,32.895102]}},{"properties":{"city":"Dallas","zip":"75231","st_add":"8750  N. Central Expressway","geo_score":1.0,"amount":125.0,"id":"a64jebpj0du7","geo_precision":"zip","state":"TX"},"type":"Feature","geometry":{"type":"Point","coordinates":[-96.740103,32.880025]}},{"properties":{"city":"Ramona","zip":"92065","st_add":"842  HWY 78","geo_score":0.889,"amount":1000.0,"id":"a64jebisskr7","geo_precision":"zip","state":"CA"},"type":"Feature","geometry":{"type":"Point","coordinates":[-116.911694,32.968102]}},{"properties":{"city":"Dallas","zip":"75224","st_add":"732  Mayrant Drive","geo_score":1.0,"amount":200.0,"id":"a64jebvblpwr","geo_precision":"zip","state":"TX"},"type":"Feature","geometry":{"type":"Point","coordinates":[-96.82623,32.710281]}},{"properties":{"city":"Dallas","zip":"75211","st_add":"2547  Alden Avenue","geo_score":0.888,"amount":100.0,"id":"a64jeblhotp5","geo_precision":"zip","state":"TX"},"type":"Feature","geometry":{"type":"Point","coordinates":[-96.926115,32.692355]}},{"properties":{"city":"Dallas","zip":"75224","st_add":"1717  Mair Street","geo_score":1.0,"amount":250.0,"id":"a64jebp5ppb3","geo_precision":"zip","state":"TX"},"type":"Feature","geometry":{"type":"Point","coordinates":[-96.82623,32.710281]}},{"properties":{"city":"Dallas","zip":"75229","st_add":"10840  Strait Lane","geo_score":1.0,"amount":250.0,"id":"a64jebi66s9f","geo_precision":"zip","state":"TX"},"type":"Feature","geometry":{"type":"Point","coordinates":[-96.777626,32.767268]}},{"properties":{"city":"Dallas","zip":"75235","st_add":"1820  Regal Row","geo_score":1.0,"amount":1000.0,"id":"a64jebhn9ybt","geo_precision":"zip","state":"TX"},"type":"Feature","geometry":{"type":"Point","coordinates":[-96.623022,32.692682]}},{"properties":{"city":"Dallas","zip":"75356","st_add":"PO Box 560166","geo_score":1.0,"amount":100.0,"id":"a64jebjbq9we","geo_precision":"zip","state":"TX"},"type":"Feature","geometry":{"type":"Point","coordinates":[-96.777626,32.767268]}},{"properties":{"city":"Dallas","zip":"75201","st_add":"3310  Fairmount #P2D","geo_score":1.0,"amount":500.0,"id":"a64jebmnl7zr","geo_precision":"zip","state":"TX"},"type":"Feature","geometry":{"type":"Point","coordinates":[-96.790329,32.781179]}},{"properties":{"city":"Dallas","zip":"75201","st_add":"3310  Fairmount","geo_score":1.0,"amount":500.0,"id":"a64jebsjt8xq","geo_precision":"zip","state":"TX"},"type":"Feature","geometry":{"type":"Point","coordinates":[-96.790329,32.781179]}},{"properties":{"city":"Dallas","zip":"75211","st_add":"3000  Mountain Creek Parkway","geo_score":0.888,"amount":1200.0,"id":"a64jebrlwr7j","geo_precision":"zip","state":"TX"},"type":"Feature","geometry":{"type":"Point","coordinates":[-96.926115,32.692355]}},{"properties":{"city":"Dallas","zip":"75211","st_add":"3000  Mountain Creek Parkway","geo_score":0.888,"amount":500.0,"id":"a64jebrjecqr","geo_precision":"zip","state":"TX"},"type":"Feature","geometry":{"type":"Point","coordinates":[-96.926115,32.692355]}},{"properties":{"city":"Balch Springs","zip":"75180","st_add":"4912  Chickadee Drive","geo_score":1.0,"amount":125.0,"id":"a64jebuq72ti","geo_precision":"zip","state":"TX"},"type":"Feature","geometry":{"type":"Point","coordinates":[-96.622771,32.728741]}},{"properties":{"city":"Dallas","zip":"75208","st_add":"931  W. Colorado Boulevard","geo_score":1.0,"amount":50.0,"id":"a64jebtxk1kv","geo_precision":"zip","state":"TX"},"type":"Feature","geometry":{"type":"Point","coordinates":[-96.82303,32.736344]}},{"properties":{"city":"Dallas","zip":"75225","st_add":"5956  Sherry Lane","geo_score":1.0,"amount":500.0,"id":"a64jebk73goy","geo_precision":"zip","state":"TX"},"type":"Feature","geometry":{"type":"Point","coordinates":[-96.771829,32.851127]}},{"properties":{"city":"Dallas","zip":"75225","st_add":"5956  Sherry Lane","geo_score":1.0,"amount":500.0,"id":"a64jebkifc56","geo_precision":"zip","state":"TX"},"type":"Feature","geometry":{"type":"Point","coordinates":[-96.771829,32.851127]}},{"properties":{"city":"Dallas","zip":"75236","st_add":"4501  Mountain Creek Parkway","geo_score":1.0,"amount":250.0,"id":"a64jebuv1tu1","geo_precision":"zip","state":"TX"},"type":"Feature","geometry":{"type":"Point","coordinates":[-96.777626,32.767268]}},{"properties":{"city":"Dallas","zip":"75236","st_add":"4501  Mountain Creek Parkway","geo_score":1.0,"amount":250.0,"id":"a64jebtgsl9f","geo_precision":"zip","state":"TX"},"type":"Feature","geometry":{"type":"Point","coordinates":[-96.777626,32.767268]}},{"properties":{"city":"Desoto","zip":"75115","st_add":"904  Ironwood Drive","geo_score":0.875,"amount":100.0,"id":"a64jebnna206","geo_precision":"zip","state":"TX"},"type":"Feature","geometry":{"type":"Point","coordinates":[-96.887502,32.599302]}},{"properties":{"city":"Dallas","zip":"75115","st_add":"1217  Hanna Circle","geo_score":0.875,"amount":250.0,"id":"a64jebkhgrgn","geo_precision":"zip","state":"TX"},"type":"Feature","geometry":{"type":"Point","coordinates":[-96.887502,32.599302]}},{"properties":{"city":"Dallas","zip":"75208","st_add":"1339  Cedar Hill Avenue","geo_score":1.0,"amount":100.0,"id":"a64jebhamofd","geo_precision":"zip","state":"TX"},"type":"Feature","geometry":{"type":"Point","coordinates":[-96.82303,32.736344]}},{"properties":{"city":"Dallas","zip":"75208","st_add":"1217  N Clinton Avenue","geo_score":1.0,"amount":500.0,"id":"a64jebgqj175","geo_precision":"zip","state":"TX"},"type":"Feature","geometry":{"type":"Point","coordinates":[-96.82303,32.736344]}},{"properties":{"city":"Dallas","zip":"75207","st_add":"2515  Irving Boulevard","geo_score":1.0,"amount":1000.0,"id":"a64jebo4vzvr","geo_precision":"zip","state":"TX"},"type":"Feature","geometry":{"type":"Point","coordinates":[-96.798372,32.76313]}},{"properties":{"city":"Dallas","zip":"75223","st_add":"622  Blair Boulevard","geo_score":1.0,"amount":125.0,"id":"a64jebsxe53k","geo_precision":"zip","state":"TX"},"type":"Feature","geometry":{"type":"Point","coordinates":[-96.749578,32.794228]}},{"properties":{"city":"Dallas","zip":"76109","st_add":"4055  International Plaza","geo_score":0.857,"amount":250.0,"id":"a64jebpcnnn3","geo_precision":"zip","state":"TX"},"type":"Feature","geometry":{"type":"Point","coordinates":[-97.291484,32.771419]}},{"properties":{"city":"Dallas","zip":"75205","st_add":"3524  rankin","geo_score":0.867,"amount":250.0,"id":"a64jebizdwhe","geo_precision":"zip","state":"TX"},"type":"Feature","geometry":{"type":"Point","coordinates":[-96.800279,32.850127]}},{"properties":{"city":"Dallas","zip":"75201","st_add":"1500  Jackson Street #817","geo_score":1.0,"amount":137.5,"id":"a64jebkyy1ub","geo_precision":"zip","state":"TX"},"type":"Feature","geometry":{"type":"Point","coordinates":[-96.790329,32.781179]}},{"properties":{"city":"Dallas","zip":"75201","st_add":"1500  Jackson Street","geo_score":1.0,"amount":2000.0,"id":"a64jebgwno85","geo_precision":"zip","state":"TX"},"type":"Feature","geometry":{"type":"Point","coordinates":[-96.790329,32.781179]}},{"properties":{"city":"Dallas","zip":"75201","st_add":"1500  Jackson Street","geo_score":1.0,"amount":2000.0,"id":"a64jebrcqxta","geo_precision":"zip","state":"TX"},"type":"Feature","geometry":{"type":"Point","coordinates":[-96.790329,32.781179]}},{"properties":{"city":"Dallas","zip":"75208","st_add":"1314  Kings Highway","geo_score":1.0,"amount":1000.0,"id":"a64jebgpjd1l","geo_precision":"zip","state":"TX"},"type":"Feature","geometry":{"type":"Point","coordinates":[-96.82303,32.736344]}},{"properties":{"city":"Dallas","zip":"75208","st_add":"1314  Kings Highway","geo_score":1.0,"amount":1000.0,"id":"a64jebizcs3h","geo_precision":"zip","state":"TX"},"type":"Feature","geometry":{"type":"Point","coordinates":[-96.82303,32.736344]}},{"properties":{"city":"Dallas","zip":"75248","st_add":"16208  Ranchita","geo_score":1.0,"amount":500.0,"id":"a64jebhuv9a3","geo_precision":"zip","state":"TX"},"type":"Feature","geometry":{"type":"Point","coordinates":[-96.767999,32.986006]}},{"properties":{"city":"Dallas","zip":"75205","st_add":"3601  Overbrook","geo_score":0.867,"amount":250.0,"id":"a64jeblif1bj","geo_precision":"zip","state":"TX"},"type":"Feature","geometry":{"type":"Point","coordinates":[-96.800279,32.850127]}},{"properties":{"city":"Dallas","zip":"75219","st_add":"3838  Oak Lawn Avenue","geo_score":1.0,"amount":1000.0,"id":"a64jebszg83n","geo_precision":"zip","state":"TX"},"type":"Feature","geometry":{"type":"Point","coordinates":[-96.777626,32.767268]}},{"properties":{"city":"Richardson","zip":"75081","st_add":"1201  North Bowser Road","geo_score":1.0,"amount":250.0,"id":"a64jebpueabm","geo_precision":"zip","state":"TX"},"type":"Feature","geometry":{"type":"Point","coordinates":[-96.721626,32.949266]}},{"properties":{"city":"Dallas","zip":"75220","st_add":"5330  S. Dentwood DRive","geo_score":1.0,"amount":250.0,"id":"a64jebl69e9d","geo_precision":"zip","state":"TX"},"type":"Feature","geometry":{"type":"Point","coordinates":[-96.806376,32.778412]}},{"properties":{"city":"Dallas","zip":"75220","st_add":"5330  S. Dentwood Drive","geo_score":1.0,"amount":250.0,"id":"a64jebo8np26","geo_precision":"zip","state":"TX"},"type":"Feature","geometry":{"type":"Point","coordinates":[-96.806376,32.778412]}},{"properties":{"city":"DALLAS","zip":"75356","st_add":"PO Box 566077","geo_score":1.0,"amount":250.0,"id":"a64jebl8b2i1","geo_precision":"zip","state":"TX"},"type":"Feature","geometry":{"type":"Point","coordinates":[-96.777626,32.767268]}},{"properties":{"city":"Villa Park","zip":"60181","st_add":"19  E Monroe","geo_score":0.869,"amount":50.0,"id":"a64jebsauijj","geo_precision":"zip","state":"IL"},"type":"Feature","geometry":{"type":"Point","coordinates":[-87.988677,41.90503]}},{"properties":{"city":"Villa Park","zip":"60181","st_add":"19  E Monroe","geo_score":0.869,"amount":50.0,"id":"a64jebp6a70k","geo_precision":"zip","state":"IL"},"type":"Feature","geometry":{"type":"Point","coordinates":[-87.988677,41.90503]}},{"properties":{"city":"Dallas","zip":"68144","st_add":"8404  Indian Hills Drive","geo_score":0.738,"amount":300.0,"id":"a64jebrcl5j2","geo_precision":"zip","state":"TX"},"type":"Feature","geometry":{"type":"Point","coordinates":[-96.118847,41.233498]}},{"properties":{"city":"DeSoto","zip":"75115","st_add":"1409  Heritage Hill Drive","geo_score":0.875,"amount":125.0,"id":"a64jebix35p4","geo_precision":"zip","state":"TX"},"type":"Feature","geometry":{"type":"Point","coordinates":[-96.887502,32.599302]}},{"properties":{"city":"Dallas","zip":"75208","st_add":"1410  Yakimo","geo_score":1.0,"amount":250.0,"id":"a64jebjxagpa","geo_precision":"zip","state":"TX"},"type":"Feature","geometry":{"type":"Point","coordinates":[-96.82303,32.736344]}},{"properties":{"city":"Dallas","zip":"75208","st_add":"1410  Yakimo","geo_score":1.0,"amount":500.0,"id":"a64jebjhhurz","geo_precision":"zip","state":"TX"},"type":"Feature","geometry":{"type":"Point","coordinates":[-96.82303,32.736344]}},{"properties":{"city":"Dallas","zip":"75233","st_add":"3932  Kiest Meadow","geo_score":1.0,"amount":125.0,"id":"a64jebqg9omt","geo_precision":"zip","state":"TX"},"type":"Feature","geometry":{"type":"Point","coordinates":[-96.777626,32.767268]}},{"properties":{"city":"Dallas","zip":"75201","st_add":"1601  Elm Street","geo_score":1.0,"amount":1000.0,"id":"a64jebjz86jx","geo_precision":"zip","state":"TX"},"type":"Feature","geometry":{"type":"Point","coordinates":[-96.790329,32.781179]}},{"properties":{"city":"Kansas City","zip":"64105","st_add":"715  Kirk Drive","geo_score":1.0,"amount":500.0,"id":"a64jebldd594","geo_precision":"zip","state":"MO"},"type":"Feature","geometry":{"type":"Point","coordinates":[-94.595033,39.102704]}},{"properties":{"city":"Dallas","zip":"75214","st_add":"7189  Greentree Lane","geo_score":1.0,"amount":125.0,"id":"a64jebgqm63d","geo_precision":"zip","state":"TX"},"type":"Feature","geometry":{"type":"Point","coordinates":[-96.698402,32.841252]}},{"properties":{"city":"Plano","zip":"75093","st_add":"5816  W. Plano Parkway","geo_score":1.0,"amount":125.0,"id":"a64jebsszwuj","geo_precision":"zip","state":"TX"},"type":"Feature","geometry":{"type":"Point","coordinates":[-96.805055,33.032674]}},{"properties":{"city":"Dallas","zip":"75240","st_add":"6815  Bert Lane","geo_score":1.0,"amount":250.0,"id":"a64jebvgv3qq","geo_precision":"zip","state":"TX"},"type":"Feature","geometry":{"type":"Point","coordinates":[-96.789191,32.910185]}},{"properties":{"city":"Dallas","zip":"75240","st_add":"6815  Bert Lane","geo_score":1.0,"amount":250.0,"id":"a64jebvrde9x","geo_precision":"zip","state":"TX"},"type":"Feature","geometry":{"type":"Point","coordinates":[-96.789191,32.910185]}},{"properties":{"city":"Dallas","zip":"75080","st_add":"422  Ridgewood","geo_score":0.871,"amount":20.0,"id":"a64jebvpv9fn","geo_precision":"zip","state":"TX"},"type":"Feature","geometry":{"type":"Point","coordinates":[-96.724998,32.936513]}},{"properties":{"city":"Dallas","zip":"75254","st_add":"6204  Sandpebble Court","geo_score":1.0,"amount":100.0,"id":"a64jebk69p2p","geo_precision":"zip","state":"TX"},"type":"Feature","geometry":{"type":"Point","coordinates":[-96.80334,32.946819]}},{"properties":{"city":"Dallas","zip":"75204","st_add":"4666  Christopher Palace","geo_score":1.0,"amount":250.0,"id":"a64jebp6mg84","geo_precision":"zip","state":"TX"},"type":"Feature","geometry":{"type":"Point","coordinates":[-96.781229,32.800028]}},{"properties":{"city":"Dallas","zip":"75204","st_add":"4666  Christopher","geo_score":1.0,"amount":100.0,"id":"a64jebq4uom4","geo_precision":"zip","state":"TX"},"type":"Feature","geometry":{"type":"Point","coordinates":[-96.781229,32.800028]}},{"properties":{"city":"Dallas","zip":"75233","st_add":"3408  Silverwood Lane","geo_score":1.0,"amount":200.0,"id":"a64jebwhqa75","geo_precision":"zip","state":"TX"},"type":"Feature","geometry":{"type":"Point","coordinates":[-96.777626,32.767268]}},{"properties":{"city":"Chicago","zip":"60603","st_add":"10  S. Dearborn Street","geo_score":1.0,"amount":500.0,"id":"a64jebjaqxlw","geo_precision":"zip","state":"IL"},"type":"Feature","geometry":{"type":"Point","coordinates":[-87.72596,42.055179]}},{"properties":{"city":"Dallas","zip":"75208","st_add":"1103  N Windomere","geo_score":1.0,"amount":250.0,"id":"a64jebojgibl","geo_precision":"zip","state":"TX"},"type":"Feature","geometry":{"type":"Point","coordinates":[-96.82303,32.736344]}},{"properties":{"city":"Shenandoah","zip":"77385","st_add":"19245  David Memorial Drive","geo_score":0.879,"amount":500.0,"id":"a64jebuvgtd2","geo_precision":"zip","state":"TX"},"type":"Feature","geometry":{"type":"Point","coordinates":[-95.444383,30.160216]}},{"properties":{"city":"Dallas","zip":"75230","st_add":"6474  Orchid Lane","geo_score":1.0,"amount":250.0,"id":"a64jebjrwayn","geo_precision":"zip","state":"TX"},"type":"Feature","geometry":{"type":"Point","coordinates":[-96.769578,32.886576]}},{"properties":{"city":"Dallas","zip":"75220","st_add":"9746  Rockbrook Drive","geo_score":1.0,"amount":100.0,"id":"a64jebrkc5ve","geo_precision":"zip","state":"TX"},"type":"Feature","geometry":{"type":"Point","coordinates":[-96.806376,32.778412]}},{"properties":{"city":"Dallas","zip":"75229","st_add":"3750  Duchess Trail","geo_score":1.0,"amount":250.0,"id":"a64jebnrmhet","geo_precision":"zip","state":"TX"},"type":"Feature","geometry":{"type":"Point","coordinates":[-96.777626,32.767268]}},{"properties":{"city":"Austin","zip":"78760","st_add":"PO Box 17428","geo_score":1.0,"amount":1000.0,"id":"a64jebjfb95m","geo_precision":"zip","state":"TX"},"type":"Feature","geometry":{"type":"Point","coordinates":[-97.771258,30.326374]}},{"properties":{"city":"Dallas","zip":"75209","st_add":"4931  Stanford","geo_score":0.857,"amount":500.0,"id":"a64jebqbv03t","geo_precision":"zip","state":"TX"},"type":"Feature","geometry":{"type":"Point","coordinates":[-96.821668,32.93068]}},{"properties":{"city":"Dallas","zip":"75230","st_add":"11219  ST. JUDES DRIVE","geo_score":1.0,"amount":125.0,"id":"a64jebmtt2f2","geo_precision":"zip","state":"TX"},"type":"Feature","geometry":{"type":"Point","coordinates":[-96.769578,32.886576]}},{"properties":{"city":"Dallas","zip":"75206","st_add":"6688  N. Central Expwy","geo_score":1.0,"amount":250.0,"id":"a64jebo5g0s1","geo_precision":"zip","state":"TX"},"type":"Feature","geometry":{"type":"Point","coordinates":[-96.771528,32.833881]}},{"properties":{"city":"Dallas","zip":"75240","st_add":"13330  Noel Road","geo_score":1.0,"amount":100.0,"id":"a64jebh20yrq","geo_precision":"zip","state":"TX"},"type":"Feature","geometry":{"type":"Point","coordinates":[-96.789191,32.910185]}},{"properties":{"city":"Plano","zip":"75093","st_add":"4629  Shell Court","geo_score":1.0,"amount":125.0,"id":"a64jebgafd0t","geo_precision":"zip","state":"TX"},"type":"Feature","geometry":{"type":"Point","coordinates":[-96.805055,33.032674]}},{"properties":{"city":"Dallas","zip":"75201","st_add":"1700  Pacific Avenue","geo_score":1.0,"amount":250.0,"id":"a64jebhx3kcn","geo_precision":"zip","state":"TX"},"type":"Feature","geometry":{"type":"Point","coordinates":[-96.790329,32.781179]}},{"properties":{"city":"Dallas","zip":"75205","st_add":"3109  Knox Street","geo_score":0.867,"amount":1000.0,"id":"a64jebri25c4","geo_precision":"zip","state":"TX"},"type":"Feature","geometry":{"type":"Point","coordinates":[-96.800279,32.850127]}},{"properties":{"city":"Dallas","zip":"75220","st_add":"5523  Park Lane","geo_score":1.0,"amount":1000.0,"id":"a64jebtn235l","geo_precision":"zip","state":"TX"},"type":"Feature","geometry":{"type":"Point","coordinates":[-96.806376,32.778412]}},{"properties":{"city":"Dallas","zip":"75230","st_add":"11844  Preston Brook Place","geo_score":1.0,"amount":50.0,"id":"a64jebjluf1o","geo_precision":"zip","state":"TX"},"type":"Feature","geometry":{"type":"Point","coordinates":[-96.769578,32.886576]}},{"properties":{"city":"Dallas","zip":"75230","st_add":"11844  Preston Brook Place","geo_score":1.0,"amount":250.0,"id":"a64jebtvkdez","geo_precision":"zip","state":"TX"},"type":"Feature","geometry":{"type":"Point","coordinates":[-96.769578,32.886576]}},{"properties":{"city":"Dallas","zip":"75247","st_add":"8201  N. Stemmons Freeway","geo_score":1.0,"amount":1000.0,"id":"a64jebmb4url","geo_precision":"zip","state":"TX"},"type":"Feature","geometry":{"type":"Point","coordinates":[-96.752254,32.660247]}},{"properties":{"city":"Dallas","zip":"75249","st_add":"6015  Fox Point Trail","geo_score":1.0,"amount":150.0,"id":"a64jebt0b68w","geo_precision":"zip","state":"TX"},"type":"Feature","geometry":{"type":"Point","coordinates":[-96.777626,32.767268]}},{"properties":{"city":"Dallas","zip":"75205","st_add":"4400  St. John","geo_score":0.867,"amount":150.0,"id":"a64jebv9jk9k","geo_precision":"zip","state":"TX"},"type":"Feature","geometry":{"type":"Point","coordinates":[-96.800279,32.850127]}},{"properties":{"city":"Dallas","zip":"75244","st_add":"5001  Spring Valley Road","geo_score":1.0,"amount":250.0,"id":"a64jebk37e7e","geo_precision":"zip","state":"TX"},"type":"Feature","geometry":{"type":"Point","coordinates":[-96.777626,32.767268]}},{"properties":{"city":"DALLAS","zip":"75230","st_add":"6910  WAGGONER PLACE","geo_score":1.0,"amount":1000.0,"id":"a64jebu4zmeu","geo_precision":"zip","state":"TX"},"type":"Feature","geometry":{"type":"Point","coordinates":[-96.769578,32.886576]}},{"properties":{"city":"Dallas","zip":"75219","st_add":"11526  W. Ricks Circle","geo_score":1.0,"amount":125.0,"id":"a64jebp4gkt6","geo_precision":"zip","state":"TX"},"type":"Feature","geometry":{"type":"Point","coordinates":[-96.777626,32.767268]}},{"properties":{"city":"Dallas","zip":"75356","st_add":"PO Box 560166","geo_score":1.0,"amount":1000.0,"id":"a64jebgkqkiv","geo_precision":"zip","state":"TX"},"type":"Feature","geometry":{"type":"Point","coordinates":[-96.777626,32.767268]}},{"properties":{"city":"Dallas","zip":"76034","st_add":"310  West Glade Road","geo_score":0.873,"amount":500.0,"id":"a64jebgff95c","geo_precision":"zip","state":"TX"},"type":"Feature","geometry":{"type":"Point","coordinates":[-97.168346,32.899849]}},{"properties":{"city":"Dallas","zip":"75356","st_add":"PO Box 560166","geo_score":1.0,"amount":300.0,"id":"a64jebglrfz9","geo_precision":"zip","state":"TX"},"type":"Feature","geometry":{"type":"Point","coordinates":[-96.777626,32.767268]}},{"properties":{"city":"Dallas","zip":"75356","st_add":"PO Box 560166","geo_score":1.0,"amount":100.0,"id":"a64jebgr725h","geo_precision":"zip","state":"TX"},"type":"Feature","geometry":{"type":"Point","coordinates":[-96.777626,32.767268]}},{"properties":{"city":"Dallas","zip":"75266","st_add":"PO Box 660675","geo_score":1.0,"amount":65.0,"id":"a64jebjudxfu","geo_precision":"zip","state":"TX"},"type":"Feature","geometry":{"type":"Point","coordinates":[-96.777626,32.767268]}},{"properties":{"city":"Dallas","zip":"75266","st_add":"PO Box 66075","geo_score":1.0,"amount":65.0,"id":"a64jebp59m66","geo_precision":"zip","state":"TX"},"type":"Feature","geometry":{"type":"Point","coordinates":[-96.777626,32.767268]}},{"properties":{"city":"Dallas","zip":"75266","st_add":"PO Box 660675","geo_score":1.0,"amount":35.0,"id":"a64jebmlilm3","geo_precision":"zip","state":"TX"},"type":"Feature","geometry":{"type":"Point","coordinates":[-96.777626,32.767268]}},{"properties":{"city":"Dallas","zip":"75208","st_add":"1031  N Winnetka Avenue","geo_score":1.0,"amount":988.97,"id":"a64jebn04n3j","geo_precision":"zip","state":"TX"},"type":"Feature","geometry":{"type":"Point","coordinates":[-96.82303,32.736344]}},{"properties":{"city":"Dallas","zip":"75208","st_add":"1031  N Winnetka Avenue","geo_score":1.0,"amount":1215.0,"id":"a64jebh7hkgq","geo_precision":"zip","state":"TX"},"type":"Feature","geometry":{"type":"Point","coordinates":[-96.82303,32.736344]}},{"properties":{"city":"Dallas","zip":"75208","st_add":"1031  N Winnetka Avenue","geo_score":1.0,"amount":181.11,"id":"a64jebuxr6v0","geo_precision":"zip","state":"TX"},"type":"Feature","geometry":{"type":"Point","coordinates":[-96.82303,32.736344]}},{"properties":{"city":"Dallas","zip":"75208","st_add":"1031  N Winnetka Avenue","geo_score":1.0,"amount":44.22,"id":"a64jebnitmhs","geo_precision":"zip","state":"TX"},"type":"Feature","geometry":{"type":"Point","coordinates":[-96.82303,32.736344]}},{"properties":{"city":"Dallas","zip":"75208","st_add":"1031  N Winnetka Avenue","geo_score":1.0,"amount":329.78,"id":"a64jebhxuiea","geo_precision":"zip","state":"TX"},"type":"Feature","geometry":{"type":"Point","coordinates":[-96.82303,32.736344]}},{"properties":{"city":"Dallas","zip":"75208","st_add":"1031  N Winnetka Avenue","geo_score":1.0,"amount":22.52,"id":"a64jebjyj4vk","geo_precision":"zip","state":"TX"},"type":"Feature","geometry":{"type":"Point","coordinates":[-96.82303,32.736344]}},{"properties":{"city":"Dallas","zip":"75208","st_add":"1031  N Winnetka Avenue","geo_score":1.0,"amount":897.7,"id":"a64jebst4xie","geo_precision":"zip","state":"TX"},"type":"Feature","geometry":{"type":"Point","coordinates":[-96.82303,32.736344]}},{"properties":{"city":"Dallas","zip":"75208","st_add":"1031  N Winnetka Avenue","geo_score":1.0,"amount":1417.24,"id":"a64jebt0whcz","geo_precision":"zip","state":"TX"},"type":"Feature","geometry":{"type":"Point","coordinates":[-96.82303,32.736344]}},{"properties":{"city":"Dallas","zip":"75208","st_add":"1031  N Winnetka Avenue","geo_score":1.0,"amount":1194.78,"id":"a64jebrmb5dz","geo_precision":"zip","state":"TX"},"type":"Feature","geometry":{"type":"Point","coordinates":[-96.82303,32.736344]}},{"properties":{"city":"Dallas","zip":"75208","st_add":"1031  N Winnetka Avenue","geo_score":1.0,"amount":1059.9,"id":"a64jebps6ezz","geo_precision":"zip","state":"TX"},"type":"Feature","geometry":{"type":"Point","coordinates":[-96.82303,32.736344]}},{"properties":{"city":"Dallas","zip":"75208","st_add":"1031  N Winnetka Avenue","geo_score":1.0,"amount":68.05,"id":"a64jebppguv4","geo_precision":"zip","state":"TX"},"type":"Feature","geometry":{"type":"Point","coordinates":[-96.82303,32.736344]}},{"properties":{"city":"Dallas","zip":"75208","st_add":"1031  N Winnetka Avenue","geo_score":1.0,"amount":471.18,"id":"a64jebopa434","geo_precision":"zip","state":"TX"},"type":"Feature","geometry":{"type":"Point","coordinates":[-96.82303,32.736344]}},{"properties":{"city":"Dallas","zip":"75208","st_add":"1031  N Winnetka","geo_score":1.0,"amount":273.7,"id":"a64jebkx2ytf","geo_precision":"zip","state":"TX"},"type":"Feature","geometry":{"type":"Point","coordinates":[-96.82303,32.736344]}},{"properties":{"city":"Dallas","zip":"75356","st_add":"PO Box 560166","geo_score":1.0,"amount":0.0,"id":"a64jebnm406c","geo_precision":"zip","state":"TX"},"type":"Feature","geometry":{"type":"Point","coordinates":[-96.777626,32.767268]}},{"properties":{"city":"Dallas","zip":"75205","st_add":"4206  Normandy Avenue","geo_score":0.867,"amount":50.0,"id":"a64jebw3zbnl","geo_precision":"zip","state":"TX"},"type":"Feature","geometry":{"type":"Point","coordinates":[-96.800279,32.850127]}},{"properties":{"city":"Dallas","zip":"75230","st_add":"12211  Creek Forest","geo_score":1.0,"amount":1000.0,"id":"a64jeblzxl34","geo_precision":"zip","state":"TX"},"type":"Feature","geometry":{"type":"Point","coordinates":[-96.769578,32.886576]}},{"properties":{"city":"Dallas","zip":"75230","st_add":"12211  creek forest","geo_score":1.0,"amount":500.0,"id":"a64jebtjzk00","geo_precision":"zip","state":"TX"},"type":"Feature","geometry":{"type":"Point","coordinates":[-96.769578,32.886576]}},{"properties":{"city":"Dallas","zip":"75205","st_add":"3616  Lindenwood","geo_score":0.867,"amount":1000.0,"id":"a64jebg98u0t","geo_precision":"zip","state":"TX"},"type":"Feature","geometry":{"type":"Point","coordinates":[-96.800279,32.850127]}},{"properties":{"city":"Dallas","zip":"75205","st_add":"3616  Lindenwood Avenue","geo_score":0.867,"amount":1000.0,"id":"a64jeblk4hja","geo_precision":"zip","state":"TX"},"type":"Feature","geometry":{"type":"Point","coordinates":[-96.800279,32.850127]}},{"properties":{"city":"Fort Worth","zip":"76107","st_add":"1200  Western","geo_score":0.879,"amount":1000.0,"id":"a64jebo9szqc","geo_precision":"zip","state":"TX"},"type":"Feature","geometry":{"type":"Point","coordinates":[-97.41363,32.744852]}},{"properties":{"city":"Dallas","zip":"75356","st_add":"PO Box 560166","geo_score":1.0,"amount":155.48,"id":"a64jebj2okpa","geo_precision":"zip","state":"TX"},"type":"Feature","geometry":{"type":"Point","coordinates":[-96.777626,32.767268]}},{"properties":{"city":"Dallas","zip":"75209","st_add":"PO Box 7270","geo_score":0.857,"amount":250.0,"id":"a64jebhihj5y","geo_precision":"zip","state":"TX"},"type":"Feature","geometry":{"type":"Point","coordinates":[-96.821668,32.93068]}},{"properties":{"city":"Dallas","zip":"75209","st_add":"PO Box 7270","geo_score":0.857,"amount":250.0,"id":"a64jebw35q3a","geo_precision":"zip","state":"TX"},"type":"Feature","geometry":{"type":"Point","coordinates":[-96.821668,32.93068]}},{"properties":{"city":"Dallas","zip":"75208","st_add":"1235  Lausanne Avenue","geo_score":1.0,"amount":500.0,"id":"a64jebk75lj1","geo_precision":"zip","state":"TX"},"type":"Feature","geometry":{"type":"Point","coordinates":[-96.82303,32.736344]}},{"properties":{"city":"Dallas","zip":"75224","st_add":"3936  Lost Creek Drive","geo_score":1.0,"amount":125.0,"id":"a64jebh7td86","geo_precision":"zip","state":"TX"},"type":"Feature","geometry":{"type":"Point","coordinates":[-96.82623,32.710281]}},{"properties":{"city":"Dallas","zip":"75356","st_add":"PO Box 560166","geo_score":1.0,"amount":176.0,"id":"a64jebs8orb4","geo_precision":"zip","state":"TX"},"type":"Feature","geometry":{"type":"Point","coordinates":[-96.777626,32.767268]}},{"properties":{"city":"Dallas","zip":"75205","st_add":"3929  Potomac Avenue","geo_score":0.867,"amount":250.0,"id":"a64jebg7rsf6","geo_precision":"zip","state":"TX"},"type":"Feature","geometry":{"type":"Point","coordinates":[-96.800279,32.850127]}},{"properties":{"city":"Dallas","zip":"75229","st_add":"PO Box 29188","geo_score":1.0,"amount":200.0,"id":"a64jebu12h82","geo_precision":"zip","state":"TX"},"type":"Feature","geometry":{"type":"Point","coordinates":[-96.777626,32.767268]}},{"properties":{"city":"DALLAS","zip":"75229","st_add":"PO Box 29188","geo_score":1.0,"amount":100.0,"id":"a64jebp0lfu8","geo_precision":"zip","state":"TX"},"type":"Feature","geometry":{"type":"Point","coordinates":[-96.777626,32.767268]}},{"properties":{"city":"DALLAS","zip":"75229","st_add":"PO Box 29188","geo_score":1.0,"amount":250.0,"id":"a64jeblgrjuu","geo_precision":"zip","state":"TX"},"type":"Feature","geometry":{"type":"Point","coordinates":[-96.777626,32.767268]}},{"properties":{"city":"Dallas","zip":"75203","st_add":"110  Oregon Avenue","geo_score":1.0,"amount":500.0,"id":"a64jebq03g9x","geo_precision":"zip","state":"TX"},"type":"Feature","geometry":{"type":"Point","coordinates":[-96.795879,32.741481]}},{"properties":{"city":"Dallas","zip":"75214","st_add":"6940  Lakeshore","geo_score":1.0,"amount":250.0,"id":"a64jebogok19","geo_precision":"zip","state":"TX"},"type":"Feature","geometry":{"type":"Point","coordinates":[-96.698402,32.841252]}},{"properties":{"city":"Dallas","zip":"75225","st_add":"8222  Douglas Avenue","geo_score":1.0,"amount":500.0,"id":"a64jebv2ntxw","geo_precision":"zip","state":"TX"},"type":"Feature","geometry":{"type":"Point","coordinates":[-96.771829,32.851127]}},{"properties":{"city":"Dallas","zip":"75261","st_add":"PO Box 619428","geo_score":1.0,"amount":50.0,"id":"a64jebrro8te","geo_precision":"zip","state":"TX"},"type":"Feature","geometry":{"type":"Point","coordinates":[-96.777626,32.767268]}},{"properties":{"city":"Dallas","zip":"75208","st_add":"1030  N Clinton Avenue","geo_score":1.0,"amount":250.0,"id":"a64jebosrxve","geo_precision":"zip","state":"TX"},"type":"Feature","geometry":{"type":"Point","coordinates":[-96.82303,32.736344]}},{"properties":{"city":"DENTON","zip":"76207","st_add":"2136  CHINN ROAD","geo_score":1.0,"amount":11000.0,"id":"a64jebphfjls","geo_precision":"zip","state":"TX"},"type":"Feature","geometry":{"type":"Point","coordinates":[-97.203975,33.238378]}},{"properties":{"city":"DENTON","zip":"76207","st_add":"2136  CHINN ROAD","geo_score":1.0,"amount":11000.0,"id":"a64jebuxlnl5","geo_precision":"zip","state":"TX"},"type":"Feature","geometry":{"type":"Point","coordinates":[-97.203975,33.238378]}},{"properties":{"city":"Dallas","zip":"75001","st_add":"16251  Dallas Parkway","geo_score":0.878,"amount":250.0,"id":"a64jebgh9qwb","geo_precision":"zip","state":"TX"},"type":"Feature","geometry":{"type":"Point","coordinates":[-96.777626,32.767268]}},{"properties":{"city":"Dallas","zip":"75205","st_add":"5  Willowood","geo_score":0.867,"amount":500.0,"id":"a64jebvf2nay","geo_precision":"zip","state":"TX"},"type":"Feature","geometry":{"type":"Point","coordinates":[-96.800279,32.850127]}},{"properties":{"city":"Dallas","zip":"75243","st_add":"8611  Breakers Point","geo_score":1.0,"amount":150.0,"id":"a64jebks3zqy","geo_precision":"zip","state":"TX"},"type":"Feature","geometry":{"type":"Point","coordinates":[-96.733826,32.777979]}},{"properties":{"city":"Austin","zip":"78746","st_add":"4512  Elohi Drive","geo_score":0.89,"amount":1000.0,"id":"a64jebw937ta","geo_precision":"zip","state":"TX"},"type":"Feature","geometry":{"type":"Point","coordinates":[-97.801952,30.297984]}},{"properties":{"city":"Austin","zip":"78746","st_add":"4512  Elohi Drive","geo_score":0.89,"amount":1000.0,"id":"a64jebuo1uwm","geo_precision":"zip","state":"TX"},"type":"Feature","geometry":{"type":"Point","coordinates":[-97.801952,30.297984]}},{"properties":{"city":"Dallas","zip":"75225","st_add":"3105  Stanford Avenue","geo_score":1.0,"amount":250.0,"id":"a64jebs472cq","geo_precision":"zip","state":"TX"},"type":"Feature","geometry":{"type":"Point","coordinates":[-96.771829,32.851127]}},{"properties":{"city":"Dallas","zip":"75225","st_add":"3105  Stanford","geo_score":1.0,"amount":250.0,"id":"a64jebkgjr7g","geo_precision":"zip","state":"TX"},"type":"Feature","geometry":{"type":"Point","coordinates":[-96.771829,32.851127]}},{"properties":{"city":"Dallas","zip":"75208","st_add":"1215  N. Windomere","geo_score":1.0,"amount":250.0,"id":"a64jebmy7bw8","geo_precision":"zip","state":"TX"},"type":"Feature","geometry":{"type":"Point","coordinates":[-96.82303,32.736344]}},{"properties":{"city":"Dallas","zip":"75219","st_add":"PO Box 191185","geo_score":1.0,"amount":50.0,"id":"a64jebp9szyc","geo_precision":"zip","state":"TX"},"type":"Feature","geometry":{"type":"Point","coordinates":[-96.777626,32.767268]}},{"properties":{"city":"Dallas","zip":"75225","st_add":"6322  De Loache","geo_score":1.0,"amount":500.0,"id":"a64jebmb7xl7","geo_precision":"zip","state":"TX"},"type":"Feature","geometry":{"type":"Point","coordinates":[-96.771829,32.851127]}},{"properties":{"city":"Dallas","zip":"75208","st_add":"1306  Rainbow Drive","geo_score":1.0,"amount":1000.0,"id":"a64jebqs3o0m","geo_precision":"zip","state":"TX"},"type":"Feature","geometry":{"type":"Point","coordinates":[-96.82303,32.736344]}},{"properties":{"city":"Dallas","zip":"75207","st_add":"1625  N. Stemmons Freeway","geo_score":1.0,"amount":1000.0,"id":"a64jebumn240","geo_precision":"zip","state":"TX"},"type":"Feature","geometry":{"type":"Point","coordinates":[-96.798372,32.76313]}},{"properties":{"city":"Dallas","zip":"75207","st_add":"1625  N. Stemmons Freeway","geo_score":1.0,"amount":1000.0,"id":"a64jebw8umh8","geo_precision":"zip","state":"TX"},"type":"Feature","geometry":{"type":"Point","coordinates":[-96.798372,32.76313]}},{"properties":{"city":"Dallas","zip":"75069","st_add":"960  Englenook Court","geo_score":0.883,"amount":1000.0,"id":"a64jebv3pwbq","geo_precision":"zip","state":"TX"},"type":"Feature","geometry":{"type":"Point","coordinates":[-96.478876,33.09984]}},{"properties":{"city":"Dallas","zip":"75208","st_add":"830  Stewart Drive","geo_score":1.0,"amount":1000.0,"id":"a64jebkyw250","geo_precision":"zip","state":"TX"},"type":"Feature","geometry":{"type":"Point","coordinates":[-96.82303,32.736344]}},{"properties":{"city":"Dallas","zip":"75230","st_add":"11711  Forest Court","geo_score":1.0,"amount":250.0,"id":"a64jebps1uph","geo_precision":"zip","state":"TX"},"type":"Feature","geometry":{"type":"Point","coordinates":[-96.769578,32.886576]}},{"properties":{"city":"Dallas","zip":"75208","st_add":"939  Lausanne Avenue","geo_score":1.0,"amount":50.0,"id":"a64jebiqwvet","geo_precision":"zip","state":"TX"},"type":"Feature","geometry":{"type":"Point","coordinates":[-96.82303,32.736344]}},{"properties":{"city":"Dallas","zip":"75240","st_add":"5430  LBJ Freeway","geo_score":1.0,"amount":1000.0,"id":"a64jebssa1up","geo_precision":"zip","state":"TX"},"type":"Feature","geometry":{"type":"Point","coordinates":[-96.789191,32.910185]}},{"properties":{"city":"Dallas","zip":"75240","st_add":"13155  Noel Road","geo_score":1.0,"amount":125.0,"id":"a64jebwdb74v","geo_precision":"zip","state":"TX"},"type":"Feature","geometry":{"type":"Point","coordinates":[-96.789191,32.910185]}},{"properties":{"city":"Dallas","zip":"75240","st_add":"13155  noel","geo_score":1.0,"amount":100.0,"id":"a64jebuo109s","geo_precision":"zip","state":"TX"},"type":"Feature","geometry":{"type":"Point","coordinates":[-96.789191,32.910185]}},{"properties":{"city":"Dallas","zip":"75204","st_add":"927  Liberty Street","geo_score":1.0,"amount":125.0,"id":"a64jebood91s","geo_precision":"zip","state":"TX"},"type":"Feature","geometry":{"type":"Point","coordinates":[-96.781229,32.800028]}},{"properties":{"city":"Dallas","zip":"75235","st_add":"PO Box 36611","geo_score":1.0,"amount":500.0,"id":"a64jebqnfmyn","geo_precision":"zip","state":"TX"},"type":"Feature","geometry":{"type":"Point","coordinates":[-96.623022,32.692682]}},{"properties":{"city":"Dallas","zip":"75201","st_add":"1601  Elm Street","geo_score":1.0,"amount":1000.0,"id":"a64jebwfcd6u","geo_precision":"zip","state":"TX"},"type":"Feature","geometry":{"type":"Point","coordinates":[-96.790329,32.781179]}},{"properties":{"city":"Dallas","zip":"75206","st_add":"5005  Greenville Avenue","geo_score":1.0,"amount":100.0,"id":"a64jebuzntr8","geo_precision":"zip","state":"TX"},"type":"Feature","geometry":{"type":"Point","coordinates":[-96.771528,32.833881]}},{"properties":{"city":"Dallas","zip":"75208","st_add":"732  N Windomere","geo_score":1.0,"amount":125.0,"id":"a64jebu6fexs","geo_precision":"zip","state":"TX"},"type":"Feature","geometry":{"type":"Point","coordinates":[-96.82303,32.736344]}},{"properties":{"city":"Dallas","zip":"75201","st_add":"2808  Fairmount Street","geo_score":1.0,"amount":125.0,"id":"a64jebnzhla6","geo_precision":"zip","state":"TX"},"type":"Feature","geometry":{"type":"Point","coordinates":[-96.790329,32.781179]}},{"properties":{"city":"Dallas","zip":"75208","st_add":"906  Stevens Woods Court","geo_score":1.0,"amount":25.0,"id":"a64jebjy8odc","geo_precision":"zip","state":"TX"},"type":"Feature","geometry":{"type":"Point","coordinates":[-96.82303,32.736344]}},{"properties":{"city":"Dallas","zip":"75224","st_add":"707  Mayrant Drive","geo_score":1.0,"amount":100.0,"id":"a64jebvpnsts","geo_precision":"zip","state":"TX"},"type":"Feature","geometry":{"type":"Point","coordinates":[-96.82623,32.710281]}},{"properties":{"city":"Dallas","zip":"75208","st_add":"450  Allison Drive","geo_score":1.0,"amount":200.0,"id":"a64jebh350mq","geo_precision":"zip","state":"TX"},"type":"Feature","geometry":{"type":"Point","coordinates":[-96.82303,32.736344]}},{"properties":{"city":"Dallas","zip":"75208","st_add":"450  Allison Drive","geo_score":1.0,"amount":100.0,"id":"a64jebwjnrmz","geo_precision":"zip","state":"TX"},"type":"Feature","geometry":{"type":"Point","coordinates":[-96.82303,32.736344]}},{"properties":{"city":"Dallas","zip":"75356","st_add":"PO Box 560166","geo_score":1.0,"amount":1000.0,"id":"a64jebg9yp1s","geo_precision":"zip","state":"TX"},"type":"Feature","geometry":{"type":"Point","coordinates":[-96.777626,32.767268]}},{"properties":{"city":"Dallas","zip":"75249","st_add":"8335  High Brush Drive","geo_score":1.0,"amount":100.0,"id":"a64jebkj8w1i","geo_precision":"zip","state":"TX"},"type":"Feature","geometry":{"type":"Point","coordinates":[-96.777626,32.767268]}},{"properties":{"city":"Dallas","zip":"75224","st_add":"732  Mayrant Drive","geo_score":1.0,"amount":50.0,"id":"a64jebn3fu90","geo_precision":"zip","state":"TX"},"type":"Feature","geometry":{"type":"Point","coordinates":[-96.82623,32.710281]}},{"properties":{"city":"Dallas","zip":"75224","st_add":"732  Mayrant Drive","geo_score":1.0,"amount":200.0,"id":"a64jebjvj6cx","geo_precision":"zip","state":"TX"},"type":"Feature","geometry":{"type":"Point","coordinates":[-96.82623,32.710281]}},{"properties":{"city":"Dallas","zip":"75208","st_add":"1154  Windomere","geo_score":1.0,"amount":0.0,"id":"a64jebgu1n8u","geo_precision":"zip","state":"TX"},"type":"Feature","geometry":{"type":"Point","coordinates":[-96.82303,32.736344]}},{"properties":{"city":"Dallas","zip":"75205","st_add":"4309  Versailles Avenue","geo_score":0.867,"amount":100.0,"id":"a64jebswk6pm","geo_precision":"zip","state":"TX"},"type":"Feature","geometry":{"type":"Point","coordinates":[-96.800279,32.850127]}},{"properties":{"city":"Dallas","zip":"75235","st_add":"5415  MAPLE AVENUE","geo_score":1.0,"amount":1435.89,"id":"a64jebrcqgn1","geo_precision":"zip","state":"TX"},"type":"Feature","geometry":{"type":"Point","coordinates":[-96.623022,32.692682]}},{"properties":{"city":"Dallas","zip":"75235","st_add":"5415  Maple Avenue","geo_score":1.0,"amount":2973.62,"id":"a64jebhd3pzq","geo_precision":"zip","state":"TX"},"type":"Feature","geometry":{"type":"Point","coordinates":[-96.623022,32.692682]}},{"properties":{"city":"Dallas","zip":"75235","st_add":"5415  Maple Avenue","geo_score":1.0,"amount":1229.89,"id":"a64jebtuf5uy","geo_precision":"zip","state":"TX"},"type":"Feature","geometry":{"type":"Point","coordinates":[-96.623022,32.692682]}},{"properties":{"city":"Dallas","zip":"75219","st_add":"2999  Turtle Creek Company","geo_score":1.0,"amount":100.0,"id":"a64jebvvjdjh","geo_precision":"zip","state":"TX"},"type":"Feature","geometry":{"type":"Point","coordinates":[-96.777626,32.767268]}},{"properties":{"city":"Southlake","zip":"76092","st_add":"417  Southridge Lakes Parkway","geo_score":0.873,"amount":1000.0,"id":"a64jebsutgf1","geo_precision":"zip","state":"TX"},"type":"Feature","geometry":{"type":"Point","coordinates":[-97.127234,32.925959]}},{"properties":{"city":"Southlake","zip":"76092","st_add":"417  Southridge Lakes Parkway","geo_score":0.873,"amount":1000.0,"id":"a64jeblwfhi1","geo_precision":"zip","state":"TX"},"type":"Feature","geometry":{"type":"Point","coordinates":[-97.127234,32.925959]}},{"properties":{"city":"Dallas","zip":"75201","st_add":"3700  Trammell Crow","geo_score":1.0,"amount":1000.0,"id":"a64jebrsz5x3","geo_precision":"zip","state":"TX"},"type":"Feature","geometry":{"type":"Point","coordinates":[-96.790329,32.781179]}},{"properties":{"city":"Dallas","zip":"75154","st_add":"610  Creek View Circle","geo_score":0.905,"amount":250.0,"id":"a64jebge1pr0","geo_precision":"zip","state":"TX"},"type":"Feature","geometry":{"type":"Point","coordinates":[-96.88639,32.526526]}},{"properties":{"city":"Dallas","zip":"75208","st_add":"2183  Kessler Court","geo_score":1.0,"amount":100.0,"id":"a64jebloft1o","geo_precision":"zip","state":"TX"},"type":"Feature","geometry":{"type":"Point","coordinates":[-96.82303,32.736344]}},{"properties":{"city":"Dallas","zip":"75230","st_add":"46  Downs Lake Circle","geo_score":1.0,"amount":500.0,"id":"a64jebj3rlii","geo_precision":"zip","state":"TX"},"type":"Feature","geometry":{"type":"Point","coordinates":[-96.769578,32.886576]}},{"properties":{"city":"Dallas","zip":"75230","st_add":"46  Downs Lake Circle","geo_score":1.0,"amount":100.0,"id":"a64jebojva51","geo_precision":"zip","state":"TX"},"type":"Feature","geometry":{"type":"Point","coordinates":[-96.769578,32.886576]}},{"properties":{"city":"Dallas","zip":"75238","st_add":"10020  Caribou Trail","geo_score":1.0,"amount":100.0,"id":"a64jeboexpxu","geo_precision":"zip","state":"TX"},"type":"Feature","geometry":{"type":"Point","coordinates":[-96.704725,32.878923]}},{"properties":{"city":"Dallas","zip":"75204","st_add":"4144  North Central Expressway","geo_score":1.0,"amount":250.0,"id":"a64jebn88ftl","geo_precision":"zip","state":"TX"},"type":"Feature","geometry":{"type":"Point","coordinates":[-96.781229,32.800028]}},{"properties":{"city":"Hurst","zip":"76054","st_add":"2816  Mesa Court","geo_score":1.0,"amount":1000.0,"id":"a64jebtkq3ze","geo_precision":"zip","state":"TX"},"type":"Feature","geometry":{"type":"Point","coordinates":[-97.175935,32.863193]}},{"properties":{"city":"Hurst","zip":"76054","st_add":"2816  Mesa Court","geo_score":1.0,"amount":1000.0,"id":"a64jebj83td1","geo_precision":"zip","state":"TX"},"type":"Feature","geometry":{"type":"Point","coordinates":[-97.175935,32.863193]}},{"properties":{"city":"Dallas","zip":"75208","st_add":"1939  Mayflower Drive","geo_score":1.0,"amount":250.0,"id":"a64jebjpjpru","geo_precision":"zip","state":"TX"},"type":"Feature","geometry":{"type":"Point","coordinates":[-96.82303,32.736344]}},{"properties":{"city":"Dallas","zip":"75208","st_add":"2150  Kessler Court","geo_score":1.0,"amount":250.0,"id":"a64jebll93if","geo_precision":"zip","state":"TX"},"type":"Feature","geometry":{"type":"Point","coordinates":[-96.82303,32.736344]}},{"properties":{"city":"Dallas","zip":"75356","st_add":"PO Box 560166","geo_score":1.0,"amount":100.0,"id":"a64jebtalh35","geo_precision":"zip","state":"TX"},"type":"Feature","geometry":{"type":"Point","coordinates":[-96.777626,32.767268]}},{"properties":{"city":"Dallas","zip":"75356","st_add":"PO Box 560166","geo_score":1.0,"amount":250.0,"id":"a64jebtlgovd","geo_precision":"zip","state":"TX"},"type":"Feature","geometry":{"type":"Point","coordinates":[-96.777626,32.767268]}},{"properties":{"city":"Dallas","zip":"75209","st_add":"4610  Wildwood Road","geo_score":0.857,"amount":250.0,"id":"a64jebndfym2","geo_precision":"zip","state":"TX"},"type":"Feature","geometry":{"type":"Point","coordinates":[-96.821668,32.93068]}},{"properties":{"city":"Dallas","zip":"75208","st_add":"1935  W Colorado","geo_score":1.0,"amount":100.0,"id":"a64jebvjxqni","geo_precision":"zip","state":"TX"},"type":"Feature","geometry":{"type":"Point","coordinates":[-96.82303,32.736344]}},{"properties":{"city":"Dallas","zip":"75356","st_add":"PO Box 560166","geo_score":1.0,"amount":250.0,"id":"a64jeblq0yo4","geo_precision":"zip","state":"TX"},"type":"Feature","geometry":{"type":"Point","coordinates":[-96.777626,32.767268]}}],"is_temporal":false,"author":{"url":"","metadata":"","contact_name":"","contact_address":"","source":"","contact_phone":""},"source":"","pagination":{"sort":null,"start":0,"total":210,"limit":1000000},"state":"complete","tags":"","published":"2014-08-15T02:45:33-04:00","id":217867}