{"type":"FeatureCollection","data_type":"Dataset","url_type":null,"permissions":[{"permissions":{"download":true,"view":true},"group_id":"everyone"}],"classification":null,"title":"Copyagencylist2010","count":69,"stream_id":217999,"contributor":{"url":"http://geocommons.com/users/13275","name":"smithrichardj"},"data_attributes":null,"calculation_params":null,"icon_link":null,"link":"http://geocommons.com/overlays/217999.json","extent":[-86.0552,33.9606,-82.4246,43.0245],"geometry_types":["point"],"unique_name":null,"name":"Copyagencylist2010","feature_count":69,"description":"","next_feature":null,"is_raster":false,"short_classification":"Y","stats":{},"features":[{"properties":{"con_fname":"Christine","geo_score":0.916,"con_lname":"Lerchen","foo_address":"26049 Five Mile Road","dept":"N/A","agency":"Arc of Northwest Wayne County, The","phone":"(313) 532-7915","foo_city":"Redford, MI, 48239","id":"a6osbzmxn9b2","geo_precision":"range","con_email":"info@thearcnw.org","address":"26049 Five Mile Road, Redford, MI, 48239"},"type":"Feature","geometry":{"type":"Point","coordinates":[-83.298744,42.399431]}},{"properties":{"con_fname":"Matthew","geo_score":0.889,"con_lname":"Sweet","foo_address":"2751 E. Jefferson Ave. Suite 301","dept":"Behavioral Health Services","agency":"AIDS Partnership of Michigan","phone":"(313) 446-9836","foo_city":"Detroit, MI, 48207","id":"a6osbzq0rwij","geo_precision":"range","con_email":"msweet@aidspartnership.org","address":"2751 E. Jefferson Ave. Suite 301, Detroit, MI, 48207"},"type":"Feature","geometry":{"type":"Point","coordinates":[-83.021567,42.338872]}},{"properties":{"con_fname":"Joseph","geo_score":0.941,"con_lname":"Webster","foo_address":"4880 Lawndale","dept":"Behavioral Health","agency":"American Indian Health","phone":"(313) 846-3718","foo_city":"Detroit, MI, 48210","id":"a6osbzprspkc","geo_precision":"range","con_email":"jwebster@aihfs.org","address":"4880 Lawndale, Detroit, MI, 48210"},"type":"Feature","geometry":{"type":"Point","coordinates":[-83.14694,42.327908]}},{"properties":{"con_fname":"Kimberly","geo_score":0.898,"con_lname":"Adams","foo_address":"17555 James Couzens 2nd Floor 2 West","dept":null,"agency":"Angel Care Services, LLC","phone":"(313) 570-7799","foo_city":"Detroit, MI, 48235","id":"a6osbzg3asdy","geo_precision":"range","con_email":"drkimaka@yahoo.com","address":"17555 James Couzens 2nd Floor 2 West, Detroit, MI, 48235"},"type":"Feature","geometry":{"type":"Point","coordinates":[-83.17608,42.420533]}},{"properties":{"con_fname":"Luanne","geo_score":0.973,"con_lname":"DeGueisippe","foo_address":"44050 Gratiot Ave.","dept":"Habilitative Services","agency":"ARC Services of Macomb, Inc.","phone":"(586) 469-1600 x105","foo_city":"Clinton Township, MI, 48036-1308","id":"a6osbzht3ame","geo_precision":"range","con_email":null,"address":"44050 Gratiot Ave., Clinton Township, MI, 48036-1308"},"type":"Feature","geometry":{"type":"Point","coordinates":[-82.86555,42.620995]}},{"properties":{"con_fname":"Lisa","geo_score":0.935,"con_lname":"Nygord","foo_address":"27325 W. Warren","dept":"N/A","agency":"Arc of Dearborn/Dearborn Heights, The","phone":"(313) 562-1787","foo_city":"Dearborn Heights, MI, 48127","id":"a6osbzovf35b","geo_precision":"range","con_email":"arcpdp@aol.com","address":"27325 W. Warren, Dearborn Heights, MI, 48127"},"type":"Feature","geometry":{"type":"Point","coordinates":[-83.310937,42.340668]}},{"properties":{"con_fname":"Carolyn","geo_score":1.0,"con_lname":"Grawi","foo_address":"3941 Research Park Drive","dept":null,"agency":"Ann Arbor Center for Independent Living","phone":"(734) 971-0277","foo_city":"Ann Arbor, MI, 48108","id":"a6osbzhu3w92","geo_precision":"range","con_email":"cgrawi@aacil.org","address":"3941 Research Park Drive, Ann Arbor, MI, 48108"},"type":"Feature","geometry":{"type":"Point","coordinates":[-83.73188,42.234717]}},{"properties":{"con_fname":"Phyllis","geo_score":0.927,"con_lname":"Edwards","foo_address":"6900 McGraw","dept":"N/A","agency":"Bridging Communities Inc.","phone":"(313) 361-6377","foo_city":"Detroit, MI, 48210","id":"a6osbzm2moi2","geo_precision":"range","con_email":null,"address":"6900 McGraw, Detroit, MI, 48210"},"type":"Feature","geometry":{"type":"Point","coordinates":[-83.134206,42.338125]}},{"properties":{"con_fname":"Kenyatta","geo_score":1.0,"con_lname":"Stephens","foo_address":"2995 E. Grand Blvd.","dept":"FCCUW&amp;YAP","agency":"Black Family Development, Inc.","phone":"(313) 758-0150 x273","foo_city":"Detroit, MI, 48202","id":"a6osbznolchp","geo_precision":"range","con_email":"kstephens@blackfamilydevelopment.org","address":"2995 E. Grand Blvd., Detroit, MI, 48202"},"type":"Feature","geometry":{"type":"Point","coordinates":[-83.070366,42.371121]}},{"properties":{"con_fname":"Valorie","geo_score":0.804,"con_lname":"Hudgens","foo_address":"1042 Griswold Street Suite 2","dept":"N/A","agency":"Blue Water Center for Independent Living","phone":"(810) 987-9337","foo_city":"Port Huron, MI, 48060","id":"a6osbzizez9l","geo_precision":"range","con_email":"valoriehudgens@bwcil.org","address":"1042 Griswold Street Suite 2, Port Huron, MI, 48060"},"type":"Feature","geometry":{"type":"Point","coordinates":[-82.433087,42.96722]}},{"properties":{"con_fname":"Kathryn","geo_score":0.927,"con_lname":"Douglass","foo_address":"7600 Goethe","dept":"Community Service Center","agency":"Covenant House Michigan","phone":"(313) 463-2236","foo_city":"Detroit, MI, 48214","id":"a6osbzffyyn2","geo_precision":"range","con_email":"kdouglass@covenanthouse.org","address":"7600 Goethe, Detroit, MI, 48214"},"type":"Feature","geometry":{"type":"Point","coordinates":[-83.008316,42.363662]}},{"properties":{"con_fname":"Jane","geo_score":0.935,"con_lname":"Reams","foo_address":"418 Cass Ave.","dept":"Family Youth Interventions","agency":"Comprehensive Youth Services, Inc.","phone":"(586) 465-1212","foo_city":"Mount Clemens, MI, 48043-2123","id":"a6osbzd7cx6z","geo_precision":"range","con_email":"jmreamsfyi@hotmail.com","address":"418 Cass Ave., Mount Clemens, MI, 48043-2123"},"type":"Feature","geometry":{"type":"Point","coordinates":[-82.897629,42.598624]}},{"properties":{"con_fname":"Sally","geo_score":0.913,"con_lname":"Currie","foo_address":"929 Pine St.","dept":"The Harbor","agency":"Comprehensive Youth Services, Inc.","phone":"(810) 982-8584","foo_city":"Port Huron, MI, 48060","id":"a6osbzo3fq6a","geo_precision":"range","con_email":"harboryouth@hotmail.com","address":"929 Pine St., Port Huron, MI, 48060"},"type":"Feature","geometry":{"type":"Point","coordinates":[-82.431446,42.973499]}},{"properties":{"con_fname":"Ann","geo_score":0.897,"con_lname":"Kraemer","foo_address":"4750 Woodward Ave. Ste 410","dept":"N/A","agency":"Citizens for Better Care","phone":"(313) 832-6387 x238","foo_city":"Detroit, MI, 48201","id":"a6osbzge6nxz","geo_precision":"range","con_email":"akraemer@cbcmi.org","address":"4750 Woodward Ave. Ste 410, Detroit, MI, 48201"},"type":"Feature","geometry":{"type":"Point","coordinates":[-83.063258,42.355273]}},{"properties":{"con_fname":"Karen","geo_score":0.747,"con_lname":"Gall","foo_address":"3901 Beaubien","dept":"Social Work","agency":"Children's Hospital of Michigan","phone":"(313) 745-4315","foo_city":"Detroit, MI, 48201","id":"a6osbzj888h4","geo_precision":"street","con_email":"kgall@dmc.org","address":"3901 Beaubien, Detroit, MI, 48201"},"type":"Feature","geometry":{"type":"Point","coordinates":[-83.052342,42.349602]}},{"properties":{"con_fname":"Peggy","geo_score":1.0,"con_lname":"Akrigg","foo_address":"53 Franklin Blvd.","dept":"Family Education &amp; Support Services","agency":"Catholic Social Services of Oakland Co. - Pontiac","phone":"(248) 334-3595 x3229","foo_city":"Pontiac, MI, 48341","id":"a6osbzm3g5qy","geo_precision":"range","con_email":"akriggp@cssoc.org","address":"53 Franklin Blvd., Pontiac, MI, 48341"},"type":"Feature","geometry":{"type":"Point","coordinates":[-83.302721,42.635198]}},{"properties":{"con_fname":"Angela","geo_score":0.916,"con_lname":"Wilson","foo_address":"5830 Field","dept":null,"agency":"Communities in Schools","phone":"(313) 571-3400 x231","foo_city":"Detroit, MI, 48213","id":"a6osbzkd2mjr","geo_precision":"range","con_email":"angelawilson@cisdetroit.org","address":"5830 Field, Detroit, MI, 48213"},"type":"Feature","geometry":{"type":"Point","coordinates":[-83.022213,42.380616]}},{"properties":{"con_fname":"Dierk","geo_score":1.0,"con_lname":"Hall","foo_address":"163 Madison Street","dept":"N/A","agency":"City Connect Detroit Inc.","phone":"(313) 963-9722","foo_city":"Detroit, MI, 48226","id":"a6osbzi8d4dx","geo_precision":"range","con_email":null,"address":"163 Madison Street, Detroit, MI, 48226"},"type":"Feature","geometry":{"type":"Point","coordinates":[-83.048658,42.33718]}},{"properties":{"con_fname":"Joanne","geo_score":1.0,"con_lname":"Nicholson","foo_address":"35425 Michigan Ave.","dept":"N/A","agency":"Community Living Services","phone":"(734) 722-4775","foo_city":"Wayne, MI, 48184","id":"a6osbzisjigb","geo_precision":"range","con_email":"jnichols@comlivserv.com","address":"35425 Michigan Ave., Wayne, MI, 48184"},"type":"Feature","geometry":{"type":"Point","coordinates":[-83.387411,42.282806]}},{"properties":{"con_fname":"Diane","geo_score":0.805,"con_lname":"Bedenbaugh","foo_address":"44765 Woodward Ave.","dept":"N/A","agency":"Care House of Oakland County","phone":"(248) 332-7173","foo_city":"Pontiac, MI, 48341","id":"a6osbzr2li0v","geo_precision":"street","con_email":"dbedenbaugh@carehouse.org","address":"44765 Woodward Ave., Pontiac, MI, 48341"},"type":"Feature","geometry":{"type":"Point","coordinates":[-83.272961,42.612864]}},{"properties":{"con_fname":"Jennifer","geo_score":0.765,"con_lname":"Williams","foo_address":"570 Kirts Blvd. Suite 231","dept":"Leasing Assistance Program","agency":"Community Housing Network, Inc.","phone":"(248) 269-1316","foo_city":"Troy, MI, 48084","id":"a6osbzfy3zk9","geo_precision":"range","con_email":"jwilliams@chninc.net","address":"570 Kirts Blvd. Suite 231, Troy, MI, 48084"},"type":"Feature","geometry":{"type":"Point","coordinates":[-83.151848,42.556365]}},{"properties":{"con_fname":"Beverley","geo_score":0.927,"con_lname":"Ebersold","foo_address":"1600 Porter","dept":"Detroit Office","agency":"Corporation for Supportive Housing","phone":"(313) 963-6883","foo_city":"Detroit, MI, 48216","id":"a6osbze7073r","geo_precision":"range","con_email":"beverley.ebersold@csh.org","address":"1600 Porter, Detroit, MI, 48216"},"type":"Feature","geometry":{"type":"Point","coordinates":[-83.065087,42.327408]}},{"properties":{"con_fname":"Celestine","geo_score":0.755,"con_lname":"Brown","foo_address":"124 Pearl St. Suite 308","dept":"Social Work","agency":"CBC Services, LLC","phone":"(734) 485-8527","foo_city":"Ypsilanti, MI, 48197","id":"a6osbzcqjus6","geo_precision":"range","con_email":"cbrown@cbcservices.net","address":"124 Pearl St. Suite 308, Ypsilanti, MI, 48197"},"type":"Feature","geometry":{"type":"Point","coordinates":[-83.613364,42.242251]}},{"properties":{"con_fname":"Carina","geo_score":1.0,"con_lname":"Yanish","foo_address":"2 Woodward Ave.","dept":"Council Member Saunteel Jenkins","agency":"Detroit City Council","phone":"(313) 224-1687","foo_city":"Detroit, MI, 48226","id":"a6osbzns9mtc","geo_precision":"range","con_email":"yanishc@detroitmi.gov","address":"2 Woodward Ave., Detroit, MI, 48226"},"type":"Feature","geometry":{"type":"Point","coordinates":[-83.044533,42.328857]}},{"properties":{"con_fname":"Henriette","geo_score":0.947,"con_lname":"Warren","foo_address":"10 Peterboro","dept":"Outpatient","agency":"Detroit Central City CMH, Inc.","phone":"(313) 831-3160","foo_city":"Detroit, MI, 48201","id":"a6osbzcgqtxl","geo_precision":"range","con_email":"hwarren@dcccmh.org","address":"10 Peterboro, Detroit, MI, 48201"},"type":"Feature","geometry":{"type":"Point","coordinates":[-83.056761,42.34529]}},{"properties":{"con_fname":"Cassandra","geo_score":1.0,"con_lname":"Nelson-Pruitt","foo_address":"208 Mack Avenue","dept":"Community Services","agency":"Detroit Urban League, Inc.","phone":"(313) 831-5581","foo_city":"Detroit, MI, 48201","id":"a6osbzjj81s7","geo_precision":"range","con_email":null,"address":"208 Mack Avenue, Detroit, MI, 48201"},"type":"Feature","geometry":{"type":"Point","coordinates":[-83.055696,42.348365]}},{"properties":{"con_fname":"Sylvia","geo_score":0.828,"con_lname":"Brown Jones","foo_address":"235 Grand Avenue  Suite 1411","dept":"Children's Trust Fund","agency":"Department of Human Services","phone":"(517) 241-7792","foo_city":"Lansing, MI, 48933","id":"a6osbzegpr8d","geo_precision":"range","con_email":"brown-joness@michigan.gov","address":"235 Grand Avenue  Suite 1411, Lansing, MI, 48933"},"type":"Feature","geometry":{"type":"Point","coordinates":[-84.550623,42.73511]}},{"properties":{"con_fname":"Oswaldo","geo_score":0.861,"con_lname":"Rivera","foo_address":"3040 W. Grand Blvd. Suite 5-600","dept":"Bureau of Child Welfare","agency":"Department of Human Services-Wayne Co.","phone":"(313) 456-1255","foo_city":"Detroit, MI, 48202","id":"a6osbzeujxez","geo_precision":"range","con_email":"riverao@michigan.gov","address":"3040 W. Grand Blvd. Suite 5-600, Detroit, MI, 48202"},"type":"Feature","geometry":{"type":"Point","coordinates":[-83.075943,42.369155]}},{"properties":{"con_fname":"Gale","geo_score":0.898,"con_lname":"Simmons","foo_address":"1333 Brewery Park Blvd. Suite 200","dept":null,"agency":"Detroit Area Agency on Aging","phone":"(313) 446-4444 x5300","foo_city":"Detroit, MI, 48207","id":"a6osbzjzgkqq","geo_precision":"range","con_email":"simmonsg@daaa1a.org","address":"1333 Brewery Park Blvd. Suite 200, Detroit, MI, 48207"},"type":"Feature","geometry":{"type":"Point","coordinates":[-83.039107,42.34401]}},{"properties":{"con_fname":"Sarelde","geo_score":0.935,"con_lname":"Cheeks","foo_address":"12010 Linwood","dept":"Naomi's Nest","agency":"Elmhurst Home, Inc.","phone":"(313) 865-1500","foo_city":"Detroit, MI, 48206","id":"a6osbznqy5ho","geo_precision":"range","con_email":"scheeks@elmhursthome.org","address":"12010 Linwood, Detroit, MI, 48206"},"type":"Feature","geometry":{"type":"Point","coordinates":[-83.116247,42.384552]}},{"properties":{"con_fname":"Linnea","geo_score":1.0,"con_lname":"Berg","foo_address":"9540 Conant St.","dept":"Volunteer Division","agency":"Friendship House","phone":"(313) 871-7443","foo_city":"Hamtramck, MI, 48212","id":"a6osbzrvcndd","geo_precision":"range","con_email":"linneab1415@yahoo.com","address":"9540 Conant St., Hamtramck, MI, 48212"},"type":"Feature","geometry":{"type":"Point","coordinates":[-83.049651,42.398014]}},{"properties":{"con_fname":"Walter","geo_score":0.877,"con_lname":"Horlings","foo_address":"2111 Woodward Ave. Suite 700","dept":"N/A","agency":"Family Care Network","phone":"(313) 964-5070 x228","foo_city":"Detroit, MI, 48201","id":"a6osbzkkk5oe","geo_precision":"range","con_email":"whorlings@fcninc.org","address":"2111 Woodward Ave. Suite 700, Detroit, MI, 48201"},"type":"Feature","geometry":{"type":"Point","coordinates":[-83.051372,42.337733]}},{"properties":{"con_fname":"Cathy","geo_score":0.955,"con_lname":"Marshall","foo_address":"19800 Grand River Ave.","dept":null,"agency":"Grandmont Rosedale Development Corp.","phone":"(313) 387-4732 x105","foo_city":"Detroit, MI, 48223","id":"a6osbzopwv2z","geo_precision":"range","con_email":"cmarshall@grdc.org","address":"19800 Grand River Ave., Detroit, MI, 48223"},"type":"Feature","geometry":{"type":"Point","coordinates":[-83.236547,42.408041]}},{"properties":{"con_fname":"Toni","geo_score":0.776,"con_lname":"Hartke","foo_address":"One Heritage Place  Suite 230","dept":null,"agency":"Great Start Collaborative - Wayne","phone":"(734) 718-6138","foo_city":"Southgate, MI, 48195","id":"a6osbzj0md2x","geo_precision":"street","con_email":"toni@greatstartcollaborativewayne.org","address":"One Heritage Place  Suite 230, Southgate, MI, 48195"},"type":"Feature","geometry":{"type":"Point","coordinates":[-83.222839,42.210951]}},{"properties":{"con_fname":"Jessica","geo_score":1.0,"con_lname":"Sapp","foo_address":"13101 Allen Rd.","dept":"N/A","agency":"Guidance Center, The","phone":"(734) 785-7705 x7371","foo_city":"Southgate, MI, 48195","id":"a6osbzq8iz24","geo_precision":"range","con_email":"jsapp@guidance-center.org","address":"13101 Allen Rd., Southgate, MI, 48195"},"type":"Feature","geometry":{"type":"Point","coordinates":[-83.229154,42.211684]}},{"properties":{"con_fname":"Susan","geo_score":0.947,"con_lname":"Nicholas","foo_address":"31735 Maplewood","dept":"City of Garden City Parks &amp; Recreation","agency":"Garden City Community Coalition","phone":"(734) 793-1868","foo_city":"Garden City, MI, 48135","id":"a6osbzg7qwio","geo_precision":"range","con_email":"susann@gardencitymi.org","address":"31735 Maplewood, Garden City, MI, 48135"},"type":"Feature","geometry":{"type":"Point","coordinates":[-83.354123,42.33231]}},{"properties":{"con_fname":"Gale","geo_score":0.854,"con_lname":"Chapman","foo_address":"8623 N. Wayne Rd. Suite 200","dept":"Oakdale Recovery Center","agency":"Hegira Programs, Inc.","phone":"(734) 458-4601 x 244","foo_city":"Westland, MI, 48185","id":"a6osbzpxed0n","geo_precision":"range","con_email":"gchapman@hegira.net","address":"8623 N. Wayne Rd. Suite 200, Westland, MI, 48185"},"type":"Feature","geometry":{"type":"Point","coordinates":[-83.386037,42.351613]}},{"properties":{"con_fname":"Catrina","geo_score":0.935,"con_lname":"Stackpoole","foo_address":"3401 Evaline","dept":"N/A","agency":"Hamtramck City Council","phone":"(313) 330-7076","foo_city":"Hamtramck, MI, 48212","id":"a6osbzrcajx9","geo_precision":"range","con_email":"catstackpoole@comcast.net","address":"3401 Evaline, Hamtramck, MI, 48212"},"type":"Feature","geometry":{"type":"Point","coordinates":[-83.052641,42.399097]}},{"properties":{"con_fname":"Erica","geo_score":1.0,"con_lname":"Saum","foo_address":"6555 W. Maple Rd.","dept":"Resource Center","agency":"Jewish Family Service","phone":"(248) 592-2664","foo_city":"West Bloomfield, MI, 48322","id":"a6osbzg4d6qd","geo_precision":"range","con_email":"esaum@jfsdetroit.org","address":"6555 W. Maple Rd., West Bloomfield, MI, 48322"},"type":"Feature","geometry":{"type":"Point","coordinates":[-83.400152,42.54183]}},{"properties":{"con_fname":"Cheryl","geo_score":1.0,"con_lname":"Bukoff","foo_address":"4750 Woodward Ave.","dept":"Zena Baum Senior Service Center","agency":"Luella Hannan Foundation","phone":"(313) 833-1300 x20","foo_city":"Detroit, MI, 48201","id":"a6osbzebhfdr","geo_precision":"range","con_email":"cbukoff@hannan.org","address":"4750 Woodward Ave., Detroit, MI, 48201"},"type":"Feature","geometry":{"type":"Point","coordinates":[-83.063258,42.355273]}},{"properties":{"con_fname":"Benjamin","geo_score":1.0,"con_lname":"Jones","foo_address":"4777 E. Outer Drive","dept":"Administration and Prevention","agency":"National Council of Alcoholism &amp; Drug Dependence, GDA","phone":"(313) 369-5411","foo_city":"Detroit, MI, 48234","id":"a6osbzr4cu38","geo_precision":"range","con_email":"president@ncadd-detroit.org","address":"4777 E. Outer Drive, Detroit, MI, 48234"},"type":"Feature","geometry":{"type":"Point","coordinates":[-83.020116,42.441336]}},{"properties":{"con_fname":"Caelan","geo_score":0.805,"con_lname":"Kuban","foo_address":"900 Cook Rd.","dept":"TLC Institute","agency":"National Institute for Trauma &amp; Loss In Children","phone":"(586) 899-5056","foo_city":"Grosse Pointe Woods, MI","id":"a6osbzoaachq","geo_precision":"range","con_email":"ckuban@tlcinst.org","address":"900 Cook Rd., Grosse Pointe Woods, MI"},"type":"Feature","geometry":{"type":"Point","coordinates":[-85.308689,42.639897]}},{"properties":{"con_fname":"Colleen","geo_score":0.911,"con_lname":"O'Brien","foo_address":"102 N. Hamilton Street","dept":"Drop-In Center","agency":"Ozone House Drop-In Center","phone":"(734) 846-0220","foo_city":"Ypsilanti, MI, 48197","id":"a6osbzciontu","geo_precision":"range","con_email":"cobrien@ozonehouse.org","address":"102 N. Hamilton Street, Ypsilanti, MI, 48197"},"type":"Feature","geometry":{"type":"Point","coordinates":[-83.617503,42.242226]}},{"properties":{"con_fname":"Margo","geo_score":0.892,"con_lname":"Clarfelt","foo_address":"1200 N. Telegraph Rd.  Dept 452","dept":"Social Work","agency":"Oakland County Youth Assistance","phone":"(248) 858-0052","foo_city":"Pontiac, MI, 48341","id":"a6osbzp6mi1n","geo_precision":"range","con_email":"clarfeltm@oakgov.com","address":"1200 N. Telegraph Rd.  Dept 452, Pontiac, MI, 48341"},"type":"Feature","geometry":{"type":"Point","coordinates":[-83.333674,42.658072]}},{"properties":{"con_fname":"Carol","geo_score":0.935,"con_lname":"Burrell-Jackson","foo_address":"4180 Packard","dept":"N/A","agency":"Power Inc.","phone":"(734) 929-6509","foo_city":"Ann Arbor, MI, 48108","id":"a6osbzdp8d4x","geo_precision":"range","con_email":"cbjackson@powerclf.org","address":"4180 Packard, Ann Arbor, MI, 48108"},"type":"Feature","geometry":{"type":"Point","coordinates":[-83.677263,42.245402]}},{"properties":{"con_fname":"Laura","geo_score":1.0,"con_lname":"Hughes","foo_address":"77 Victor St.","dept":"N/A","agency":"Ruth Ellis Center","phone":"(313) 252-1950","foo_city":"Highland Park, MI, 48203","id":"a6osbzcwvrny","geo_precision":"range","con_email":"lauraannhughes@gmail.com","address":"77 Victor St., Highland Park, MI, 48203"},"type":"Feature","geometry":{"type":"Point","coordinates":[-83.095539,42.407261]}},{"properties":{"con_fname":"Minsu","geo_score":0.78,"con_lname":"Longiaru","foo_address":"2727 2nd Ave. Suite 148","dept":null,"agency":"Restaurant Opportunities Center of Michigan","phone":"(313) 962-5020","foo_city":"Detroit, MI, 48201","id":"a6osbzipf8dd","geo_precision":"range","con_email":"rocmichigan@yahoo.com","address":"2727 2nd Ave. Suite 148, Detroit, MI, 48201"},"type":"Feature","geometry":{"type":"Point","coordinates":[-83.066072,42.340086]}},{"properties":{"con_fname":"Dwight","geo_score":1.0,"con_lname":"Vaughter","foo_address":"1852 W. Grand Blvd.","dept":null,"agency":"SHAR, Inc.","phone":"(313) 894-1445","foo_city":"Detroit, MI, 48208","id":"a6osbzrgyvr0","geo_precision":"range","con_email":"dvaughter@sharinc.org","address":"1852 W. Grand Blvd., Detroit, MI, 48208"},"type":"Feature","geometry":{"type":"Point","coordinates":[-83.110284,42.352891]}},{"properties":{"con_fname":"Roberta","geo_score":0.92,"con_lname":"Walker","foo_address":"1700 Waterman Ave.","dept":"N/A","agency":"Southwest Counseling Solutions","phone":"(313) 841-8900","foo_city":"Detroit, MI, 48209","id":"a6osbzpj5wkk","geo_precision":"range","con_email":"rwalker@swsol.org","address":"1700 Waterman Ave., Detroit, MI, 48209"},"type":"Feature","geometry":{"type":"Point","coordinates":[-83.113588,42.311716]}},{"properties":{"con_fname":"Jamie","geo_score":1.0,"con_lname":"Bozarth","foo_address":"16250 Northland Dr.","dept":"Social Work","agency":"Spaulding for Children","phone":"(248) 443-7080 x275","foo_city":"Southfield, MI, 48075","id":"a6osbzjecl5t","geo_precision":"range","con_email":"jbozarth@spaulding.org","address":"16250 Northland Dr., Southfield, MI, 48075"},"type":"Feature","geometry":{"type":"Point","coordinates":[-83.210426,42.444999]}},{"properties":{"con_fname":"Jodi","geo_score":1.0,"con_lname":"Luster","foo_address":"28303 Joy Road","dept":"Administrative Operations","agency":"Spectrum Child and Family Services","phone":"(734) 458-8736","foo_city":"Westland, MI, 48185","id":"a6osbzp53bu8","geo_precision":"range","con_email":"jluster@spectrumhuman.org","address":"28303 Joy Road, Westland, MI, 48185"},"type":"Feature","geometry":{"type":"Point","coordinates":[-83.321249,42.354994]}},{"properties":{"con_fname":"Nancy","geo_score":0.855,"con_lname":"Szlezyngier","foo_address":"1107 Military","dept":"Blue Water Area Child Advocacy Ctr.","agency":"St. Clair Co. Child Abuse Neglect Council","phone":"(810) 966-9911","foo_city":"Port Huron, MI, 48060","id":"a6osbzfsxmuc","geo_precision":"range","con_email":"nszlezyngier@sccstopchildabuse.org","address":"1107 Military, Port Huron, MI, 48060"},"type":"Feature","geometry":{"type":"Point","coordinates":[-82.424573,42.972563]}},{"properties":{"con_fname":"Ambra","geo_score":0.935,"con_lname":"Redrick","foo_address":"15055 Hubbell","dept":"School Based Health","agency":"St. John Community Health","phone":"(313) 242-7494","foo_city":"Detroit, MI, 48227","id":"a6osbzkpg8k0","geo_precision":"range","con_email":"ambra.redrick@stjohn.org","address":"15055 Hubbell, Detroit, MI, 48227"},"type":"Feature","geometry":{"type":"Point","coordinates":[-83.188861,42.400824]}},{"properties":{"con_fname":"Jean","geo_score":0.717,"con_lname":"Pfaendtner","foo_address":"1410 E. 14 Mile Road  Suite 900","dept":"Family Support Services - Madison Heights","agency":"Training &amp; Treatment Innovations, Inc.","phone":"(248) 524-8801","foo_city":"Madison Heights, MI, 48071","id":"a6osbzo7bsr3","geo_precision":"street","con_email":"jpfaendtner@ttiinc.org","address":"1410 E. 14 Mile Road  Suite 900, Madison Heights, MI, 48071"},"type":"Feature","geometry":{"type":"Point","coordinates":[-83.124733,42.522757]}},{"properties":{"con_fname":"Deborah","geo_score":0.918,"con_lname":"McPeek","foo_address":"P.O. Box 1123","dept":"N/A","agency":"Turning Point Inc.","phone":"(586) 463-4430","foo_city":"Mount Clemens, MI, 48046","id":"a6osbzbtr7do","geo_precision":"zip","con_email":"dmcpeek@turningpointinc.com","address":"P.O. Box 1123, Mount Clemens, MI, 48046"},"type":"Feature","geometry":{"type":"Point","coordinates":[-82.903065,42.672322]}},{"properties":{"con_fname":"Nancy","geo_score":1.0,"con_lname":"Carter","foo_address":"151 W. Fort Street","dept":"TWW (Jet) and Angel Land Day Care","agency":"TWH Entities","phone":"(313) 963-8382 x1004","foo_city":"Detroit, MI, 48226","id":"a6osbzjeli51","geo_precision":"range","con_email":"nphcarter@sbcglobal.net","address":"151 W. Fort Street, Detroit, MI, 48226"},"type":"Feature","geometry":{"type":"Point","coordinates":[-83.047923,42.330408]}},{"properties":{"con_fname":"Lorraine","geo_score":0.577,"con_lname":"Goddard","foo_address":"300 Giles Blvd. East","dept":"Comm Planning &amp; Research","agency":"United Way/Centraide Windsor - Essex County","phone":"(519) 258-0000 x 1126","foo_city":"Windsor, ON, N9A 4C4","id":"a6osbzkxxmhq","geo_precision":"street","con_email":"lgoddard@weareunited.com","address":"300 Giles Blvd. East, Windsor, ON, N9A 4C4"},"type":"Feature","geometry":{"type":"Point","coordinates":[-86.055228,33.96063]}},{"properties":{"con_fname":"Addie","geo_score":0.902,"con_lname":"Harper","foo_address":"29006 Eton","dept":"Program Development","agency":"Wholistic Living Community Development","phone":"(734) 721-2557","foo_city":"Westland, MI, 48186","id":"a6osbzcjvf3p","geo_precision":"range","con_email":"addharp@yahoo.com","address":"29006 Eton, Westland, MI, 48186"},"type":"Feature","geometry":{"type":"Point","coordinates":[-83.324701,42.273439]}},{"properties":{"con_fname":"Yvette","geo_score":0.902,"con_lname":"Davis","foo_address":"7430 Second Ave.","dept":"Clinical Services","agency":"Wayne Center","phone":"(313) 871-2337 x250","foo_city":"Detroit, MI, 48202","id":"a6osbzqq9p90","geo_precision":"range","con_email":null,"address":"7430 Second Ave., Detroit, MI, 48202"},"type":"Feature","geometry":{"type":"Point","coordinates":[-83.076924,42.370342]}},{"properties":{"con_fname":"Holly","geo_score":0.881,"con_lname":"White","foo_address":"1201 N. Grand Traverse","dept":"N/A","agency":"Whaley Children's Center","phone":"(810) 600-0133","foo_city":"Flint, MI, 48503","id":"a6osbzos6eta","geo_precision":"range","con_email":null,"address":"1201 N. Grand Traverse, Flint, MI, 48503"},"type":"Feature","geometry":{"type":"Point","coordinates":[-83.704343,43.024485]}},{"properties":{"con_fname":"Christine","geo_score":1.0,"con_lname":"Wilson","foo_address":"11148 Harper Avenue","dept":"Rebuilding Communities Inc.","agency":"Warren/Conner Development Coalition","phone":"(313) 267-1103","foo_city":"Detroit, MI, 48213","id":"a6osbzi7aug7","geo_precision":"range","con_email":"cwilson@warrenconner.org","address":"11148 Harper Avenue, Detroit, MI, 48213"},"type":"Feature","geometry":{"type":"Point","coordinates":[-82.992181,42.396487]}},{"properties":{"con_fname":"Brenda","geo_score":1.0,"con_lname":"Ozog","foo_address":"33030 Van Born Rd.","dept":"Social Work","agency":"Wayne County Dept. of Public Health","phone":"(734) 727-7069","foo_city":"Wayne, MI, 48184","id":"a6osbzm5te4i","geo_precision":"range","con_email":"bozog@co.wayne.mi.us","address":"33030 Van Born Rd., Wayne, MI, 48184"},"type":"Feature","geometry":{"type":"Point","coordinates":[-83.363488,42.267104]}},{"properties":{"con_fname":"Karen","geo_score":0.753,"con_lname":"Watts","foo_address":"1441 St. Antoine","dept":"Victim Services","agency":"Wayne County Prosecutor's Office","phone":"(313) 967-2332","foo_city":"Detroit, MI, 48226","id":"a6osbzbs3grx","geo_precision":"street","con_email":"kwatts@co.wayne.mi.us","address":"1441 St. Antoine, Detroit, MI, 48226"},"type":"Feature","geometry":{"type":"Point","coordinates":[-83.041443,42.336292]}},{"properties":{"con_fname":"Shaun","geo_score":1.0,"con_lname":"Taft","foo_address":"26650 Eureka Road","dept":"Administration","agency":"Wayne Metro Community Action Agency","phone":"(734) 955-6752","foo_city":"Taylor, MI, 48180","id":"a6osbznvzuje","geo_precision":"range","con_email":"staft@waynemetro.org","address":"26650 Eureka Road, Taylor, MI, 48180"},"type":"Feature","geometry":{"type":"Point","coordinates":[-83.29763,42.196684]}},{"properties":{"con_fname":"Julie","geo_score":0.941,"con_lname":"Boggs","foo_address":"500 Griswold","dept":"Health &amp; Human Services","agency":"Wayne County","phone":"(313) 468-0100","foo_city":"Detroit, MI, 48226","id":"a6osbzbomuzi","geo_precision":"range","con_email":"jboggs@co.wayne.mi.us","address":"500 Griswold, Detroit, MI, 48226"},"type":"Feature","geometry":{"type":"Point","coordinates":[-83.046067,42.329056]}},{"properties":{"con_fname":"Ethriam","geo_score":0.842,"con_lname":"Brammer","foo_address":"656 W. Kirby  3325 FAB","dept":null,"agency":"WSU - Center for Chicano-Boricua Studies","phone":"(313) 577-4378","foo_city":"Detroit, MI, 48202","id":"a6osbznsycgt","geo_precision":"range","con_email":"ethriam@wayne.edu","address":"656 W. Kirby  3325 FAB, Detroit, MI, 48202"},"type":"Feature","geometry":{"type":"Point","coordinates":[-83.071827,42.358269]}},{"properties":{"con_fname":"Anthony","geo_score":0.922,"con_lname":"Thompson","foo_address":"7375 Woodward Ave.  #2800","dept":null,"agency":"Youthville - Detroit","phone":"(313) 309-1300 x1304","foo_city":"Detroit, MI, 48202","id":"a6osbzg6xqx6","geo_precision":"range","con_email":null,"address":"7375 Woodward Ave.  #2800, Detroit, MI, 48202"},"type":"Feature","geometry":{"type":"Point","coordinates":[-83.073642,42.370885]}},{"properties":{"con_fname":"Peggy","geo_score":0.922,"con_lname":"Vaughn-Payne","foo_address":"1012 N. Walnut St.","dept":null,"agency":"Northwest Initiative","phone":"(517) 999-2894","foo_city":"Lansing, MI, 48906","id":"a6osbzgqf7ut","geo_precision":"range","con_email":"peggy@nwlansing.org","address":"1012 N. Walnut St., Lansing, MI, 48906"},"type":"Feature","geometry":{"type":"Point","coordinates":[-84.556826,42.744997]}},{"properties":{"con_fname":"Rose","geo_score":0.602,"con_lname":"Hirsch","foo_address":"100 Mack Avenue P.O. Box 44110","dept":"Volunteer Services","agency":"American Red Cross - Southeastern Michigan Chapter","phone":"(313) 494-2857","foo_city":"Detroit, MI, 48244-0110","id":"a6osbznaylid","geo_precision":"zip","con_email":null,"address":"100 Mack Avenue P.O. Box 44110, Detroit, MI, 48244-0110"},"type":"Feature","geometry":{"type":"Point","coordinates":[-83.150823,42.239933]}}],"is_temporal":false,"author":{"url":"","metadata":"","contact_name":"","contact_address":"","source":"","contact_phone":""},"source":"","pagination":{"sort":null,"start":0,"total":69,"limit":1000000},"state":"complete","tags":"","published":"2014-08-15T02:51:22-04:00","id":217999}