{"type":"FeatureCollection","data_type":"Dataset","url_type":null,"permissions":[{"permissions":{"download":true,"view":true},"group_id":"everyone"}],"classification":null,"title":"alcohol violation 2011","count":24,"stream_id":218640,"contributor":{"url":"http://geocommons.com/users/42302","name":"hillproject"},"data_attributes":null,"calculation_params":null,"icon_link":null,"link":"http://geocommons.com/overlays/218640.json","extent":[-83.2854,41.1024,-83.1663,41.1239],"geometry_types":["point"],"unique_name":null,"name":"alcohol violation 2011","feature_count":24,"description":"","next_feature":null,"is_raster":false,"short_classification":"Y","stats":{"date":{"max":"2011/12/04 01:59:00 -0500","mean":"2011/06/03 18:46:35 -0400","variance":61507983247173.9,"stdev":7842702.54741144,"min":"2011/01/01 00:35:00 -0500","median":"2011/06/22 00:14:00 -0400"},"unit":{"max":63,"mean":59.8333333333333,"variance":7.79710144927536,"stdev":2.79232903671386,"min":56,"median":60},"disposition":{"max":400,"mean":250.0,"variance":11382.6086956522,"stdev":106.689309190997,"min":100,"median":230},"cfs":{"max":12,"mean":12.0,"variance":0.0,"stdev":0.0,"min":12,"median":12},"call#":{"max":11.012756,"mean":11.00553775,"variance":1.21117838478269e-05,"stdev":0.00348019882303107,"min":11.000003,"median":11.006182}},"features":[{"properties":{"officer":"DES","city":"Tiffin","zip":"44883","date":{"end_time":"2011/04/25 16:19:00 -0400","original":"4/25/2011 16:18","granularity":"min","time":"2011/04/25 16:18:00 -0400"},"geo_score":0.646,"unit":61,"disposition":200,"cfs":12,"call#":11.003888,"id":"a6bcrzrk43xn","geo_precision":"range","address":"1 City Lot 7","state":"OH","juris":"PD"},"type":"Feature","geometry":{"type":"Point","coordinates":[-83.285418,41.123483]}},{"properties":{"officer":"RLT","city":"Tiffin","zip":"44883","date":{"end_time":"2011/01/01 00:36:00 -0500","original":"1/1/2011 0:35","granularity":"min","time":"2011/01/01 00:35:00 -0500"},"geo_score":0.805,"unit":57,"disposition":400,"cfs":12,"call#":11.000003,"id":"a6bcrzu6p7aa","geo_precision":"street","address":"125 Minerva St","state":"OH","juris":"PD"},"type":"Feature","geometry":{"type":"Point","coordinates":[-83.176402,41.123863]}},{"properties":{"officer":"RMN","city":"Tiffin","zip":"44883","date":{"end_time":"2011/12/04 02:00:00 -0500","original":"12/4/2011 1:59","granularity":"min","time":"2011/12/04 01:59:00 -0500"},"geo_score":0.902,"unit":57,"disposition":100,"cfs":12,"call#":11.012756,"id":"a6bcrzikhaxi","geo_precision":"range","address":"129 S Washington St","state":"OH","juris":"PD"},"type":"Feature","geometry":{"type":"Point","coordinates":[-83.176496,41.113983]}},{"properties":{"officer":"BAR","city":"Tiffin","zip":"44883","date":{"end_time":"2011/07/01 22:59:00 -0400","original":"7/1/2011 22:58","granularity":"min","time":"2011/07/01 22:58:00 -0400"},"geo_score":0.902,"unit":63,"disposition":400,"cfs":12,"call#":11.006574,"id":"a6bcrzxnw9xs","geo_precision":"range","address":"129 S Washington St","state":"OH","juris":"PD"},"type":"Feature","geometry":{"type":"Point","coordinates":[-83.176496,41.113983]}},{"properties":{"officer":"BAR","city":"Tiffin","zip":"44883","date":{"end_time":"2011/04/24 01:34:00 -0400","original":"4/24/2011 1:33","granularity":"min","time":"2011/04/24 01:33:00 -0400"},"geo_score":0.902,"unit":63,"disposition":230,"cfs":12,"call#":11.003842,"id":"a6bcrzm4xx4n","geo_precision":"range","address":"129 S Washington St","state":"OH","juris":"PD"},"type":"Feature","geometry":{"type":"Point","coordinates":[-83.176496,41.113983]}},{"properties":{"officer":"EDA","city":"Tiffin","zip":"44883","date":{"end_time":"2011/03/26 02:01:00 -0400","original":"3/26/2011 2:00","granularity":"min","time":"2011/03/26 02:00:00 -0400"},"geo_score":0.902,"unit":60,"disposition":100,"cfs":12,"call#":11.002733,"id":"a6bcrzu37tiy","geo_precision":"range","address":"129 S Washington St","state":"OH","juris":"PD"},"type":"Feature","geometry":{"type":"Point","coordinates":[-83.176496,41.113983]}},{"properties":{"officer":"JAD","city":"Tiffin","zip":"44883","date":{"end_time":"2011/01/23 02:06:00 -0500","original":"1/23/2011 2:05","granularity":"min","time":"2011/01/23 02:05:00 -0500"},"geo_score":0.902,"unit":56,"disposition":400,"cfs":12,"call#":11.000677,"id":"a6bcrzncz3eq","geo_precision":"range","address":"167 Main St","state":"OH","juris":"PD"},"type":"Feature","geometry":{"type":"Point","coordinates":[-83.168532,41.111997]}},{"properties":{"officer":"JMW","city":"Tiffin","zip":"44883","date":{"end_time":"2011/03/10 18:41:00 -0500","original":"3/10/2011 18:40","granularity":"min","time":"2011/03/10 18:40:00 -0500"},"geo_score":0.902,"unit":57,"disposition":200,"cfs":12,"call#":11.002261,"id":"a6bcrzp3rxfi","geo_precision":"range","address":"19 Longfellow Dr","state":"OH","juris":"PD"},"type":"Feature","geometry":{"type":"Point","coordinates":[-83.193449,41.10327]}},{"properties":{"officer":"BAR","city":"Tiffin","zip":"44883","date":{"end_time":"2011/09/03 00:33:00 -0400","original":"9/3/2011 0:32","granularity":"min","time":"2011/09/03 00:32:00 -0400"},"geo_score":0.902,"unit":63,"disposition":200,"cfs":12,"call#":11.009055,"id":"a6bcrzvjbjn0","geo_precision":"range","address":"198 E Perry St","state":"OH","juris":"PD"},"type":"Feature","geometry":{"type":"Point","coordinates":[-83.172384,41.116227]}},{"properties":{"officer":"JSC","city":"Tiffin","zip":"44883","date":{"end_time":"2011/10/06 21:49:00 -0400","original":"10/6/2011 21:48","granularity":"min","time":"2011/10/06 21:48:00 -0400"},"geo_score":0.429,"unit":57,"disposition":200,"cfs":12,"call#":11.010424,"id":"a6bcrzhz53r6","geo_precision":"street","address":"201 Clay St,O","state":"OH","juris":"PD"},"type":"Feature","geometry":{"type":"Point","coordinates":[-83.1824,41.116381]}},{"properties":{"officer":"JAD","city":"Tiffin","zip":"44883","date":{"end_time":"2011/07/03 03:27:00 -0400","original":"7/3/2011 3:26","granularity":"min","time":"2011/07/03 03:26:00 -0400"},"geo_score":0.902,"unit":56,"disposition":230,"cfs":12,"call#":11.006637,"id":"a6bcrzid3sk3","geo_precision":"range","address":"205 S Sandusky St","state":"OH","juris":"PD"},"type":"Feature","geometry":{"type":"Point","coordinates":[-83.186167,41.114614]}},{"properties":{"officer":"RMN","city":"Tiffin","zip":"44883","date":{"end_time":"2011/07/01 01:22:00 -0400","original":"7/1/2011 1:21","granularity":"min","time":"2011/07/01 01:21:00 -0400"},"geo_score":0.902,"unit":59,"disposition":400,"cfs":12,"call#":11.006527,"id":"a6bcrzo5rg8c","geo_precision":"range","address":"266 S Washington St","state":"OH","juris":"PD"},"type":"Feature","geometry":{"type":"Point","coordinates":[-83.175874,41.11022]}},{"properties":{"officer":"BAR","city":"Tiffin","zip":"44883","date":{"end_time":"2011/04/10 01:33:00 -0400","original":"4/10/2011 1:32","granularity":"min","time":"2011/04/10 01:32:00 -0400"},"geo_score":0.902,"unit":63,"disposition":230,"cfs":12,"call#":11.003276,"id":"a6bcrzrsby7f","geo_precision":"range","address":"266 S Washington St","state":"OH","juris":"PD"},"type":"Feature","geometry":{"type":"Point","coordinates":[-83.175874,41.11022]}},{"properties":{"officer":"JMW","city":"Tiffin","zip":"44883","date":{"end_time":"2011/08/09 21:14:00 -0400","original":"8/9/2011 21:13","granularity":"min","time":"2011/08/09 21:13:00 -0400"},"geo_score":0.902,"unit":63,"disposition":400,"cfs":12,"call#":11.008063,"id":"a6bcrzklfb1b","geo_precision":"range","address":"26X Sycamore St","state":"OH","juris":"PD"},"type":"Feature","geometry":{"type":"Point","coordinates":[-83.176205,41.108961]}},{"properties":{"officer":"BAR","city":"Tiffin","zip":"44883","date":{"end_time":"2011/02/05 20:58:00 -0500","original":"2/5/2011 20:57","granularity":"min","time":"2011/02/05 20:57:00 -0500"},"geo_score":0.902,"unit":63,"disposition":400,"cfs":12,"call#":11.001138,"id":"a6bcrzmz51iy","geo_precision":"range","address":"64 E Perry St","state":"OH","juris":"PD"},"type":"Feature","geometry":{"type":"Point","coordinates":[-83.177734,41.115757]}},{"properties":{"officer":"JSC","city":"Tiffin","zip":"44883","date":{"end_time":"2011/06/27 20:01:00 -0400","original":"6/27/2011 20:00","granularity":"min","time":"2011/06/27 20:00:00 -0400"},"geo_score":0.902,"unit":58,"disposition":230,"cfs":12,"call#":11.006384,"id":"a6bcrziw9ak2","geo_precision":"range","address":"71 E Market St","state":"OH","juris":"PD"},"type":"Feature","geometry":{"type":"Point","coordinates":[-83.177644,41.114498]}},{"properties":{"officer":"BAR","city":"Tiffin","zip":"44883","date":{"end_time":"2011/07/17 02:14:00 -0400","original":"7/17/2011 2:13","granularity":"min","time":"2011/07/17 02:13:00 -0400"},"geo_score":0.902,"unit":63,"disposition":230,"cfs":12,"call#":11.007164,"id":"a6bcrzhz12f6","geo_precision":"range","address":"84 N Washington St","state":"OH","juris":"PD"},"type":"Feature","geometry":{"type":"Point","coordinates":[-83.177423,41.120102]}},{"properties":{"officer":"AMR","city":"Tiffin","zip":"44883","date":{"end_time":"2011/06/22 00:15:00 -0400","original":"6/22/2011 0:14","granularity":"min","time":"2011/06/22 00:14:00 -0400"},"geo_score":0.902,"unit":63,"disposition":200,"cfs":12,"call#":11.006182,"id":"a6bcrzm8l8f4","geo_precision":"range","address":"84 N Washington St","state":"OH","juris":"PD"},"type":"Feature","geometry":{"type":"Point","coordinates":[-83.177423,41.120102]}},{"properties":{"officer":"JAD","city":"Tiffin","zip":"44883","date":{"end_time":"2011/03/13 03:12:00 -0400","original":"3/13/2011 3:11","granularity":"min","time":"2011/03/13 03:11:00 -0400"},"geo_score":0.902,"unit":56,"disposition":120,"cfs":12,"call#":11.00235,"id":"a6bcrzribkzd","geo_precision":"range","address":"84 N Washington St","state":"OH","juris":"PD"},"type":"Feature","geometry":{"type":"Point","coordinates":[-83.177423,41.120102]}},{"properties":{"officer":"SMM","city":"Tiffin","zip":"44883","date":{"end_time":"2011/05/04 02:37:00 -0400","original":"5/4/2011 2:36","granularity":"min","time":"2011/05/04 02:36:00 -0400"},"geo_score":0.902,"unit":62,"disposition":230,"cfs":12,"call#":11.004276,"id":"a6bcrzn2w0d0","geo_precision":"range","address":"91 N Washington St","state":"OH","juris":"PD"},"type":"Feature","geometry":{"type":"Point","coordinates":[-83.177472,41.120343]}},{"properties":{"officer":"MMS","city":"Tiffin","zip":"44883","date":{"end_time":"2011/09/05 01:32:00 -0400","original":"9/5/2011 1:31","granularity":"min","time":"2011/09/05 01:31:00 -0400"},"geo_score":0.902,"unit":58,"disposition":400,"cfs":12,"call#":11.009146,"id":"a6bcrzmheq6m","geo_precision":"range","address":"93 Greenfield St","state":"OH","juris":"PD"},"type":"Feature","geometry":{"type":"Point","coordinates":[-83.166337,41.115283]}},{"properties":{"officer":"JMW","city":"Tiffin","zip":"44883","date":{"end_time":"2011/06/15 17:35:00 -0400","original":"6/15/2011 17:34","granularity":"min","time":"2011/06/15 17:34:00 -0400"},"geo_score":0.902,"unit":57,"disposition":200,"cfs":12,"call#":11.005934,"id":"a6bcrzpf0jk4","geo_precision":"range","address":"99 Morningside Dr","state":"OH","juris":"PD"},"type":"Feature","geometry":{"type":"Point","coordinates":[-83.190564,41.102362]}},{"properties":{"officer":"MMS","city":"Tiffin","zip":"44883","date":{"end_time":"2011/11/05 22:07:00 -0400","original":"11/5/2011 22:06","granularity":"min","time":"2011/11/05 22:06:00 -0400"},"geo_score":0.857,"unit":60,"disposition":200,"cfs":12,"call#":11.011589,"id":"a6bcrzxck506","geo_precision":"street","address":"Jackson St/W Perry St","state":"OH","juris":"PD"},"type":"Feature","geometry":{"type":"Point","coordinates":[-83.188463,41.113439]}},{"properties":{"officer":"RLT","city":"Tiffin","zip":"44883","date":{"end_time":"2011/03/03 22:17:00 -0500","original":"3/3/2011 22:16","granularity":"min","time":"2011/03/03 22:16:00 -0500"},"geo_score":0.857,"unit":61,"disposition":100,"cfs":12,"call#":11.002027,"id":"a6bcrzqzss8a","geo_precision":"street","address":"S Sandusky St/Clay St","state":"OH","juris":"PD"},"type":"Feature","geometry":{"type":"Point","coordinates":[-83.1824,41.116381]}}],"is_temporal":true,"author":{"url":"","metadata":"","contact_name":"","contact_address":"","source":"","contact_phone":""},"source":"","pagination":{"sort":null,"start":0,"total":24,"limit":1000000},"state":"complete","tags":"","published":"2014-08-15T03:30:01-04:00","id":218640}