{"type":"FeatureCollection","data_type":"Dataset","url_type":null,"permissions":[{"permissions":{"download":true,"view":true},"group_id":"everyone"}],"classification":null,"title":"Agencies Tier 2","count":206,"stream_id":218796,"contributor":{"url":"http://geocommons.com/users/41429","name":"jfedorsRFBO"},"data_attributes":null,"calculation_params":null,"icon_link":null,"link":"http://geocommons.com/overlays/218796.json","extent":[-102.511,33.8511,-95.5128,36.8661],"geometry_types":["point"],"unique_name":null,"name":"Agencies Tier 2","feature_count":206,"description":"","next_feature":null,"is_raster":false,"short_classification":"Y","stats":{"tier":{"max":2,"mean":2.0,"variance":0.0,"stdev":0.0,"min":2,"median":2},"annual pounds distributed":{"max":1127572.9,"mean":41629.1845145631,"variance":8155618571.83021,"stdev":90308.4634562576,"min":513.5,"median":22369.93},"agency number":{"max":1272,"mean":709.883495145631,"variance":170233.65465309,"stdev":412.59381315416,"min":2,"median":790}},"features":[{"properties":{"2009 county food insecurity rate":"14.60%","county median ppip":"127.00%","city":"Cherokee","tier":2,"fbc program code":"PANTRY","county":"ALFALFA","geo_score":0.732,"annual pounds distributed":7908.17,"zip code":"73728-2517","change in current county pounds to reach eas":"12.46%","agency number":1237,"id":"a621yw9998u0","geo_precision":"range","address":"400 S Grand","agency name":"Cherokee Food Pantry"},"type":"Feature","geometry":{"type":"Point","coordinates":[-98.357025,36.754678]}},{"properties":{"2009 county food insecurity rate":"20.10%","county median ppip":"118.00%","city":"Atoka","tier":2,"fbc program code":"SENIORS","county":"ATOKA","geo_score":0.805,"annual pounds distributed":7759.5,"zip code":"74525","change in current county pounds to reach eas":"21.66%","agency number":829,"id":"a621yw2o9ro9","geo_precision":"range","address":"80 West Cedar Circle","agency name":"Southern OK Nutrition - Atoka"},"type":"Feature","geometry":{"type":"Point","coordinates":[-96.140449,34.37154]}},{"properties":{"2009 county food insecurity rate":"12.90%","county median ppip":"15.00%","city":"Beaver","tier":2,"fbc program code":"SENIORS","county":"BEAVER","geo_score":0.393,"annual pounds distributed":513.5,"zip code":"73932","change in current county pounds to reach eas":"863.03%","agency number":1134,"id":"a621yw16ho7j","geo_precision":"street","address":"811 1/2 Avenue \"A\"","agency name":"Panhandle Nutrition - Beaver"},"type":"Feature","geometry":{"type":"Point","coordinates":[-100.51567,36.81513]}},{"properties":{"2009 county food insecurity rate":"12.90%","county median ppip":"15.00%","city":"Turpin","tier":2,"fbc program code":"PANTRY","county":"BEAVER","geo_score":0.732,"annual pounds distributed":12261.32,"zip code":"73950","change in current county pounds to reach eas":"863.03%","agency number":1271,"id":"a621ywcf714p","geo_precision":"range","address":"217 S Lee","agency name":"Turpin Community Food Pantry"},"type":"Feature","geometry":{"type":"Point","coordinates":[-100.88,36.86615]}},{"properties":{"2009 county food insecurity rate":"16.40%","county median ppip":"155.00%","city":"Elk City","tier":2,"fbc program code":"PANTRY","county":"BECKHAM","geo_score":0.699,"annual pounds distributed":93864.0,"zip code":"73644","change in current county pounds to reach eas":"-7.94%","agency number":122,"id":"a621yw38jx5g","geo_precision":"range","address":"609 W Avenue E","agency name":"HELP of Elk City"},"type":"Feature","geometry":{"type":"Point","coordinates":[-99.410995,35.418378]}},{"properties":{"2009 county food insecurity rate":"16.40%","county median ppip":"155.00%","city":"Elk City","tier":2,"fbc program code":"MENTAL/DAY","county":"BECKHAM","geo_score":0.0,"annual pounds distributed":11286.0,"zip code":"73611","change in current county pounds to reach eas":"-7.94%","agency number":832,"id":"a621yw9m53qo","geo_precision":"unmatched","address":"3080 W 3rd Street","agency name":"Red Rock West-Elk City"},"type":"Feature","geometry":null},{"properties":{"2009 county food insecurity rate":"16.40%","county median ppip":"155.00%","city":"Elk City","tier":2,"fbc program code":"YOUTH/CHIL","county":"BECKHAM","geo_score":0.683,"annual pounds distributed":7191.0,"zip code":"73644","change in current county pounds to reach eas":"-7.94%","agency number":1012,"id":"a621yw1mgavd","geo_precision":"range","address":"1200 East Highway 66","agency name":"Western Plains Youth-Elk City"},"type":"Feature","geometry":{"type":"Point","coordinates":[-99.418467,35.411704]}},{"properties":{"2009 county food insecurity rate":"16.40%","county median ppip":"106.00%","city":"Geary","tier":2,"fbc program code":"PANTRY/SK","county":"BLAINE","geo_score":0.512,"annual pounds distributed":37377.71,"zip code":"73040","change in current county pounds to reach eas":"34.44%","agency number":1140,"id":"a621yvxzfb87","geo_precision":"street","address":"8155 Highway 281","agency name":"New Life Assembly Food Pantry"},"type":"Feature","geometry":{"type":"Point","coordinates":[-98.317344,35.63826]}},{"properties":{"2009 county food insecurity rate":"16.40%","county median ppip":"106.00%","city":"Hydro","tier":2,"fbc program code":"PANTRY","county":"BLAINE","geo_score":0.683,"annual pounds distributed":23006.65,"zip code":"73048","change in current county pounds to reach eas":"34.44%","agency number":1220,"id":"a621yw7dygcq","geo_precision":"range","address":"529 East  6th Street","agency name":"Hydro Food Pantry"},"type":"Feature","geometry":{"type":"Point","coordinates":[-98.571473,35.550551]}},{"properties":{"2009 county food insecurity rate":"17.70%","county median ppip":"292.00%","city":"Albany","tier":2,"fbc program code":"SENIORS","county":"BRYAN","geo_score":0.763,"annual pounds distributed":108839.0,"zip code":"74721","change in current county pounds to reach eas":"-50.95%","agency number":572,"id":"a621ywcujxgc","geo_precision":"range","address":"107 N Wade Street","agency name":"Wade Albany Senior Center"},"type":"Feature","geometry":{"type":"Point","coordinates":[-95.512833,34.012369]}},{"properties":{"2009 county food insecurity rate":"17.70%","county median ppip":"292.00%","city":"Colbert","tier":2,"fbc program code":"PANTRY","county":"BRYAN","geo_score":0.876,"annual pounds distributed":77677.08,"zip code":"74733","change in current county pounds to reach eas":"-50.95%","agency number":1149,"id":"a621yw24h9tp","geo_precision":"range","address":"307 N Franklin Street","agency name":"First Baptist Church - Colbert"},"type":"Feature","geometry":{"type":"Point","coordinates":[-96.504695,33.851052]}},{"properties":{"2009 county food insecurity rate":"17.70%","county median ppip":"292.00%","city":"Colbert","tier":2,"fbc program code":"SENIORS","county":"BRYAN","geo_score":0.56,"annual pounds distributed":31563.0,"zip code":"74733","change in current county pounds to reach eas":"-50.95%","agency number":1189,"id":"a621yw7zma9s","geo_precision":"street","address":"506 N Davidson Street","agency name":"Colbert Senior Citizens"},"type":"Feature","geometry":{"type":"Point","coordinates":[-96.508523,33.857278]}},{"properties":{"2009 county food insecurity rate":"18.10%","county median ppip":"111.00%","city":"Anadarko","tier":2,"fbc program code":"GROUP HOME","county":"CADDO","geo_score":0.902,"annual pounds distributed":15943.7,"zip code":"73005","change in current county pounds to reach eas":"28.46%","agency number":354,"id":"a621yw72orbc","geo_precision":"range","address":"202 Walter Way","agency name":"APEX Inc"},"type":"Feature","geometry":{"type":"Point","coordinates":[-98.260178,35.055838]}},{"properties":{"2009 county food insecurity rate":"18.10%","county median ppip":"111.00%","city":"Anadarko","tier":2,"fbc program code":"PANTRY/SK","county":"CADDO","geo_score":0.708,"annual pounds distributed":140615.59,"zip code":"73005","change in current county pounds to reach eas":"28.46%","agency number":859,"id":"a621yweb6xck","geo_precision":"street","address":"225 E Main Street","agency name":"The Christian Center"},"type":"Feature","geometry":{"type":"Point","coordinates":[-98.238765,35.076039]}},{"properties":{"2009 county food insecurity rate":"18.10%","county median ppip":"111.00%","city":"Apache","tier":2,"fbc program code":"PANTRY","county":"CADDO","geo_score":0.682,"annual pounds distributed":10380.98,"zip code":"73006","change in current county pounds to reach eas":"28.46%","agency number":880,"id":"a621yw30gkt2","geo_precision":"range","address":"120 S Forrest Street","agency name":"Ministerial Alliance-Apache"},"type":"Feature","geometry":{"type":"Point","coordinates":[-98.362059,34.894046]}},{"properties":{"2009 county food insecurity rate":"13.40%","county median ppip":"188.00%","city":"Yukon","tier":2,"fbc program code":"PANTRY","county":"CANADIAN","geo_score":0.707,"annual pounds distributed":27081.47,"zip code":"73099","change in current county pounds to reach eas":"-24.07%","agency number":192,"id":"a621ywadcn1x","geo_precision":"range","address":"601 Maple","agency name":"Manna Pantry"},"type":"Feature","geometry":{"type":"Point","coordinates":[-97.752193,35.505761]}},{"properties":{"2009 county food insecurity rate":"13.40%","county median ppip":"188.00%","city":"Yukon","tier":2,"fbc program code":"MBL MEALS","county":"CANADIAN","geo_score":0.622,"annual pounds distributed":25686.2,"zip code":"73099","change in current county pounds to reach eas":"-24.07%","agency number":307,"id":"a621ywarhwih","geo_precision":"street","address":"1200 Lakeshore Drive","agency name":"Yukon Mobile Meals"},"type":"Feature","geometry":{"type":"Point","coordinates":[-97.709516,35.50784]}},{"properties":{"2009 county food insecurity rate":"13.40%","county median ppip":"188.00%","city":"Yukon","tier":2,"fbc program code":"PANTRY","county":"CANADIAN","geo_score":0.72,"annual pounds distributed":38883.14,"zip code":"73099","change in current county pounds to reach eas":"-24.07%","agency number":459,"id":"a621yw8csgfj","geo_precision":"range","address":"4 North 6th Street","agency name":"Yukon Sharing Ministry"},"type":"Feature","geometry":{"type":"Point","coordinates":[-97.752164,35.507904]}},{"properties":{"2009 county food insecurity rate":"13.40%","county median ppip":"188.00%","city":"El Reno","tier":2,"fbc program code":"PANTRY","county":"CANADIAN","geo_score":0.732,"annual pounds distributed":5247.0,"zip code":"73036","change in current county pounds to reach eas":"-24.07%","agency number":902,"id":"a621yvyf72hu","geo_precision":"range","address":"509 SW 24th Street","agency name":"Birth Choice - El Reno"},"type":"Feature","geometry":{"type":"Point","coordinates":[-97.963101,35.511405]}},{"properties":{"2009 county food insecurity rate":"13.40%","county median ppip":"188.00%","city":"Okarche","tier":2,"fbc program code":"GROUP HOME","county":"CANADIAN","geo_score":0.44,"annual pounds distributed":29383.8,"zip code":"73762","change in current county pounds to reach eas":"-24.07%","agency number":909,"id":"a621ywddaaqg","geo_precision":"street","address":"635 West Texas Street","agency name":"The Center of Family Love"},"type":"Feature","geometry":{"type":"Point","coordinates":[-97.979785,35.722162]}},{"properties":{"2009 county food insecurity rate":"16.90%","county median ppip":"184.00%","city":"Ardmore","tier":2,"fbc program code":"SHEL/SK/FP","county":"CARTER","geo_score":0.412,"annual pounds distributed":96591.67,"zip code":"73401","change in current county pounds to reach eas":"-22.08%","agency number":236,"id":"a621ywcyoz4i","geo_precision":"street","address":"123 \"A\" Street SW","agency name":"Salvation Army Adult Rehab"},"type":"Feature","geometry":{"type":"Point","coordinates":[-97.126692,34.171447]}},{"properties":{"2009 county food insecurity rate":"16.90%","county median ppip":"184.00%","city":"Ardmore","tier":2,"fbc program code":"DRUG/ALCOH","county":"CARTER","geo_score":0.76,"annual pounds distributed":22933.0,"zip code":"73401","change in current county pounds to reach eas":"-22.08%","agency number":416,"id":"a621yw159qt7","geo_precision":"range","address":"221 2nd Avenue NW","agency name":"Broadway House Inc"},"type":"Feature","geometry":{"type":"Point","coordinates":[-97.130035,34.175746]}},{"properties":{"2009 county food insecurity rate":"16.90%","county median ppip":"184.00%","city":"Ardmore","tier":2,"fbc program code":"MENTAL/DAY","county":"CARTER","geo_score":0.677,"annual pounds distributed":14477.0,"zip code":"73401","change in current county pounds to reach eas":"-22.08%","agency number":716,"id":"a621yvzeknk7","geo_precision":"street","address":"2530 S Commerce, Building A","agency name":"MHSSO - Ardmore"},"type":"Feature","geometry":{"type":"Point","coordinates":[-97.14343,34.175219]}},{"properties":{"2009 county food insecurity rate":"16.90%","county median ppip":"184.00%","city":"Ardmore","tier":2,"fbc program code":"PANTRY","county":"CARTER","geo_score":0.7,"annual pounds distributed":47718.87,"zip code":"73401","change in current county pounds to reach eas":"-22.08%","agency number":790,"id":"a621yw3vxx1f","geo_precision":"range","address":"2639 Hwy 199","agency name":"Loaves and Fishes, Inc."},"type":"Feature","geometry":{"type":"Point","coordinates":[-97.162038,34.172954]}},{"properties":{"2009 county food insecurity rate":"16.90%","county median ppip":"184.00%","city":"Ardmore","tier":2,"fbc program code":"SENIORS","county":"CARTER","geo_score":0.768,"annual pounds distributed":6974.5,"zip code":"73401","change in current county pounds to reach eas":"-22.08%","agency number":828,"id":"a621yvyfxy4u","geo_precision":"range","address":"220 13th Avenue SE","agency name":"South.OK Nutri.Pro-Ardmore"},"type":"Feature","geometry":{"type":"Point","coordinates":[-97.133012,34.154549]}},{"properties":{"2009 county food insecurity rate":"16.90%","county median ppip":"184.00%","city":"Ratliff City","tier":2,"fbc program code":"PANTRY","county":"CARTER","geo_score":0.61,"annual pounds distributed":8212.4,"zip code":"73481","change in current county pounds to reach eas":"-22.08%","agency number":1075,"id":"a621yw6dkfed","geo_precision":"street","address":"25102 State Highway 76","agency name":"First United Pentecostal"},"type":"Feature","geometry":{"type":"Point","coordinates":[-97.474751,34.20661]}},{"properties":{"2009 county food insecurity rate":"16.90%","county median ppip":"184.00%","city":"Wilson","tier":2,"fbc program code":"PANTRY","county":"CARTER","geo_score":0.502,"annual pounds distributed":98090.1,"zip code":"73463","change in current county pounds to reach eas":"-22.08%","agency number":1162,"id":"a621yw3krk9d","geo_precision":"zip","address":"938 Redwood Road","agency name":"River of Life - Wilson"},"type":"Feature","geometry":{"type":"Point","coordinates":[-97.404744,34.216481]}},{"properties":{"2009 county food insecurity rate":"16.90%","county median ppip":"184.00%","city":"Wilson","tier":2,"fbc program code":"SENIORS","county":"CARTER","geo_score":0.702,"annual pounds distributed":10673.8,"zip code":"73463-1266","change in current county pounds to reach eas":"-22.08%","agency number":1168,"id":"a621yw57afik","geo_precision":"range","address":"1165 7th Street","agency name":"South.OK Nutri.Pro-Wilson"},"type":"Feature","geometry":{"type":"Point","coordinates":[-97.425235,34.152667]}},{"properties":{"2009 county food insecurity rate":"15.30%","county median ppip":"354.00%","city":"Boise City","tier":2,"fbc program code":"SENIORS","county":"CIMARRON","geo_score":0.621,"annual pounds distributed":2915.0,"zip code":"73933","change in current county pounds to reach eas":"-59.60%","agency number":1009,"id":"a621yvxy3i00","geo_precision":"range","address":"216 NE 1st Street","agency name":"Panhandle Nutrition-Boise City"},"type":"Feature","geometry":{"type":"Point","coordinates":[-102.510862,36.728754]}},{"properties":{"2009 county food insecurity rate":"14.60%","county median ppip":"95.00%","city":"Norman","tier":2,"fbc program code":"PANTRY","county":"CLEVELAND","geo_score":0.363,"annual pounds distributed":22755.64,"zip code":"73069-8554","change in current county pounds to reach eas":"50.69%","agency number":6,"id":"a621yw9qkeqr","geo_precision":"street","address":"1155 E Main Building \"E\"","agency name":"COCAA-Norman"},"type":"Feature","geometry":{"type":"Point","coordinates":[-97.441865,35.221522]}},{"properties":{"2009 county food insecurity rate":"14.60%","county median ppip":"95.00%","city":"Norman","tier":2,"fbc program code":"PANTRY","county":"CLEVELAND","geo_score":0.691,"annual pounds distributed":50837.92,"zip code":"73026","change in current county pounds to reach eas":"50.69%","agency number":138,"id":"a621yvzrmcqv","geo_precision":"street","address":"11710 E Stella Road","agency name":"Hilltop Baptist Church"},"type":"Feature","geometry":{"type":"Point","coordinates":[-97.273385,35.319499]}},{"properties":{"2009 county food insecurity rate":"14.60%","county median ppip":"95.00%","city":"Oklahoma City","tier":2,"fbc program code":"DRUG/ALCOH","county":"CLEVELAND","geo_score":0.787,"annual pounds distributed":57819.0,"zip code":"73164","change in current county pounds to reach eas":"50.69%","agency number":159,"id":"a621yvya4lpk","geo_precision":"range","address":"11601 Stanley Draper Drive","agency name":"Firstep Men's Recovery Program"},"type":"Feature","geometry":{"type":"Point","coordinates":[-97.331749,35.34565]}},{"properties":{"2009 county food insecurity rate":"14.60%","county median ppip":"95.00%","city":"Moore","tier":2,"fbc program code":"PANTRY","county":"CLEVELAND","geo_score":0.823,"annual pounds distributed":84265.64,"zip code":"73160","change in current county pounds to reach eas":"50.69%","agency number":233,"id":"a621yw9faadw","geo_precision":"range","address":"2001 N Janeway","agency name":"Regency Park Baptist Church"},"type":"Feature","geometry":{"type":"Point","coordinates":[-97.503326,35.356046]}},{"properties":{"2009 county food insecurity rate":"14.60%","county median ppip":"95.00%","city":"Moore","tier":2,"fbc program code":"PANTRY","county":"CLEVELAND","geo_score":0.819,"annual pounds distributed":29930.68,"zip code":"73160","change in current county pounds to reach eas":"50.69%","agency number":239,"id":"a621yw3dj85v","geo_precision":"range","address":"800 NW 5th Street","agency name":"St Andrews Catholic Church"},"type":"Feature","geometry":{"type":"Point","coordinates":[-97.502483,35.341709]}},{"properties":{"2009 county food insecurity rate":"14.60%","county median ppip":"95.00%","city":"Oklahoma City","tier":2,"fbc program code":"DRUG/ALCOH","county":"CLEVELAND","geo_score":0.87,"annual pounds distributed":61606.2,"zip code":"73165","change in current county pounds to reach eas":"50.69%","agency number":348,"id":"a621yvys0f7m","geo_precision":"range","address":"12511 S Sooner Road","agency name":"Firstep-Women"},"type":"Feature","geometry":{"type":"Point","coordinates":[-97.426514,35.343849]}},{"properties":{"2009 county food insecurity rate":"14.60%","county median ppip":"95.00%","city":"Norman","tier":2,"fbc program code":"PANTRY","county":"CLEVELAND","geo_score":0.902,"annual pounds distributed":47048.64,"zip code":"73071","change in current county pounds to reach eas":"50.69%","agency number":674,"id":"a621yvyum82i","geo_precision":"range","address":"2708 Glen Oaks Drive","agency name":"Alameda Church of Christ"},"type":"Feature","geometry":{"type":"Point","coordinates":[-97.40186,35.201279]}},{"properties":{"2009 county food insecurity rate":"14.60%","county median ppip":"95.00%","city":"Moore","tier":2,"fbc program code":"PANTRY","county":"CLEVELAND","geo_score":0.829,"annual pounds distributed":90247.58,"zip code":"73160","change in current county pounds to reach eas":"50.69%","agency number":696,"id":"a621yw13cof8","geo_precision":"range","address":"301 NE 27th Street","agency name":"First Baptist Care Center"},"type":"Feature","geometry":{"type":"Point","coordinates":[-97.490974,35.363287]}},{"properties":{"2009 county food insecurity rate":"14.60%","county median ppip":"95.00%","city":"Norman","tier":2,"fbc program code":"PANTRY","county":"CLEVELAND","geo_score":0.873,"annual pounds distributed":31851.89,"zip code":"73071","change in current county pounds to reach eas":"50.69%","agency number":776,"id":"a621yw8o6ax7","geo_precision":"range","address":"1503 E Alameda Street","agency name":"Alameda Baptist Church"},"type":"Feature","geometry":{"type":"Point","coordinates":[-97.418163,35.218357]}},{"properties":{"2009 county food insecurity rate":"14.60%","county median ppip":"95.00%","city":"Norman","tier":2,"fbc program code":"PANTRY","county":"CLEVELAND","geo_score":0.902,"annual pounds distributed":482575.05,"zip code":"73072","change in current county pounds to reach eas":"50.69%","agency number":849,"id":"a621yw89bvs7","geo_precision":"range","address":"3404 Fireside Street","agency name":"Mission Norman, Inc."},"type":"Feature","geometry":{"type":"Point","coordinates":[-97.490396,35.246139]}},{"properties":{"2009 county food insecurity rate":"14.60%","county median ppip":"95.00%","city":"Norman","tier":2,"fbc program code":"PANTRY","county":"CLEVELAND","geo_score":0.74,"annual pounds distributed":89916.76,"zip code":"73071","change in current county pounds to reach eas":"50.69%","agency number":875,"id":"a621yweb8368","geo_precision":"street","address":"2601 24th Ave SE","agency name":"CrossPointe Church"},"type":"Feature","geometry":{"type":"Point","coordinates":[-97.405853,35.183484]}},{"properties":{"2009 county food insecurity rate":"14.60%","county median ppip":"95.00%","city":"Norman","tier":2,"fbc program code":"PANTRY","county":"CLEVELAND","geo_score":0.816,"annual pounds distributed":26224.5,"zip code":"73069","change in current county pounds to reach eas":"50.69%","agency number":1011,"id":"a621yw2mt94p","geo_precision":"range","address":"419 S University Blvd","agency name":"McFarlin Memorial UMC"},"type":"Feature","geometry":{"type":"Point","coordinates":[-97.446226,35.215918]}},{"properties":{"2009 county food insecurity rate":"14.60%","county median ppip":"95.00%","city":"Norman","tier":2,"fbc program code":"GROUP HOME","county":"CLEVELAND","geo_score":0.379,"annual pounds distributed":17749.0,"zip code":"73069","change in current county pounds to reach eas":"50.69%","agency number":1090,"id":"a621yw0kyzm1","geo_precision":"street","address":"% ABLE Community Based Srvcs","agency name":"Council fo Development Disabil"},"type":"Feature","geometry":{"type":"Point","coordinates":[-97.368601,35.51792]}},{"properties":{"2009 county food insecurity rate":"14.60%","county median ppip":"95.00%","city":"Noble","tier":2,"fbc program code":"PANTRY","county":"CLEVELAND","geo_score":0.635,"annual pounds distributed":19453.7,"zip code":"73068","change in current county pounds to reach eas":"50.69%","agency number":1194,"id":"a621yw05d93a","geo_precision":"street","address":"1002 Hamilton Drive","agency name":"Discover Church FP - Noble"},"type":"Feature","geometry":{"type":"Point","coordinates":[-97.403297,35.158159]}},{"properties":{"2009 county food insecurity rate":"20.20%","county median ppip":"187.00%","city":"Coalgate","tier":2,"fbc program code":"SENIORS","county":"COAL","geo_score":0.817,"annual pounds distributed":1417.5,"zip code":"74538","change in current county pounds to reach eas":"-23.69%","agency number":830,"id":"a621yw63ln3h","geo_precision":"range","address":"51 Levy Annex","agency name":"Southern OK Nutrition-Coalgate"},"type":"Feature","geometry":{"type":"Point","coordinates":[-96.218331,34.542675]}},{"properties":{"2009 county food insecurity rate":"17.00%","county median ppip":"62.00%","city":"Cache","tier":2,"fbc program code":"DRUG/ALCOH","county":"COMANCHE","geo_score":0.642,"annual pounds distributed":15557.6,"zip code":"73527-4508","change in current county pounds to reach eas":"129.72%","agency number":16,"id":"a621yw08pfcj","geo_precision":"street","address":"19792 NW Cache Road","agency name":"Teen Challenge of Oklahoma"},"type":"Feature","geometry":{"type":"Point","coordinates":[-98.635291,34.623594]}},{"properties":{"2009 county food insecurity rate":"17.00%","county median ppip":"62.00%","city":"Lawton","tier":2,"fbc program code":"SOUP KITCH","county":"COMANCHE","geo_score":0.553,"annual pounds distributed":6686.5,"zip code":"73501","change in current county pounds to reach eas":"129.72%","agency number":88,"id":"a621yw2xzofx","geo_precision":"street","address":"1504 NH Jones Avenue","agency name":"St Johns Baptist Church"},"type":"Feature","geometry":{"type":"Point","coordinates":[-97.966993,34.519846]}},{"properties":{"2009 county food insecurity rate":"17.00%","county median ppip":"62.00%","city":"Lawton","tier":2,"fbc program code":"SHEL/SK/FP","county":"COMANCHE","geo_score":0.5,"annual pounds distributed":28107.65,"zip code":"73501","change in current county pounds to reach eas":"129.72%","agency number":245,"id":"a621yw1g51ac","geo_precision":"street","address":"1306 SW \"E\" Avenue","agency name":"Salvation Army - Lawton"},"type":"Feature","geometry":{"type":"Point","coordinates":[-98.387419,34.602874]}},{"properties":{"2009 county food insecurity rate":"17.00%","county median ppip":"62.00%","city":"Lawton","tier":2,"fbc program code":"YOUTH/CHIL","county":"COMANCHE","geo_score":0.5,"annual pounds distributed":10618.2,"zip code":"73505","change in current county pounds to reach eas":"129.72%","agency number":315,"id":"a621ywcr32ck","geo_precision":"street","address":"2501 SW \"E\" Avenue","agency name":"Marie Detty Youth/Family"},"type":"Feature","geometry":{"type":"Point","coordinates":[-98.422357,34.603378]}},{"properties":{"2009 county food insecurity rate":"17.00%","county median ppip":"62.00%","city":"LAWTON","tier":2,"fbc program code":"PANTRY","county":"COMANCHE","geo_score":0.829,"annual pounds distributed":46256.23,"zip code":"73505","change in current county pounds to reach eas":"129.72%","agency number":927,"id":"a621yw6hhjzj","geo_precision":"range","address":"1010 NW 82nd Street","agency name":"Holy Family Catholic Church"},"type":"Feature","geometry":{"type":"Point","coordinates":[-98.492242,34.619718]}},{"properties":{"2009 county food insecurity rate":"17.00%","county median ppip":"62.00%","city":"Lawton","tier":2,"fbc program code":"PANTRY","county":"COMANCHE","geo_score":0.819,"annual pounds distributed":4849.22,"zip code":"73501","change in current county pounds to reach eas":"129.72%","agency number":1198,"id":"a621yw1n7s6w","geo_precision":"range","address":"201 SW 4th Street","agency name":"Armed Services YMCA"},"type":"Feature","geometry":{"type":"Point","coordinates":[-98.393608,34.606345]}},{"properties":{"2009 county food insecurity rate":"15.20%","county median ppip":"89.00%","city":"Walters","tier":2,"fbc program code":"PANTRY","county":"COTTON","geo_score":0.77,"annual pounds distributed":7688.05,"zip code":"73572","change in current county pounds to reach eas":"60.09%","agency number":1262,"id":"a621ywajc3f6","geo_precision":"range","address":"131 West California","agency name":"Walters Com Ministerial Allian"},"type":"Feature","geometry":{"type":"Point","coordinates":[-98.309544,34.356892]}},{"properties":{"2009 county food insecurity rate":"16.70%","county median ppip":"70.00%","city":"Clinton","tier":2,"fbc program code":"SHEL/SK/FP","county":"CUSTER","geo_score":0.72,"annual pounds distributed":50074.9,"zip code":"73601","change in current county pounds to reach eas":"104.43%","agency number":271,"id":"a621yw306h1s","geo_precision":"range","address":"300 S 7th Street","agency name":"Mission House Inc"},"type":"Feature","geometry":{"type":"Point","coordinates":[-98.968392,35.512312]}},{"properties":{"2009 county food insecurity rate":"16.70%","county median ppip":"70.00%","city":"Weatherford","tier":2,"fbc program code":"PANTRY","county":"CUSTER","geo_score":0.777,"annual pounds distributed":16012.13,"zip code":"73096","change in current county pounds to reach eas":"104.43%","agency number":483,"id":"a621yw8ygqwu","geo_precision":"range","address":"1413 Pine Avenue","agency name":"Weatherford Ministerial"},"type":"Feature","geometry":{"type":"Point","coordinates":[-98.691917,35.537479]}},{"properties":{"2009 county food insecurity rate":"16.70%","county median ppip":"70.00%","city":"Weatherford","tier":2,"fbc program code":"PANTRY","county":"CUSTER","geo_score":0.902,"annual pounds distributed":38954.95,"zip code":"73096","change in current county pounds to reach eas":"104.43%","agency number":693,"id":"a621ywavjwge","geo_precision":"range","address":"1014 Camelot Drive","agency name":"St Eugene/St Vincent de Paul"},"type":"Feature","geometry":{"type":"Point","coordinates":[-98.691479,35.534841]}},{"properties":{"2009 county food insecurity rate":"16.70%","county median ppip":"70.00%","city":"Weatherford","tier":2,"fbc program code":"PANTRY","county":"CUSTER","geo_score":0.902,"annual pounds distributed":29985.11,"zip code":"73096","change in current county pounds to reach eas":"104.43%","agency number":796,"id":"a621ywdul9jk","geo_precision":"range","address":"1422 Mockingbird Lane","agency name":"Weatherford Church of Christ"},"type":"Feature","geometry":{"type":"Point","coordinates":[-98.690644,35.538321]}},{"properties":{"2009 county food insecurity rate":"16.70%","county median ppip":"70.00%","city":"Clinton","tier":2,"fbc program code":"MENTAL/DAY","county":"CUSTER","geo_score":0.65,"annual pounds distributed":4183.0,"zip code":"73601","change in current county pounds to reach eas":"104.43%","agency number":1057,"id":"a621ywahy8q9","geo_precision":"range","address":"100 N 31","agency name":"Red Rock BHS - Clinton"},"type":"Feature","geometry":{"type":"Point","coordinates":[-98.99938,35.515792]}},{"properties":{"2009 county food insecurity rate":"16.70%","county median ppip":"70.00%","city":"Clinton","tier":2,"fbc program code":"PANTRY","county":"CUSTER","geo_score":0.72,"annual pounds distributed":14366.11,"zip code":"73601","change in current county pounds to reach eas":"104.43%","agency number":1191,"id":"a621yw1dftkj","geo_precision":"range","address":"200 South 9th Street","agency name":"Opportunities FP - Clinton"},"type":"Feature","geometry":{"type":"Point","coordinates":[-98.970796,35.51336]}},{"properties":{"2009 county food insecurity rate":"14.80%","county median ppip":"109.00%","city":"Leedey","tier":2,"fbc program code":"PANTRY","county":"DEWEY","geo_score":0.408,"annual pounds distributed":2758.67,"zip code":"73654","change in current county pounds to reach eas":"30.63%","agency number":1226,"id":"a621ywef9adi","geo_precision":"street","address":"Care &amp; Share Box Program","agency name":"First UMC - Leedey"},"type":"Feature","geometry":{"type":"Point","coordinates":[-99.414987,35.420708]}},{"properties":{"2009 county food insecurity rate":"15.40%","county median ppip":"126.00%","city":"Enid","tier":2,"fbc program code":"SOUP KITCH","county":"GARFIELD","geo_score":0.79,"annual pounds distributed":59396.2,"zip code":"73701","change in current county pounds to reach eas":"13.39%","agency number":150,"id":"a621yw6zt27e","geo_precision":"range","address":"110 N Madison","agency name":"Our Daily Bread"},"type":"Feature","geometry":{"type":"Point","coordinates":[-97.88525,36.396801]}},{"properties":{"2009 county food insecurity rate":"15.40%","county median ppip":"126.00%","city":"Enid","tier":2,"fbc program code":"SHEL/SK/FP","county":"GARFIELD","geo_score":0.793,"annual pounds distributed":39310.15,"zip code":"73701","change in current county pounds to reach eas":"13.39%","agency number":240,"id":"a621yw2lnhor","geo_precision":"range","address":"516 N Independence Street","agency name":"Salvation Army - Enid"},"type":"Feature","geometry":{"type":"Point","coordinates":[-97.879912,36.401487]}},{"properties":{"2009 county food insecurity rate":"15.40%","county median ppip":"126.00%","city":"Enid","tier":2,"fbc program code":"PANTRY","county":"GARFIELD","geo_score":0.902,"annual pounds distributed":129601.73,"zip code":"73703","change in current county pounds to reach eas":"13.39%","agency number":347,"id":"a621ywc50qu6","geo_precision":"range","address":"1924 W Willow Road","agency name":"St Gregory's Catholic Church"},"type":"Feature","geometry":{"type":"Point","coordinates":[-97.899674,36.419845]}},{"properties":{"2009 county food insecurity rate":"15.40%","county median ppip":"126.00%","city":"Enid","tier":2,"fbc program code":"PANTRY/SK","county":"GARFIELD","geo_score":0.848,"annual pounds distributed":30860.78,"zip code":"73701","change in current county pounds to reach eas":"13.39%","agency number":852,"id":"a621yw1eqfx9","geo_precision":"range","address":"2107 E Broadway Avenue","agency name":"University Place Christian"},"type":"Feature","geometry":{"type":"Point","coordinates":[-97.84716,36.396637]}},{"properties":{"2009 county food insecurity rate":"16.60%","county median ppip":"104.00%","city":"Pauls Valley","tier":2,"fbc program code":"PANTRY","county":"GARVIN","geo_score":0.805,"annual pounds distributed":7751.59,"zip code":"73075","change in current county pounds to reach eas":"37.77%","agency number":524,"id":"a621yw3xt6gf","geo_precision":"range","address":"320 N Walnut Street","agency name":"Pauls Valley Samaritans"},"type":"Feature","geometry":{"type":"Point","coordinates":[-97.223008,34.740527]}},{"properties":{"2009 county food insecurity rate":"16.60%","county median ppip":"104.00%","city":"Pauls Valley","tier":2,"fbc program code":"MENTAL/DAY","county":"GARVIN","geo_score":0.805,"annual pounds distributed":6728.0,"zip code":"73075","change in current county pounds to reach eas":"37.77%","agency number":532,"id":"a621yw7010ec","geo_precision":"range","address":"109 S Willow Street","agency name":"MHSSO-Pauls Valley"},"type":"Feature","geometry":{"type":"Point","coordinates":[-97.220658,34.739935]}},{"properties":{"2009 county food insecurity rate":"16.60%","county median ppip":"104.00%","city":"Lindsay","tier":2,"fbc program code":"PANTRY","county":"GARVIN","geo_score":0.732,"annual pounds distributed":23499.7,"zip code":"73052","change in current county pounds to reach eas":"37.77%","agency number":1084,"id":"a621yw68oup9","geo_precision":"range","address":"308 SW 2nd Street","agency name":"Delta Com Action-Pauls Valley"},"type":"Feature","geometry":{"type":"Point","coordinates":[-97.604188,34.834564]}},{"properties":{"2009 county food insecurity rate":"16.60%","county median ppip":"104.00%","city":"Pauls Valley","tier":2,"fbc program code":"SENIORS","county":"GARVIN","geo_score":0.568,"annual pounds distributed":13411.0,"zip code":"73075","change in current county pounds to reach eas":"37.77%","agency number":1115,"id":"a621yvyfln87","geo_precision":"street","address":"310 West Thomas","agency name":"S OK Ntrtion Pro-Pauls Valley"},"type":"Feature","geometry":{"type":"Point","coordinates":[-97.329932,35.557551]}},{"properties":{"2009 county food insecurity rate":"16.60%","county median ppip":"104.00%","city":"Lindsay","tier":2,"fbc program code":"SENIORS","county":"GARVIN","geo_score":0.816,"annual pounds distributed":3207.8,"zip code":"73052","change in current county pounds to reach eas":"37.77%","agency number":1116,"id":"a621yvzaidad","geo_precision":"range","address":"310 West Choctaw Street","agency name":"S OK Nutrition Pro-Lindsay"},"type":"Feature","geometry":{"type":"Point","coordinates":[-97.605723,34.835797]}},{"properties":{"2009 county food insecurity rate":"17.40%","county median ppip":"144.00%","city":"Minco","tier":2,"fbc program code":"SENIORS","county":"GRADY","geo_score":0.683,"annual pounds distributed":10374.0,"zip code":"73059","change in current county pounds to reach eas":"-0.46%","agency number":168,"id":"a621yw97puya","geo_precision":"range","address":"225 Main Street","agency name":"Minco Senior Citizens Center"},"type":"Feature","geometry":{"type":"Point","coordinates":[-97.943397,35.312689]}},{"properties":{"2009 county food insecurity rate":"17.40%","county median ppip":"144.00%","city":"Chickasha","tier":2,"fbc program code":"SHEL/SK/FP","county":"GRADY","geo_score":0.805,"annual pounds distributed":11619.55,"zip code":"73018","change in current county pounds to reach eas":"-0.46%","agency number":371,"id":"a621yvzavoi7","geo_precision":"range","address":"910 W Chickasha Avenue","agency name":"Resurrection House Assoc., Inc"},"type":"Feature","geometry":{"type":"Point","coordinates":[-97.944204,35.051145]}},{"properties":{"2009 county food insecurity rate":"17.40%","county median ppip":"144.00%","city":"Chickasha","tier":2,"fbc program code":"PANTRY/SK","county":"GRADY","geo_score":0.805,"annual pounds distributed":33632.17,"zip code":"73018","change in current county pounds to reach eas":"-0.46%","agency number":410,"id":"a621yw5soe00","geo_precision":"range","address":"125 W Chickasha Avenue","agency name":"Cornerstone Church"},"type":"Feature","geometry":{"type":"Point","coordinates":[-97.933245,35.051171]}},{"properties":{"2009 county food insecurity rate":"17.40%","county median ppip":"144.00%","city":"Tuttle","tier":2,"fbc program code":"PANTRY","county":"GRADY","geo_score":0.741,"annual pounds distributed":38476.73,"zip code":"73089","change in current county pounds to reach eas":"-0.46%","agency number":436,"id":"a621yw7putdp","geo_precision":"range","address":"301 W Maple","agency name":"Tuttle Ministerial Alliance"},"type":"Feature","geometry":{"type":"Point","coordinates":[-97.81593,35.28875]}},{"properties":{"2009 county food insecurity rate":"17.40%","county median ppip":"144.00%","city":"Chickasha","tier":2,"fbc program code":"MENTAL/DAY","county":"GRADY","geo_score":0.725,"annual pounds distributed":12905.6,"zip code":"73018","change in current county pounds to reach eas":"-0.46%","agency number":1039,"id":"a621yw6gogcj","geo_precision":"range","address":"804 West Choctaw","agency name":"Red Rock BHS (CTCS)"},"type":"Feature","geometry":{"type":"Point","coordinates":[-97.942716,35.052381]}},{"properties":{"2009 county food insecurity rate":"17.40%","county median ppip":"144.00%","city":"Ninnekah","tier":2,"fbc program code":"SENIORS","county":"GRADY","geo_score":0.561,"annual pounds distributed":7925.0,"zip code":"73067","change in current county pounds to reach eas":"-0.46%","agency number":1233,"id":"a621yvylzwil","geo_precision":"street","address":"SW Corner of Del &amp; Elm","agency name":"Ninnekah Senior Citizens"},"type":"Feature","geometry":{"type":"Point","coordinates":[-97.928241,34.942235]}},{"properties":{"2009 county food insecurity rate":"17.40%","county median ppip":"144.00%","city":"Minco","tier":2,"fbc program code":"PANTRY","county":"GRADY","geo_score":0.805,"annual pounds distributed":37683.68,"zip code":"73059","change in current county pounds to reach eas":"-0.46%","agency number":1245,"id":"a621ywdcc42d","geo_precision":"range","address":"309 West Caddo Street","agency name":"First Assembly of God - Minco"},"type":"Feature","geometry":{"type":"Point","coordinates":[-97.944904,35.310735]}},{"properties":{"2009 county food insecurity rate":"13.50%","county median ppip":"150.00%","city":"Medford","tier":2,"fbc program code":"PANTRY","county":"GRANT","geo_score":0.575,"annual pounds distributed":10838.68,"zip code":"73759","change in current county pounds to reach eas":"-4.93%","agency number":931,"id":"a621yw1vdoig","geo_precision":"street","address":"123 W Pawnee","agency name":"Medford Ministerial Alliance"},"type":"Feature","geometry":{"type":"Point","coordinates":[-97.736273,36.805904]}},{"properties":{"2009 county food insecurity rate":"19.60%","county median ppip":"207.00%","city":"Hollis","tier":2,"fbc program code":"YOUTH/CHIL","county":"HARMON","geo_score":0.817,"annual pounds distributed":6607.8,"zip code":"73550","change in current county pounds to reach eas":"-30.81%","agency number":293,"id":"a621yw1qrtwl","geo_precision":"range","address":"120 W Broadway Street","agency name":"Westview Boys Home"},"type":"Feature","geometry":{"type":"Point","coordinates":[-99.918756,34.681796]}},{"properties":{"2009 county food insecurity rate":"13.40%","county median ppip":"138.00%","city":"Laverne","tier":2,"fbc program code":"SENIORS","county":"HARPER","geo_score":0.605,"annual pounds distributed":5236.35,"zip code":"73848","change in current county pounds to reach eas":"3.33%","agency number":1080,"id":"a621yvyduj8a","geo_precision":"street","address":"108 E Jane Jayroe Boulevard","agency name":"Panhandle Nutrition-Laverne"},"type":"Feature","geometry":{"type":"Point","coordinates":[-99.903219,36.709596]}},{"properties":{"2009 county food insecurity rate":"13.40%","county median ppip":"138.00%","city":"Buffalo","tier":2,"fbc program code":"PANTRY","county":"HARPER","geo_score":0.735,"annual pounds distributed":9058.1,"zip code":"73834","change in current county pounds to reach eas":"3.33%","agency number":1202,"id":"a621yw7c5f0r","geo_precision":"range","address":"223 SE 2nd Street","agency name":"First United Methodis-Buffalo"},"type":"Feature","geometry":{"type":"Point","coordinates":[-99.628103,36.834179]}},{"properties":{"2009 county food insecurity rate":"21.90%","county median ppip":"273.00%","city":"Holdenville","tier":2,"fbc program code":"PANTRY","county":"HUGHES","geo_score":0.814,"annual pounds distributed":13747.03,"zip code":"74848","change in current county pounds to reach eas":"-47.54%","agency number":807,"id":"a621ywcf87vx","geo_precision":"range","address":"301 Crestview Drive","agency name":"Holdenville Housing &amp; Com Srvc"},"type":"Feature","geometry":{"type":"Point","coordinates":[-96.376612,35.08858]}},{"properties":{"2009 county food insecurity rate":"16.60%","county median ppip":"66.00%","city":"Altus","tier":2,"fbc program code":"PANTRY/SK","county":"JACKSON","geo_score":0.816,"annual pounds distributed":8620.01,"zip code":"73521","change in current county pounds to reach eas":"115.11%","agency number":381,"id":"a621yw9hf64c","geo_precision":"range","address":"1100 North Park Lane","agency name":"Salvation Army-Altus"},"type":"Feature","geometry":{"type":"Point","coordinates":[-99.316426,34.648823]}},{"properties":{"2009 county food insecurity rate":"16.60%","county median ppip":"66.00%","city":"Altus","tier":2,"fbc program code":"PANTRY","county":"JACKSON","geo_score":0.816,"annual pounds distributed":25239.24,"zip code":"73521","change in current county pounds to reach eas":"115.11%","agency number":412,"id":"a621ywdbemvo","geo_precision":"range","address":"709 Canterbury Boulevard","agency name":"Tamarack Road Church of Christ"},"type":"Feature","geometry":{"type":"Point","coordinates":[-99.313655,34.645523]}},{"properties":{"2009 county food insecurity rate":"16.60%","county median ppip":"66.00%","city":"Altus","tier":2,"fbc program code":"PANTRY","county":"JACKSON","geo_score":0.805,"annual pounds distributed":43235.34,"zip code":"73522","change in current county pounds to reach eas":"115.11%","agency number":958,"id":"a621yw8q5csj","geo_precision":"range","address":"900 S Carver Road","agency name":"Southwest OK Comm Action-Altus"},"type":"Feature","geometry":{"type":"Point","coordinates":[-99.35143,34.631361]}},{"properties":{"2009 county food insecurity rate":"16.60%","county median ppip":"66.00%","city":"Altus","tier":2,"fbc program code":"PANTRY","county":"JACKSON","geo_score":0.499,"annual pounds distributed":22112.9,"zip code":"73521","change in current county pounds to reach eas":"115.11%","agency number":1258,"id":"a621yw2a7y0r","geo_precision":"zip","address":"219 W Comnerce","agency name":"Operation Care Ministries"},"type":"Feature","geometry":{"type":"Point","coordinates":[-99.237307,34.555907]}},{"properties":{"2009 county food insecurity rate":"18.80%","county median ppip":"70.00%","city":"Ryan","tier":2,"fbc program code":"PANTRY","county":"JEFFERSON","geo_score":0.748,"annual pounds distributed":18061.54,"zip code":"73565","change in current county pounds to reach eas":"102.84%","agency number":850,"id":"a621yw5enqdq","geo_precision":"range","address":"1000 E Washington","agency name":"Ryan First Baptist Church"},"type":"Feature","geometry":{"type":"Point","coordinates":[-97.95288,34.02353]}},{"properties":{"2009 county food insecurity rate":"18.80%","county median ppip":"70.00%","city":"Addington","tier":2,"fbc program code":"PANTRY","county":"JEFFERSON","geo_score":0.585,"annual pounds distributed":25892.0,"zip code":"73520","change in current county pounds to reach eas":"102.84%","agency number":896,"id":"a621yvzorzf3","geo_precision":"zip","address":"100 E Purdy Street","agency name":"Addington Baptist Church"},"type":"Feature","geometry":{"type":"Point","coordinates":[-97.838026,34.069661]}},{"properties":{"2009 county food insecurity rate":"18.80%","county median ppip":"70.00%","city":"Ringling","tier":2,"fbc program code":"PANTRY","county":"JEFFERSON","geo_score":0.407,"annual pounds distributed":6391.43,"zip code":"73456","change in current county pounds to reach eas":"102.84%","agency number":1272,"id":"a621yw0q52o6","geo_precision":"street","address":"118 West \"H\" Street","agency name":"Ringling Food Pantry"},"type":"Feature","geometry":{"type":"Point","coordinates":[-97.593831,34.175387]}},{"properties":{"2009 county food insecurity rate":"19.30%","county median ppip":"139.00%","city":"Ravia","tier":2,"fbc program code":"SENIORS","county":"JOHNSTON","geo_score":0.676,"annual pounds distributed":3204.0,"zip code":"73455","change in current county pounds to reach eas":"2.69%","agency number":234,"id":"a621yw9s3k6p","geo_precision":"street","address":"109 E Grand Ave","agency name":"Ravia Senior Center"},"type":"Feature","geometry":{"type":"Point","coordinates":[-96.758647,34.241476]}},{"properties":{"2009 county food insecurity rate":"18.30%","county median ppip":"86.00%","city":"Blackwell","tier":2,"fbc program code":"PANTRY","county":"KAY","geo_score":0.727,"annual pounds distributed":7644.36,"zip code":"74631-2922","change in current county pounds to reach eas":"66.60%","agency number":2,"id":"a621yvz0eegl","geo_precision":"range","address":"212 East Bridge","agency name":"Associated Charities"},"type":"Feature","geometry":{"type":"Point","coordinates":[-97.281589,36.803268]}},{"properties":{"2009 county food insecurity rate":"18.30%","county median ppip":"86.00%","city":"Ponca City","tier":2,"fbc program code":"YOUTH/CHIL","county":"KAY","geo_score":0.756,"annual pounds distributed":8853.8,"zip code":"74604-4443","change in current county pounds to reach eas":"66.60%","agency number":12,"id":"a621ywdfcl0b","geo_precision":"street","address":"1300 Summers Place","agency name":"Marland Childrens Home"},"type":"Feature","geometry":{"type":"Point","coordinates":[-97.037126,36.721419]}},{"properties":{"2009 county food insecurity rate":"18.30%","county median ppip":"86.00%","city":"Ponca City","tier":2,"fbc program code":"SHELTER","county":"KAY","geo_score":0.805,"annual pounds distributed":5080.88,"zip code":"74601","change in current county pounds to reach eas":"66.60%","agency number":91,"id":"a621ywcs9gue","geo_precision":"range","address":"105 W Hazel Avenue","agency name":"Peachtree Landing Inc"},"type":"Feature","geometry":{"type":"Point","coordinates":[-97.083643,36.707899]}},{"properties":{"2009 county food insecurity rate":"18.30%","county median ppip":"86.00%","city":"Ponca City","tier":2,"fbc program code":"GROUP HOME","county":"KAY","geo_score":0.732,"annual pounds distributed":12571.6,"zip code":"74601","change in current county pounds to reach eas":"66.60%","agency number":209,"id":"a621yvyv78fm","geo_precision":"range","address":"2225 N Union","agency name":"Opportunity Center"},"type":"Feature","geometry":{"type":"Point","coordinates":[-97.085207,36.728878]}},{"properties":{"2009 county food insecurity rate":"18.30%","county median ppip":"86.00%","city":"Ponca City","tier":2,"fbc program code":"PANTRY","county":"KAY","geo_score":0.61,"annual pounds distributed":13214.05,"zip code":"74601","change in current county pounds to reach eas":"66.60%","agency number":247,"id":"a621yvzyp455","geo_precision":"street","address":"601 S 3rd Street","agency name":"Salvation Army-Ponca City"},"type":"Feature","geometry":{"type":"Point","coordinates":[-97.081428,36.698392]}},{"properties":{"2009 county food insecurity rate":"18.30%","county median ppip":"86.00%","city":"Ponca City","tier":2,"fbc program code":"YOUTH/CHIL","county":"KAY","geo_score":0.805,"annual pounds distributed":3743.0,"zip code":"74601","change in current county pounds to reach eas":"66.60%","agency number":314,"id":"a621ywb1kwaa","geo_precision":"range","address":"2203 N Ash Street","agency name":"Northern Oklahoma Youth Serv"},"type":"Feature","geometry":{"type":"Point","coordinates":[-97.094651,36.728612]}},{"properties":{"2009 county food insecurity rate":"18.30%","county median ppip":"86.00%","city":"Ponca City","tier":2,"fbc program code":"SENIORS","county":"KAY","geo_score":0.666,"annual pounds distributed":7733.0,"zip code":"74604","change in current county pounds to reach eas":"66.60%","agency number":332,"id":"a621yw8o2o84","geo_precision":"street","address":"115 Mary Road","agency name":"McCord Senior Citizens"},"type":"Feature","geometry":{"type":"Point","coordinates":[-97.040473,36.678754]}},{"properties":{"2009 county food insecurity rate":"18.30%","county median ppip":"86.00%","city":"Tonkawa","tier":2,"fbc program code":"PANTRY","county":"KAY","geo_score":0.652,"annual pounds distributed":13567.63,"zip code":"74653","change in current county pounds to reach eas":"66.60%","agency number":345,"id":"a621yw5s2dxy","geo_precision":"range","address":"1720 E Tonkawa","agency name":"Tonkawa Community Food Bank"},"type":"Feature","geometry":{"type":"Point","coordinates":[-97.290768,36.676999]}},{"properties":{"2009 county food insecurity rate":"18.30%","county median ppip":"86.00%","city":"Ponca City","tier":2,"fbc program code":"PANTRY","county":"KAY","geo_score":0.707,"annual pounds distributed":43993.6,"zip code":"74601","change in current county pounds to reach eas":"66.60%","agency number":417,"id":"a621ywdtfg66","geo_precision":"range","address":"500 N First St","agency name":"Ponca City Welfare"},"type":"Feature","geometry":{"type":"Point","coordinates":[-97.083627,36.707899]}},{"properties":{"2009 county food insecurity rate":"18.30%","county median ppip":"86.00%","city":"Blackwell","tier":2,"fbc program code":"PANTRY","county":"KAY","geo_score":0.805,"annual pounds distributed":12993.88,"zip code":"74631","change in current county pounds to reach eas":"66.60%","agency number":523,"id":"a621yvykenmd","geo_precision":"range","address":"900 S 9th Street","agency name":"House of Prayer-Blackwell"},"type":"Feature","geometry":{"type":"Point","coordinates":[-97.295409,36.79606]}},{"properties":{"2009 county food insecurity rate":"18.30%","county median ppip":"86.00%","city":"Ponca City","tier":2,"fbc program code":"PANTRY","county":"KAY","geo_score":0.776,"annual pounds distributed":20279.04,"zip code":"74601","change in current county pounds to reach eas":"66.60%","agency number":1153,"id":"a621yw14v47a","geo_precision":"range","address":"705 East Hubbard Road","agency name":"Agape Church of Christ"},"type":"Feature","geometry":{"type":"Point","coordinates":[-97.072237,36.753087]}},{"properties":{"2009 county food insecurity rate":"18.30%","county median ppip":"86.00%","city":"Ponca City","tier":2,"fbc program code":"SOUP KITCH","county":"KAY","geo_score":0.707,"annual pounds distributed":12873.4,"zip code":"74601","change in current county pounds to reach eas":"66.60%","agency number":1181,"id":"a621yw4nco2n","geo_precision":"range","address":"210 North 5th Street","agency name":"Friendship Feast"},"type":"Feature","geometry":{"type":"Point","coordinates":[-97.078563,36.704744]}},{"properties":{"2009 county food insecurity rate":"13.50%","county median ppip":"98.00%","city":"Cashion","tier":2,"fbc program code":"PANTRY","county":"KINGFISHER","geo_score":0.593,"annual pounds distributed":21002.25,"zip code":"73016","change in current county pounds to reach eas":"46.43%","agency number":1224,"id":"a621yw0d4l76","geo_precision":"street","address":"204 S 3rd Street","agency name":"United Methodist - Cashion"},"type":"Feature","geometry":{"type":"Point","coordinates":[-97.677797,35.799476]}},{"properties":{"2009 county food insecurity rate":"17.20%","county median ppip":"157.00%","city":"Davenport","tier":2,"fbc program code":"PANTRY","county":"LINCOLN","geo_score":0.637,"annual pounds distributed":8986.91,"zip code":"74026","change in current county pounds to reach eas":"-8.69%","agency number":93,"id":"a621yw2fapdx","geo_precision":"street","address":"213 Broadway","agency name":"First Baptist Church-Davenport"},"type":"Feature","geometry":{"type":"Point","coordinates":[-96.765174,35.705861]}},{"properties":{"2009 county food insecurity rate":"17.20%","county median ppip":"157.00%","city":"Chandler","tier":2,"fbc program code":"PANTRY","county":"LINCOLN","geo_score":0.447,"annual pounds distributed":102596.55,"zip code":"74834","change in current county pounds to reach eas":"-8.69%","agency number":114,"id":"a621yvzaafrx","geo_precision":"street","address":"8939 Highway 18 North","agency name":"God &amp; Peoples Pantry"},"type":"Feature","geometry":{"type":"Point","coordinates":[-96.876106,35.799203]}},{"properties":{"2009 county food insecurity rate":"17.20%","county median ppip":"157.00%","city":"Prague","tier":2,"fbc program code":"PANTRY","county":"LINCOLN","geo_score":0.805,"annual pounds distributed":9728.2,"zip code":"74864","change in current county pounds to reach eas":"-8.69%","agency number":491,"id":"a621yw300lu5","geo_precision":"range","address":"1500 Blue Bell Road","agency name":"First Baptist Church of Prague"},"type":"Feature","geometry":{"type":"Point","coordinates":[-96.700805,35.485794]}},{"properties":{"2009 county food insecurity rate":"17.20%","county median ppip":"157.00%","city":"Chandler","tier":2,"fbc program code":"MENTAL/DAY","county":"LINCOLN","geo_score":0.793,"annual pounds distributed":7564.0,"zip code":"74834","change in current county pounds to reach eas":"-8.69%","agency number":591,"id":"a621yw52fnq6","geo_precision":"range","address":"112 N McKinley Avenue","agency name":"Red Rock Men.Health-Chandler"},"type":"Feature","geometry":{"type":"Point","coordinates":[-96.887058,35.710132]}},{"properties":{"2009 county food insecurity rate":"17.20%","county median ppip":"157.00%","city":"Chandler","tier":2,"fbc program code":"PANTRY/SK","county":"LINCOLN","geo_score":0.5,"annual pounds distributed":85570.38,"zip code":"74834","change in current county pounds to reach eas":"-8.69%","agency number":804,"id":"a621yw4dqhk8","geo_precision":"zip","address":"930504 S 3440 Road","agency name":"Straight Street Ministries"},"type":"Feature","geometry":{"type":"Point","coordinates":[-97.004195,35.685896]}},{"properties":{"2009 county food insecurity rate":"17.20%","county median ppip":"157.00%","city":"Tryon","tier":2,"fbc program code":"PANTRY","county":"LINCOLN","geo_score":0.71,"annual pounds distributed":52457.23,"zip code":"74875","change in current county pounds to reach eas":"-8.69%","agency number":1235,"id":"a621yw4293rd","geo_precision":"street","address":"205 South Main Street","agency name":"Assembly of God Church - Tryon"},"type":"Feature","geometry":{"type":"Point","coordinates":[-96.963867,35.867686]}},{"properties":{"2009 county food insecurity rate":"16.60%","county median ppip":"269.00%","city":"Guthrie","tier":2,"fbc program code":"GROUP HOME","county":"LOGAN","geo_score":0.819,"annual pounds distributed":28601.1,"zip code":"73044","change in current county pounds to reach eas":"-46.76%","agency number":48,"id":"a621yw8obc4q","geo_precision":"range","address":"419 E Industrial Rd","agency name":"New Horizons Group Home"},"type":"Feature","geometry":{"type":"Point","coordinates":[-97.423472,35.856209]}},{"properties":{"2009 county food insecurity rate":"16.60%","county median ppip":"269.00%","city":"Crescent","tier":2,"fbc program code":"PANTRY","county":"LOGAN","geo_score":0.817,"annual pounds distributed":18769.84,"zip code":"73028","change in current county pounds to reach eas":"-46.76%","agency number":584,"id":"a621yw307jj7","geo_precision":"range","address":"802 E Jefferson St","agency name":"Crescent Assembly of God"},"type":"Feature","geometry":{"type":"Point","coordinates":[-97.586397,35.954208]}},{"properties":{"2009 county food insecurity rate":"15.40%","county median ppip":"230.00%","city":"Marietta","tier":2,"fbc program code":"MENTAL/DAY","county":"LOVE","geo_score":0.5,"annual pounds distributed":5177.0,"zip code":"73448","change in current county pounds to reach eas":"-37.92%","agency number":1005,"id":"a621yw8e92hm","geo_precision":"zip","address":"200 Wanda Street","agency name":"MHSSO - Marietta"},"type":"Feature","geometry":{"type":"Point","coordinates":[-97.325295,33.964544]}},{"properties":{"2009 county food insecurity rate":"15.40%","county median ppip":"230.00%","city":"Marietta","tier":2,"fbc program code":"PANTRY","county":"LOVE","geo_score":0.54,"annual pounds distributed":8204.94,"zip code":"73448","change in current county pounds to reach eas":"-37.92%","agency number":1015,"id":"a621yw74f5ui","geo_precision":"street","address":"910 W Main","agency name":"Big Five Com Services-Marietta"},"type":"Feature","geometry":{"type":"Point","coordinates":[-97.125137,33.937768]}},{"properties":{"2009 county food insecurity rate":"13.60%","county median ppip":"393.00%","city":"Cleo Springs","tier":2,"fbc program code":"SENIORS","county":"MAJOR","geo_score":0.727,"annual pounds distributed":6915.6,"zip code":"73729","change in current county pounds to reach eas":"-63.58%","agency number":929,"id":"a621yw1aha2h","geo_precision":"range","address":"419 &amp; 421 N 3rd Street","agency name":"Cleo Springs Senior Center"},"type":"Feature","geometry":{"type":"Point","coordinates":[-98.440662,36.406677]}},{"properties":{"2009 county food insecurity rate":"17.30%","county median ppip":"265.00%","city":"Madill","tier":2,"fbc program code":"YOUTH/CHIL","county":"MARSHALL","geo_score":0.488,"annual pounds distributed":2883.0,"zip code":"73446","change in current county pounds to reach eas":"-46.13%","agency number":22,"id":"a621yw4x3rea","geo_precision":"zip","address":"1107 Anthony Lane","agency name":"Baptist Children's Home-Madill"},"type":"Feature","geometry":{"type":"Point","coordinates":[-96.90973,34.103708]}},{"properties":{"2009 county food insecurity rate":"17.30%","county median ppip":"265.00%","city":"Tishomingo","tier":2,"fbc program code":"MENTAL/DAY","county":"MARSHALL","geo_score":0.555,"annual pounds distributed":5291.0,"zip code":"73460","change in current county pounds to reach eas":"-46.13%","agency number":788,"id":"a621yw85t308","geo_precision":"street","address":"209 E Wilson Street","agency name":"MHSSO-Tishomingo"},"type":"Feature","geometry":{"type":"Point","coordinates":[-96.673008,34.225274]}},{"properties":{"2009 county food insecurity rate":"17.30%","county median ppip":"265.00%","city":"Kingston","tier":2,"fbc program code":"PANTRY","county":"MARSHALL","geo_score":0.403,"annual pounds distributed":1905.68,"zip code":"73439","change in current county pounds to reach eas":"-46.13%","agency number":1076,"id":"a621yw0dhena","geo_precision":"street","address":"100 N Willis","agency name":"Kingston United Methodist"},"type":"Feature","geometry":{"type":"Point","coordinates":[-96.724361,34.004232]}},{"properties":{"2009 county food insecurity rate":"17.30%","county median ppip":"265.00%","city":"Madill","tier":2,"fbc program code":"SENIORS","county":"MARSHALL","geo_score":0.746,"annual pounds distributed":60757.0,"zip code":"73446","change in current county pounds to reach eas":"-46.13%","agency number":1167,"id":"a621yw0vgv7e","geo_precision":"range","address":"408 W Overton","agency name":"South.OK Nutrition Pro-Madill"},"type":"Feature","geometry":{"type":"Point","coordinates":[-96.773965,34.091896]}},{"properties":{"2009 county food insecurity rate":"17.30%","county median ppip":"265.00%","city":"Madill","tier":2,"fbc program code":"PANTRY","county":"MARSHALL","geo_score":0.707,"annual pounds distributed":54578.41,"zip code":"73446","change in current county pounds to reach eas":"-46.13%","agency number":1195,"id":"a621yvy64kpq","geo_precision":"range","address":"605 North 3rd Street","agency name":"Family Christian Center-Madill"},"type":"Feature","geometry":{"type":"Point","coordinates":[-96.771813,34.096268]}},{"properties":{"2009 county food insecurity rate":"14.40%","county median ppip":"221.00%","city":"Purcell","tier":2,"fbc program code":"PANTRY","county":"MCCLAIN","geo_score":0.819,"annual pounds distributed":38798.44,"zip code":"73080","change in current county pounds to reach eas":"-35.20%","agency number":68,"id":"a621ywark3z2","geo_precision":"range","address":"223 W Washington Street","agency name":"Delta Community Action Found."},"type":"Feature","geometry":{"type":"Point","coordinates":[-97.361294,35.013627]}},{"properties":{"2009 county food insecurity rate":"14.40%","county median ppip":"221.00%","city":"Dibble","tier":2,"fbc program code":"PANTRY","county":"MCCLAIN","geo_score":0.805,"annual pounds distributed":32879.1,"zip code":"73031","change in current county pounds to reach eas":"-35.20%","agency number":1155,"id":"a621yw7xx2au","geo_precision":"range","address":"12219 Fireman's Road","agency name":"Dibble Senior Center - FP"},"type":"Feature","geometry":{"type":"Point","coordinates":[-97.633703,35.033327]}},{"properties":{"2009 county food insecurity rate":"14.40%","county median ppip":"221.00%","city":"Blanchard","tier":2,"fbc program code":"PANTRY","county":"MCCLAIN","geo_score":0.547,"annual pounds distributed":20948.55,"zip code":"73010","change in current county pounds to reach eas":"-35.20%","agency number":1247,"id":"a621yw2jupyd","geo_precision":"street","address":"919 NE 10th Street","agency name":"First Baptist - Blanchard"},"type":"Feature","geometry":{"type":"Point","coordinates":[-97.650956,35.145862]}},{"properties":{"2009 county food insecurity rate":"14.90%","county median ppip":"259.00%","city":"Sulphur","tier":2,"fbc program code":"SENIORS","county":"MURRAY","geo_score":0.61,"annual pounds distributed":66073.5,"zip code":"73086","change in current county pounds to reach eas":"-44.79%","agency number":1114,"id":"a621ywa7ycns","geo_precision":"street","address":"728 Cambridge Drive","agency name":"S OK Nutrition Pro-Sulphur"},"type":"Feature","geometry":{"type":"Point","coordinates":[-97.728709,35.496358]}},{"properties":{"2009 county food insecurity rate":"17.50%","county median ppip":"256.00%","city":"Morrison","tier":2,"fbc program code":"PANTRY","county":"NOBLE","geo_score":0.61,"annual pounds distributed":20544.77,"zip code":"73061","change in current county pounds to reach eas":"-44.18%","agency number":1255,"id":"a621yw6xsq5g","geo_precision":"street","address":"25301 John Wayne","agency name":"Hilltop Country Church"},"type":"Feature","geometry":{"type":"Point","coordinates":[-97.170628,36.292735]}},{"properties":{"2009 county food insecurity rate":"21.00%","county median ppip":"123.00%","city":"Okemah","tier":2,"fbc program code":"PANTRY","county":"OKFUSKEE","geo_score":0.718,"annual pounds distributed":23487.28,"zip code":"74859","change in current county pounds to reach eas":"16.07%","agency number":216,"id":"a621yw7pj491","geo_precision":"range","address":"202 N 3rd Street","agency name":"Okfuskee Community Cupboard"},"type":"Feature","geometry":{"type":"Point","coordinates":[-96.303463,35.432783]}},{"properties":{"2009 county food insecurity rate":"21.00%","county median ppip":"123.00%","city":"Okemah","tier":2,"fbc program code":"PANTRY","county":"OKFUSKEE","geo_score":0.302,"annual pounds distributed":6749.12,"zip code":"74859","change in current county pounds to reach eas":"16.07%","agency number":726,"id":"a621yw216iwt","geo_precision":"street","address":"320 S First #C","agency name":"Deep Fork Comm Action-Okemah"},"type":"Feature","geometry":{"type":"Point","coordinates":[-96.300917,35.431522]}},{"properties":{"2009 county food insecurity rate":"21.00%","county median ppip":"123.00%","city":"Okemah","tier":2,"fbc program code":"MENTAL/DAY","county":"OKFUSKEE","geo_score":0.816,"annual pounds distributed":15045.8,"zip code":"74859","change in current county pounds to reach eas":"16.07%","agency number":888,"id":"a621yvzp1wyt","geo_precision":"range","address":"209 W Broadway Street","agency name":"Creoks Mental Health Services"},"type":"Feature","geometry":{"type":"Point","coordinates":[-96.302284,35.431535]}},{"properties":{"2009 county food insecurity rate":"21.00%","county median ppip":"123.00%","city":"Okemah","tier":2,"fbc program code":"PANTRY","county":"OKFUSKEE","geo_score":0.371,"annual pounds distributed":37173.43,"zip code":"74859","change in current county pounds to reach eas":"16.07%","agency number":1248,"id":"a621yw5ely4a","geo_precision":"street","address":"RR1 Box 202","agency name":"Last Chance Baptist"},"type":"Feature","geometry":{"type":"Point","coordinates":[-97.17428,34.971443]}},{"properties":{"2009 county food insecurity rate":"21.00%","county median ppip":"123.00%","city":"Boley","tier":2,"fbc program code":"PANTRY","county":"OKFUSKEE","geo_score":0.655,"annual pounds distributed":6248.45,"zip code":"74829","change in current county pounds to reach eas":"16.07%","agency number":1259,"id":"a621yw94u38s","geo_precision":"range","address":"120 South Pecan","agency name":"Well Spring Food Pantry"},"type":"Feature","geometry":{"type":"Point","coordinates":[-96.483671,35.49176]}},{"properties":{"2009 county food insecurity rate":"17.30%","county median ppip":"158.00%","city":"Bethany","tier":2,"fbc program code":"PANTRY","county":"OKLAHOMA","geo_score":0.748,"annual pounds distributed":30652.22,"zip code":"73008","change in current county pounds to reach eas":"-9.44%","agency number":24,"id":"a621yvyzgy6y","geo_precision":"range","address":"3301 N Rockwell","agency name":"Bethany Church of Christ"},"type":"Feature","geometry":{"type":"Point","coordinates":[-97.636618,35.504273]}},{"properties":{"2009 county food insecurity rate":"17.30%","county median ppip":"158.00%","city":"Edmond","tier":2,"fbc program code":"YOUTH/CHIL","county":"OKLAHOMA","geo_score":0.699,"annual pounds distributed":57967.0,"zip code":"73013","change in current county pounds to reach eas":"-9.44%","agency number":29,"id":"a621yweahf63","geo_precision":"range","address":"5100 SE 33rd Street","agency name":"Boys Ranch Town"},"type":"Feature","geometry":{"type":"Point","coordinates":[-97.414997,35.623696]}},{"properties":{"2009 county food insecurity rate":"17.30%","county median ppip":"158.00%","city":"Oklahoma City","tier":2,"fbc program code":"SHELTER/SK","county":"OKLAHOMA","geo_score":0.902,"annual pounds distributed":83159.55,"zip code":"73108","change in current county pounds to reach eas":"-9.44%","agency number":115,"id":"a621yvyw35fe","geo_precision":"range","address":"2205 Exchange Avenue","agency name":"Grace Rescue Mission"},"type":"Feature","geometry":{"type":"Point","coordinates":[-97.553053,35.452819]}},{"properties":{"2009 county food insecurity rate":"17.30%","county median ppip":"158.00%","city":"Oklahoma City","tier":2,"fbc program code":"PANTRY","county":"OKLAHOMA","geo_score":0.902,"annual pounds distributed":24437.4,"zip code":"73103","change in current county pounds to reach eas":"-9.44%","agency number":117,"id":"a621yw6mx1y9","geo_precision":"range","address":"1201 N Robinson Avenue","agency name":"Good Shepherd Ministries"},"type":"Feature","geometry":{"type":"Point","coordinates":[-97.51605,35.480015]}},{"properties":{"2009 county food insecurity rate":"17.30%","county median ppip":"158.00%","city":"Oklahoma City","tier":2,"fbc program code":"PANTRY","county":"OKLAHOMA","geo_score":0.902,"annual pounds distributed":25651.25,"zip code":"73105","change in current county pounds to reach eas":"-9.44%","agency number":144,"id":"a621ywe75k7q","geo_precision":"range","address":"4224 North Lincoln Boulevard","agency name":"Infant Crisis Center"},"type":"Feature","geometry":{"type":"Point","coordinates":[-97.503119,35.514364]}},{"properties":{"2009 county food insecurity rate":"17.30%","county median ppip":"158.00%","city":"Oklahoma City","tier":2,"fbc program code":"PANTRY","county":"OKLAHOMA","geo_score":0.902,"annual pounds distributed":21477.3,"zip code":"73108","change in current county pounds to reach eas":"-9.44%","agency number":158,"id":"a621yw199gx8","geo_precision":"range","address":"2125 Exchange Avenue","agency name":"Baptist Mission Center"},"type":"Feature","geometry":{"type":"Point","coordinates":[-97.551939,35.452819]}},{"properties":{"2009 county food insecurity rate":"17.30%","county median ppip":"158.00%","city":"Midwest City","tier":2,"fbc program code":"PANTRY","county":"OKLAHOMA","geo_score":0.902,"annual pounds distributed":106323.24,"zip code":"73110","change in current county pounds to reach eas":"-9.44%","agency number":162,"id":"a621yw28zi1z","geo_precision":"range","address":"322 N Midwest Boulevard","agency name":"Mid-Del Food Pantry"},"type":"Feature","geometry":{"type":"Point","coordinates":[-97.388557,35.46854]}},{"properties":{"2009 county food insecurity rate":"17.30%","county median ppip":"158.00%","city":"Oklahoma City","tier":2,"fbc program code":"PANTRY","county":"OKLAHOMA","geo_score":0.823,"annual pounds distributed":20733.1,"zip code":"73129","change in current county pounds to reach eas":"-9.44%","agency number":176,"id":"a621yw5ch78t","geo_precision":"range","address":"3300 S Lindsay","agency name":"S Lindsay Baptist-Food Pantry"},"type":"Feature","geometry":{"type":"Point","coordinates":[-97.499221,35.432577]}},{"properties":{"2009 county food insecurity rate":"17.30%","county median ppip":"158.00%","city":"Oklahoma City","tier":2,"fbc program code":"PANTRY","county":"OKLAHOMA","geo_score":0.829,"annual pounds distributed":50880.77,"zip code":"73109","change in current county pounds to reach eas":"-9.44%","agency number":199,"id":"a621yw4ee64k","geo_precision":"range","address":"300 SW 13th Street","agency name":"Neighbor for Neighbor of OKC"},"type":"Feature","geometry":{"type":"Point","coordinates":[-97.517817,35.452003]}},{"properties":{"2009 county food insecurity rate":"17.30%","county median ppip":"158.00%","city":"Oklahoma City","tier":2,"fbc program code":"DRUG/ALCOH","county":"OKLAHOMA","geo_score":0.819,"annual pounds distributed":16830.4,"zip code":"73106","change in current county pounds to reach eas":"-9.44%","agency number":211,"id":"a621ywbifs5i","geo_precision":"range","address":"2041 NW 7th Street","agency name":"Salvation Army Adult Rehab"},"type":"Feature","geometry":{"type":"Point","coordinates":[-97.546361,35.475828]}},{"properties":{"2009 county food insecurity rate":"17.30%","county median ppip":"158.00%","city":"Oklahoma City","tier":2,"fbc program code":"DRUG/ALCOH","county":"OKLAHOMA","geo_score":0.829,"annual pounds distributed":37942.0,"zip code":"73106","change in current county pounds to reach eas":"-9.44%","agency number":228,"id":"a621yw0ijyop","geo_precision":"range","address":"1215 NW 25th Street","agency name":"The Referral Center"},"type":"Feature","geometry":{"type":"Point","coordinates":[-97.532271,35.495333]}},{"properties":{"2009 county food insecurity rate":"17.30%","county median ppip":"158.00%","city":"Oklahoma City","tier":2,"fbc program code":"SOUP KITCH","county":"OKLAHOMA","geo_score":0.743,"annual pounds distributed":79108.97,"zip code":"73106","change in current county pounds to reach eas":"-9.44%","agency number":241,"id":"a621yw6z8c8t","geo_precision":"range","address":"2400 General Pershing","agency name":"City Care Inc"},"type":"Feature","geometry":{"type":"Point","coordinates":[-97.553407,35.472251]}},{"properties":{"2009 county food insecurity rate":"17.30%","county median ppip":"158.00%","city":"Oklahoma City","tier":2,"fbc program code":"SHELTER/SK","county":"OKLAHOMA","geo_score":0.721,"annual pounds distributed":92883.36,"zip code":"73109","change in current county pounds to reach eas":"-9.44%","agency number":252,"id":"a621yw939o3o","geo_precision":"street","address":"311 SW 5th St","agency name":"Salvation Army Kitchen"},"type":"Feature","geometry":{"type":"Point","coordinates":[-97.518027,35.460052]}},{"properties":{"2009 county food insecurity rate":"17.30%","county median ppip":"158.00%","city":"Oklahoma City","tier":2,"fbc program code":"PANTRY","county":"OKLAHOMA","geo_score":0.819,"annual pounds distributed":43513.94,"zip code":"73102","change in current county pounds to reach eas":"-9.44%","agency number":258,"id":"a621yw5ihc7p","geo_precision":"range","address":"117 NW 7th Street","agency name":"Guild of St George"},"type":"Feature","geometry":{"type":"Point","coordinates":[-97.514461,35.475033]}},{"properties":{"2009 county food insecurity rate":"17.30%","county median ppip":"158.00%","city":"Oklahoma City","tier":2,"fbc program code":"PANTRY","county":"OKLAHOMA","geo_score":0.902,"annual pounds distributed":243653.68,"zip code":"73109","change in current county pounds to reach eas":"-9.44%","agency number":262,"id":"a621yw7hngmm","geo_precision":"range","address":"2709 S Shartel Avenue","agency name":"Sacred Heart/St Vin.De Paul"},"type":"Feature","geometry":{"type":"Point","coordinates":[-97.526029,35.438258]}},{"properties":{"2009 county food insecurity rate":"17.30%","county median ppip":"158.00%","city":"Oklahoma City","tier":2,"fbc program code":"PANTRY","county":"OKLAHOMA","geo_score":0.756,"annual pounds distributed":93841.9,"zip code":"73109","change in current county pounds to reach eas":"-9.44%","agency number":266,"id":"a621yw64fjdl","geo_precision":"range","address":"1231 SW 44th","agency name":"St James/St Vincent de Paul"},"type":"Feature","geometry":{"type":"Point","coordinates":[-97.537555,35.420736]}},{"properties":{"2009 county food insecurity rate":"17.30%","county median ppip":"158.00%","city":"Oklahoma City","tier":2,"fbc program code":"YOUTH/CHIL","county":"OKLAHOMA","geo_score":0.829,"annual pounds distributed":20805.52,"zip code":"73105","change in current county pounds to reach eas":"-9.44%","agency number":317,"id":"a621yvy0zs2g","geo_precision":"range","address":"203 NE 50th Street","agency name":"Youth Services/Family Junction"},"type":"Feature","geometry":{"type":"Point","coordinates":[-97.507683,35.522314]}},{"properties":{"2009 county food insecurity rate":"17.30%","county median ppip":"158.00%","city":"Oklahoma City","tier":2,"fbc program code":"PANTRY","county":"OKLAHOMA","geo_score":0.902,"annual pounds distributed":1127572.9,"zip code":"73109","change in current county pounds to reach eas":"-9.44%","agency number":397,"id":"a621yw0vdwd1","geo_precision":"range","address":"501 S Harvey Avenue","agency name":"Salvation Army Social Services"},"type":"Feature","geometry":{"type":"Point","coordinates":[-97.517868,35.461103]}},{"properties":{"2009 county food insecurity rate":"17.30%","county median ppip":"158.00%","city":"Oklahoma City","tier":2,"fbc program code":"PANTRY","county":"OKLAHOMA","geo_score":0.902,"annual pounds distributed":32000.82,"zip code":"73159","change in current county pounds to reach eas":"-9.44%","agency number":414,"id":"a621yw94h8sj","geo_precision":"range","address":"8400 S Pennsylvania Avenue","agency name":"St James Episcopal Church"},"type":"Feature","geometry":{"type":"Point","coordinates":[-97.547863,35.382412]}},{"properties":{"2009 county food insecurity rate":"17.30%","county median ppip":"158.00%","city":"Oklahoma City","tier":2,"fbc program code":"PANTRY","county":"OKLAHOMA","geo_score":0.829,"annual pounds distributed":61530.62,"zip code":"73122","change in current county pounds to reach eas":"-9.44%","agency number":435,"id":"a621yw8up2f3","geo_precision":"range","address":"6035 NW 50th Street","agency name":"50th Street Church of Christ"},"type":"Feature","geometry":{"type":"Point","coordinates":[-97.6241,35.522318]}},{"properties":{"2009 county food insecurity rate":"17.30%","county median ppip":"158.00%","city":"Spencer","tier":2,"fbc program code":"SOUP KITCH","county":"OKLAHOMA","geo_score":0.754,"annual pounds distributed":48045.87,"zip code":"73084","change in current county pounds to reach eas":"-9.44%","agency number":561,"id":"a621yw7t1ch0","geo_precision":"range","address":"8512 NE 36th St","agency name":"Spencer Church of Christ"},"type":"Feature","geometry":{"type":"Point","coordinates":[-97.379133,35.507631]}},{"properties":{"2009 county food insecurity rate":"17.30%","county median ppip":"158.00%","city":"Wellston","tier":2,"fbc program code":"PANTRY","county":"OKLAHOMA","geo_score":0.463,"annual pounds distributed":78375.44,"zip code":"74881","change in current county pounds to reach eas":"-9.44%","agency number":590,"id":"a621ywa86nnv","geo_precision":"street","address":"980124 North Wood Circle","agency name":"Nicoma Park Church of Christ"},"type":"Feature","geometry":{"type":"Point","coordinates":[-96.938763,35.337564]}},{"properties":{"2009 county food insecurity rate":"17.30%","county median ppip":"158.00%","city":"Oklahoma City","tier":2,"fbc program code":"PANTRY","county":"OKLAHOMA","geo_score":0.829,"annual pounds distributed":22357.69,"zip code":"73112","change in current county pounds to reach eas":"-9.44%","agency number":639,"id":"a621yvyqh9wj","geo_precision":"range","address":"2340 NW 50th Street","agency name":"Mayfair Church of Christ"},"type":"Feature","geometry":{"type":"Point","coordinates":[-97.553098,35.5222]}},{"properties":{"2009 county food insecurity rate":"17.30%","county median ppip":"158.00%","city":"Oklahoma City","tier":2,"fbc program code":"PANTRY","county":"OKLAHOMA","geo_score":0.902,"annual pounds distributed":42603.31,"zip code":"73111","change in current county pounds to reach eas":"-9.44%","agency number":648,"id":"a621ywe94elc","geo_precision":"range","address":"3721 Staton Drive","agency name":"Mt Carmel Food Pantry"},"type":"Feature","geometry":{"type":"Point","coordinates":[-97.489955,35.507913]}},{"properties":{"2009 county food insecurity rate":"17.30%","county median ppip":"158.00%","city":"Oklahoma City","tier":2,"fbc program code":"PANTRY","county":"OKLAHOMA","geo_score":0.902,"annual pounds distributed":48045.87,"zip code":"73134","change in current county pounds to reach eas":"-9.44%","agency number":672,"id":"a621ywbnla5v","geo_precision":"range","address":"1780 W Memorial Road","agency name":"Church on the Rock"},"type":"Feature","geometry":{"type":"Point","coordinates":[-97.542984,35.609702]}},{"properties":{"2009 county food insecurity rate":"17.30%","county median ppip":"158.00%","city":"Oklahoma City","tier":2,"fbc program code":"PANTRY","county":"OKLAHOMA","geo_score":0.902,"annual pounds distributed":64823.27,"zip code":"73107","change in current county pounds to reach eas":"-9.44%","agency number":675,"id":"a621yw5omcsn","geo_precision":"range","address":"1755 N Meridian Avenue","agency name":"St Johns UMC"},"type":"Feature","geometry":{"type":"Point","coordinates":[-97.601114,35.486718]}},{"properties":{"2009 county food insecurity rate":"17.30%","county median ppip":"158.00%","city":"Oklahoma City","tier":2,"fbc program code":"PANTRY","county":"OKLAHOMA","geo_score":0.819,"annual pounds distributed":32825.62,"zip code":"73107","change in current county pounds to reach eas":"-9.44%","agency number":721,"id":"a621yw27vlxe","geo_precision":"range","address":"2404 NW 3rd Street","agency name":"Billy Hooton Indian UMC"},"type":"Feature","geometry":{"type":"Point","coordinates":[-97.554338,35.470943]}},{"properties":{"2009 county food insecurity rate":"17.30%","county median ppip":"158.00%","city":"Oklahoma City","tier":2,"fbc program code":"PANTRY/SK","county":"OKLAHOMA","geo_score":0.902,"annual pounds distributed":132351.74,"zip code":"73106","change in current county pounds to reach eas":"-9.44%","agency number":743,"id":"a621yvyyizah","geo_precision":"range","address":"215 N McKinley Avenue","agency name":"OKC Metro House of Hope"},"type":"Feature","geometry":{"type":"Point","coordinates":[-97.536756,35.469039]}},{"properties":{"2009 county food insecurity rate":"17.30%","county median ppip":"158.00%","city":"Oklahoma City","tier":2,"fbc program code":"PANTRY","county":"OKLAHOMA","geo_score":0.659,"annual pounds distributed":247029.27,"zip code":"73107","change in current county pounds to reach eas":"-9.44%","agency number":755,"id":"a621yw5bvln1","geo_precision":"range","address":"3636 NW 51st","agency name":"Other Options Inc"},"type":"Feature","geometry":{"type":"Point","coordinates":[-97.581646,35.523241]}},{"properties":{"2009 county food insecurity rate":"17.30%","county median ppip":"158.00%","city":"Oklahoma City","tier":2,"fbc program code":"PANTRY","county":"OKLAHOMA","geo_score":0.748,"annual pounds distributed":19537.76,"zip code":"73120","change in current county pounds to reach eas":"-9.44%","agency number":764,"id":"a621yw86zomh","geo_precision":"range","address":"2224 NW 119th","agency name":"Wildewood Christian FP"},"type":"Feature","geometry":{"type":"Point","coordinates":[-97.55231,35.592442]}},{"properties":{"2009 county food insecurity rate":"17.30%","county median ppip":"158.00%","city":"Spencer","tier":2,"fbc program code":"PANTRY","county":"OKLAHOMA","geo_score":0.754,"annual pounds distributed":10419.14,"zip code":"73084","change in current county pounds to reach eas":"-9.44%","agency number":837,"id":"a621yw3th43f","geo_precision":"range","address":"10001 NE 50th St","agency name":"Saint Luke Baptist Food Pantry"},"type":"Feature","geometry":{"type":"Point","coordinates":[-97.35314,35.521983]}},{"properties":{"2009 county food insecurity rate":"17.30%","county median ppip":"158.00%","city":"Oklahoma City","tier":2,"fbc program code":"PANTRY","county":"OKLAHOMA","geo_score":0.902,"annual pounds distributed":34995.93,"zip code":"73119","change in current county pounds to reach eas":"-9.44%","agency number":867,"id":"a621yw0c24zm","geo_precision":"range","address":"3600 S Portland Avenue","agency name":"Seventh  Day Adventist - South"},"type":"Feature","geometry":{"type":"Point","coordinates":[-97.583326,35.429031]}},{"properties":{"2009 county food insecurity rate":"17.30%","county median ppip":"158.00%","city":"Oklahoma City","tier":2,"fbc program code":"PANTRY","county":"OKLAHOMA","geo_score":0.819,"annual pounds distributed":43270.0,"zip code":"73117","change in current county pounds to reach eas":"-9.44%","agency number":878,"id":"a621yvyrhtuq","geo_precision":"range","address":"1700 NE 7th Street","agency name":"Fairview Baptist Church"},"type":"Feature","geometry":{"type":"Point","coordinates":[-97.482438,35.475014]}},{"properties":{"2009 county food insecurity rate":"17.30%","county median ppip":"158.00%","city":"Oklahoma City","tier":2,"fbc program code":"DRUG/ALCOH","county":"OKLAHOMA","geo_score":0.829,"annual pounds distributed":24452.0,"zip code":"73114","change in current county pounds to reach eas":"-9.44%","agency number":1021,"id":"a621yw7p0gee","geo_precision":"range","address":"837 NW 95 St","agency name":"My Brothers Keeper of OK, Inc."},"type":"Feature","geometry":{"type":"Point","coordinates":[-97.527474,35.567569]}},{"properties":{"2009 county food insecurity rate":"17.30%","county median ppip":"158.00%","city":"Bethany","tier":2,"fbc program code":"PANTRY","county":"OKLAHOMA","geo_score":0.821,"annual pounds distributed":91914.1,"zip code":"73008","change in current county pounds to reach eas":"-9.44%","agency number":1024,"id":"a621ywc5xtj0","geo_precision":"range","address":"2900 N Council Road","agency name":"Council Road Baptist Church"},"type":"Feature","geometry":{"type":"Point","coordinates":[-97.654276,35.498287]}},{"properties":{"2009 county food insecurity rate":"17.30%","county median ppip":"158.00%","city":"Oklahoma City","tier":2,"fbc program code":"SHELTER","county":"OKLAHOMA","geo_score":0.819,"annual pounds distributed":80873.48,"zip code":"73107","change in current county pounds to reach eas":"-9.44%","agency number":1026,"id":"a621yw2euiht","geo_precision":"range","address":"2313 NW 2nd Street","agency name":"Pershing Center Supportive Hsg"},"type":"Feature","geometry":{"type":"Point","coordinates":[-97.552498,35.470008]}},{"properties":{"2009 county food insecurity rate":"17.30%","county median ppip":"158.00%","city":"Oklahoma City","tier":2,"fbc program code":"PANTRY","county":"OKLAHOMA","geo_score":0.902,"annual pounds distributed":22369.93,"zip code":"73165","change in current county pounds to reach eas":"-9.44%","agency number":1071,"id":"a621ywbxf9yz","geo_precision":"range","address":"11301 SE 104th Street","agency name":"Friendship PH-The Giving Tree"},"type":"Feature","geometry":{"type":"Point","coordinates":[-97.330303,35.363087]}},{"properties":{"2009 county food insecurity rate":"17.30%","county median ppip":"158.00%","city":"Warr Acres","tier":2,"fbc program code":"PANTRY","county":"OKLAHOMA","geo_score":0.756,"annual pounds distributed":15605.85,"zip code":"73122","change in current county pounds to reach eas":"-9.44%","agency number":1086,"id":"a621ywcd5i1y","geo_precision":"range","address":"5819 NW 41st Street","agency name":"Putnam City UMC - FP"},"type":"Feature","geometry":{"type":"Point","coordinates":[-97.617271,35.513759]}},{"properties":{"2009 county food insecurity rate":"17.30%","county median ppip":"158.00%","city":"Warr Acres","tier":2,"fbc program code":"PANTRY","county":"OKLAHOMA","geo_score":0.732,"annual pounds distributed":195299.7,"zip code":"73122","change in current county pounds to reach eas":"-9.44%","agency number":1088,"id":"a621ywcedior","geo_precision":"range","address":"5024 N Grove","agency name":"St Charles Borromeo-Pantry"},"type":"Feature","geometry":{"type":"Point","coordinates":[-97.614559,35.521734]}},{"properties":{"2009 county food insecurity rate":"17.30%","county median ppip":"158.00%","city":"Harrah","tier":2,"fbc program code":"PANTRY","county":"OKLAHOMA","geo_score":0.902,"annual pounds distributed":34814.26,"zip code":"73045","change in current county pounds to reach eas":"-9.44%","agency number":1180,"id":"a621yvyn5977","geo_precision":"range","address":"101 S Dobbs Road","agency name":"Harrah Free Will Baptist"},"type":"Feature","geometry":{"type":"Point","coordinates":[-97.176963,35.46293]}},{"properties":{"2009 county food insecurity rate":"17.30%","county median ppip":"158.00%","city":"Oklahoma City","tier":2,"fbc program code":"PANTRY","county":"OKLAHOMA","geo_score":0.902,"annual pounds distributed":15204.0,"zip code":"73114","change in current county pounds to reach eas":"-9.44%","agency number":1219,"id":"a621yw34fei3","geo_precision":"range","address":"13003 N Western Avenue","agency name":"Bethel Foundation"},"type":"Feature","geometry":{"type":"Point","coordinates":[-97.531607,35.606783]}},{"properties":{"2009 county food insecurity rate":"17.30%","county median ppip":"158.00%","city":"Arcadia","tier":2,"fbc program code":"PANTRY","county":"OKLAHOMA","geo_score":0.701,"annual pounds distributed":88375.73,"zip code":"73007","change in current county pounds to reach eas":"-9.44%","agency number":1239,"id":"a621yw62r8do","geo_precision":"range","address":"120 East Highway 66","agency name":"Route 66 Project"},"type":"Feature","geometry":{"type":"Point","coordinates":[-97.327061,35.661791]}},{"properties":{"2009 county food insecurity rate":"19.10%","county median ppip":"66.00%","city":"Stillwater","tier":2,"fbc program code":"PANTRY","county":"PAYNE","geo_score":0.77,"annual pounds distributed":41845.38,"zip code":"74074","change in current county pounds to reach eas":"115.42%","agency number":28,"id":"a621yvy51dsq","geo_precision":"range","address":"8002 S Washington","agency name":"Lost Creek United Methodist"},"type":"Feature","geometry":{"type":"Point","coordinates":[-97.068866,36.028911]}},{"properties":{"2009 county food insecurity rate":"19.10%","county median ppip":"66.00%","city":"Perkins","tier":2,"fbc program code":"YOUTH/CHIL","county":"PAYNE","geo_score":0.551,"annual pounds distributed":8497.2,"zip code":"74059","change in current county pounds to reach eas":"115.42%","agency number":215,"id":"a621yvy89k5d","geo_precision":"street","address":"7503 N Highway 177","agency name":"Oklahoma Lions Boys Ranch"},"type":"Feature","geometry":{"type":"Point","coordinates":[-97.051109,36.028942]}},{"properties":{"2009 county food insecurity rate":"19.10%","county median ppip":"66.00%","city":"Stillwater","tier":2,"fbc program code":"PANTRY","county":"PAYNE","geo_score":0.815,"annual pounds distributed":22351.02,"zip code":"74074","change in current county pounds to reach eas":"115.42%","agency number":251,"id":"a621yw54fru5","geo_precision":"range","address":"1101 S Lowry Street","agency name":"Salvation Army-Stillwater"},"type":"Feature","geometry":{"type":"Point","coordinates":[-97.055859,36.110185]}},{"properties":{"2009 county food insecurity rate":"19.10%","county median ppip":"66.00%","city":"Perkins","tier":2,"fbc program code":"PANTRY","county":"PAYNE","geo_score":0.516,"annual pounds distributed":58393.1,"zip code":"74059","change in current county pounds to reach eas":"115.42%","agency number":466,"id":"a621ywdd75wt","geo_precision":"street","address":"1005 East Kirk Street","agency name":"Neighborhood Ministry"},"type":"Feature","geometry":{"type":"Point","coordinates":[-97.023685,35.978196]}},{"properties":{"2009 county food insecurity rate":"19.10%","county median ppip":"66.00%","city":"Stillwater","tier":2,"fbc program code":"SHELTER","county":"PAYNE","geo_score":0.815,"annual pounds distributed":37697.0,"zip code":"74074","change in current county pounds to reach eas":"115.42%","agency number":1144,"id":"a621yw4qtlyx","geo_precision":"range","address":"1804 South Perkins Road","agency name":"COCAA - Mission of Hope"},"type":"Feature","geometry":{"type":"Point","coordinates":[-97.051366,36.102479]}},{"properties":{"2009 county food insecurity rate":"19.10%","county median ppip":"66.00%","city":"Glencoe","tier":2,"fbc program code":"PANTRY","county":"PAYNE","geo_score":0.585,"annual pounds distributed":31026.93,"zip code":"74032","change in current county pounds to reach eas":"115.42%","agency number":1229,"id":"a621yw6zxlko","geo_precision":"range","address":"103 N Perry Street","agency name":"Glencoe UMC - Food Pantry"},"type":"Feature","geometry":{"type":"Point","coordinates":[-96.926964,36.228767]}},{"properties":{"2009 county food insecurity rate":"19.10%","county median ppip":"66.00%","city":"Stillwater","tier":2,"fbc program code":"SOUP KITCH","county":"PAYNE","geo_score":0.75,"annual pounds distributed":10558.5,"zip code":"74074","change in current county pounds to reach eas":"115.42%","agency number":1250,"id":"a621yw6xr4wx","geo_precision":"range","address":"524 S Duncan","agency name":"First Presbyterian-Stillwater"},"type":"Feature","geometry":{"type":"Point","coordinates":[-97.061318,36.116482]}},{"properties":{"2009 county food insecurity rate":"19.10%","county median ppip":"66.00%","city":"Perkins","tier":2,"fbc program code":"PANTRY","county":"PAYNE","geo_score":0.652,"annual pounds distributed":21921.88,"zip code":"74059","change in current county pounds to reach eas":"115.42%","agency number":1265,"id":"a621yw522nt3","geo_precision":"range","address":"212 NE 7th","agency name":"Greater Vision Food Pantry"},"type":"Feature","geometry":{"type":"Point","coordinates":[-97.025147,35.975247]}},{"properties":{"2009 county food insecurity rate":"17.40%","county median ppip":"75.00%","city":"Ada","tier":2,"fbc program code":"MENTAL/DAY","county":"PONTOTOC","geo_score":0.724,"annual pounds distributed":9042.6,"zip code":"74820","change in current county pounds to reach eas":"90.46%","agency number":525,"id":"a621ywe0bs2t","geo_precision":"range","address":"301 W 4th Street","agency name":"MHSSO-Ada Clubhouse"},"type":"Feature","geometry":{"type":"Point","coordinates":[-96.681855,34.781787]}},{"properties":{"2009 county food insecurity rate":"17.40%","county median ppip":"75.00%","city":"Ada","tier":2,"fbc program code":"PANTRY","county":"PONTOTOC","geo_score":0.792,"annual pounds distributed":35300.71,"zip code":"74820","change in current county pounds to reach eas":"90.46%","agency number":565,"id":"a621yvzkcxqg","geo_precision":"range","address":"2413 Timber Terrace","agency name":"Southwest Church of Christ"},"type":"Feature","geometry":{"type":"Point","coordinates":[-96.641545,34.773889]}},{"properties":{"2009 county food insecurity rate":"17.40%","county median ppip":"75.00%","city":"Ada","tier":2,"fbc program code":"SENIORS","county":"PONTOTOC","geo_score":0.405,"annual pounds distributed":71722.0,"zip code":"74820","change in current county pounds to reach eas":"90.46%","agency number":826,"id":"a621yw4qclaw","geo_precision":"street","address":"1600 Arlington, Suite C","agency name":"Southern OK Nutrition Pro-Ada"},"type":"Feature","geometry":{"type":"Point","coordinates":[-96.670034,34.782033]}},{"properties":{"2009 county food insecurity rate":"17.40%","county median ppip":"75.00%","city":"Ada","tier":2,"fbc program code":"PANTRY","county":"PONTOTOC","geo_score":0.748,"annual pounds distributed":6567.47,"zip code":"74820","change in current county pounds to reach eas":"90.46%","agency number":977,"id":"a621yw5sbump","geo_precision":"range","address":"805 North Broadway","agency name":"Salvation Army - Ada"},"type":"Feature","geometry":{"type":"Point","coordinates":[-96.678733,34.781802]}},{"properties":{"2009 county food insecurity rate":"17.40%","county median ppip":"75.00%","city":"Ada","tier":2,"fbc program code":"PANTRY","county":"PONTOTOC","geo_score":0.724,"annual pounds distributed":12928.9,"zip code":"74820","change in current county pounds to reach eas":"90.46%","agency number":1188,"id":"a621yw4pl1dv","geo_precision":"range","address":"508 West 6th Street","agency name":"Asbury UMC - Ada"},"type":"Feature","geometry":{"type":"Point","coordinates":[-96.685167,34.779737]}},{"properties":{"2009 county food insecurity rate":"17.40%","county median ppip":"75.00%","city":"Allen","tier":2,"fbc program code":"SENIORS","county":"PONTOTOC","geo_score":0.829,"annual pounds distributed":4099.0,"zip code":"74825","change in current county pounds to reach eas":"90.46%","agency number":1267,"id":"a621ywb82k56","geo_precision":"range","address":"103 West Broadway","agency name":"SONP - Allen"},"type":"Feature","geometry":{"type":"Point","coordinates":[-96.416885,34.879621]}},{"properties":{"2009 county food insecurity rate":"17.20%","county median ppip":"127.00%","city":"Shawnee","tier":2,"fbc program code":"MENTAL/DAY","county":"POTAWATOMI","geo_score":0.805,"annual pounds distributed":10865.0,"zip code":"74801","change in current county pounds to reach eas":"12.33%","agency number":426,"id":"a621yw53dr3q","geo_precision":"range","address":"101 N Union Avenue","agency name":"Red Rock BHS - Shawnee"},"type":"Feature","geometry":{"type":"Point","coordinates":[-96.920867,35.327371]}},{"properties":{"2009 county food insecurity rate":"17.20%","county median ppip":"127.00%","city":"Shawnee","tier":2,"fbc program code":"PANTRY","county":"POTAWATOMI","geo_score":0.707,"annual pounds distributed":27375.07,"zip code":"74801","change in current county pounds to reach eas":"12.33%","agency number":1150,"id":"a621yw5k7t8n","geo_precision":"range","address":"1025 E 9th St","agency name":"Galilee Baptist Church"},"type":"Feature","geometry":{"type":"Point","coordinates":[-96.91076,35.329108]}},{"properties":{"2009 county food insecurity rate":"17.20%","county median ppip":"127.00%","city":"Shawnee","tier":2,"fbc program code":"YOUTH/CHIL","county":"POTAWATOMI","geo_score":0.805,"annual pounds distributed":6096.0,"zip code":"74801","change in current county pounds to reach eas":"12.33%","agency number":1214,"id":"a621yw0dxeuu","geo_precision":"range","address":"1315 N McKinley Avenue","agency name":"Trinity Baptist Church-Shawnee"},"type":"Feature","geometry":{"type":"Point","coordinates":[-96.913547,35.34111]}},{"properties":{"2009 county food insecurity rate":"17.20%","county median ppip":"127.00%","city":"Tecumseh","tier":2,"fbc program code":"PANTRY","county":"POTAWATOMI","geo_score":0.488,"annual pounds distributed":29235.55,"zip code":"74873","change in current county pounds to reach eas":"12.33%","agency number":1249,"id":"a621yw3jemha","geo_precision":"street","address":"905 E Walnut","agency name":"Highland COC - Tecumseh"},"type":"Feature","geometry":{"type":"Point","coordinates":[-96.913056,35.260473]}},{"properties":{"2009 county food insecurity rate":"17.20%","county median ppip":"127.00%","city":"Shawnee","tier":2,"fbc program code":"PANTRY","county":"POTAWATOMI","geo_score":0.513,"annual pounds distributed":13190.0,"zip code":"74804","change in current county pounds to reach eas":"12.33%","agency number":1260,"id":"a621yw24gadl","geo_precision":"street","address":"30 Kin Ville Road","agency name":"Family of Faith"},"type":"Feature","geometry":{"type":"Point","coordinates":[-96.969414,35.407815]}},{"properties":{"2009 county food insecurity rate":"13.80%","county median ppip":"163.00%","city":"Hammon","tier":2,"fbc program code":"PANTRY","county":"ROGER MILL","geo_score":0.73,"annual pounds distributed":2907.41,"zip code":"73650","change in current county pounds to reach eas":"-12.10%","agency number":1230,"id":"a621yw8galcm","geo_precision":"street","address":"Broadway &amp; Moad St.","agency name":"First UMC - Hammon"},"type":"Feature","geometry":{"type":"Point","coordinates":[-99.376948,35.627978]}},{"properties":{"2009 county food insecurity rate":"21.10%","county median ppip":"85.00%","city":"Seminole","tier":2,"fbc program code":"MENTAL/DAY","county":"SEMINOLE","geo_score":0.841,"annual pounds distributed":13858.0,"zip code":"74868","change in current county pounds to reach eas":"68.43%","agency number":147,"id":"a621yvy9hkco","geo_precision":"range","address":"2010 Boren Boulevard","agency name":"MHSSO-Seminole"},"type":"Feature","geometry":{"type":"Point","coordinates":[-96.69767,35.242643]}},{"properties":{"2009 county food insecurity rate":"21.10%","county median ppip":"85.00%","city":"Seminole","tier":2,"fbc program code":"PANTRY","county":"SEMINOLE","geo_score":0.841,"annual pounds distributed":85025.24,"zip code":"74868","change in current county pounds to reach eas":"68.43%","agency number":329,"id":"a621ywag7ut7","geo_precision":"range","address":"813 N Main Street","agency name":"Interfaith Social Ministry"},"type":"Feature","geometry":{"type":"Point","coordinates":[-96.668537,35.23112]}},{"properties":{"2009 county food insecurity rate":"21.10%","county median ppip":"85.00%","city":"Konowa","tier":2,"fbc program code":"PANTRY","county":"SEMINOLE","geo_score":0.612,"annual pounds distributed":15644.12,"zip code":"74849","change in current county pounds to reach eas":"68.43%","agency number":655,"id":"a621yvzvuu5t","geo_precision":"street","address":"W 1st st","agency name":"Konowa Community Food Pantry"},"type":"Feature","geometry":{"type":"Point","coordinates":[-96.752108,34.957323]}},{"properties":{"2009 county food insecurity rate":"21.10%","county median ppip":"85.00%","city":"Seminole","tier":2,"fbc program code":"PANTRY","county":"SEMINOLE","geo_score":0.471,"annual pounds distributed":27475.66,"zip code":"74868","change in current county pounds to reach eas":"68.43%","agency number":1172,"id":"a621yvzzb40r","geo_precision":"street","address":"35540 Highway 99-A","agency name":"Glad Tidings Assembly of God"},"type":"Feature","geometry":{"type":"Point","coordinates":[-96.670846,35.269004]}},{"properties":{"2009 county food insecurity rate":"16.90%","county median ppip":"268.00%","city":"Duncan","tier":2,"fbc program code":"SHEL/SK/FP","county":"STEPHENS","geo_score":0.717,"annual pounds distributed":34591.35,"zip code":"73533","change in current county pounds to reach eas":"-46.70%","agency number":71,"id":"a621yw3j179h","geo_precision":"range","address":"102 N 5th Street","agency name":"Duncan Rescue Mission"},"type":"Feature","geometry":{"type":"Point","coordinates":[-97.952375,34.502482]}},{"properties":{"2009 county food insecurity rate":"16.90%","county median ppip":"268.00%","city":"Duncan","tier":2,"fbc program code":"PANTRY","county":"STEPHENS","geo_score":0.815,"annual pounds distributed":78214.99,"zip code":"73533","change in current county pounds to reach eas":"-46.70%","agency number":294,"id":"a621yw6u99zh","geo_precision":"range","address":"1404 W Main Street","agency name":"Chisholm Trail COC"},"type":"Feature","geometry":{"type":"Point","coordinates":[-97.965501,34.502595]}},{"properties":{"2009 county food insecurity rate":"16.90%","county median ppip":"268.00%","city":"Marlow","tier":2,"fbc program code":"PANTRY","county":"STEPHENS","geo_score":0.408,"annual pounds distributed":27157.3,"zip code":"73055","change in current county pounds to reach eas":"-46.70%","agency number":1210,"id":"a621yw27l6ca","geo_precision":"street","address":"2207 South 7 Mile Road","agency name":"Central High Community FP"},"type":"Feature","geometry":{"type":"Point","coordinates":[-97.963701,34.634761]}},{"properties":{"2009 county food insecurity rate":"15.00%","county median ppip":"123.00%","city":"Guymon","tier":2,"fbc program code":"SHELTER","county":"TEXAS","geo_score":0.746,"annual pounds distributed":4945.59,"zip code":"73942","change in current county pounds to reach eas":"16.43%","agency number":684,"id":"a621ywef34qu","geo_precision":"range","address":"409 N Ellison","agency name":"Oaks of Mamre Shelter"},"type":"Feature","geometry":{"type":"Point","coordinates":[-101.480255,36.681911]}},{"properties":{"2009 county food insecurity rate":"15.00%","county median ppip":"123.00%","city":"Guymon","tier":2,"fbc program code":"SENIORS","county":"TEXAS","geo_score":0.732,"annual pounds distributed":3021.5,"zip code":"73942","change in current county pounds to reach eas":"16.43%","agency number":805,"id":"a621yw931aox","geo_precision":"range","address":"515 NE 15th Street","agency name":"Panhandle Council for Seniors"},"type":"Feature","geometry":{"type":"Point","coordinates":[-101.476177,36.693041]}},{"properties":{"2009 county food insecurity rate":"18.90%","county median ppip":"78.00%","city":"Tipton","tier":2,"fbc program code":"SENIORS","county":"TILLMAN","geo_score":0.709,"annual pounds distributed":2731.0,"zip code":"73570","change in current county pounds to reach eas":"83.57%","agency number":182,"id":"a621yw7wxa13","geo_precision":"street","address":"102 East Main Street","agency name":"Tipton Area Senior Citizens"},"type":"Feature","geometry":{"type":"Point","coordinates":[-99.139724,34.503035]}},{"properties":{"2009 county food insecurity rate":"14.50%","county median ppip":"310.00%","city":"Freedom","tier":2,"fbc program code":"PANTRY","county":"WOODS","geo_score":0.61,"annual pounds distributed":33153.13,"zip code":"73842","change in current county pounds to reach eas":"-53.89%","agency number":962,"id":"a621ywcxpx9u","geo_precision":"street","address":"1493 Eagle Pass","agency name":"Freedom Food Pantry"},"type":"Feature","geometry":{"type":"Point","coordinates":[-99.112985,36.773205]}},{"properties":{"2009 county food insecurity rate":"14.50%","county median ppip":"310.00%","city":"Alva","tier":2,"fbc program code":"SENIORS","county":"WOODS","geo_score":0.7,"annual pounds distributed":11949.5,"zip code":"73717","change in current county pounds to reach eas":"-53.89%","agency number":1102,"id":"a621ywaq9fqm","geo_precision":"range","address":"625 Barnes Boulevard","agency name":"Panhandle Nutrition-Alva"},"type":"Feature","geometry":{"type":"Point","coordinates":[-98.66712,36.803757]}},{"properties":{"2009 county food insecurity rate":"14.50%","county median ppip":"310.00%","city":"Waynoka","tier":2,"fbc program code":"DRUG/ALCOH","county":"WOODS","geo_score":0.819,"annual pounds distributed":11943.4,"zip code":"73860","change in current county pounds to reach eas":"-53.89%","agency number":1113,"id":"a621yw5fvlrl","geo_precision":"range","address":"500 South Nickerson Street","agency name":"Waynoka Mental Health"},"type":"Feature","geometry":{"type":"Point","coordinates":[-98.875402,36.57985]}},{"properties":{"2009 county food insecurity rate":"14.50%","county median ppip":"310.00%","city":"Waynoka","tier":2,"fbc program code":"PANTRY","county":"WOODS","geo_score":0.595,"annual pounds distributed":22314.64,"zip code":"73860","change in current county pounds to reach eas":"-53.89%","agency number":1203,"id":"a621yvyfix84","geo_precision":"street","address":"1971 Waynoka Street","agency name":"Waynoka Christian Church"},"type":"Feature","geometry":{"type":"Point","coordinates":[-98.870966,36.583515]}},{"properties":{"2009 county food insecurity rate":"14.50%","county median ppip":"310.00%","city":"Alva","tier":2,"fbc program code":"PANTRY","county":"WOODS","geo_score":0.7,"annual pounds distributed":75870.43,"zip code":"73717","change in current county pounds to reach eas":"-53.89%","agency number":1204,"id":"a621ywdregbi","geo_precision":"range","address":"621 3rd Street","agency name":"Alva Wesleyan Church"},"type":"Feature","geometry":{"type":"Point","coordinates":[-98.661921,36.802308]}},{"properties":{"2009 county food insecurity rate":"15.10%","county median ppip":"175.00%","city":"Mooreland","tier":2,"fbc program code":"PANTRY","county":"WOODWARD","geo_score":0.837,"annual pounds distributed":4282.5,"zip code":"73852","change in current county pounds to reach eas":"-18.18%","agency number":840,"id":"a621yvzodd0a","geo_precision":"range","address":"418 S Elm Street","agency name":"First Baptist Church-Mooreland"},"type":"Feature","geometry":{"type":"Point","coordinates":[-99.206041,36.436831]}},{"properties":{"2009 county food insecurity rate":"15.10%","county median ppip":"175.00%","city":"Woodward","tier":2,"fbc program code":"YOUTH/CHIL","county":"WOODWARD","geo_score":0.525,"annual pounds distributed":6731.0,"zip code":"73801","change in current county pounds to reach eas":"-18.18%","agency number":891,"id":"a621ywaic9p2","geo_precision":"street","address":"315 Air Park Road","agency name":"Eastern Okla Youth Services"},"type":"Feature","geometry":{"type":"Point","coordinates":[-99.388105,36.424429]}},{"properties":{"2009 county food insecurity rate":"15.10%","county median ppip":"175.00%","city":"Woodward","tier":2,"fbc program code":"SOUP KITCH","county":"WOODWARD","geo_score":0.7,"annual pounds distributed":3559.0,"zip code":"73801","change in current county pounds to reach eas":"-18.18%","agency number":1264,"id":"a621yw5r5ezg","geo_precision":"range","address":"1316 9th Street","agency name":"Grace Outreach Ministries"},"type":"Feature","geometry":{"type":"Point","coordinates":[-99.390616,36.433423]}}],"is_temporal":false,"author":{"url":"","metadata":null,"contact_name":null,"contact_address":null,"source":null,"contact_phone":null},"source":"","pagination":{"sort":null,"start":0,"total":206,"limit":1000000},"state":"complete","tags":"","published":"2014-08-15T03:38:45-04:00","id":218796}