{"type":"FeatureCollection","data_type":"Dataset","url_type":null,"permissions":[{"permissions":{"download":true,"view":true},"group_id":"everyone"}],"classification":null,"title":"Vincent_-_Mortgage_Brokers_-_ran_March_22nd","count":60,"stream_id":218877,"contributor":{"url":"http://geocommons.com/users/39447","name":"sam.felipe"},"data_attributes":null,"calculation_params":null,"icon_link":null,"link":"http://geocommons.com/overlays/218877.json","extent":[-117.339,32.63,-116.868,33.1861],"geometry_types":["point"],"unique_name":null,"name":"Vincent_-_Mortgage_Brokers_-_ran_March_22nd","feature_count":60,"description":"","next_feature":null,"is_raster":false,"short_classification":"Y","stats":{"rep? (1 for yes, 0 for no)":{"max":1,"mean":0.116666666666667,"variance":0.104802259887006,"stdev":0.323731771513094,"min":0,"median":0}},"features":[{"properties":{"rep? (1 for yes, 0 for no)":0,"city":"San Marcos","zip":"92069","geo_score":0.346,"street address":"799 Avenida Codoniz","id":"a6bcs1g7gwzi","geo_precision":"street"},"type":"Feature","geometry":{"type":"Point","coordinates":[-117.090627,33.186144]}},{"properties":{"rep? (1 for yes, 0 for no)":0,"city":"Escondido","zip":"92025","geo_score":0.316,"street address":"283 S. Escondido Blvd","id":"a6bcs1njbs6g","geo_precision":"street"},"type":"Feature","geometry":{"type":"Point","coordinates":[-117.084529,33.120772]}},{"properties":{"rep? (1 for yes, 0 for no)":0,"city":"Carlsbad","zip":"92008","geo_score":0.824,"street address":"1921 Palomar Oaks Blvd","id":"a6bcs1ixfmzx","geo_precision":"range"},"type":"Feature","geometry":{"type":"Point","coordinates":[-117.289739,33.122929]}},{"properties":{"rep? (1 for yes, 0 for no)":0,"city":"San Diego","zip":"92106","geo_score":0.902,"street address":"2915 Canon St","id":"a6bcs1s6i601","geo_precision":"range"},"type":"Feature","geometry":{"type":"Point","coordinates":[-117.23094,32.720954]}},{"properties":{"rep? (1 for yes, 0 for no)":0,"city":"San Diego","zip":"92123","geo_score":0.631,"street address":"9555 Chesapeake Dr #120","id":"a6bcs1d3w0eu","geo_precision":"street"},"type":"Feature","geometry":{"type":"Point","coordinates":[-117.132091,32.839553]}},{"properties":{"rep? (1 for yes, 0 for no)":0,"city":"San Diego","zip":"92121","geo_score":0.473,"street address":"10509 Vista Sorrento Pkwy","id":"a6bcs1c3efyk","geo_precision":"street"},"type":"Feature","geometry":{"type":"Point","coordinates":[-117.249962,32.728214]}},{"properties":{"rep? (1 for yes, 0 for no)":0,"city":"San Diego","zip":"92131","geo_score":0.707,"street address":"10650 Treena St #103","id":"a6bcs1l03plu","geo_precision":"street"},"type":"Feature","geometry":{"type":"Point","coordinates":[-117.113815,32.909324]}},{"properties":{"rep? (1 for yes, 0 for no)":0,"city":"Carlsbad","zip":"92009","geo_score":0.585,"street address":"6790 Vermarine Ct","id":"a6bcs1rxudmq","geo_precision":"zip"},"type":"Feature","geometry":{"type":"Point","coordinates":[-117.267169,33.082192]}},{"properties":{"rep? (1 for yes, 0 for no)":0,"city":"Carlsbad","zip":"92011","geo_score":0.398,"street address":"6183 Paseo Del Norte","id":"a6bcs1jb47xq","geo_precision":"street"},"type":"Feature","geometry":{"type":"Point","coordinates":[-117.266928,33.100025]}},{"properties":{"rep? (1 for yes, 0 for no)":0,"city":"San Diego","zip":"92108","geo_score":0.708,"street address":"1081 Camino Del Rio S. #210","id":"a6bcs1k54f8a","geo_precision":"street"},"type":"Feature","geometry":{"type":"Point","coordinates":[-117.161344,32.760925]}},{"properties":{"rep? (1 for yes, 0 for no)":0,"city":"Carlsbad","zip":"92008","geo_score":0.707,"street address":"1947 Camino Vida Roble #215","id":"a6bcs1scscil","geo_precision":"street"},"type":"Feature","geometry":{"type":"Point","coordinates":[-117.289709,33.123816]}},{"properties":{"rep? (1 for yes, 0 for no)":0,"city":"Escondido","zip":"92025","geo_score":0.772,"street address":"151 Orange St.","id":"a6bcs1rc5wu3","geo_precision":"range"},"type":"Feature","geometry":{"type":"Point","coordinates":[-117.0852,33.119149]}},{"properties":{"rep? (1 for yes, 0 for no)":0,"city":"El Cajon","zip":"92019","geo_score":0.902,"street address":"3773 Willow Glen Dr","id":"a6bcs1dgnlwa","geo_precision":"range"},"type":"Feature","geometry":{"type":"Point","coordinates":[-116.92915,32.744597]}},{"properties":{"rep? (1 for yes, 0 for no)":0,"city":"Coronado","zip":"92118","geo_score":0.902,"street address":"1710 Avenida Del Mundo","id":"a6bcs1p6ovrd","geo_precision":"range"},"type":"Feature","geometry":{"type":"Point","coordinates":[-117.1764,32.678145]}},{"properties":{"rep? (1 for yes, 0 for no)":1,"city":"San Diego","zip":"92131","geo_score":0.707,"street address":"9939 Hibert St #107","id":"a6bcs1h1ojgh","geo_precision":"street"},"type":"Feature","geometry":{"type":"Point","coordinates":[-117.113881,32.913837]}},{"properties":{"rep? (1 for yes, 0 for no)":0,"city":"San Diego","zip":"92130","geo_score":0.707,"street address":"12526 High Bluff Dr #300","id":"a6bcs1dii5s0","geo_precision":"street"},"type":"Feature","geometry":{"type":"Point","coordinates":[-117.237482,32.943073]}},{"properties":{"rep? (1 for yes, 0 for no)":1,"city":"San Diego","zip":"92103","geo_score":0.61,"street address":"3033 5th Ave #420","id":"a6bcs1i61dx7","geo_precision":"street"},"type":"Feature","geometry":{"type":"Point","coordinates":[-117.16029,32.731386]}},{"properties":{"rep? (1 for yes, 0 for no)":0,"city":"Lemon Grove","zip":"91945","geo_score":0.707,"street address":"7733 Palm St #108","id":"a6bcs1eigzw9","geo_precision":"street"},"type":"Feature","geometry":{"type":"Point","coordinates":[-117.031835,32.734722]}},{"properties":{"rep? (1 for yes, 0 for no)":0,"city":"Ramona","zip":"92065","geo_score":0.827,"street address":"976 Main St","id":"a6bcs1c6bd4h","geo_precision":"range"},"type":"Feature","geometry":{"type":"Point","coordinates":[-116.868091,33.042232]}},{"properties":{"rep? (1 for yes, 0 for no)":1,"city":"La Jolla","zip":"92037","geo_score":0.494,"street address":"5580 La Jolla Blvd. #424","id":"a6bcs1rmq0bu","geo_precision":"street"},"type":"Feature","geometry":{"type":"Point","coordinates":[-117.254537,32.849395]}},{"properties":{"rep? (1 for yes, 0 for no)":0,"city":"Carlsbad","zip":"92008","geo_score":0.902,"street address":"1015 Chestnut Ave","id":"a6bcs1rn5aiq","geo_precision":"range"},"type":"Feature","geometry":{"type":"Point","coordinates":[-117.339384,33.15831]}},{"properties":{"rep? (1 for yes, 0 for no)":0,"city":"Encinitas","zip":"92024","geo_score":0.815,"street address":"515 Encinitas Blvd","id":"a6bcs1flyrtl","geo_precision":"range"},"type":"Feature","geometry":{"type":"Point","coordinates":[-117.28187,33.046886]}},{"properties":{"rep? (1 for yes, 0 for no)":1,"city":"San Diego","zip":"92106","geo_score":0.902,"street address":"1229 Scott St","id":"a6bcs1nz3sn5","geo_precision":"range"},"type":"Feature","geometry":{"type":"Point","coordinates":[-117.229656,32.722292]}},{"properties":{"rep? (1 for yes, 0 for no)":0,"city":"Encinitas","zip":"92024","geo_score":0.815,"street address":"4403 Manchester Ave","id":"a6bcs1qywvb7","geo_precision":"range"},"type":"Feature","geometry":{"type":"Point","coordinates":[-117.239317,33.03556]}},{"properties":{"rep? (1 for yes, 0 for no)":0,"city":"Carlsbad","zip":"92009","geo_score":0.48,"street address":"6120 Paseo Del Norte","id":"a6bcs1lb605p","geo_precision":"street"},"type":"Feature","geometry":{"type":"Point","coordinates":[-117.244084,33.072713]}},{"properties":{"rep? (1 for yes, 0 for no)":0,"city":"San Diego","zip":"92104","geo_score":0.805,"street address":"3180 University Ave","id":"a6bcs1qxfaqa","geo_precision":"range"},"type":"Feature","geometry":{"type":"Point","coordinates":[-117.125568,32.748476]}},{"properties":{"rep? (1 for yes, 0 for no)":1,"city":"San Diego","zip":"92101","geo_score":0.902,"street address":"530 K Street","id":"a6bcs1k07b44","geo_precision":"range"},"type":"Feature","geometry":{"type":"Point","coordinates":[-117.159831,32.708326]}},{"properties":{"rep? (1 for yes, 0 for no)":0,"city":"San Diego","zip":"92111","geo_score":0.769,"street address":"4645 Ruffner Rd","id":"a6bcs1fzg4yq","geo_precision":"range"},"type":"Feature","geometry":{"type":"Point","coordinates":[-117.157631,32.825234]}},{"properties":{"rep? (1 for yes, 0 for no)":0,"city":"San Diego","zip":"92131","geo_score":0.585,"street address":"10415 Ridewater Lane","id":"a6bcs1hae9sr","geo_precision":"zip"},"type":"Feature","geometry":{"type":"Point","coordinates":[-117.088322,32.874916]}},{"properties":{"rep? (1 for yes, 0 for no)":0,"city":"San Diego","zip":"92123","geo_score":0.571,"street address":"11770 Bernardo Plaza CT. #120","id":"a6bcs1p8ywnd","geo_precision":"street"},"type":"Feature","geometry":{"type":"Point","coordinates":[-117.078034,33.018783]}},{"properties":{"rep? (1 for yes, 0 for no)":0,"city":"Bonita","zip":"91902","geo_score":0.902,"street address":"364 Corral Court","id":"a6bcs1lsg67o","geo_precision":"range"},"type":"Feature","geometry":{"type":"Point","coordinates":[-117.035372,32.650583]}},{"properties":{"rep? (1 for yes, 0 for no)":1,"city":"El Cajon","zip":"92019","geo_score":0.902,"street address":"1101 Sundale Rd","id":"a6bcs1olmaoj","geo_precision":"range"},"type":"Feature","geometry":{"type":"Point","coordinates":[-116.935728,32.765139]}},{"properties":{"rep? (1 for yes, 0 for no)":0,"city":"Escondido","zip":"92025","geo_score":0.721,"street address":"305 E 2nd Ave","id":"a6bcs1ro1lh7","geo_precision":"range"},"type":"Feature","geometry":{"type":"Point","coordinates":[-117.078056,33.122136]}},{"properties":{"rep? (1 for yes, 0 for no)":0,"city":"San Diego","zip":"92127","geo_score":0.441,"street address":"16870 W. Bernardo Dr. #400","id":"a6bcs1ln5dqo","geo_precision":"street"},"type":"Feature","geometry":{"type":"Point","coordinates":[-117.085587,33.022571]}},{"properties":{"rep? (1 for yes, 0 for no)":0,"city":"San Diego","zip":"92131","geo_score":0.707,"street address":"9948 Hibert St #100","id":"a6bcs1mcae6x","geo_precision":"street"},"type":"Feature","geometry":{"type":"Point","coordinates":[-117.113881,32.913837]}},{"properties":{"rep? (1 for yes, 0 for no)":0,"city":"Coronado","zip":"92118","geo_score":0.902,"street address":"1019 C Ave.","id":"a6bcs1pisu34","geo_precision":"range"},"type":"Feature","geometry":{"type":"Point","coordinates":[-117.178751,32.685226]}},{"properties":{"rep? (1 for yes, 0 for no)":0,"city":"San Diego","zip":"92131","geo_score":0.707,"street address":"9988 Hibert St #100","id":"a6bcs1p39er4","geo_precision":"street"},"type":"Feature","geometry":{"type":"Point","coordinates":[-117.113881,32.913837]}},{"properties":{"rep? (1 for yes, 0 for no)":0,"city":"San Diego","zip":"92128","geo_score":0.638,"street address":"16776 Bernardo Center Dr #203","id":"a6bcs1ogx89h","geo_precision":"street"},"type":"Feature","geometry":{"type":"Point","coordinates":[-117.0979,33.003634]}},{"properties":{"rep? (1 for yes, 0 for no)":0,"city":"San Diego","zip":"92108","geo_score":0.902,"street address":"2667 Camino Del Rio S.","id":"a6bcs1ecmuyl","geo_precision":"range"},"type":"Feature","geometry":{"type":"Point","coordinates":[-117.135949,32.769969]}},{"properties":{"rep? (1 for yes, 0 for no)":0,"city":"Escondido","zip":"92025","geo_score":0.805,"street address":"225 West Valley Pkwy","id":"a6bcs1mytqku","geo_precision":"range"},"type":"Feature","geometry":{"type":"Point","coordinates":[-117.083812,33.121729]}},{"properties":{"rep? (1 for yes, 0 for no)":0,"city":"National City","zip":"91950","geo_score":0.536,"street address":"1625 Sweetwater Rd #A","id":"a6bcs1jcvafk","geo_precision":"street"},"type":"Feature","geometry":{"type":"Point","coordinates":[-117.106528,32.677832]}},{"properties":{"rep? (1 for yes, 0 for no)":0,"city":"San Diego","zip":"92108","geo_score":0.829,"street address":"591 Camino De La Renia #818","id":"a6bcs1d0wspg","geo_precision":"range"},"type":"Feature","geometry":{"type":"Point","coordinates":[-117.156781,32.767361]}},{"properties":{"rep? (1 for yes, 0 for no)":0,"city":"San Diego","zip":"92130","geo_score":0.64,"street address":"3525 Del Mar Heights Rd","id":"a6bcs1rr8jo8","geo_precision":"street"},"type":"Feature","geometry":{"type":"Point","coordinates":[-117.240169,32.950645]}},{"properties":{"rep? (1 for yes, 0 for no)":1,"city":"Chula Vista","zip":"91910","geo_score":0.805,"street address":"629 Third Ave","id":"a6bcs1nqf77t","geo_precision":"range"},"type":"Feature","geometry":{"type":"Point","coordinates":[-117.075498,32.629963]}},{"properties":{"rep? (1 for yes, 0 for no)":0,"city":"San Diego","zip":"92108","geo_score":0.708,"street address":"3160 Camino Del Rio S #217","id":"a6bcs1j8e16d","geo_precision":"street"},"type":"Feature","geometry":{"type":"Point","coordinates":[-117.161344,32.760925]}},{"properties":{"rep? (1 for yes, 0 for no)":0,"city":"San Diego","zip":"92106","geo_score":0.902,"street address":"1220 Rosecrans St","id":"a6bcs1j9r7n3","geo_precision":"range"},"type":"Feature","geometry":{"type":"Point","coordinates":[-117.230748,32.722812]}},{"properties":{"rep? (1 for yes, 0 for no)":0,"city":"San Diego","zip":"92123","geo_score":0.827,"street address":"3914 Murphy Canyon Rd","id":"a6bcs1sdspec","geo_precision":"range"},"type":"Feature","geometry":{"type":"Point","coordinates":[-117.115892,32.813086]}},{"properties":{"rep? (1 for yes, 0 for no)":0,"city":"San Diego","zip":"92110","geo_score":0.902,"street address":"2075 Morena Blvd","id":"a6bcs1qgc5ch","geo_precision":"range"},"type":"Feature","geometry":{"type":"Point","coordinates":[-117.206924,32.783248]}},{"properties":{"rep? (1 for yes, 0 for no)":0,"city":"Carlsbad","zip":"92008","geo_score":0.902,"street address":"5140 Avenida Encinas","id":"a6bcs1p5fn8u","geo_precision":"range"},"type":"Feature","geometry":{"type":"Point","coordinates":[-117.330288,33.132799]}},{"properties":{"rep? (1 for yes, 0 for no)":0,"city":"San Diego","zip":"92122","geo_score":0.617,"street address":"5080 Shoreham Pl #105","id":"a6bcs1h6j4v4","geo_precision":"street"},"type":"Feature","geometry":{"type":"Point","coordinates":[-117.185025,32.851314]}},{"properties":{"rep? (1 for yes, 0 for no)":0,"city":"San Marcos","zip":"92069","geo_score":0.634,"street address":"751 Rancheros Dr #7","id":"a6bcs1nvc337","geo_precision":"street"},"type":"Feature","geometry":{"type":"Point","coordinates":[-117.161723,33.140909]}},{"properties":{"rep? (1 for yes, 0 for no)":0,"city":"San Diego","zip":"92121","geo_score":0.902,"street address":"6650 Flanders Dr","id":"a6bcs1jtb8ao","geo_precision":"range"},"type":"Feature","geometry":{"type":"Point","coordinates":[-117.176995,32.905931]}},{"properties":{"rep? (1 for yes, 0 for no)":0,"city":"San Diego","zip":"92121","geo_score":0.805,"street address":"6815 Flanders Dr","id":"a6bcs1g0ii1r","geo_precision":"range"},"type":"Feature","geometry":{"type":"Point","coordinates":[-117.17628,32.903861]}},{"properties":{"rep? (1 for yes, 0 for no)":0,"city":"San Diego","zip":"92121","geo_score":0.902,"street address":"6480 Weathers Pl","id":"a6bcs1l2pv6q","geo_precision":"range"},"type":"Feature","geometry":{"type":"Point","coordinates":[-117.179128,32.90507]}},{"properties":{"rep? (1 for yes, 0 for no)":0,"city":"San Diego","zip":"92126","geo_score":0.788,"street address":"8369 Torell Way","id":"a6bcs1hd7hv8","geo_precision":"range"},"type":"Feature","geometry":{"type":"Point","coordinates":[-117.146458,32.931179]}},{"properties":{"rep? (1 for yes, 0 for no)":0,"city":"San Diego","zip":"92127","geo_score":0.468,"street address":"16838 W. Bernardo Center Dr","id":"a6bcs1qpivli","geo_precision":"street"},"type":"Feature","geometry":{"type":"Point","coordinates":[-117.088757,33.008103]}},{"properties":{"rep? (1 for yes, 0 for no)":0,"city":"San Diego","zip":"92127","geo_score":0.708,"street address":"16870 Bernardo Center Dr","id":"a6bcs1df2xvt","geo_precision":"street"},"type":"Feature","geometry":{"type":"Point","coordinates":[-117.080187,33.012183]}},{"properties":{"rep? (1 for yes, 0 for no)":0,"city":"San Diego","zip":"92127","geo_score":0.902,"street address":"10815 Rancho Bernardo RD","id":"a6bcs1rc4ug3","geo_precision":"range"},"type":"Feature","geometry":{"type":"Point","coordinates":[-117.097246,33.021914]}},{"properties":{"rep? (1 for yes, 0 for no)":0,"city":"San Diego","zip":"92127","geo_score":0.805,"street address":"16980 Viaduct Tazon","id":"a6bcs1f2wz9q","geo_precision":"range"},"type":"Feature","geometry":{"type":"Point","coordinates":[-117.085331,33.024018]}},{"properties":{"rep? (1 for yes, 0 for no)":0,"city":"San Diego","zip":"92128","geo_score":0.833,"street address":"16787 Bernardo Center Dr","id":"a6bcs1lg3c4i","geo_precision":"range"},"type":"Feature","geometry":{"type":"Point","coordinates":[-117.075369,33.018747]}}],"is_temporal":false,"author":{"url":"","metadata":null,"contact_name":null,"contact_address":null,"source":null,"contact_phone":null},"source":"","pagination":{"sort":null,"start":0,"total":60,"limit":1000000},"state":"complete","tags":"","published":"2014-08-15T03:42:35-04:00","id":218877}