{"type":"FeatureCollection","data_type":"Dataset","url_type":null,"permissions":[{"permissions":{"download":true,"view":true},"group_id":"everyone"}],"classification":null,"title":"Vincent_-_Credit_Unions_-_ran_March_22nd","count":48,"stream_id":218875,"contributor":{"url":"http://geocommons.com/users/39447","name":"sam.felipe"},"data_attributes":null,"calculation_params":null,"icon_link":null,"link":"http://geocommons.com/overlays/218875.json","extent":[-117.24,32.6414,-116.938,33.0229],"geometry_types":["point"],"unique_name":null,"name":"Vincent_-_Credit_Unions_-_ran_March_22nd","feature_count":48,"description":"","next_feature":null,"is_raster":false,"short_classification":"Y","stats":{"rep? (1 for yes, 0 for no)":{"max":1,"mean":0.3125,"variance":0.219414893617021,"stdev":0.468417435218867,"min":0,"median":0}},"features":[{"properties":{"rep? (1 for yes, 0 for no)":1,"city":"San Diego","zip":"92122","geo_score":0.812,"street address":"7708 Regents Rd","id":"a6la1uj9nu65","geo_precision":"range"},"type":"Feature","geometry":{"type":"Point","coordinates":[-117.220534,32.857605]}},{"properties":{"rep? (1 for yes, 0 for no)":1,"city":"San Diego","zip":"92121","geo_score":0.902,"street address":"5785 Oberlin Dr","id":"a6la1uxtoxr2","geo_precision":"range"},"type":"Feature","geometry":{"type":"Point","coordinates":[-117.193552,32.893647]}},{"properties":{"rep? (1 for yes, 0 for no)":0,"city":"San Diego","zip":"92129","geo_score":0.902,"street address":"13161 Black Mountain Rd","id":"a6la1un2pqvi","geo_precision":"range"},"type":"Feature","geometry":{"type":"Point","coordinates":[-117.129977,32.954753]}},{"properties":{"rep? (1 for yes, 0 for no)":0,"city":"San Diego","zip":"92131","geo_score":0.902,"street address":"10075 Carroll Canyon Rd","id":"a6la1ui7p2zm","geo_precision":"range"},"type":"Feature","geometry":{"type":"Point","coordinates":[-117.109761,32.903824]}},{"properties":{"rep? (1 for yes, 0 for no)":0,"city":"San Diego","zip":"92127","geo_score":0.902,"street address":"17045 Via Del Campo","id":"a6la1upnk6nr","geo_precision":"range"},"type":"Feature","geometry":{"type":"Point","coordinates":[-117.092394,33.019549]}},{"properties":{"rep? (1 for yes, 0 for no)":1,"city":"San Diego","zip":"92126","geo_score":0.622,"street address":"18709 Brookhurst Ave","id":"a6la1uxyowta","geo_precision":"street"},"type":"Feature","geometry":{"type":"Point","coordinates":[-117.128869,32.909129]}},{"properties":{"rep? (1 for yes, 0 for no)":0,"city":"San Diego","zip":"92121","geo_score":0.837,"street address":"10120 Pacific Heights Blvd","id":"a6la1uy9uje3","geo_precision":"range"},"type":"Feature","geometry":{"type":"Point","coordinates":[-117.193966,32.901942]}},{"properties":{"rep? (1 for yes, 0 for no)":0,"city":"San Diego","zip":"92108","geo_score":0.902,"street address":"7510 Hazard Center Dr","id":"a6la1uy64ho0","geo_precision":"range"},"type":"Feature","geometry":{"type":"Point","coordinates":[-117.15967,32.769497]}},{"properties":{"rep? (1 for yes, 0 for no)":1,"city":"San Diego","zip":"92106","geo_score":0.902,"street address":"1004 Rosecrans St","id":"a6la1uopph05","geo_precision":"range"},"type":"Feature","geometry":{"type":"Point","coordinates":[-117.232665,32.720446]}},{"properties":{"rep? (1 for yes, 0 for no)":1,"city":"San Diego","zip":"92128","geo_score":0.421,"street address":"12330 Carmel Mountain Rd Ste C1","id":"a6la1ursisgy","geo_precision":"street"},"type":"Feature","geometry":{"type":"Point","coordinates":[-117.0627,33.010571]}},{"properties":{"rep? (1 for yes, 0 for no)":0,"city":"San Diego","zip":"92127","geo_score":0.902,"street address":"16399 W Bernardo Dr","id":"a6la1uxxzg6z","geo_precision":"range"},"type":"Feature","geometry":{"type":"Point","coordinates":[-117.089652,33.008666]}},{"properties":{"rep? (1 for yes, 0 for no)":1,"city":"San Diego","zip":"92106","geo_score":0.805,"street address":"9420 Farnham St","id":"a6la1uiod1pk","geo_precision":"range"},"type":"Feature","geometry":{"type":"Point","coordinates":[-117.125965,32.832799]}},{"properties":{"rep? (1 for yes, 0 for no)":0,"city":"San Diego","zip":"92131","geo_score":0.902,"street address":"10075 Carroll Canyon Rd","id":"a6la1uhvoteq","geo_precision":"range"},"type":"Feature","geometry":{"type":"Point","coordinates":[-117.109761,32.903824]}},{"properties":{"rep? (1 for yes, 0 for no)":0,"city":"San Diego","zip":"92108","geo_score":0.791,"street address":"8889 Rio San Diego Dr Suite 100","id":"a6la1upvqonr","geo_precision":"range"},"type":"Feature","geometry":{"type":"Point","coordinates":[-117.138709,32.776122]}},{"properties":{"rep? (1 for yes, 0 for no)":1,"city":"San Diego","zip":"92130","geo_score":0.64,"street address":"2602 Del Mar Heights Rd","id":"a6la1usebwy7","geo_precision":"street"},"type":"Feature","geometry":{"type":"Point","coordinates":[-117.240169,32.950645]}},{"properties":{"rep? (1 for yes, 0 for no)":1,"city":"San Diego","zip":"92110","geo_score":0.902,"street address":"3777 Sports Arena Blvd","id":"a6la1unb77sj","geo_precision":"range"},"type":"Feature","geometry":{"type":"Point","coordinates":[-117.216785,32.754568]}},{"properties":{"rep? (1 for yes, 0 for no)":1,"city":"San Diego","zip":"92101","geo_score":0.777,"street address":"225 Broadway Ste 110","id":"a6la1ujv11cr","geo_precision":"range"},"type":"Feature","geometry":{"type":"Point","coordinates":[-117.162685,32.715708]}},{"properties":{"rep? (1 for yes, 0 for no)":0,"city":"San Diego","zip":"92101","geo_score":0.756,"street address":"880 Front St Ste 2295","id":"a6la1upubvs6","geo_precision":"range"},"type":"Feature","geometry":{"type":"Point","coordinates":[-117.164699,32.714449]}},{"properties":{"rep? (1 for yes, 0 for no)":0,"city":"San Diego","zip":"92102","geo_score":0.718,"street address":"1031 25th St","id":"a6la1unxtjbb","geo_precision":"range"},"type":"Feature","geometry":{"type":"Point","coordinates":[-117.140277,32.716132]}},{"properties":{"rep? (1 for yes, 0 for no)":0,"city":"San Diego","zip":"92110","geo_score":0.854,"street address":"5374 Linda Vista Rd","id":"a6la1uycje2i","geo_precision":"range"},"type":"Feature","geometry":{"type":"Point","coordinates":[-117.195348,32.767202]}},{"properties":{"rep? (1 for yes, 0 for no)":0,"city":"San Diego","zip":"92108","geo_score":0.902,"street address":"9040 Friars Rd","id":"a6la1um0e70t","geo_precision":"range"},"type":"Feature","geometry":{"type":"Point","coordinates":[-117.13313,32.780041]}},{"properties":{"rep? (1 for yes, 0 for no)":0,"city":"San Diego","zip":"92126","geo_score":0.817,"street address":"9494 Miramar Rd","id":"a6la1urdvfc8","geo_precision":"range"},"type":"Feature","geometry":{"type":"Point","coordinates":[-117.123612,32.893776]}},{"properties":{"rep? (1 for yes, 0 for no)":0,"city":"San Diego","zip":"92126","geo_score":0.817,"street address":"8198 Mira Mesa Blvd","id":"a6la1urygzyg","geo_precision":"range"},"type":"Feature","geometry":{"type":"Point","coordinates":[-117.146073,32.912656]}},{"properties":{"rep? (1 for yes, 0 for no)":0,"city":"San Diego","zip":"92127","geo_score":0.902,"street address":"16550 Via Esprillo","id":"a6la1ujzjcxs","geo_precision":"range"},"type":"Feature","geometry":{"type":"Point","coordinates":[-117.091203,33.015779]}},{"properties":{"rep? (1 for yes, 0 for no)":0,"city":"San Diego","zip":"92113","geo_score":0.707,"street address":"312 Main St","id":"a6la1uoa93o6","geo_precision":"street"},"type":"Feature","geometry":{"type":"Point","coordinates":[-117.15042,32.701682]}},{"properties":{"rep? (1 for yes, 0 for no)":0,"city":"San Diego","zip":"92108","geo_score":0.902,"street address":"2020 Camino Del Rio N","id":"a6la1uq8909h","geo_precision":"range"},"type":"Feature","geometry":{"type":"Point","coordinates":[-117.142039,32.770657]}},{"properties":{"rep? (1 for yes, 0 for no)":0,"city":"San Diego","zip":"92108","geo_score":0.902,"street address":"3111 Camino del Rio N","id":"a6la1uq9jjwp","geo_precision":"range"},"type":"Feature","geometry":{"type":"Point","coordinates":[-117.127343,32.775665]}},{"properties":{"rep? (1 for yes, 0 for no)":0,"city":"San Diego","zip":"92108","geo_score":0.902,"street address":"3131 Camino Del Rio N","id":"a6la1us4c1xb","geo_precision":"range"},"type":"Feature","geometry":{"type":"Point","coordinates":[-117.126786,32.775923]}},{"properties":{"rep? (1 for yes, 0 for no)":1,"city":"San Diego","zip":"92109","geo_score":0.829,"street address":"1650A Garnet Ave","id":"a6la1uk05sa5","geo_precision":"range"},"type":"Feature","geometry":{"type":"Point","coordinates":[-117.239995,32.8]}},{"properties":{"rep? (1 for yes, 0 for no)":0,"city":"San Diego","zip":"92161","geo_score":0.659,"street address":"3350 La Jolla Village Dr","id":"a6la1une241l","geo_precision":"range"},"type":"Feature","geometry":{"type":"Point","coordinates":[-117.146737,32.774407]}},{"properties":{"rep? (1 for yes, 0 for no)":1,"city":"San Diego","zip":"92121","geo_score":0.902,"street address":"10715 Sorrento Valley Rd","id":"a6la1un7obhb","geo_precision":"range"},"type":"Feature","geometry":{"type":"Point","coordinates":[-117.219055,32.89688]}},{"properties":{"rep? (1 for yes, 0 for no)":1,"city":"San Diego","zip":"92121","geo_score":0.902,"street address":"5890 Pacific Center Blvd.","id":"a6la1urslh2e","geo_precision":"range"},"type":"Feature","geometry":{"type":"Point","coordinates":[-117.191351,32.904513]}},{"properties":{"rep? (1 for yes, 0 for no)":1,"city":"San Diego","zip":"92126","geo_score":0.817,"street address":"9154 Mira Mesa Blvd","id":"a6la1uyadeuv","geo_precision":"range"},"type":"Feature","geometry":{"type":"Point","coordinates":[-117.126719,32.917128]}},{"properties":{"rep? (1 for yes, 0 for no)":0,"city":"San Diego","zip":"92126","geo_score":0.72,"street address":"10865 Black Mountain Rd","id":"a6la1undt1fy","geo_precision":"range"},"type":"Feature","geometry":{"type":"Point","coordinates":[-117.124962,32.918239]}},{"properties":{"rep? (1 for yes, 0 for no)":1,"city":"San Diego","zip":"92127","geo_score":0.78,"street address":"16620 W Bernardo Dr.","id":"a6la1ujmdmn7","geo_precision":"range"},"type":"Feature","geometry":{"type":"Point","coordinates":[-117.090331,33.009097]}},{"properties":{"rep? (1 for yes, 0 for no)":0,"city":"San Diego","zip":"92128","geo_score":0.833,"street address":"11868B Rancho Bernardo Rd","id":"a6la1uogv6m1","geo_precision":"range"},"type":"Feature","geometry":{"type":"Point","coordinates":[-117.075052,33.022849]}},{"properties":{"rep? (1 for yes, 0 for no)":1,"city":"San Diego","zip":"92101","geo_score":0.902,"street address":"440 Beech St","id":"a6la1usec1ps","geo_precision":"range"},"type":"Feature","geometry":{"type":"Point","coordinates":[-117.160781,32.720933]}},{"properties":{"rep? (1 for yes, 0 for no)":0,"city":"San Diego","zip":"92131","geo_score":0.902,"street address":"9999 Willow Creek Rd","id":"a6la1uxnvg1v","geo_precision":"range"},"type":"Feature","geometry":{"type":"Point","coordinates":[-117.111706,32.90177]}},{"properties":{"rep? (1 for yes, 0 for no)":0,"city":"San Diego","zip":"92126","geo_score":0.506,"street address":"10768 Westview Pkwy","id":"a6la1uxv8pzd","geo_precision":"street"},"type":"Feature","geometry":{"type":"Point","coordinates":[-117.120548,32.917212]}},{"properties":{"rep? (1 for yes, 0 for no)":0,"city":"Chula Vista","zip":"91910","geo_score":0.902,"street address":"354 E H st","id":"a6la1ulu6jcg","geo_precision":"range"},"type":"Feature","geometry":{"type":"Point","coordinates":[-117.051819,32.641415]}},{"properties":{"rep? (1 for yes, 0 for no)":0,"city":"El Cajon","zip":"92021","geo_score":0.817,"street address":"570 Broadway","id":"a6la1umqflb4","geo_precision":"range"},"type":"Feature","geometry":{"type":"Point","coordinates":[-116.955891,32.807683]}},{"properties":{"rep? (1 for yes, 0 for no)":0,"city":"Chula Vista","zip":"91914","geo_score":0.708,"street address":"878 Eastlake Pkwy #1310","id":"a6la1uwpshxu","geo_precision":"street"},"type":"Feature","geometry":{"type":"Point","coordinates":[-116.965377,32.648235]}},{"properties":{"rep? (1 for yes, 0 for no)":0,"city":"San Diego","zip":"92110","geo_score":0.707,"street address":"5375 Napa St #101","id":"a6la1upzqv60","geo_precision":"street"},"type":"Feature","geometry":{"type":"Point","coordinates":[-117.198046,32.765659]}},{"properties":{"rep? (1 for yes, 0 for no)":0,"city":"Chula Vista","zip":"91910","geo_score":0.571,"street address":"1020 Tierra Del Rey #C","id":"a6la1uql4971","geo_precision":"street"},"type":"Feature","geometry":{"type":"Point","coordinates":[-117.081874,32.652243]}},{"properties":{"rep? (1 for yes, 0 for no)":0,"city":"El Cajon","zip":"92019","geo_score":0.902,"street address":"900 Rancho San Diego Pkwy","id":"a6la1uibmtiy","geo_precision":"range"},"type":"Feature","geometry":{"type":"Point","coordinates":[-116.938328,32.746178]}},{"properties":{"rep? (1 for yes, 0 for no)":0,"city":"Chula Vista","zip":"91914","geo_score":0.707,"street address":"2245 Fenton St #107","id":"a6la1unn6rik","geo_precision":"street"},"type":"Feature","geometry":{"type":"Point","coordinates":[-116.966339,32.650781]}},{"properties":{"rep? (1 for yes, 0 for no)":0,"city":"Coronado","zip":"92118","geo_score":0.844,"street address":"303 H Ave 1","id":"a6la1ux6itts","geo_precision":"range"},"type":"Feature","geometry":{"type":"Point","coordinates":[-117.179631,32.698234]}},{"properties":{"rep? (1 for yes, 0 for no)":0,"city":"La Mesa","zip":"91941","geo_score":0.902,"street address":"3815 Avocado Blvd","id":"a6la1usmwsjs","geo_precision":"range"},"type":"Feature","geometry":{"type":"Point","coordinates":[-116.96199,32.748337]}}],"is_temporal":false,"author":{"url":"","metadata":null,"contact_name":null,"contact_address":null,"source":null,"contact_phone":null},"source":"","pagination":{"sort":null,"start":0,"total":48,"limit":1000000},"state":"complete","tags":"","published":"2014-08-15T03:42:34-04:00","id":218875}