{"type":"FeatureCollection","data_type":"Dataset","url_type":null,"permissions":[{"permissions":{"download":true,"view":true},"group_id":"everyone"}],"classification":null,"title":"google","count":27,"stream_id":219256,"contributor":{"url":"http://geocommons.com/users/42537","name":"DeeO"},"data_attributes":null,"calculation_params":null,"icon_link":null,"link":"http://geocommons.com/overlays/219256.json","extent":[-157.859,21.2979,-77.4261,58.3717],"geometry_types":["point"],"unique_name":null,"name":"google","feature_count":27,"description":"","next_feature":null,"is_raster":false,"short_classification":"Y","stats":{"integer":{"max":9,"mean":5.33333333333333,"variance":7.38461538461539,"stdev":2.71746488194703,"min":0,"median":5},"float":{"max":3.0,"mean":1.37592592592593,"variance":0.577955840391738,"stdev":0.760234069475802,"min":0.0,"median":1.333333333}},"features":[{"properties":{"city":"Bismarck","business":"Taxi 9000","integer":3,"zip":"58501","address2":null,"code":"WBIS1","geo_score":1.0,"id":"a66aj64t64s6","geo_precision":"range","time zone":"Central Standard Time","address":"3750 East Rosser Avenue","float":0.5,"state":"ND"},"type":"Feature","geometry":{"type":"Point","coordinates":[-100.733938,46.809237]}},{"properties":{"city":"Nashville","business":"UPS Supply Chain Solutions","integer":4,"zip":"37204","address2":null,"code":"WBNA1","geo_score":0.924,"id":"a66aj6eukt5e","geo_precision":"range","time zone":"Central Standard Time","address":"516 Ligon Drive","float":1.333333333,"state":"TN"},"type":"Feature","geometry":{"type":"Point","coordinates":[-86.764064,36.122379]}},{"properties":{"city":"Cape Girardeau","business":"Kelly Transportation","integer":1,"zip":"63701","address2":null,"code":"WCGI1","geo_score":0.917,"id":"a66aj64gaokx","geo_precision":"range","time zone":"Central Standard Time","address":"41 N Sprigg Street","float":0.2,"state":"MO"},"type":"Feature","geometry":{"type":"Point","coordinates":[-89.52694,37.304767]}},{"properties":{"city":"Cedar Rapids","business":"Velocity Express","integer":4,"zip":"52404","address2":null,"code":"WCID1","geo_score":0.837,"id":"a66aj61zawgf","geo_precision":"range","time zone":"Central Standard Time","address":"640 63rd Avenue SW","float":1.0,"state":"IA"},"type":"Feature","geometry":{"type":"Point","coordinates":[-91.676554,41.917969]}},{"properties":{"city":"Brecksville","business":"UPS Supply Chain Solutions","integer":5,"zip":"44141","address2":null,"code":"WCLE1","geo_score":0.92,"id":"a66aj6em0v1r","geo_precision":"range","time zone":"Eastern Standard Time","address":"55 Andrews Circle","float":1.0,"state":"OH"},"type":"Feature","geometry":{"type":"Point","coordinates":[-81.643661,41.281162]}},{"properties":{"city":"Colorado Springs","business":"UPS Supply Chain Solutions","integer":8,"zip":"80907","address2":null,"code":"WCOS1","geo_score":0.922,"id":"a66aj67c18sv","geo_precision":"range","time zone":"Mountain Standard Time","address":"802 W Garden of the Gods Road","float":2.0,"state":"CO"},"type":"Feature","geometry":{"type":"Point","coordinates":[-104.840998,38.896715]}},{"properties":{"city":"Cheyenne","business":"Security Armored Express","integer":6,"zip":"82007","address2":null,"code":"WCYS1","geo_score":1.0,"id":"a66aj6bv6yhq","geo_precision":"range","time zone":"Mountain Standard Time","address":"1719 Pacific Avenue","float":2.0,"state":"WY"},"type":"Feature","geometry":{"type":"Point","coordinates":[-104.829946,41.118551]}},{"properties":{"city":"Herndon","business":"UPS Supply Chain Solutions","integer":7,"zip":"20171","address2":"Building 5, Bay 17 &amp; 18","code":"WDCA1","geo_score":1.0,"id":"a66aj68d5dk6","geo_precision":"range","time zone":"Eastern Standard Time","address":"13878 Park Center Road","float":1.75,"state":"VA"},"type":"Feature","geometry":{"type":"Point","coordinates":[-77.426115,38.93332]}},{"properties":{"city":"Denver","business":"UPS Supply Chain Solutions","integer":8,"zip":"80216","address2":"Suite A","code":"WDEN1","geo_score":0.927,"id":"a66aj62x6hln","geo_precision":"range","time zone":"Mountain Standard Time","address":"4401 East 46th Avenue","float":1.6,"state":"CO"},"type":"Feature","geometry":{"type":"Point","coordinates":[-104.935067,39.780477]}},{"properties":{"city":"Eugene","business":"Aero United","integer":5,"zip":"97402","address2":"Suite 1","code":"WEUG1","geo_score":0.916,"id":"a66aj6gaw2mv","geo_precision":"range","time zone":"Pacific Standard Time","address":"1380 West 2nd Avenue","float":1.666666667,"state":"OR"},"type":"Feature","geometry":{"type":"Point","coordinates":[-123.11395,44.057494]}},{"properties":{"city":"Honolulu","business":"UPS Supply Chain Solutions","integer":9,"zip":"96813","address2":null,"code":"WHNL1","geo_score":1.0,"id":"a66aj68kxir3","geo_precision":"range","time zone":"AlaskaHawaii Standard Time","address":"449 Cooke Street","float":2.25,"state":"HI"},"type":"Feature","geometry":{"type":"Point","coordinates":[-157.859304,21.297855]}},{"properties":{"city":"Juneau","business":"Juneau Couriers","integer":9,"zip":"99801","address2":null,"code":"WJNU1","geo_score":0.961,"id":"a66aj63dzp9l","geo_precision":"range","time zone":"AlaskaHawaii Standard Time","address":"10155 Jensine Street","float":1.8,"state":"AK"},"type":"Feature","geometry":{"type":"Point","coordinates":[-134.613051,58.371716]}},{"properties":{"city":"Las Vegas","business":"Hilford Moving &amp; Storage","integer":3,"zip":"89103","address2":"Suite M","code":"WLAS1","geo_score":1.0,"id":"a66aj6g3r50t","geo_precision":"range","time zone":"Pacific Standard Time","address":"4701 Cameron Street","float":0.75,"state":"NV"},"type":"Feature","geometry":{"type":"Point","coordinates":[-115.203961,36.105896]}},{"properties":{"city":"North Platte","business":"Yellow Cab","integer":6,"zip":"69101","address2":null,"code":"WLBF1","geo_score":1.0,"id":"a66aj66fwkks","geo_precision":"range","time zone":"Central Standard Time","address":"512 North Bailey Avenue","float":2.0,"state":"NE"},"type":"Feature","geometry":{"type":"Point","coordinates":[-100.760562,41.137298]}},{"properties":{"city":"Pocatello","business":"Pocatello","integer":7,"zip":"83204","address2":null,"code":"WPIH1","geo_score":1.0,"id":"a66aj64w6h17","geo_precision":"range","time zone":"Mountain Standard Time","address":"243 West Center Street","float":2.333333333,"state":"ID"},"type":"Feature","geometry":{"type":"Point","coordinates":[-112.450115,42.862419]}},{"properties":{"city":"Cranberry","business":"UPS Supply Chain Solutions","integer":8,"zip":"16066","address2":null,"code":"WPIT2","geo_score":0.604,"id":"a66aj63vy93j","geo_precision":"street","time zone":"Eastern Standard Time","address":"304-306 Thomson Park Drive","float":2.0,"state":"PA"},"type":"Feature","geometry":{"type":"Point","coordinates":[-80.107031,40.711832]}},{"properties":{"city":"Pensacola","business":"VELOCITY EXPRESS","integer":9,"zip":"32514","address2":"Unit 1","code":"WPNS1","geo_score":0.913,"id":"a66aj6axqte6","geo_precision":"range","time zone":"Central Standard Time","address":"3355 Copter Road","float":1.8,"state":"FL"},"type":"Feature","geometry":{"type":"Point","coordinates":[-87.190999,30.527456]}},{"properties":{"city":"Pasco","business":"Greyhound Lines Inc","integer":1,"zip":"99302","address2":null,"code":"WPSC1","geo_score":0.357,"id":"a66aj6c18j3j","geo_precision":"street","time zone":"Pacific Standard Time","address":"535 N. 1st Avenue","float":0.166666667,"state":"WA"},"type":"Feature","geometry":{"type":"Point","coordinates":[-117.98057,46.3197]}},{"properties":{"city":"Grover Beach","business":"ABS Delivery Services","integer":4,"zip":"93433","address2":"Unit J","code":"WSBP1","geo_score":1.0,"id":"a66aj6hfvvrn","geo_precision":"range","time zone":"Pacific Standard Time","address":"750 Farroll Road","float":0.666666667,"state":"CA"},"type":"Feature","geometry":{"type":"Point","coordinates":[-120.622288,35.113836]}},{"properties":{"city":"St George","business":"Cataralex","integer":9,"zip":"84770","address2":null,"code":"WSGU1","geo_score":0.902,"id":"a66aj6i03r6i","geo_precision":"range","time zone":"Mountain Standard Time","address":"237 North Bluff Street","float":3.0,"state":"UT"},"type":"Feature","geometry":{"type":"Point","coordinates":[-113.594836,37.112262]}},{"properties":{"city":"San Angelo","business":"Yellow Cab","integer":3,"zip":"76903","address2":null,"code":"WSJT1","geo_score":1.0,"id":"a66aj65f3yqg","geo_precision":"range","time zone":"Central Standard Time","address":"1302 South Oakes Street","float":0.5,"state":"TX"},"type":"Feature","geometry":{"type":"Point","coordinates":[-100.431764,31.44844]}},{"properties":{"city":"Salt Lake City","business":"UPS Supply Chain Solutions","integer":4,"zip":"84119","address2":null,"code":"WSLC1","geo_score":0.902,"id":"a66aj6907e6v","geo_precision":"range","time zone":"Mountain Standard Time","address":"997 W 3160 South","float":1.333333333,"state":"UT"},"type":"Feature","geometry":{"type":"Point","coordinates":[-111.918364,40.703956]}},{"properties":{"city":"Sacramento","business":"UPS Supply Chain Solutions","integer":5,"zip":"95826","address2":null,"code":"WSMF1","geo_score":0.927,"id":"a66aj64fyjli","geo_precision":"range","time zone":"Pacific Standard Time","address":"4512 Harlin Drive","float":1.25,"state":"CA"},"type":"Feature","geometry":{"type":"Point","coordinates":[-121.356945,38.536863]}},{"properties":{"city":"Tampa","business":"UPS Supply Chain Solutions","integer":9,"zip":"33619","address2":"Suite D","code":"WTPA1","geo_score":0.909,"id":"a66aj66njvik","geo_precision":"range","time zone":"Eastern Standard Time","address":"205 Kelsey Lane","float":2.25,"state":"FL"},"type":"Feature","geometry":{"type":"Point","coordinates":[-82.357927,27.94419]}},{"properties":{"city":"Tucson","business":"Global Services","integer":3,"zip":"85710","address2":"Suite 332","code":"WTUS1","geo_score":0.935,"id":"a66aj677iplv","geo_precision":"range","time zone":"Pacific Standard Time","address":"1668 South Research Loop","float":1.0,"state":"AZ"},"type":"Feature","geometry":{"type":"Point","coordinates":[-110.821804,32.201693]}},{"properties":{"city":"Traverse City","business":"Diamond Rental and Leasing","integer":4,"zip":"49684","address2":null,"code":"WTVC1","geo_score":0.919,"id":"a66aj6gasbyh","geo_precision":"range","time zone":"Eastern Standard Time","address":"3020 Cass Road","float":1.0,"state":"MI"},"type":"Feature","geometry":{"type":"Point","coordinates":[-85.625794,44.729019]}},{"properties":{"city":"Nowhere","business":"Error Producing Line","integer":0,"zip":"0","address2":null,"code":"99999","geo_score":0.0,"id":"a66aj6hfbyr3","geo_precision":"unmatched","time zone":"none","address":"This is not a real address","float":0.0,"state":"ZZ"},"type":"Feature","geometry":null}],"is_temporal":false,"author":{"url":"","metadata":null,"contact_name":null,"contact_address":null,"source":null,"contact_phone":null},"source":"","pagination":{"sort":null,"start":0,"total":27,"limit":1000000},"state":"complete","tags":"","published":"2014-08-15T04:01:38-04:00","id":219256}