{"type":"FeatureCollection","data_type":"Dataset","url_type":null,"permissions":[{"permissions":{"download":true,"view":true},"group_id":"everyone"}],"classification":null,"title":"drugs gambling prostitution 2011","count":146,"stream_id":219560,"contributor":{"url":"http://geocommons.com/users/42302","name":"hillproject"},"data_attributes":null,"calculation_params":null,"icon_link":null,"link":"http://geocommons.com/overlays/219560.json","extent":[-83.2258,41.0992,-83.1607,41.2148],"geometry_types":["point"],"unique_name":null,"name":"drugs gambling prostitution 2011","feature_count":146,"description":"","next_feature":null,"is_raster":false,"short_classification":"Y","stats":{"date":{"max":"2011/12/26 14:04:00 -0500","mean":"2011/07/04 15:32:40 -0400","variance":74890882955376.5,"stdev":8653951.86925467,"min":"2011/01/07 11:32:00 -0500","median":"2011/08/03 11:29:00 -0400"},"unit":{"max":558,"mean":285.903448275862,"variance":47138.5739463602,"stdev":217.114195635293,"min":56,"median":485},"cfs":{"max":11,"mean":11.0,"variance":0.0,"stdev":0.0,"min":11,"median":11},"call#":{"max":11.01366,"mean":11.007872609589,"variance":1.82062381844591e-05,"stdev":0.00426687686539688,"min":11.000198,"median":11.008892}},"features":[{"properties":{"officer":"JDW","city":"Tiffin","zip":"44883","date":{"end_time":"2011/12/21 14:00:00 -0500","original":"12/21/2011 13:59","granularity":"min","time":"2011/12/21 13:59:00 -0500"},"geo_score":0.902,"unit":60,"disposition":"100","cfs":11,"call#":11.013454,"id":"a6dqbv307kzr","geo_precision":"range","address":"1 E Market St","state":"OH","juris":"PD"},"type":"Feature","geometry":{"type":"Point","coordinates":[-83.179559,41.114309]}},{"properties":{"officer":"JPF","city":"Tiffin","zip":"44883","date":{"end_time":"2011/08/12 19:09:00 -0400","original":"8/12/2011 19:08","granularity":"min","time":"2011/08/12 19:08:00 -0400"},"geo_score":0.902,"unit":59,"disposition":"200","cfs":11,"call#":11.008172,"id":"a6dqbvho7jxu","geo_precision":"range","address":"1 N Washington St","state":"OH","juris":"PD"},"type":"Feature","geometry":{"type":"Point","coordinates":[-83.177111,41.118089]}},{"properties":{"officer":"CWB","city":"Tiffin","zip":"44883","date":{"end_time":"2011/12/26 14:05:00 -0500","original":"12/26/2011 14:04","granularity":"min","time":"2011/12/26 14:04:00 -0500"},"geo_score":0.78,"unit":485,"disposition":"700","cfs":11,"call#":11.01366,"id":"a6dqbvf0lbku","geo_precision":"range","address":"1 Seneca County","state":"OH","juris":"PD"},"type":"Feature","geometry":{"type":"Point","coordinates":[-83.160743,41.122079]}},{"properties":{"officer":"CWB","city":"Tiffin","zip":"44883","date":{"end_time":"2011/11/23 10:40:00 -0500","original":"11/23/2011 10:39","granularity":"min","time":"2011/11/23 10:39:00 -0500"},"geo_score":0.78,"unit":485,"disposition":"700","cfs":11,"call#":11.012585,"id":"a6dqbv61g6f7","geo_precision":"range","address":"1 Seneca County","state":"OH","juris":"PD"},"type":"Feature","geometry":{"type":"Point","coordinates":[-83.160743,41.122079]}},{"properties":{"officer":"CWB","city":"Tiffin","zip":"44883","date":{"end_time":"2011/11/17 09:22:00 -0500","original":"11/17/2011 9:21","granularity":"min","time":"2011/11/17 09:21:00 -0500"},"geo_score":0.78,"unit":485,"disposition":"700","cfs":11,"call#":11.01258,"id":"a6dqbvcj2y6e","geo_precision":"range","address":"1 Seneca County","state":"OH","juris":"PD"},"type":"Feature","geometry":{"type":"Point","coordinates":[-83.160743,41.122079]}},{"properties":{"officer":"CWB","city":"Tiffin","zip":"44883","date":{"end_time":"2011/11/17 09:18:00 -0500","original":"11/17/2011 9:17","granularity":"min","time":"2011/11/17 09:17:00 -0500"},"geo_score":0.78,"unit":485,"disposition":"700","cfs":11,"call#":11.012579,"id":"a6dqbva7m955","geo_precision":"range","address":"1 Seneca County","state":"OH","juris":"PD"},"type":"Feature","geometry":{"type":"Point","coordinates":[-83.160743,41.122079]}},{"properties":{"officer":"CWB","city":"Tiffin","zip":"44883","date":{"end_time":"2011/11/16 16:17:00 -0500","original":"11/16/2011 16:16","granularity":"min","time":"2011/11/16 16:16:00 -0500"},"geo_score":0.78,"unit":485,"disposition":"700","cfs":11,"call#":11.012549,"id":"a6dqbv5hb17h","geo_precision":"range","address":"1 Seneca County","state":"OH","juris":"PD"},"type":"Feature","geometry":{"type":"Point","coordinates":[-83.160743,41.122079]}},{"properties":{"officer":"CWB","city":"Tiffin","zip":"44883","date":{"end_time":"2011/11/14 16:10:00 -0500","original":"11/14/2011 16:09","granularity":"min","time":"2011/11/14 16:09:00 -0500"},"geo_score":0.78,"unit":485,"disposition":"700","cfs":11,"call#":11.012547,"id":"a6dqbveaqdxe","geo_precision":"range","address":"1 Seneca County","state":"OH","juris":"PD"},"type":"Feature","geometry":{"type":"Point","coordinates":[-83.160743,41.122079]}},{"properties":{"officer":"CWB","city":"Tiffin","zip":"44883","date":{"end_time":"2011/11/14 16:05:00 -0500","original":"11/14/2011 16:04","granularity":"min","time":"2011/11/14 16:04:00 -0500"},"geo_score":0.78,"unit":485,"disposition":"700","cfs":11,"call#":11.012546,"id":"a6dqbv6a4gkz","geo_precision":"range","address":"1 Seneca County","state":"OH","juris":"PD"},"type":"Feature","geometry":{"type":"Point","coordinates":[-83.160743,41.122079]}},{"properties":{"officer":"CWB","city":"Tiffin","zip":"44883","date":{"end_time":"2011/11/07 15:35:00 -0500","original":"11/7/2011 15:34","granularity":"min","time":"2011/11/07 15:34:00 -0500"},"geo_score":0.78,"unit":485,"disposition":"700","cfs":11,"call#":11.01254,"id":"a6dqbv6azqvz","geo_precision":"range","address":"1 Seneca County","state":"OH","juris":"PD"},"type":"Feature","geometry":{"type":"Point","coordinates":[-83.160743,41.122079]}},{"properties":{"officer":"CWB","city":"Tiffin","zip":"44883","date":{"end_time":"2011/11/03 15:14:00 -0400","original":"11/3/2011 15:13","granularity":"min","time":"2011/11/03 15:13:00 -0400"},"geo_score":0.78,"unit":485,"disposition":"700","cfs":11,"call#":11.012538,"id":"a6dqbv3tviky","geo_precision":"range","address":"1 Seneca County","state":"OH","juris":"PD"},"type":"Feature","geometry":{"type":"Point","coordinates":[-83.160743,41.122079]}},{"properties":{"officer":"CWB","city":"Tiffin","zip":"44883","date":{"end_time":"2011/09/26 14:30:00 -0400","original":"9/26/2011 14:29","granularity":"min","time":"2011/09/26 14:29:00 -0400"},"geo_score":0.78,"unit":485,"disposition":"700","cfs":11,"call#":11.01253,"id":"a6dqbv7ysss8","geo_precision":"range","address":"1 Seneca County","state":"OH","juris":"PD"},"type":"Feature","geometry":{"type":"Point","coordinates":[-83.160743,41.122079]}},{"properties":{"officer":"CWB","city":"Tiffin","zip":"44883","date":{"end_time":"2011/09/26 14:16:00 -0400","original":"9/26/2011 14:15","granularity":"min","time":"2011/09/26 14:15:00 -0400"},"geo_score":0.78,"unit":485,"disposition":"700","cfs":11,"call#":11.012529,"id":"a6dqbv7wdypi","geo_precision":"range","address":"1 Seneca County","state":"OH","juris":"PD"},"type":"Feature","geometry":{"type":"Point","coordinates":[-83.160743,41.122079]}},{"properties":{"officer":"CWB","city":"Tiffin","zip":"44883","date":{"end_time":"2011/09/22 14:30:00 -0400","original":"9/22/2011 14:29","granularity":"min","time":"2011/09/22 14:29:00 -0400"},"geo_score":0.78,"unit":485,"disposition":"700","cfs":11,"call#":11.011772,"id":"a6dqbv3rfv66","geo_precision":"range","address":"1 Seneca County","state":"OH","juris":"PD"},"type":"Feature","geometry":{"type":"Point","coordinates":[-83.160743,41.122079]}},{"properties":{"officer":"CWB","city":"Tiffin","zip":"44883","date":{"end_time":"2011/09/22 14:12:00 -0400","original":"9/22/2011 14:11","granularity":"min","time":"2011/09/22 14:11:00 -0400"},"geo_score":0.78,"unit":485,"disposition":"700","cfs":11,"call#":11.012528,"id":"a6dqbv8rfejv","geo_precision":"range","address":"1 Seneca County","state":"OH","juris":"PD"},"type":"Feature","geometry":{"type":"Point","coordinates":[-83.160743,41.122079]}},{"properties":{"officer":"CWB","city":"Tiffin","zip":"44883","date":{"end_time":"2011/09/14 13:50:00 -0400","original":"9/14/2011 13:49","granularity":"min","time":"2011/09/14 13:49:00 -0400"},"geo_score":0.78,"unit":485,"disposition":"700","cfs":11,"call#":11.012526,"id":"a6dqbvh50sdh","geo_precision":"range","address":"1 Seneca County","state":"OH","juris":"PD"},"type":"Feature","geometry":{"type":"Point","coordinates":[-83.160743,41.122079]}},{"properties":{"officer":"CWB","city":"Tiffin","zip":"44883","date":{"end_time":"2011/09/14 12:30:00 -0400","original":"9/14/2011 12:29","granularity":"min","time":"2011/09/14 12:29:00 -0400"},"geo_score":0.78,"unit":485,"disposition":"700","cfs":11,"call#":11.011767,"id":"a6dqbva44700","geo_precision":"range","address":"1 Seneca County","state":"OH","juris":"PD"},"type":"Feature","geometry":{"type":"Point","coordinates":[-83.160743,41.122079]}},{"properties":{"officer":"CWB","city":"Tiffin","zip":"44883","date":{"end_time":"2011/09/12 14:18:00 -0400","original":"9/12/2011 14:17","granularity":"min","time":"2011/09/12 14:17:00 -0400"},"geo_score":0.78,"unit":485,"disposition":"700","cfs":11,"call#":11.011769,"id":"a6dqbv8om543","geo_precision":"range","address":"1 Seneca County","state":"OH","juris":"PD"},"type":"Feature","geometry":{"type":"Point","coordinates":[-83.160743,41.122079]}},{"properties":{"officer":"CWB","city":"Tiffin","zip":"44883","date":{"end_time":"2011/09/08 11:40:00 -0400","original":"9/8/2011 11:39","granularity":"min","time":"2011/09/08 11:39:00 -0400"},"geo_score":0.78,"unit":485,"disposition":"700","cfs":11,"call#":11.011764,"id":"a6dqbvbhdb51","geo_precision":"range","address":"1 Seneca County","state":"OH","juris":"PD"},"type":"Feature","geometry":{"type":"Point","coordinates":[-83.160743,41.122079]}},{"properties":{"officer":"JAD","city":"Tiffin","zip":"44883","date":{"end_time":"2011/09/08 08:17:00 -0400","original":"9/8/2011 8:16","granularity":"min","time":"2011/09/08 08:16:00 -0400"},"geo_score":0.78,"unit":56,"disposition":"100","cfs":11,"call#":11.009273,"id":"a6dqbvez159v","geo_precision":"range","address":"1 Seneca County","state":"OH","juris":"PD"},"type":"Feature","geometry":{"type":"Point","coordinates":[-83.160743,41.122079]}},{"properties":{"officer":"CWB","city":"Tiffin","zip":"44883","date":{"end_time":"2011/09/07 12:11:00 -0400","original":"9/7/2011 12:10","granularity":"min","time":"2011/09/07 12:10:00 -0400"},"geo_score":0.78,"unit":485,"disposition":"700","cfs":11,"call#":11.012516,"id":"a6dqbvh2dblg","geo_precision":"range","address":"1 Seneca County","state":"OH","juris":"PD"},"type":"Feature","geometry":{"type":"Point","coordinates":[-83.160743,41.122079]}},{"properties":{"officer":"CWB","city":"Tiffin","zip":"44883","date":{"end_time":"2011/09/07 12:08:00 -0400","original":"9/7/2011 12:07","granularity":"min","time":"2011/09/07 12:07:00 -0400"},"geo_score":0.78,"unit":485,"disposition":"700","cfs":11,"call#":11.012515,"id":"a6dqbvimpufw","geo_precision":"range","address":"1 Seneca County","state":"OH","juris":"PD"},"type":"Feature","geometry":{"type":"Point","coordinates":[-83.160743,41.122079]}},{"properties":{"officer":"CWB","city":"Tiffin","zip":"44883","date":{"end_time":"2011/09/07 11:32:00 -0400","original":"9/7/2011 11:31","granularity":"min","time":"2011/09/07 11:31:00 -0400"},"geo_score":0.78,"unit":485,"disposition":"700","cfs":11,"call#":11.011763,"id":"a6dqbvca8s90","geo_precision":"range","address":"1 Seneca County","state":"OH","juris":"PD"},"type":"Feature","geometry":{"type":"Point","coordinates":[-83.160743,41.122079]}},{"properties":{"officer":"CWB","city":"Tiffin","zip":"44883","date":{"end_time":"2011/09/04 12:04:00 -0400","original":"9/4/2011 12:03","granularity":"min","time":"2011/09/04 12:03:00 -0400"},"geo_score":0.78,"unit":485,"disposition":"700","cfs":11,"call#":11.012514,"id":"a6dqbv5q4c8g","geo_precision":"range","address":"1 Seneca County","state":"OH","juris":"PD"},"type":"Feature","geometry":{"type":"Point","coordinates":[-83.160743,41.122079]}},{"properties":{"officer":"CWB","city":"Tiffin","zip":"44883","date":{"end_time":"2011/08/30 11:59:00 -0400","original":"8/30/2011 11:58","granularity":"min","time":"2011/08/30 11:58:00 -0400"},"geo_score":0.78,"unit":485,"disposition":"700","cfs":11,"call#":11.012513,"id":"a6dqbv8dki65","geo_precision":"range","address":"1 Seneca County","state":"OH","juris":"PD"},"type":"Feature","geometry":{"type":"Point","coordinates":[-83.160743,41.122079]}},{"properties":{"officer":"CWB","city":"Tiffin","zip":"44883","date":{"end_time":"2011/08/29 11:53:00 -0400","original":"8/29/2011 11:52","granularity":"min","time":"2011/08/29 11:52:00 -0400"},"geo_score":0.78,"unit":485,"disposition":"700","cfs":11,"call#":11.012512,"id":"a6dqbv7nqc4t","geo_precision":"range","address":"1 Seneca County","state":"OH","juris":"PD"},"type":"Feature","geometry":{"type":"Point","coordinates":[-83.160743,41.122079]}},{"properties":{"officer":"CWB","city":"Tiffin","zip":"44883","date":{"end_time":"2011/08/29 11:19:00 -0400","original":"8/29/2011 11:18","granularity":"min","time":"2011/08/29 11:18:00 -0400"},"geo_score":0.78,"unit":485,"disposition":"700","cfs":11,"call#":11.01176,"id":"a6dqbv5ccpcx","geo_precision":"range","address":"1 Seneca County","state":"OH","juris":"PD"},"type":"Feature","geometry":{"type":"Point","coordinates":[-83.160743,41.122079]}},{"properties":{"officer":"CWB","city":"Tiffin","zip":"44883","date":{"end_time":"2011/08/25 10:39:00 -0400","original":"8/25/2011 10:38","granularity":"min","time":"2011/08/25 10:38:00 -0400"},"geo_score":0.78,"unit":485,"disposition":"700","cfs":11,"call#":11.011758,"id":"a6dqbvhw8wxb","geo_precision":"range","address":"1 Seneca County","state":"OH","juris":"PD"},"type":"Feature","geometry":{"type":"Point","coordinates":[-83.160743,41.122079]}},{"properties":{"officer":"CWB","city":"Tiffin","zip":"44883","date":{"end_time":"2011/08/18 10:50:00 -0400","original":"8/18/2011 10:49","granularity":"min","time":"2011/08/18 10:49:00 -0400"},"geo_score":0.78,"unit":485,"disposition":"700","cfs":11,"call#":11.01251,"id":"a6dqbv70w6la","geo_precision":"range","address":"1 Seneca County","state":"OH","juris":"PD"},"type":"Feature","geometry":{"type":"Point","coordinates":[-83.160743,41.122079]}},{"properties":{"officer":"CWB","city":"Tiffin","zip":"44883","date":{"end_time":"2011/08/16 10:46:00 -0400","original":"8/16/2011 10:45","granularity":"min","time":"2011/08/16 10:45:00 -0400"},"geo_score":0.78,"unit":485,"disposition":"700","cfs":11,"call#":11.012509,"id":"a6dqbvdtkcel","geo_precision":"range","address":"1 Seneca County","state":"OH","juris":"PD"},"type":"Feature","geometry":{"type":"Point","coordinates":[-83.160743,41.122079]}},{"properties":{"officer":"CWB","city":"Tiffin","zip":"44883","date":{"end_time":"2011/08/16 10:42:00 -0400","original":"8/16/2011 10:41","granularity":"min","time":"2011/08/16 10:41:00 -0400"},"geo_score":0.78,"unit":485,"disposition":"700","cfs":11,"call#":11.012507,"id":"a6dqbv8o9ohv","geo_precision":"range","address":"1 Seneca County","state":"OH","juris":"PD"},"type":"Feature","geometry":{"type":"Point","coordinates":[-83.160743,41.122079]}},{"properties":{"officer":"CWB","city":"Tiffin","zip":"44883","date":{"end_time":"2011/08/16 10:37:00 -0400","original":"8/16/2011 10:36","granularity":"min","time":"2011/08/16 10:36:00 -0400"},"geo_score":0.78,"unit":485,"disposition":"700","cfs":11,"call#":11.012506,"id":"a6dqbvbm78uu","geo_precision":"range","address":"1 Seneca County","state":"OH","juris":"PD"},"type":"Feature","geometry":{"type":"Point","coordinates":[-83.160743,41.122079]}},{"properties":{"officer":"CWB","city":"Tiffin","zip":"44883","date":{"end_time":"2011/08/15 14:41:00 -0400","original":"8/15/2011 14:40","granularity":"min","time":"2011/08/15 14:40:00 -0400"},"geo_score":0.78,"unit":485,"disposition":"700","cfs":11,"call#":11.011731,"id":"a6dqbvi86nhm","geo_precision":"range","address":"1 Seneca County","state":"OH","juris":"PD"},"type":"Feature","geometry":{"type":"Point","coordinates":[-83.160743,41.122079]}},{"properties":{"officer":"CWB","city":"Tiffin","zip":"44883","date":{"end_time":"2011/08/15 14:37:00 -0400","original":"8/15/2011 14:36","granularity":"min","time":"2011/08/15 14:36:00 -0400"},"geo_score":0.78,"unit":485,"disposition":"700","cfs":11,"call#":11.01173,"id":"a6dqbvcdpnw0","geo_precision":"range","address":"1 Seneca County","state":"OH","juris":"PD"},"type":"Feature","geometry":{"type":"Point","coordinates":[-83.160743,41.122079]}},{"properties":{"officer":"CWB","city":"Tiffin","zip":"44883","date":{"end_time":"2011/08/15 14:33:00 -0400","original":"8/15/2011 14:32","granularity":"min","time":"2011/08/15 14:32:00 -0400"},"geo_score":0.78,"unit":485,"disposition":"700","cfs":11,"call#":11.011729,"id":"a6dqbv5z60ep","geo_precision":"range","address":"1 Seneca County","state":"OH","juris":"PD"},"type":"Feature","geometry":{"type":"Point","coordinates":[-83.160743,41.122079]}},{"properties":{"officer":"CWB","city":"Tiffin","zip":"44883","date":{"end_time":"2011/08/15 14:28:00 -0400","original":"8/15/2011 14:27","granularity":"min","time":"2011/08/15 14:27:00 -0400"},"geo_score":0.78,"unit":485,"disposition":"700","cfs":11,"call#":11.011728,"id":"a6dqbve6lkmu","geo_precision":"range","address":"1 Seneca County","state":"OH","juris":"PD"},"type":"Feature","geometry":{"type":"Point","coordinates":[-83.160743,41.122079]}},{"properties":{"officer":"CWB","city":"Tiffin","zip":"44883","date":{"end_time":"2011/08/15 11:47:00 -0400","original":"8/15/2011 11:46","granularity":"min","time":"2011/08/15 11:46:00 -0400"},"geo_score":0.78,"unit":485,"disposition":"700","cfs":11,"call#":11.012511,"id":"a6dqbv79qxkl","geo_precision":"range","address":"1 Seneca County","state":"OH","juris":"PD"},"type":"Feature","geometry":{"type":"Point","coordinates":[-83.160743,41.122079]}},{"properties":{"officer":"CWB","city":"Tiffin","zip":"44883","date":{"end_time":"2011/08/05 14:01:00 -0400","original":"8/5/2011 14:00","granularity":"min","time":"2011/08/05 14:00:00 -0400"},"geo_score":0.78,"unit":485,"disposition":"700","cfs":11,"call#":11.011723,"id":"a6dqbvb48emb","geo_precision":"range","address":"1 Seneca County","state":"OH","juris":"PD"},"type":"Feature","geometry":{"type":"Point","coordinates":[-83.160743,41.122079]}},{"properties":{"officer":"CWB","city":"Tiffin","zip":"44883","date":{"end_time":"2011/08/03 11:30:00 -0400","original":"8/3/2011 11:29","granularity":"min","time":"2011/08/03 11:29:00 -0400"},"geo_score":0.78,"unit":485,"disposition":"700","cfs":11,"call#":11.011719,"id":"a6dqbv6g0g2q","geo_precision":"range","address":"1 Seneca County","state":"OH","juris":"PD"},"type":"Feature","geometry":{"type":"Point","coordinates":[-83.160743,41.122079]}},{"properties":{"officer":"CWB","city":"Tiffin","zip":"44883","date":{"end_time":"2011/08/02 11:20:00 -0400","original":"8/2/2011 11:19","granularity":"min","time":"2011/08/02 11:19:00 -0400"},"geo_score":0.78,"unit":485,"disposition":"700","cfs":11,"call#":11.011717,"id":"a6dqbvcyqxu7","geo_precision":"range","address":"1 Seneca County","state":"OH","juris":"PD"},"type":"Feature","geometry":{"type":"Point","coordinates":[-83.160743,41.122079]}},{"properties":{"officer":"CWB","city":"Tiffin","zip":"44883","date":{"end_time":"2011/08/01 11:17:00 -0400","original":"8/1/2011 11:16","granularity":"min","time":"2011/08/01 11:16:00 -0400"},"geo_score":0.78,"unit":485,"disposition":"700","cfs":11,"call#":11.011716,"id":"a6dqbv7nhjrq","geo_precision":"range","address":"1 Seneca County","state":"OH","juris":"PD"},"type":"Feature","geometry":{"type":"Point","coordinates":[-83.160743,41.122079]}},{"properties":{"officer":"CWB","city":"Tiffin","zip":"44883","date":{"end_time":"2011/07/28 11:05:00 -0400","original":"7/28/2011 11:04","granularity":"min","time":"2011/07/28 11:04:00 -0400"},"geo_score":0.78,"unit":485,"disposition":"700","cfs":11,"call#":11.011714,"id":"a6dqbv5gj9jg","geo_precision":"range","address":"1 Seneca County","state":"OH","juris":"PD"},"type":"Feature","geometry":{"type":"Point","coordinates":[-83.160743,41.122079]}},{"properties":{"officer":"CWB","city":"Tiffin","zip":"44883","date":{"end_time":"2011/07/27 11:47:00 -0400","original":"7/27/2011 11:46","granularity":"min","time":"2011/07/27 11:46:00 -0400"},"geo_score":0.78,"unit":485,"disposition":"700","cfs":11,"call#":11.010622,"id":"a6dqbvblzp88","geo_precision":"range","address":"1 Seneca County","state":"OH","juris":"PD"},"type":"Feature","geometry":{"type":"Point","coordinates":[-83.160743,41.122079]}},{"properties":{"officer":"CWB","city":"Tiffin","zip":"44883","date":{"end_time":"2011/06/16 10:11:00 -0400","original":"6/16/2011 10:10","granularity":"min","time":"2011/06/16 10:10:00 -0400"},"geo_score":0.78,"unit":485,"disposition":"700","cfs":11,"call#":11.008899,"id":"a6dqbvbsncxg","geo_precision":"range","address":"1 Seneca County","state":"OH","juris":"PD"},"type":"Feature","geometry":{"type":"Point","coordinates":[-83.160743,41.122079]}},{"properties":{"officer":"CWB","city":"Tiffin","zip":"44883","date":{"end_time":"2011/06/16 10:02:00 -0400","original":"6/16/2011 10:01","granularity":"min","time":"2011/06/16 10:01:00 -0400"},"geo_score":0.78,"unit":485,"disposition":"700","cfs":11,"call#":11.008898,"id":"a6dqbvak09sv","geo_precision":"range","address":"1 Seneca County","state":"OH","juris":"PD"},"type":"Feature","geometry":{"type":"Point","coordinates":[-83.160743,41.122079]}},{"properties":{"officer":"CWB","city":"Tiffin","zip":"44883","date":{"end_time":"2011/06/14 09:49:00 -0400","original":"6/14/2011 9:48","granularity":"min","time":"2011/06/14 09:48:00 -0400"},"geo_score":0.78,"unit":485,"disposition":"700","cfs":11,"call#":11.008894,"id":"a6dqbv6enlva","geo_precision":"range","address":"1 Seneca County","state":"OH","juris":"PD"},"type":"Feature","geometry":{"type":"Point","coordinates":[-83.160743,41.122079]}},{"properties":{"officer":"CWB","city":"Tiffin","zip":"44883","date":{"end_time":"2011/06/13 09:46:00 -0400","original":"6/13/2011 9:45","granularity":"min","time":"2011/06/13 09:45:00 -0400"},"geo_score":0.78,"unit":485,"disposition":"700","cfs":11,"call#":11.008893,"id":"a6dqbv61jkcy","geo_precision":"range","address":"1 Seneca County","state":"OH","juris":"PD"},"type":"Feature","geometry":{"type":"Point","coordinates":[-83.160743,41.122079]}},{"properties":{"officer":"CWB","city":"Tiffin","zip":"44883","date":{"end_time":"2011/06/13 09:41:00 -0400","original":"6/13/2011 9:40","granularity":"min","time":"2011/06/13 09:40:00 -0400"},"geo_score":0.78,"unit":485,"disposition":"700","cfs":11,"call#":11.008892,"id":"a6dqbv6vx8d8","geo_precision":"range","address":"1 Seneca County","state":"OH","juris":"PD"},"type":"Feature","geometry":{"type":"Point","coordinates":[-83.160743,41.122079]}},{"properties":{"officer":"CWB","city":"Tiffin","zip":"44883","date":{"end_time":"2011/06/08 09:30:00 -0400","original":"6/8/2011 9:29","granularity":"min","time":"2011/06/08 09:29:00 -0400"},"geo_score":0.78,"unit":485,"disposition":"700","cfs":11,"call#":11.00889,"id":"a6dqbvihdnnt","geo_precision":"range","address":"1 Seneca County","state":"OH","juris":"PD"},"type":"Feature","geometry":{"type":"Point","coordinates":[-83.160743,41.122079]}},{"properties":{"officer":"CWB","city":"Tiffin","zip":"44883","date":{"end_time":"2011/06/01 11:22:00 -0400","original":"6/1/2011 11:21","granularity":"min","time":"2011/06/01 11:21:00 -0400"},"geo_score":0.78,"unit":485,"disposition":"700","cfs":11,"call#":11.007208,"id":"a6dqbv6evoxs","geo_precision":"range","address":"1 Seneca County","state":"OH","juris":"PD"},"type":"Feature","geometry":{"type":"Point","coordinates":[-83.160743,41.122079]}},{"properties":{"officer":"CWB","city":"Tiffin","zip":"44883","date":{"end_time":"2011/05/19 11:15:00 -0400","original":"5/19/2011 11:14","granularity":"min","time":"2011/05/19 11:14:00 -0400"},"geo_score":0.78,"unit":485,"disposition":"700","cfs":11,"call#":11.007206,"id":"a6dqbve909wg","geo_precision":"range","address":"1 Seneca County","state":"OH","juris":"PD"},"type":"Feature","geometry":{"type":"Point","coordinates":[-83.160743,41.122079]}},{"properties":{"officer":"CWB","city":"Tiffin","zip":"44883","date":{"end_time":"2011/05/17 11:09:00 -0400","original":"5/17/2011 11:08","granularity":"min","time":"2011/05/17 11:08:00 -0400"},"geo_score":0.78,"unit":485,"disposition":"700","cfs":11,"call#":11.007204,"id":"a6dqbv5wwuhl","geo_precision":"range","address":"1 Seneca County","state":"OH","juris":"PD"},"type":"Feature","geometry":{"type":"Point","coordinates":[-83.160743,41.122079]}},{"properties":{"officer":"CWB","city":"Tiffin","zip":"44883","date":{"end_time":"2011/05/16 11:04:00 -0400","original":"5/16/2011 11:03","granularity":"min","time":"2011/05/16 11:03:00 -0400"},"geo_score":0.78,"unit":485,"disposition":"700","cfs":11,"call#":11.007203,"id":"a6dqbvag61e4","geo_precision":"range","address":"1 Seneca County","state":"OH","juris":"PD"},"type":"Feature","geometry":{"type":"Point","coordinates":[-83.160743,41.122079]}},{"properties":{"officer":"CWB","city":"Tiffin","zip":"44883","date":{"end_time":"2011/05/04 10:16:00 -0400","original":"5/4/2011 10:15","granularity":"min","time":"2011/05/04 10:15:00 -0400"},"geo_score":0.78,"unit":485,"disposition":"700","cfs":11,"call#":11.0072,"id":"a6dqbvcnylwk","geo_precision":"range","address":"1 Seneca County","state":"OH","juris":"PD"},"type":"Feature","geometry":{"type":"Point","coordinates":[-83.160743,41.122079]}},{"properties":{"officer":"CWB","city":"Tiffin","zip":"44883","date":{"end_time":"2011/04/25 10:06:00 -0400","original":"4/25/2011 10:05","granularity":"min","time":"2011/04/25 10:05:00 -0400"},"geo_score":0.78,"unit":485,"disposition":"700","cfs":11,"call#":11.007198,"id":"a6dqbv32puoq","geo_precision":"range","address":"1 Seneca County","state":"OH","juris":"PD"},"type":"Feature","geometry":{"type":"Point","coordinates":[-83.160743,41.122079]}},{"properties":{"officer":"CWB","city":"Tiffin","zip":"44883","date":{"end_time":"2011/04/22 09:55:00 -0400","original":"4/22/2011 9:54","granularity":"min","time":"2011/04/22 09:54:00 -0400"},"geo_score":0.78,"unit":485,"disposition":"700","cfs":11,"call#":11.007197,"id":"a6dqbv55mzer","geo_precision":"range","address":"1 Seneca County","state":"OH","juris":"PD"},"type":"Feature","geometry":{"type":"Point","coordinates":[-83.160743,41.122079]}},{"properties":{"officer":"CWB","city":"Tiffin","zip":"44883","date":{"end_time":"2011/04/21 14:15:00 -0400","original":"4/21/2011 14:14","granularity":"min","time":"2011/04/21 14:14:00 -0400"},"geo_score":0.78,"unit":485,"disposition":"700","cfs":11,"call#":11.006172,"id":"a6dqbvimw3tf","geo_precision":"range","address":"1 Seneca County","state":"OH","juris":"PD"},"type":"Feature","geometry":{"type":"Point","coordinates":[-83.160743,41.122079]}},{"properties":{"officer":"CWB","city":"Tiffin","zip":"44883","date":{"end_time":"2011/04/19 14:12:00 -0400","original":"4/19/2011 14:11","granularity":"min","time":"2011/04/19 14:11:00 -0400"},"geo_score":0.78,"unit":485,"disposition":"700","cfs":11,"call#":11.006171,"id":"a6dqbv9ewz7w","geo_precision":"range","address":"1 Seneca County","state":"OH","juris":"PD"},"type":"Feature","geometry":{"type":"Point","coordinates":[-83.160743,41.122079]}},{"properties":{"officer":"CWB","city":"Tiffin","zip":"44883","date":{"end_time":"2011/03/25 13:54:00 -0400","original":"3/25/2011 13:53","granularity":"min","time":"2011/03/25 13:53:00 -0400"},"geo_score":0.78,"unit":485,"disposition":"700","cfs":11,"call#":11.006167,"id":"a6dqbvajchzp","geo_precision":"range","address":"1 Seneca County","state":"OH","juris":"PD"},"type":"Feature","geometry":{"type":"Point","coordinates":[-83.160743,41.122079]}},{"properties":{"officer":"CWB","city":"Tiffin","zip":"44883","date":{"end_time":"2011/03/25 13:50:00 -0400","original":"3/25/2011 13:49","granularity":"min","time":"2011/03/25 13:49:00 -0400"},"geo_score":0.78,"unit":485,"disposition":"700","cfs":11,"call#":11.006166,"id":"a6dqbvfcsxti","geo_precision":"range","address":"1 Seneca County","state":"OH","juris":"PD"},"type":"Feature","geometry":{"type":"Point","coordinates":[-83.160743,41.122079]}},{"properties":{"officer":"CWB","city":"Tiffin","zip":"44883","date":{"end_time":"2011/03/25 13:46:00 -0400","original":"3/25/2011 13:45","granularity":"min","time":"2011/03/25 13:45:00 -0400"},"geo_score":0.78,"unit":485,"disposition":"700","cfs":11,"call#":11.006165,"id":"a6dqbviyl0ug","geo_precision":"range","address":"1 Seneca County","state":"OH","juris":"PD"},"type":"Feature","geometry":{"type":"Point","coordinates":[-83.160743,41.122079]}},{"properties":{"officer":"CWB","city":"Tiffin","zip":"44883","date":{"end_time":"2011/02/24 14:44:00 -0500","original":"2/24/2011 14:43","granularity":"min","time":"2011/02/24 14:43:00 -0500"},"geo_score":0.78,"unit":485,"disposition":"700","cfs":11,"call#":11.002009,"id":"a6dqbvhgbba7","geo_precision":"range","address":"1 Seneca County","state":"OH","juris":"PD"},"type":"Feature","geometry":{"type":"Point","coordinates":[-83.160743,41.122079]}},{"properties":{"officer":"CWB","city":"Tiffin","zip":"44883","date":{"end_time":"2011/02/24 14:38:00 -0500","original":"2/24/2011 14:37","granularity":"min","time":"2011/02/24 14:37:00 -0500"},"geo_score":0.78,"unit":485,"disposition":"700","cfs":11,"call#":11.002008,"id":"a6dqbvbwvekm","geo_precision":"range","address":"1 Seneca County","state":"OH","juris":"PD"},"type":"Feature","geometry":{"type":"Point","coordinates":[-83.160743,41.122079]}},{"properties":{"officer":"CWB","city":"Tiffin","zip":"44883","date":{"end_time":"2011/02/17 14:24:00 -0500","original":"2/17/2011 14:23","granularity":"min","time":"2011/02/17 14:23:00 -0500"},"geo_score":0.78,"unit":485,"disposition":"700","cfs":11,"call#":11.002007,"id":"a6dqbv97sbsb","geo_precision":"range","address":"1 Seneca County","state":"OH","juris":"PD"},"type":"Feature","geometry":{"type":"Point","coordinates":[-83.160743,41.122079]}},{"properties":{"officer":"CWB","city":"Tiffin","zip":"44883","date":{"end_time":"2011/02/16 14:20:00 -0500","original":"2/16/2011 14:19","granularity":"min","time":"2011/02/16 14:19:00 -0500"},"geo_score":0.78,"unit":485,"disposition":"700","cfs":11,"call#":11.002006,"id":"a6dqbv4locln","geo_precision":"range","address":"1 Seneca County","state":"OH","juris":"PD"},"type":"Feature","geometry":{"type":"Point","coordinates":[-83.160743,41.122079]}},{"properties":{"officer":"CWB","city":"Tiffin","zip":"44883","date":{"end_time":"2011/01/27 13:56:00 -0500","original":"1/27/2011 13:55","granularity":"min","time":"2011/01/27 13:55:00 -0500"},"geo_score":0.78,"unit":485,"disposition":"700","cfs":11,"call#":11.002001,"id":"a6dqbvggt133","geo_precision":"range","address":"1 Seneca County","state":"OH","juris":"PD"},"type":"Feature","geometry":{"type":"Point","coordinates":[-83.160743,41.122079]}},{"properties":{"officer":"CWB","city":"Tiffin","zip":"44883","date":{"end_time":"2011/01/18 12:22:00 -0500","original":"1/18/2011 12:21","granularity":"min","time":"2011/01/18 12:21:00 -0500"},"geo_score":0.78,"unit":485,"disposition":"700","cfs":11,"call#":11.000711,"id":"a6dqbv8k0uku","geo_precision":"range","address":"1 Seneca County","state":"OH","juris":"PD"},"type":"Feature","geometry":{"type":"Point","coordinates":[-83.160743,41.122079]}},{"properties":{"officer":"CWB","city":"Tiffin","zip":"44883","date":{"end_time":"2011/01/18 12:17:00 -0500","original":"1/18/2011 12:16","granularity":"min","time":"2011/01/18 12:16:00 -0500"},"geo_score":0.78,"unit":485,"disposition":"700","cfs":11,"call#":11.00071,"id":"a6dqbv5mxryz","geo_precision":"range","address":"1 Seneca County","state":"OH","juris":"PD"},"type":"Feature","geometry":{"type":"Point","coordinates":[-83.160743,41.122079]}},{"properties":{"officer":"CWB","city":"Tiffin","zip":"44883","date":{"end_time":"2011/01/18 12:11:00 -0500","original":"1/18/2011 12:10","granularity":"min","time":"2011/01/18 12:10:00 -0500"},"geo_score":0.78,"unit":485,"disposition":"700","cfs":11,"call#":11.000709,"id":"a6dqbv50d0qd","geo_precision":"range","address":"1 Seneca County","state":"OH","juris":"PD"},"type":"Feature","geometry":{"type":"Point","coordinates":[-83.160743,41.122079]}},{"properties":{"officer":"CWB","city":"Tiffin","zip":"44883","date":{"end_time":"2011/01/08 11:48:00 -0500","original":"1/8/2011 11:47","granularity":"min","time":"2011/01/08 11:47:00 -0500"},"geo_score":0.78,"unit":485,"disposition":"700","cfs":11,"call#":11.000707,"id":"a6dqbv6kifxq","geo_precision":"range","address":"1 Seneca County","state":"OH","juris":"PD"},"type":"Feature","geometry":{"type":"Point","coordinates":[-83.160743,41.122079]}},{"properties":{"officer":"SGN","city":"Tiffin","zip":"44883","date":{"end_time":"2011/01/08 08:23:00 -0500","original":"1/8/2011 8:22","granularity":"min","time":"2011/01/08 08:22:00 -0500"},"geo_score":0.78,"unit":59,"disposition":"400","cfs":11,"call#":11.000198,"id":"a6dqbvctes39","geo_precision":"range","address":"1 Seneca County","state":"OH","juris":"PD"},"type":"Feature","geometry":{"type":"Point","coordinates":[-83.160743,41.122079]}},{"properties":{"officer":"CWB","city":"Tiffin","zip":"44883","date":{"end_time":"2011/01/07 11:33:00 -0500","original":"1/7/2011 11:32","granularity":"min","time":"2011/01/07 11:32:00 -0500"},"geo_score":0.78,"unit":485,"disposition":"700","cfs":11,"call#":11.000706,"id":"a6dqbvbldgw7","geo_precision":"range","address":"1 Seneca County","state":"OH","juris":"PD"},"type":"Feature","geometry":{"type":"Point","coordinates":[-83.160743,41.122079]}},{"properties":{"officer":"MMS","city":"Tiffin","zip":"44883","date":{"end_time":"2011/09/11 00:24:00 -0400","original":"9/11/2011 0:23","granularity":"min","time":"2011/09/11 00:23:00 -0400"},"geo_score":0.902,"unit":59,"disposition":"400","cfs":11,"call#":11.009408,"id":"a6dqbv8f9rnp","geo_precision":"range","address":"100 Greenfield St","state":"OH","juris":"PD"},"type":"Feature","geometry":{"type":"Point","coordinates":[-83.166202,41.115229]}},{"properties":{"officer":"JSC","city":"Tiffin","zip":"44883","date":{"end_time":"2011/05/01 00:32:00 -0400","original":"5/1/2011 0:31","granularity":"min","time":"2011/05/01 00:31:00 -0400"},"geo_score":0.902,"unit":57,"disposition":"200","cfs":11,"call#":11.004168,"id":"a6dqbv80b3tf","geo_precision":"range","address":"102 Melmore St","state":"OH","juris":"PD"},"type":"Feature","geometry":{"type":"Point","coordinates":[-83.173267,41.107154]}},{"properties":{"officer":"REB","city":"Tiffin","zip":"44883","date":{"end_time":"2011/11/17 09:20:00 -0500","original":"11/17/2011 9:19","granularity":"min","time":"2011/11/17 09:19:00 -0500"},"geo_score":0.585,"unit":558,"disposition":"200","cfs":11,"call#":11.012056,"id":"a6dqbvawrbf4","geo_precision":"zip","address":"103 Shepherd Dr","state":"OH","juris":"PD"},"type":"Feature","geometry":{"type":"Point","coordinates":[-83.225755,41.214776]}},{"properties":{"officer":"JDW","city":"Tiffin","zip":"44883","date":{"end_time":"2011/08/05 18:17:00 -0400","original":"8/5/2011 18:16","granularity":"min","time":"2011/08/05 18:16:00 -0400"},"geo_score":0.902,"unit":57,"disposition":"200","cfs":11,"call#":11.007918,"id":"a6dqbvddrtq0","geo_precision":"range","address":"106 N Washington St","state":"OH","juris":"PD"},"type":"Feature","geometry":{"type":"Point","coordinates":[-83.177532,41.120841]}},{"properties":{"officer":"GTM","city":"Tiffin","zip":"44883","date":{"end_time":"2011/02/28 11:13:00 -0500","original":"2/28/2011 11:12","granularity":"min","time":"2011/02/28 11:12:00 -0500"},"geo_score":0.873,"unit":57,"disposition":"200","cfs":11,"call#":11.001911,"id":"a6dqbv3bfidn","geo_precision":"range","address":"107 Clinton Av","state":"OH","juris":"PD"},"type":"Feature","geometry":{"type":"Point","coordinates":[-83.170006,41.119587]}},{"properties":{"officer":"MEM","city":"Tiffin","zip":"44883","date":{"end_time":"2011/03/03 09:28:00 -0500","original":"3/3/2011 9:27","granularity":"min","time":"2011/03/03 09:27:00 -0500"},"geo_score":0.837,"unit":63,"disposition":"200","cfs":11,"call#":11.001992,"id":"a6dqbv9694mi","geo_precision":"range","address":"107X Frost Py","state":"OH","juris":"PD"},"type":"Feature","geometry":{"type":"Point","coordinates":[-83.179348,41.116848]}},{"properties":{"officer":"RLT","city":"Tiffin","zip":"44883","date":{"end_time":"2011/12/04 01:12:00 -0500","original":"12/4/2011 1:11","granularity":"min","time":"2011/12/04 01:11:00 -0500"},"geo_score":0.902,"unit":62,"disposition":"200","cfs":11,"call#":11.012751,"id":"a6dqbv5hzsdy","geo_precision":"range","address":"111 Madison St","state":"OH","juris":"PD"},"type":"Feature","geometry":{"type":"Point","coordinates":[-83.175893,41.113434]}},{"properties":{"officer":"DES","city":"Tiffin","zip":"44883","date":{"end_time":"2011/06/13 09:12:00 -0400","original":"6/13/2011 9:11","granularity":"min","time":"2011/06/13 09:11:00 -0400"},"geo_score":0.902,"unit":59,"disposition":"100","cfs":11,"call#":11.005847,"id":"a6dqbvcu9ig0","geo_precision":"range","address":"113X E Perry St","state":"OH","juris":"PD"},"type":"Feature","geometry":{"type":"Point","coordinates":[-83.176001,41.11592]}},{"properties":{"officer":"DES","city":"Tiffin","zip":"44883","date":{"end_time":"2011/08/19 11:45:00 -0400","original":"8/19/2011 11:44","granularity":"min","time":"2011/08/19 11:44:00 -0400"},"geo_score":0.902,"unit":61,"disposition":"200","cfs":11,"call#":11.008436,"id":"a6dqbv2my2u5","geo_precision":"range","address":"117 S Washington St","state":"OH","juris":"PD"},"type":"Feature","geometry":{"type":"Point","coordinates":[-83.176538,41.114344]}},{"properties":{"officer":"JSC","city":"Tiffin","zip":"44883","date":{"end_time":"2011/04/25 22:06:00 -0400","original":"4/25/2011 22:05","granularity":"min","time":"2011/04/25 22:05:00 -0400"},"geo_score":0.902,"unit":57,"disposition":"200","cfs":11,"call#":11.003898,"id":"a6dqbvh5x9co","geo_precision":"range","address":"120 Benner St","state":"OH","juris":"PD"},"type":"Feature","geometry":{"type":"Point","coordinates":[-83.180574,41.118103]}},{"properties":{"officer":"SGN","city":"Tiffin","zip":"44883","date":{"end_time":"2011/01/19 08:26:00 -0500","original":"1/19/2011 8:25","granularity":"min","time":"2011/01/19 08:25:00 -0500"},"geo_score":0.902,"unit":59,"disposition":"200","cfs":11,"call#":11.000565,"id":"a6dqbvg4d1ji","geo_precision":"range","address":"120 Melmore St","state":"OH","juris":"PD"},"type":"Feature","geometry":{"type":"Point","coordinates":[-83.172964,41.106757]}},{"properties":{"officer":"EDA","city":"Tiffin","zip":"44883","date":{"end_time":"2011/04/10 01:26:00 -0400","original":"4/10/2011 1:25","granularity":"min","time":"2011/04/10 01:25:00 -0400"},"geo_score":0.902,"unit":57,"disposition":"100","cfs":11,"call#":11.003273,"id":"a6dqbv352mdk","geo_precision":"range","address":"129 S Washington St","state":"OH","juris":"PD"},"type":"Feature","geometry":{"type":"Point","coordinates":[-83.176496,41.113983]}},{"properties":{"officer":"EDA","city":"Tiffin","zip":"44883","date":{"end_time":"2011/01/30 01:38:00 -0500","original":"1/30/2011 1:37","granularity":"min","time":"2011/01/30 01:37:00 -0500"},"geo_score":0.902,"unit":60,"disposition":"400","cfs":11,"call#":11.000912,"id":"a6dqbv2zk87x","geo_precision":"range","address":"129 S Washington St","state":"OH","juris":"PD"},"type":"Feature","geometry":{"type":"Point","coordinates":[-83.176496,41.113983]}},{"properties":{"officer":"JPF","city":"Tiffin","zip":"44883","date":{"end_time":"2011/06/02 21:05:00 -0400","original":"6/2/2011 21:04","granularity":"min","time":"2011/06/02 21:04:00 -0400"},"geo_score":0.902,"unit":61,"disposition":"100","cfs":11,"call#":11.005438,"id":"a6dqbv3h32qb","geo_precision":"range","address":"130 Minerva St","state":"OH","juris":"PD"},"type":"Feature","geometry":{"type":"Point","coordinates":[-83.17642,41.124026]}},{"properties":{"officer":"GTM","city":"Tiffin","zip":"44883","date":{"end_time":"2011/07/02 08:05:00 -0400","original":"7/2/2011 8:04","granularity":"min","time":"2011/07/02 08:04:00 -0400"},"geo_score":0.756,"unit":59,"disposition":"100","cfs":11,"call#":11.006589,"id":"a6dqbvahrbi4","geo_precision":"range","address":"134 Fifth Av","state":"OH","juris":"PD"},"type":"Feature","geometry":{"type":"Point","coordinates":[-83.17884,41.131372]}},{"properties":{"officer":"RMN","city":"Tiffin","zip":"44883","date":{"end_time":"2011/08/15 17:13:00 -0400","original":"8/15/2011 17:12","granularity":"min","time":"2011/08/15 17:12:00 -0400"},"geo_score":0.756,"unit":63,"disposition":"200","cfs":11,"call#":11.008302,"id":"a6dqbv97yhpe","geo_precision":"range","address":"141 Fourth Av","state":"OH","juris":"PD"},"type":"Feature","geometry":{"type":"Point","coordinates":[-83.179765,41.130496]}},{"properties":{"officer":"BAR","city":"Tiffin","zip":"44883","date":{"end_time":"2011/09/29 17:13:00 -0400","original":"9/29/2011 17:12","granularity":"min","time":"2011/09/29 17:12:00 -0400"},"geo_score":0.902,"unit":63,"disposition":"200","cfs":11,"call#":11.010146,"id":"a6dqbvcouu7y","geo_precision":"range","address":"147 Madison St","state":"OH","juris":"PD"},"type":"Feature","geometry":{"type":"Point","coordinates":[-83.174677,41.113524]}},{"properties":{"officer":"REB","city":"Tiffin","zip":"44883","date":{"end_time":"2011/11/17 09:52:00 -0500","original":"11/17/2011 9:51","granularity":"min","time":"2011/11/17 09:51:00 -0500"},"geo_score":0.902,"unit":558,"disposition":"200","cfs":11,"call#":11.012058,"id":"a6dqbv9hxnwb","geo_precision":"range","address":"152 Madison St","state":"OH","juris":"PD"},"type":"Feature","geometry":{"type":"Point","coordinates":[-83.174582,41.113535]}},{"properties":{"officer":"BRB","city":"Tiffin","zip":"44883","date":{"end_time":"2011/01/18 12:44:00 -0500","original":"1/18/2011 12:43","granularity":"min","time":"2011/01/18 12:43:00 -0500"},"geo_score":0.902,"unit":59,"disposition":"400","cfs":11,"call#":11.000543,"id":"a6dqbv4lwbgy","geo_precision":"range","address":"154 S Washington St,211","state":"OH","juris":"PD"},"type":"Feature","geometry":{"type":"Point","coordinates":[-83.176151,41.111561]}},{"properties":{"officer":"RMN","city":"Tiffin","zip":"44883","date":{"end_time":"2011/10/24 19:31:00 -0400","original":"10/24/2011 19:30","granularity":"min","time":"2011/10/24 19:30:00 -0400"},"geo_score":0.902,"unit":57,"disposition":"200","cfs":11,"call#":11.011109,"id":"a6dqbv5mq2r8","geo_precision":"range","address":"167 Main St","state":"OH","juris":"PD"},"type":"Feature","geometry":{"type":"Point","coordinates":[-83.168532,41.111997]}},{"properties":{"officer":"EDA","city":"Tiffin","zip":"44883","date":{"end_time":"2011/08/15 21:02:00 -0400","original":"8/15/2011 21:01","granularity":"min","time":"2011/08/15 21:01:00 -0400"},"geo_score":0.902,"unit":59,"disposition":"200","cfs":11,"call#":11.008308,"id":"a6dqbv54owbh","geo_precision":"range","address":"1692 W Market St,49","state":"OH","juris":"PD"},"type":"Feature","geometry":{"type":"Point","coordinates":[-83.182023,41.114055]}},{"properties":{"officer":"LMK","city":"Tiffin","zip":"44883","date":{"end_time":"2011/08/19 00:53:00 -0400","original":"8/19/2011 0:52","granularity":"min","time":"2011/08/19 00:52:00 -0400"},"geo_score":0.902,"unit":57,"disposition":"200","cfs":11,"call#":11.008428,"id":"a6dqbva7k14g","geo_precision":"range","address":"172 Clay St","state":"OH","juris":"PD"},"type":"Feature","geometry":{"type":"Point","coordinates":[-83.185728,41.117724]}},{"properties":{"officer":"JMW","city":"Tiffin","zip":"44883","date":{"end_time":"2011/09/07 18:38:00 -0400","original":"9/7/2011 18:37","granularity":"min","time":"2011/09/07 18:37:00 -0400"},"geo_score":0.429,"unit":63,"disposition":"200","cfs":11,"call#":11.009257,"id":"a6dqbv2pm8bg","geo_precision":"street","address":"1732 W Market St,F","state":"OH","juris":"PD"},"type":"Feature","geometry":{"type":"Point","coordinates":[-83.181592,41.114111]}},{"properties":{"officer":"PJD","city":"Tiffin","zip":"44883","date":{"end_time":"2011/06/06 22:01:00 -0400","original":"6/6/2011 22:00","granularity":"min","time":"2011/06/06 22:00:00 -0400"},"geo_score":0.902,"unit":61,"disposition":"200","cfs":11,"call#":11.005593,"id":"a6dqbvbaqvdn","geo_precision":"range","address":"184 E Market St,226","state":"OH","juris":"PD"},"type":"Feature","geometry":{"type":"Point","coordinates":[-83.171629,41.115063]}},{"properties":{"officer":"SMM","city":"Tiffin","zip":"44883","date":{"end_time":"2011/04/01 00:02:00 -0400","original":"4/1/2011 0:01","granularity":"min","time":"2011/04/01 00:01:00 -0400"},"geo_score":0.902,"unit":61,"disposition":"200","cfs":11,"call#":11.00289,"id":"a6dqbvhao0sv","geo_precision":"range","address":"187 Jackson St","state":"OH","juris":"PD"},"type":"Feature","geometry":{"type":"Point","coordinates":[-83.185107,41.118487]}},{"properties":{"officer":"JSC","city":"Tiffin","zip":"44883","date":{"end_time":"2011/03/07 20:23:00 -0500","original":"3/7/2011 20:22","granularity":"min","time":"2011/03/07 20:22:00 -0500"},"geo_score":0.902,"unit":57,"disposition":"200","cfs":11,"call#":11.002176,"id":"a6dqbv2s6vw5","geo_precision":"range","address":"192 E Perry St","state":"OH","juris":"PD"},"type":"Feature","geometry":{"type":"Point","coordinates":[-83.172463,41.116218]}},{"properties":{"officer":"FWS","city":"Tiffin","zip":"44883","date":{"end_time":"2011/08/18 13:53:00 -0400","original":"8/18/2011 13:52","granularity":"min","time":"2011/08/18 13:52:00 -0400"},"geo_score":0.902,"unit":546,"disposition":"200","cfs":11,"call#":11.008438,"id":"a6dqbvgbd7ok","geo_precision":"range","address":"192 Hall St","state":"OH","juris":"PD"},"type":"Feature","geometry":{"type":"Point","coordinates":[-83.183715,41.123224]}},{"properties":{"officer":"DES","city":"Tiffin","zip":"44883","date":{"end_time":"2011/02/25 15:13:00 -0500","original":"2/25/2011 15:12","granularity":"min","time":"2011/02/25 15:12:00 -0500"},"geo_score":0.902,"unit":61,"disposition":"200","cfs":11,"call#":11.001802,"id":"a6dqbv3ecl5i","geo_precision":"range","address":"192 Hall St","state":"OH","juris":"PD"},"type":"Feature","geometry":{"type":"Point","coordinates":[-83.183715,41.123224]}},{"properties":{"officer":"JPF","city":"Tiffin","zip":"44883","date":{"end_time":"2011/08/25 19:43:00 -0400","original":"8/25/2011 19:42","granularity":"min","time":"2011/08/25 19:42:00 -0400"},"geo_score":0.756,"unit":59,"disposition":"100","cfs":11,"call#":11.008725,"id":"a6dqbvie8ib6","geo_precision":"range","address":"199 Fifth Av","state":"OH","juris":"PD"},"type":"Feature","geometry":{"type":"Point","coordinates":[-83.178787,41.131372]}},{"properties":{"officer":"RJO","city":"Tiffin","zip":"44883","date":{"end_time":"2011/07/08 10:14:00 -0400","original":"7/8/2011 10:13","granularity":"min","time":"2011/07/08 10:13:00 -0400"},"geo_score":0.902,"unit":60,"disposition":"200","cfs":11,"call#":11.006812,"id":"a6dqbv72ohat","geo_precision":"range","address":"19X E Perry St","state":"OH","juris":"PD"},"type":"Feature","geometry":{"type":"Point","coordinates":[-83.178953,41.115635]}},{"properties":{"officer":"DES","city":"Tiffin","zip":"44883","date":{"end_time":"2011/06/17 06:55:00 -0400","original":"6/17/2011 6:54","granularity":"min","time":"2011/06/17 06:54:00 -0400"},"geo_score":0.902,"unit":61,"disposition":"400","cfs":11,"call#":11.00598,"id":"a6dqbvingmzq","geo_precision":"range","address":"228 S Sandusky St","state":"OH","juris":"PD"},"type":"Feature","geometry":{"type":"Point","coordinates":[-83.186396,41.11418]}},{"properties":{"officer":"JMW","city":"Tiffin","zip":"44883","date":{"end_time":"2011/03/29 19:39:00 -0400","original":"3/29/2011 19:38","granularity":"min","time":"2011/03/29 19:38:00 -0400"},"geo_score":0.902,"unit":63,"disposition":"200","cfs":11,"call#":11.002825,"id":"a6dqbva9xuta","geo_precision":"range","address":"24 Gary Ln","state":"OH","juris":"PD"},"type":"Feature","geometry":{"type":"Point","coordinates":[-83.196228,41.099194]}},{"properties":{"officer":"BRB","city":"Tiffin","zip":"44883","date":{"end_time":"2011/05/30 14:29:00 -0400","original":"5/30/2011 14:28","granularity":"min","time":"2011/05/30 14:28:00 -0400"},"geo_score":0.902,"unit":63,"disposition":"200","cfs":11,"call#":11.005312,"id":"a6dqbv48u8qy","geo_precision":"range","address":"247 S Sandusky St","state":"OH","juris":"PD"},"type":"Feature","geometry":{"type":"Point","coordinates":[-83.186688,41.113627]}},{"properties":{"officer":"JDW","city":"Tiffin","zip":"44883","date":{"end_time":"2011/02/03 00:38:00 -0500","original":"2/3/2011 0:37","granularity":"min","time":"2011/02/03 00:37:00 -0500"},"geo_score":0.902,"unit":60,"disposition":"200","cfs":11,"call#":11.001003,"id":"a6dqbv7otq6o","geo_precision":"range","address":"247 S Sandusky St","state":"OH","juris":"PD"},"type":"Feature","geometry":{"type":"Point","coordinates":[-83.186688,41.113627]}},{"properties":{"officer":"BRB","city":"Tiffin","zip":"44883","date":{"end_time":"2011/05/09 09:57:00 -0400","original":"5/9/2011 9:56","granularity":"min","time":"2011/05/09 09:56:00 -0400"},"geo_score":0.837,"unit":59,"disposition":"200","cfs":11,"call#":11.004481,"id":"a6dqbvcbdab2","geo_precision":"range","address":"25 Frost Py","state":"OH","juris":"PD"},"type":"Feature","geometry":{"type":"Point","coordinates":[-83.180789,41.114944]}},{"properties":{"officer":"JPF","city":"Tiffin","zip":"44883","date":{"end_time":"2011/03/23 23:28:00 -0400","original":"3/23/2011 23:27","granularity":"min","time":"2011/03/23 23:27:00 -0400"},"geo_score":0.902,"unit":59,"disposition":"100","cfs":11,"call#":11.00266,"id":"a6dqbve04wek","geo_precision":"range","address":"25 Miami St","state":"OH","juris":"PD"},"type":"Feature","geometry":{"type":"Point","coordinates":[-83.180129,41.117074]}},{"properties":{"officer":"BRB","city":"Tiffin","zip":"44883","date":{"end_time":"2011/10/19 12:23:00 -0400","original":"10/19/2011 12:22","granularity":"min","time":"2011/10/19 12:22:00 -0400"},"geo_score":0.902,"unit":58,"disposition":"400","cfs":11,"call#":11.010911,"id":"a6dqbvg8emv6","geo_precision":"range","address":"255 Main St","state":"OH","juris":"PD"},"type":"Feature","geometry":{"type":"Point","coordinates":[-83.164025,41.11237]}},{"properties":{"officer":"BAR","city":"Tiffin","zip":"44883","date":{"end_time":"2011/02/13 21:42:00 -0500","original":"2/13/2011 21:41","granularity":"min","time":"2011/02/13 21:41:00 -0500"},"geo_score":0.902,"unit":58,"disposition":"400","cfs":11,"call#":11.001455,"id":"a6dqbvb7gl39","geo_precision":"range","address":"25X Rebecca St","state":"OH","juris":"PD"},"type":"Feature","geometry":{"type":"Point","coordinates":[-83.170376,41.113034]}},{"properties":{"officer":"BRB","city":"Tiffin","zip":"44883","date":{"end_time":"2011/06/01 16:19:00 -0400","original":"6/1/2011 16:18","granularity":"min","time":"2011/06/01 16:18:00 -0400"},"geo_score":0.902,"unit":63,"disposition":"200","cfs":11,"call#":11.005389,"id":"a6dqbv3n3tjm","geo_precision":"range","address":"264 S Washington St","state":"OH","juris":"PD"},"type":"Feature","geometry":{"type":"Point","coordinates":[-83.175881,41.110269]}},{"properties":{"officer":"RJO","city":"Tiffin","zip":"44883","date":{"end_time":"2011/10/29 14:58:00 -0400","original":"10/29/2011 14:57","granularity":"min","time":"2011/10/29 14:57:00 -0400"},"geo_score":0.902,"unit":57,"disposition":"200","cfs":11,"call#":11.011305,"id":"a6dqbvdtlo4f","geo_precision":"range","address":"275 S Monroe St","state":"OH","juris":"PD"},"type":"Feature","geometry":{"type":"Point","coordinates":[-83.177324,41.1089]}},{"properties":{"officer":"RMN","city":"Tiffin","zip":"44883","date":{"end_time":"2011/09/25 23:45:00 -0400","original":"9/25/2011 23:44","granularity":"min","time":"2011/09/25 23:44:00 -0400"},"geo_score":0.837,"unit":60,"disposition":"100","cfs":11,"call#":11.010007,"id":"a6dqbv48bdhm","geo_precision":"range","address":"29 Frost Py","state":"OH","juris":"PD"},"type":"Feature","geometry":{"type":"Point","coordinates":[-83.180804,41.115068]}},{"properties":{"officer":"REB","city":"Tiffin","zip":"44883","date":{"end_time":"2011/11/17 09:01:00 -0500","original":"11/17/2011 9:00","granularity":"min","time":"2011/11/17 09:00:00 -0500"},"geo_score":0.902,"unit":558,"disposition":"200","cfs":11,"call#":11.012055,"id":"a6dqbvi8lcx1","geo_precision":"range","address":"300 S Monroe St","state":"OH","juris":"PD"},"type":"Feature","geometry":{"type":"Point","coordinates":[-83.177173,41.107991]}},{"properties":{"officer":"SGN","city":"Tiffin","zip":"44883","date":{"end_time":"2011/09/23 14:41:00 -0400","original":"9/23/2011 14:40","granularity":"min","time":"2011/09/23 14:40:00 -0400"},"geo_score":0.902,"unit":59,"disposition":"100","cfs":11,"call#":11.009891,"id":"a6dqbvd3na6f","geo_precision":"range","address":"300 S Monroe St","state":"OH","juris":"PD"},"type":"Feature","geometry":{"type":"Point","coordinates":[-83.177173,41.107991]}},{"properties":{"officer":"SGN","city":"Tiffin","zip":"44883","date":{"end_time":"2011/09/23 14:06:00 -0400","original":"9/23/2011 14:05","granularity":"min","time":"2011/09/23 14:05:00 -0400"},"geo_score":0.902,"unit":59,"disposition":"200","cfs":11,"call#":11.009888,"id":"a6dqbv9rdsyp","geo_precision":"range","address":"300 S Monroe St","state":"OH","juris":"PD"},"type":"Feature","geometry":{"type":"Point","coordinates":[-83.177173,41.107991]}},{"properties":{"officer":"SGN","city":"Tiffin","zip":"44883","date":{"end_time":"2011/02/10 10:30:00 -0500","original":"2/10/2011 10:29","granularity":"min","time":"2011/02/10 10:29:00 -0500"},"geo_score":0.902,"unit":59,"disposition":"200","cfs":11,"call#":11.001313,"id":"a6dqbv798yws","geo_precision":"range","address":"300 S Monroe St","state":"OH","juris":"PD"},"type":"Feature","geometry":{"type":"Point","coordinates":[-83.177173,41.107991]}},{"properties":{"officer":"SGN","city":"Tiffin","zip":"44883","date":{"end_time":"2011/08/18 09:27:00 -0400","original":"8/18/2011 9:26","granularity":"min","time":"2011/08/18 09:26:00 -0400"},"geo_score":0.902,"unit":59,"disposition":"200","cfs":11,"call#":11.008396,"id":"a6dqbv2nq9y4","geo_precision":"range","address":"366 Wentz St","state":"OH","juris":"PD"},"type":"Feature","geometry":{"type":"Point","coordinates":[-83.198801,41.11361]}},{"properties":{"officer":"JPF","city":"Tiffin","zip":"44883","date":{"end_time":"2011/02/19 18:51:00 -0500","original":"2/19/2011 18:50","granularity":"min","time":"2011/02/19 18:50:00 -0500"},"geo_score":0.902,"unit":59,"disposition":"200","cfs":11,"call#":11.001638,"id":"a6dqbvhf53iu","geo_precision":"range","address":"382 Wentz St","state":"OH","juris":"PD"},"type":"Feature","geometry":{"type":"Point","coordinates":[-83.199161,41.113298]}},{"properties":{"officer":"EDA","city":"Tiffin","zip":"44883","date":{"end_time":"2011/06/17 19:54:00 -0400","original":"6/17/2011 19:53","granularity":"min","time":"2011/06/17 19:53:00 -0400"},"geo_score":0.902,"unit":58,"disposition":"200","cfs":11,"call#":11.006003,"id":"a6dqbv4bs9nd","geo_precision":"range","address":"40 W Market St,4","state":"OH","juris":"PD"},"type":"Feature","geometry":{"type":"Point","coordinates":[-83.180966,41.114171]}},{"properties":{"officer":"FWS","city":"Tiffin","zip":"44883","date":{"end_time":"2011/11/21 08:32:00 -0500","original":"11/21/2011 8:31","granularity":"min","time":"2011/11/21 08:31:00 -0500"},"geo_score":0.902,"unit":58,"disposition":"200","cfs":11,"call#":11.012218,"id":"a6dqbv6zxvfy","geo_precision":"range","address":"43 St Clair St","state":"OH","juris":"PD"},"type":"Feature","geometry":{"type":"Point","coordinates":[-83.181469,41.113166]}},{"properties":{"officer":"CWB","city":"Tiffin","zip":"44883","date":{"end_time":"2011/09/12 13:01:00 -0400","original":"9/12/2011 13:00","granularity":"min","time":"2011/09/12 13:00:00 -0400"},"geo_score":0.902,"unit":485,"disposition":"100","cfs":11,"call#":11.009454,"id":"a6dqbviysp76","geo_precision":"range","address":"457 E Market St","state":"OH","juris":"PD"},"type":"Feature","geometry":{"type":"Point","coordinates":[-83.164901,41.11929]}},{"properties":{"officer":"SGN","city":"Tiffin","zip":"44883","date":{"end_time":"2011/04/15 12:46:00 -0400","original":"4/15/2011 12:45","granularity":"min","time":"2011/04/15 12:45:00 -0400"},"geo_score":0.902,"unit":59,"disposition":"200","cfs":11,"call#":11.003487,"id":"a6dqbvg6q5w3","geo_precision":"range","address":"465 W Perry St","state":"OH","juris":"PD"},"type":"Feature","geometry":{"type":"Point","coordinates":[-83.196925,41.113941]}},{"properties":{"officer":"JAD","city":"Tiffin","zip":"44883","date":{"end_time":"2011/06/05 06:16:00 -0400","original":"6/5/2011 6:15","granularity":"min","time":"2011/06/05 06:15:00 -0400"},"geo_score":0.902,"unit":56,"disposition":"200","cfs":11,"call#":11.005537,"id":"a6dqbvh30lzd","geo_precision":"range","address":"48 E Market St","state":"OH","juris":"PD"},"type":"Feature","geometry":{"type":"Point","coordinates":[-83.178179,41.11443]}},{"properties":{"officer":"RJO","city":"Tiffin","zip":"44883","date":{"end_time":"2011/06/24 12:36:00 -0400","original":"6/24/2011 12:35","granularity":"min","time":"2011/06/24 12:35:00 -0400"},"geo_score":0.902,"unit":58,"disposition":"200","cfs":11,"call#":11.006257,"id":"a6dqbvbly4nh","geo_precision":"range","address":"49 E Perry St","state":"OH","juris":"PD"},"type":"Feature","geometry":{"type":"Point","coordinates":[-83.178147,41.115707]}},{"properties":{"officer":"JMW","city":"Tiffin","zip":"44883","date":{"end_time":"2011/10/19 17:25:00 -0400","original":"10/19/2011 17:24","granularity":"min","time":"2011/10/19 17:24:00 -0400"},"geo_score":0.902,"unit":60,"disposition":"400","cfs":11,"call#":11.010917,"id":"a6dqbv8rcgrm","geo_precision":"range","address":"530 W Market St","state":"OH","juris":"PD"},"type":"Feature","geometry":{"type":"Point","coordinates":[-83.198244,41.112443]}},{"properties":{"officer":"BAR","city":"Tiffin","zip":"44883","date":{"end_time":"2011/11/20 22:23:00 -0500","original":"11/20/2011 22:22","granularity":"min","time":"2011/11/20 22:22:00 -0500"},"geo_score":0.902,"unit":63,"disposition":"100","cfs":11,"call#":11.012203,"id":"a6dqbvfiu8ev","geo_precision":"range","address":"59 E Market St,3","state":"OH","juris":"PD"},"type":"Feature","geometry":{"type":"Point","coordinates":[-83.179514,41.114314]}},{"properties":{"officer":"REB","city":"Tiffin","zip":"44883","date":{"end_time":"2011/12/21 17:10:00 -0500","original":"12/21/2011 17:09","granularity":"min","time":"2011/12/21 17:09:00 -0500"},"geo_score":0.902,"unit":558,"disposition":"400","cfs":11,"call#":11.013463,"id":"a6dqbvhj1t8n","geo_precision":"range","address":"66 Charlotte St","state":"OH","juris":"PD"},"type":"Feature","geometry":{"type":"Point","coordinates":[-83.178163,41.110346]}},{"properties":{"officer":"JPF","city":"Tiffin","zip":"44883","date":{"end_time":"2011/01/23 00:53:00 -0500","original":"1/23/2011 0:52","granularity":"min","time":"2011/01/23 00:52:00 -0500"},"geo_score":0.902,"unit":59,"disposition":"200","cfs":11,"call#":11.000675,"id":"a6dqbvcr88sg","geo_precision":"range","address":"7 Beechwood Dr,102","state":"OH","juris":"PD"},"type":"Feature","geometry":{"type":"Point","coordinates":[-83.205796,41.114535]}},{"properties":{"officer":"FWS","city":"Tiffin","zip":"44883","date":{"end_time":"2011/01/19 14:24:00 -0500","original":"1/19/2011 14:23","granularity":"min","time":"2011/01/19 14:23:00 -0500"},"geo_score":0.902,"unit":57,"disposition":"200","cfs":11,"call#":11.00057,"id":"a6dqbv8dkpjp","geo_precision":"range","address":"71 S Washington St","state":"OH","juris":"PD"},"type":"Feature","geometry":{"type":"Point","coordinates":[-83.17672,41.11553]}},{"properties":{"officer":"SMM","city":"Tiffin","zip":"44883","date":{"end_time":"2011/06/07 01:38:00 -0400","original":"6/7/2011 1:37","granularity":"min","time":"2011/06/07 01:37:00 -0400"},"geo_score":0.902,"unit":63,"disposition":"100","cfs":11,"call#":11.005598,"id":"a6dqbviuj22h","geo_precision":"range","address":"73 Melmore St","state":"OH","juris":"PD"},"type":"Feature","geometry":{"type":"Point","coordinates":[-83.173839,41.107724]}},{"properties":{"officer":"RJO","city":"Tiffin","zip":"44883","date":{"end_time":"2011/10/08 16:03:00 -0400","original":"10/8/2011 16:02","granularity":"min","time":"2011/10/08 16:02:00 -0400"},"geo_score":0.902,"unit":60,"disposition":"200","cfs":11,"call#":11.010493,"id":"a6dqbv2zxg21","geo_precision":"range","address":"733 W Market St","state":"OH","juris":"PD"},"type":"Feature","geometry":{"type":"Point","coordinates":[-83.20622,41.111381]}},{"properties":{"officer":"DES","city":"Tiffin","zip":"44883","date":{"end_time":"2011/04/22 15:36:00 -0400","original":"4/22/2011 15:35","granularity":"min","time":"2011/04/22 15:35:00 -0400"},"geo_score":0.902,"unit":61,"disposition":"100","cfs":11,"call#":11.003764,"id":"a6dqbv4duze8","geo_precision":"range","address":"76 Clay St","state":"OH","juris":"PD"},"type":"Feature","geometry":{"type":"Point","coordinates":[-83.182428,41.116392]}},{"properties":{"officer":"FWS","city":"Tiffin","zip":"44883","date":{"end_time":"2011/02/22 14:52:00 -0500","original":"2/22/2011 14:51","granularity":"min","time":"2011/02/22 14:51:00 -0500"},"geo_score":0.902,"unit":57,"disposition":"100","cfs":11,"call#":11.001704,"id":"a6dqbv48ffh4","geo_precision":"range","address":"87 Erie St","state":"OH","juris":"PD"},"type":"Feature","geometry":{"type":"Point","coordinates":[-83.174685,41.123166]}},{"properties":{"officer":"EDA","city":"Tiffin","zip":"44883","date":{"end_time":"2011/01/28 20:58:00 -0500","original":"1/28/2011 20:57","granularity":"min","time":"2011/01/28 20:57:00 -0500"},"geo_score":0.902,"unit":59,"disposition":"200","cfs":11,"call#":11.000859,"id":"a6dqbvbtp5d5","geo_precision":"range","address":"870 W Market St,15","state":"OH","juris":"PD"},"type":"Feature","geometry":{"type":"Point","coordinates":[-83.181178,41.114143]}},{"properties":{"officer":"BRB","city":"Tiffin","zip":"44883","date":{"end_time":"2011/05/04 11:28:00 -0400","original":"5/4/2011 11:27","granularity":"min","time":"2011/05/04 11:27:00 -0400"},"geo_score":0.902,"unit":59,"disposition":"200","cfs":11,"call#":11.004283,"id":"a6dqbvak3ko8","geo_precision":"range","address":"91 Riverside Dr","state":"OH","juris":"PD"},"type":"Feature","geometry":{"type":"Point","coordinates":[-83.174582,41.118603]}},{"properties":{"officer":"FWS","city":"Tiffin","zip":"44883","date":{"end_time":"2011/12/13 12:23:00 -0500","original":"12/13/2011 12:22","granularity":"min","time":"2011/12/13 12:22:00 -0500"},"geo_score":0.78,"unit":58,"disposition":"450","cfs":11,"call#":11.013131,"id":"a6dqbv2r2xgl","geo_precision":"range","address":"928 W Market St","state":"OH","juris":"PD"},"type":"Feature","geometry":{"type":"Point","coordinates":[-83.207604,41.111131]}},{"properties":{"officer":"REB","city":"Tiffin","zip":"44883","date":{"end_time":"2011/11/17 11:01:00 -0500","original":"11/17/2011 11:00","granularity":"min","time":"2011/11/17 11:00:00 -0500"},"geo_score":0.78,"unit":558,"disposition":"200","cfs":11,"call#":11.012063,"id":"a6dqbvct3obx","geo_precision":"range","address":"928 W Market St","state":"OH","juris":"PD"},"type":"Feature","geometry":{"type":"Point","coordinates":[-83.207604,41.111131]}},{"properties":{"officer":"GTM","city":"Tiffin","zip":"44883","date":{"end_time":"2011/09/27 11:15:00 -0400","original":"9/27/2011 11:14","granularity":"min","time":"2011/09/27 11:14:00 -0400"},"geo_score":0.78,"unit":60,"disposition":"200","cfs":11,"call#":11.010057,"id":"a6dqbv90iriy","geo_precision":"range","address":"928 W Market St","state":"OH","juris":"PD"},"type":"Feature","geometry":{"type":"Point","coordinates":[-83.207604,41.111131]}},{"properties":{"officer":null,"city":"Tiffin","zip":"44883","date":{"end_time":"2011/09/19 15:40:00 -0400","original":"9/19/2011 15:39","granularity":"min","time":"2011/09/19 15:39:00 -0400"},"geo_score":0.78,"unit":null,"disposition":"CAN","cfs":11,"call#":11.009751,"id":"a6dqbv3wg32k","geo_precision":"range","address":"928 W Market St","state":"OH","juris":"PD"},"type":"Feature","geometry":{"type":"Point","coordinates":[-83.207604,41.111131]}},{"properties":{"officer":"RMN","city":"Tiffin","zip":"44883","date":{"end_time":"2011/09/11 21:09:00 -0400","original":"9/11/2011 21:08","granularity":"min","time":"2011/09/11 21:08:00 -0400"},"geo_score":0.902,"unit":57,"disposition":"400","cfs":11,"call#":11.009434,"id":"a6dqbvgj5kjm","geo_precision":"range","address":"93 Greenfield St","state":"OH","juris":"PD"},"type":"Feature","geometry":{"type":"Point","coordinates":[-83.166337,41.115283]}},{"properties":{"officer":"LMK","city":"Tiffin","zip":"44883","date":{"end_time":"2011/12/02 00:06:00 -0500","original":"12/2/2011 0:05","granularity":"min","time":"2011/12/02 00:05:00 -0500"},"geo_score":0.857,"unit":57,"disposition":"200","cfs":11,"call#":11.012669,"id":"a6dqbv4p5utp","geo_precision":"street","address":"Clay St/Miami St","state":"OH","juris":"PD"},"type":"Feature","geometry":{"type":"Point","coordinates":[-83.1824,41.116381]}},{"properties":{"officer":"JDW","city":"Tiffin","zip":"44883","date":{"end_time":"2011/02/04 02:14:00 -0500","original":"2/4/2011 2:13","granularity":"min","time":"2011/02/04 02:13:00 -0500"},"geo_score":0.857,"unit":60,"disposition":"400","cfs":11,"call#":11.00105,"id":"a6dqbv9jjxki","geo_precision":"street","address":"E Market St/S Washington St","state":"OH","juris":"PD"},"type":"Feature","geometry":{"type":"Point","coordinates":[-83.179559,41.114309]}},{"properties":{"officer":"REB","city":"Tiffin","zip":"44883","date":{"end_time":"2011/02/01 10:58:00 -0500","original":"2/1/2011 10:57","granularity":"min","time":"2011/02/01 10:57:00 -0500"},"geo_score":0.857,"unit":558,"disposition":"200","cfs":11,"call#":11.000968,"id":"a6dqbve52o1e","geo_precision":"street","address":"Franklin St/Miami St","state":"OH","juris":"PD"},"type":"Feature","geometry":{"type":"Point","coordinates":[-83.181876,41.117677]}},{"properties":{"officer":"MMS","city":"Tiffin","zip":"44883","date":{"end_time":"2011/09/26 16:39:00 -0400","original":"9/26/2011 16:38","granularity":"min","time":"2011/09/26 16:38:00 -0400"},"geo_score":0.857,"unit":63,"disposition":"100","cfs":11,"call#":11.010032,"id":"a6dqbvhrog9v","geo_precision":"street","address":"Minerva St/Noble St","state":"OH","juris":"PD"},"type":"Feature","geometry":{"type":"Point","coordinates":[-83.176206,41.122592]}},{"properties":{"officer":"JMW","city":"Tiffin","zip":"44883","date":{"end_time":"2011/02/11 22:40:00 -0500","original":"2/11/2011 22:39","granularity":"min","time":"2011/02/11 22:39:00 -0500"},"geo_score":0.857,"unit":57,"disposition":"200","cfs":11,"call#":11.001377,"id":"a6dqbvgtgi8r","geo_precision":"street","address":"Scott St/W Perry St","state":"OH","juris":"PD"},"type":"Feature","geometry":{"type":"Point","coordinates":[-83.189151,41.116116]}}],"is_temporal":true,"author":{"url":"","metadata":"","contact_name":"","contact_address":"","source":"","contact_phone":""},"source":"","pagination":{"sort":null,"start":0,"total":146,"limit":1000000},"state":"complete","tags":"","published":"2014-08-15T04:15:03-04:00","id":219560}