{"type":"FeatureCollection","data_type":"Dataset","url_type":null,"permissions":[{"permissions":{"download":true,"view":true},"group_id":"everyone"}],"classification":null,"title":"juvenile 2011","count":422,"stream_id":219562,"contributor":{"url":"http://geocommons.com/users/42302","name":"hillproject"},"data_attributes":null,"calculation_params":null,"icon_link":null,"link":"http://geocommons.com/overlays/219562.json","extent":[-83.4356,41.0846,-82.464,41.4553],"geometry_types":["point"],"unique_name":null,"name":"juvenile 2011","feature_count":422,"description":"","next_feature":null,"is_raster":false,"short_classification":"Y","stats":{"date":{"max":"2011/12/31 18:51:00 -0500","mean":"2011/07/10 07:28:59 -0400","variance":74005549123382.4,"stdev":8602647.7972414,"min":"2011/01/01 00:08:00 -0500","median":"2011/07/06 15:12:00 -0400"},"unit":{"max":850,"mean":71.1190476190476,"variance":6104.52517331513,"stdev":78.131460842065,"min":56,"median":59},"cfs":{"max":15,"mean":15.0,"variance":0.0,"stdev":0.0,"min":15,"median":15},"call#":{"max":11.013761,"mean":11.006948971564,"variance":1.49746335573845e-05,"stdev":0.00386970716687768,"min":11.000001,"median":11.006755}},"features":[{"properties":{"officer":"RJO","city":"Tiffin","zip":"44883","date":{"end_time":"2011/03/27 14:41:00 -0400","original":"3/27/2011 14:40","granularity":"min","time":"2011/03/27 14:40:00 -0400"},"geo_score":0.902,"unit":60,"disposition":"230","cfs":15,"call#":11.00278,"id":"a6dqcidh93ve","geo_precision":"range","address":"1 N Monroe St","state":"OH","juris":"PD"},"type":"Feature","geometry":{"type":"Point","coordinates":[-83.178648,41.117483]}},{"properties":{"officer":"DES","city":"Tiffin","zip":"44883","date":{"end_time":"2011/11/28 15:15:00 -0500","original":"11/28/2011 15:14","granularity":"min","time":"2011/11/28 15:14:00 -0500"},"geo_score":0.902,"unit":61,"disposition":"200","cfs":15,"call#":11.012539,"id":"a6dqcidmn99s","geo_precision":"range","address":"1 N Washington St","state":"OH","juris":"PD"},"type":"Feature","geometry":{"type":"Point","coordinates":[-83.177111,41.118089]}},{"properties":{"officer":"BRB","city":"Tiffin","zip":"44883","date":{"end_time":"2011/03/20 16:18:00 -0400","original":"3/20/2011 16:17","granularity":"min","time":"2011/03/20 16:17:00 -0400"},"geo_score":0.546,"unit":63,"disposition":"200","cfs":15,"call#":11.002561,"id":"a6dqcigpnmao","geo_precision":"street","address":"1 Oakley Park","state":"OH","juris":"PD"},"type":"Feature","geometry":{"type":"Point","coordinates":[-83.172916,41.112623]}},{"properties":{"officer":"JMW","city":"Tiffin","zip":"44883","date":{"end_time":"2011/08/11 19:41:00 -0400","original":"8/11/2011 19:40","granularity":"min","time":"2011/08/11 19:40:00 -0400"},"geo_score":0.533,"unit":63,"disposition":"100","cfs":15,"call#":11.008131,"id":"a6dqcig7rxeu","geo_precision":"street","address":"1 Riverview Park","state":"OH","juris":"PD"},"type":"Feature","geometry":{"type":"Point","coordinates":[-83.172916,41.112623]}},{"properties":{"officer":"RLT","city":"Tiffin","zip":"44883","date":{"end_time":"2011/11/15 19:32:00 -0500","original":"11/15/2011 19:31","granularity":"min","time":"2011/11/15 19:31:00 -0500"},"geo_score":0.902,"unit":59,"disposition":"200","cfs":15,"call#":11.012004,"id":"a6dqcif18fhn","geo_precision":"range","address":"1 Roller St","state":"OH","juris":"PD"},"type":"Feature","geometry":{"type":"Point","coordinates":[-83.177191,41.118567]}},{"properties":{"officer":"MEM","city":"Tiffin","zip":"44883","date":{"end_time":"2011/07/06 15:13:00 -0400","original":"7/6/2011 15:12","granularity":"min","time":"2011/07/06 15:12:00 -0400"},"geo_score":0.902,"unit":61,"disposition":"200","cfs":15,"call#":11.006755,"id":"a6dqcie1r907","geo_precision":"range","address":"100 Coe St","state":"OH","juris":"PD"},"type":"Feature","geometry":{"type":"Point","coordinates":[-83.173135,41.108309]}},{"properties":{"officer":"SGN","city":"Tiffin","zip":"44883","date":{"end_time":"2011/11/22 13:29:00 -0500","original":"11/22/2011 13:28","granularity":"min","time":"2011/11/22 13:28:00 -0500"},"geo_score":0.902,"unit":59,"disposition":"200","cfs":15,"call#":11.012279,"id":"a6dqcihpjfrz","geo_precision":"range","address":"100X N Washington St","state":"OH","juris":"PD"},"type":"Feature","geometry":{"type":"Point","coordinates":[-83.17751,41.120654]}},{"properties":{"officer":"GTM","city":"Tiffin","zip":"44883","date":{"end_time":"2011/05/07 10:36:00 -0400","original":"5/7/2011 10:35","granularity":"min","time":"2011/05/07 10:35:00 -0400"},"geo_score":0.715,"unit":57,"disposition":"200","cfs":15,"call#":11.004399,"id":"a6dqci7msdlz","geo_precision":"street","address":"1025 W Market St","state":"OH","juris":"PD"},"type":"Feature","geometry":{"type":"Point","coordinates":[-83.207659,41.111118]}},{"properties":{"officer":"SGN","city":"Tiffin","zip":"44883","date":{"end_time":"2011/12/20 08:42:00 -0500","original":"12/20/2011 8:41","granularity":"min","time":"2011/12/20 08:41:00 -0500"},"geo_score":0.585,"unit":60,"disposition":"200","cfs":15,"call#":11.013409,"id":"a6dqciew92cq","geo_precision":"zip","address":"103 Shepherd Dr","state":"OH","juris":"PD"},"type":"Feature","geometry":{"type":"Point","coordinates":[-83.225755,41.214776]}},{"properties":{"officer":"JSC","city":"Tiffin","zip":"44883","date":{"end_time":"2011/11/17 21:22:00 -0500","original":"11/17/2011 21:21","granularity":"min","time":"2011/11/17 21:21:00 -0500"},"geo_score":0.585,"unit":61,"disposition":"200","cfs":15,"call#":11.012086,"id":"a6dqci4ltlo9","geo_precision":"zip","address":"103 Shepherd Dr","state":"OH","juris":"PD"},"type":"Feature","geometry":{"type":"Point","coordinates":[-83.225755,41.214776]}},{"properties":{"officer":"SGN","city":"Tiffin","zip":"44883","date":{"end_time":"2011/11/17 10:32:00 -0500","original":"11/17/2011 10:31","granularity":"min","time":"2011/11/17 10:31:00 -0500"},"geo_score":0.585,"unit":59,"disposition":"200","cfs":15,"call#":11.012062,"id":"a6dqci9uhdg0","geo_precision":"zip","address":"103 Shepherd Dr","state":"OH","juris":"PD"},"type":"Feature","geometry":{"type":"Point","coordinates":[-83.225755,41.214776]}},{"properties":{"officer":"JDW","city":"Tiffin","zip":"44883","date":{"end_time":"2011/09/14 15:24:00 -0400","original":"9/14/2011 15:23","granularity":"min","time":"2011/09/14 15:23:00 -0400"},"geo_score":0.585,"unit":57,"disposition":"450","cfs":15,"call#":11.009522,"id":"a6dqcicv6rzx","geo_precision":"zip","address":"103 Shepherd Dr","state":"OH","juris":"PD"},"type":"Feature","geometry":{"type":"Point","coordinates":[-83.225755,41.214776]}},{"properties":{"officer":"RMN","city":"Tiffin","zip":"44883","date":{"end_time":"2011/08/19 20:11:00 -0400","original":"8/19/2011 20:10","granularity":"min","time":"2011/08/19 20:10:00 -0400"},"geo_score":0.585,"unit":57,"disposition":"200","cfs":15,"call#":11.008456,"id":"a6dqciftyqu0","geo_precision":"zip","address":"103 Shepherd Dr","state":"OH","juris":"PD"},"type":"Feature","geometry":{"type":"Point","coordinates":[-83.225755,41.214776]}},{"properties":{"officer":"BRB","city":"Tiffin","zip":"44883","date":{"end_time":"2011/08/17 15:42:00 -0400","original":"8/17/2011 15:41","granularity":"min","time":"2011/08/17 15:41:00 -0400"},"geo_score":0.585,"unit":57,"disposition":"200","cfs":15,"call#":11.008372,"id":"a6dqci51dj2j","geo_precision":"zip","address":"103 Shepherd Dr","state":"OH","juris":"PD"},"type":"Feature","geometry":{"type":"Point","coordinates":[-83.225755,41.214776]}},{"properties":{"officer":"SGN","city":"Tiffin","zip":"44883","date":{"end_time":"2011/05/27 13:08:00 -0400","original":"5/27/2011 13:07","granularity":"min","time":"2011/05/27 13:07:00 -0400"},"geo_score":0.585,"unit":59,"disposition":"200","cfs":15,"call#":11.005166,"id":"a6dqci4eq9rb","geo_precision":"zip","address":"103 Shepherd Dr","state":"OH","juris":"PD"},"type":"Feature","geometry":{"type":"Point","coordinates":[-83.225755,41.214776]}},{"properties":{"officer":"SGN","city":"Tiffin","zip":"44883","date":{"end_time":"2011/05/18 08:19:00 -0400","original":"5/18/2011 8:18","granularity":"min","time":"2011/05/18 08:18:00 -0400"},"geo_score":0.585,"unit":59,"disposition":"200","cfs":15,"call#":11.004815,"id":"a6dqci3s6sl3","geo_precision":"zip","address":"103 Shepherd Dr","state":"OH","juris":"PD"},"type":"Feature","geometry":{"type":"Point","coordinates":[-83.225755,41.214776]}},{"properties":{"officer":"SGN","city":"Tiffin","zip":"44883","date":{"end_time":"2011/05/05 08:34:00 -0400","original":"5/5/2011 8:33","granularity":"min","time":"2011/05/05 08:33:00 -0400"},"geo_score":0.585,"unit":59,"disposition":"200","cfs":15,"call#":11.00431,"id":"a6dqci86fzgt","geo_precision":"zip","address":"103 Shepherd Dr","state":"OH","juris":"PD"},"type":"Feature","geometry":{"type":"Point","coordinates":[-83.225755,41.214776]}},{"properties":{"officer":"SGN","city":"Tiffin","zip":"44883","date":{"end_time":"2011/04/27 08:54:00 -0400","original":"4/27/2011 8:53","granularity":"min","time":"2011/04/27 08:53:00 -0400"},"geo_score":0.585,"unit":58,"disposition":"200","cfs":15,"call#":11.00396,"id":"a6dqci5mysb9","geo_precision":"zip","address":"103 Shepherd Dr","state":"OH","juris":"PD"},"type":"Feature","geometry":{"type":"Point","coordinates":[-83.225755,41.214776]}},{"properties":{"officer":"SGN","city":"Tiffin","zip":"44883","date":{"end_time":"2011/04/13 09:52:00 -0400","original":"4/13/2011 9:51","granularity":"min","time":"2011/04/13 09:51:00 -0400"},"geo_score":0.585,"unit":59,"disposition":"200","cfs":15,"call#":11.003407,"id":"a6dqci1qzx2o","geo_precision":"zip","address":"103 Shepherd Dr","state":"OH","juris":"PD"},"type":"Feature","geometry":{"type":"Point","coordinates":[-83.225755,41.214776]}},{"properties":{"officer":"SGN","city":"Tiffin","zip":"44883","date":{"end_time":"2011/04/06 11:25:00 -0400","original":"4/6/2011 11:24","granularity":"min","time":"2011/04/06 11:24:00 -0400"},"geo_score":0.585,"unit":59,"disposition":"200","cfs":15,"call#":11.003077,"id":"a6dqci4wcm5o","geo_precision":"zip","address":"103 Shepherd Dr","state":"OH","juris":"PD"},"type":"Feature","geometry":{"type":"Point","coordinates":[-83.225755,41.214776]}},{"properties":{"officer":"SGN","city":"Tiffin","zip":"44883","date":{"end_time":"2011/02/10 09:26:00 -0500","original":"2/10/2011 9:25","granularity":"min","time":"2011/02/10 09:25:00 -0500"},"geo_score":0.585,"unit":59,"disposition":"200","cfs":15,"call#":11.00131,"id":"a6dqcibg3io9","geo_precision":"zip","address":"103 Shepherd Dr","state":"OH","juris":"PD"},"type":"Feature","geometry":{"type":"Point","coordinates":[-83.225755,41.214776]}},{"properties":{"officer":"JSC","city":"Tiffin","zip":"44883","date":{"end_time":"2011/01/24 16:00:00 -0500","original":"1/24/2011 15:59","granularity":"min","time":"2011/01/24 15:59:00 -0500"},"geo_score":0.585,"unit":63,"disposition":"200","cfs":15,"call#":11.000719,"id":"a6dqci9kwxil","geo_precision":"zip","address":"103 Shepherd Dr","state":"OH","juris":"PD"},"type":"Feature","geometry":{"type":"Point","coordinates":[-83.225755,41.214776]}},{"properties":{"officer":"SGN","city":"Tiffin","zip":"44883","date":{"end_time":"2011/01/20 09:54:00 -0500","original":"1/20/2011 9:53","granularity":"min","time":"2011/01/20 09:53:00 -0500"},"geo_score":0.585,"unit":59,"disposition":"200","cfs":15,"call#":11.000591,"id":"a6dqci2pg4th","geo_precision":"zip","address":"103 Shepherd Dr","state":"OH","juris":"PD"},"type":"Feature","geometry":{"type":"Point","coordinates":[-83.225755,41.214776]}},{"properties":{"officer":"EDA","city":"Tiffin","zip":"44883","date":{"end_time":"2011/04/10 22:41:00 -0400","original":"4/10/2011 22:40","granularity":"min","time":"2011/04/10 22:40:00 -0400"},"geo_score":0.902,"unit":62,"disposition":"100","cfs":15,"call#":11.003314,"id":"a6dqcie5fcmp","geo_precision":"range","address":"105 Gross St","state":"OH","juris":"PD"},"type":"Feature","geometry":{"type":"Point","coordinates":[-83.166865,41.10409]}},{"properties":{"officer":"JSC","city":"Tiffin","zip":"44883","date":{"end_time":"2011/04/19 17:16:00 -0400","original":"4/19/2011 17:15","granularity":"min","time":"2011/04/19 17:15:00 -0400"},"geo_score":0.902,"unit":59,"disposition":"200","cfs":15,"call#":11.003653,"id":"a6dqciaowriv","geo_precision":"range","address":"106 N Washington St","state":"OH","juris":"PD"},"type":"Feature","geometry":{"type":"Point","coordinates":[-83.177532,41.120841]}},{"properties":{"officer":"LMK","city":"Tiffin","zip":"44883","date":{"end_time":"2011/07/26 22:09:00 -0400","original":"7/26/2011 22:08","granularity":"min","time":"2011/07/26 22:08:00 -0400"},"geo_score":0.873,"unit":57,"disposition":"200","cfs":15,"call#":11.00752,"id":"a6dqciayzyp1","geo_precision":"range","address":"107X Clinton Av","state":"OH","juris":"PD"},"type":"Feature","geometry":{"type":"Point","coordinates":[-83.170006,41.119587]}},{"properties":{"officer":"EDA","city":"Tiffin","zip":"44883","date":{"end_time":"2011/12/06 18:00:00 -0500","original":"12/6/2011 17:59","granularity":"min","time":"2011/12/06 17:59:00 -0500"},"geo_score":0.837,"unit":62,"disposition":"200","cfs":15,"call#":11.012837,"id":"a6dqcihf5fr3","geo_precision":"range","address":"109 Frost Py","state":"OH","juris":"PD"},"type":"Feature","geometry":{"type":"Point","coordinates":[-83.179322,41.11688]}},{"properties":{"officer":"MEM","city":"Tiffin","zip":"44883","date":{"end_time":"2011/10/19 19:01:00 -0400","original":"10/19/2011 19:00","granularity":"min","time":"2011/10/19 19:00:00 -0400"},"geo_score":0.837,"unit":58,"disposition":"200","cfs":15,"call#":11.010923,"id":"a6dqci3xrh3h","geo_precision":"range","address":"109 Frost Py,3","state":"OH","juris":"PD"},"type":"Feature","geometry":{"type":"Point","coordinates":[-83.180705,41.114261]}},{"properties":{"officer":"GTM","city":"Tiffin","zip":"44883","date":{"end_time":"2011/07/25 16:12:00 -0400","original":"7/25/2011 16:11","granularity":"min","time":"2011/07/25 16:11:00 -0400"},"geo_score":0.902,"unit":59,"disposition":"200","cfs":15,"call#":11.007465,"id":"a6dqci32uz0f","geo_precision":"range","address":"114 E Davis St","state":"OH","juris":"PD"},"type":"Feature","geometry":{"type":"Point","coordinates":[-83.174164,41.126046]}},{"properties":{"officer":"RJO","city":"Tiffin","zip":"44883","date":{"end_time":"2011/05/26 07:52:00 -0400","original":"5/26/2011 7:51","granularity":"min","time":"2011/05/26 07:51:00 -0400"},"geo_score":0.902,"unit":60,"disposition":"200","cfs":15,"call#":11.005114,"id":"a6dqciabx8hl","geo_precision":"range","address":"115 N Washington St","state":"OH","juris":"PD"},"type":"Feature","geometry":{"type":"Point","coordinates":[-83.177575,41.121015]}},{"properties":{"officer":"RMN","city":"Tiffin","zip":"44883","date":{"end_time":"2011/07/31 21:18:00 -0400","original":"7/31/2011 21:17","granularity":"min","time":"2011/07/31 21:17:00 -0400"},"geo_score":0.756,"unit":59,"disposition":"200","cfs":15,"call#":11.00775,"id":"a6dqci1vxz1y","geo_precision":"range","address":"115 Third Av","state":"OH","juris":"PD"},"type":"Feature","geometry":{"type":"Point","coordinates":[-83.179833,41.129639]}},{"properties":{"officer":"JSC","city":"Tiffin","zip":"44883","date":{"end_time":"2011/02/27 18:07:00 -0500","original":"2/27/2011 18:06","granularity":"min","time":"2011/02/27 18:06:00 -0500"},"geo_score":0.756,"unit":57,"disposition":"200","cfs":15,"call#":11.001887,"id":"a6dqci8k0kv1","geo_precision":"range","address":"115 Third Av","state":"OH","juris":"PD"},"type":"Feature","geometry":{"type":"Point","coordinates":[-83.179833,41.129639]}},{"properties":{"officer":"FWS","city":"Tiffin","zip":"44883","date":{"end_time":"2011/09/14 14:31:00 -0400","original":"9/14/2011 14:30","granularity":"min","time":"2011/09/14 14:30:00 -0400"},"geo_score":0.902,"unit":58,"disposition":"200","cfs":15,"call#":11.00952,"id":"a6dqcif2z0dd","geo_precision":"range","address":"117 Schonhardt St","state":"OH","juris":"PD"},"type":"Feature","geometry":{"type":"Point","coordinates":[-83.172524,41.110061]}},{"properties":{"officer":"PJD","city":"Tiffin","zip":"44883","date":{"end_time":"2011/04/24 21:45:00 -0400","original":"4/24/2011 21:44","granularity":"min","time":"2011/04/24 21:44:00 -0400"},"geo_score":0.902,"unit":61,"disposition":"200","cfs":15,"call#":11.003869,"id":"a6dqci90aitu","geo_precision":"range","address":"120 Benner St","state":"OH","juris":"PD"},"type":"Feature","geometry":{"type":"Point","coordinates":[-83.180574,41.118103]}},{"properties":{"officer":"SGN","city":"Tiffin","zip":"44883","date":{"end_time":"2011/11/11 10:24:00 -0500","original":"11/11/2011 10:23","granularity":"min","time":"2011/11/11 10:23:00 -0500"},"geo_score":0.861,"unit":59,"disposition":"200","cfs":15,"call#":11.011805,"id":"a6dqci4m11ua","geo_precision":"range","address":"124 Ohio Av","state":"OH","juris":"PD"},"type":"Feature","geometry":{"type":"Point","coordinates":[-83.167037,41.122619]}},{"properties":{"officer":"RLT","city":"Tiffin","zip":"44883","date":{"end_time":"2011/02/18 00:25:00 -0500","original":"2/18/2011 0:24","granularity":"min","time":"2011/02/18 00:24:00 -0500"},"geo_score":0.902,"unit":63,"disposition":"200","cfs":15,"call#":11.001577,"id":"a6dqci62llhi","geo_precision":"range","address":"127 Jackson St","state":"OH","juris":"PD"},"type":"Feature","geometry":{"type":"Point","coordinates":[-83.186334,41.116976]}},{"properties":{"officer":"JAD","city":"Tiffin","zip":"44883","date":{"end_time":"2011/01/09 01:23:00 -0500","original":"1/9/2011 1:22","granularity":"min","time":"2011/01/09 01:22:00 -0500"},"geo_score":0.902,"unit":56,"disposition":"450","cfs":15,"call#":11.000226,"id":"a6dqcibqka42","geo_precision":"range","address":"128 Main St","state":"OH","juris":"PD"},"type":"Feature","geometry":{"type":"Point","coordinates":[-83.169933,41.111892]}},{"properties":{"officer":"GTM","city":"Tiffin","zip":"44883","date":{"end_time":"2011/07/05 14:34:00 -0400","original":"7/5/2011 14:33","granularity":"min","time":"2011/07/05 14:33:00 -0400"},"geo_score":0.902,"unit":59,"disposition":"200","cfs":15,"call#":11.006721,"id":"a6dqciapfh95","geo_precision":"range","address":"128 S Monroe St","state":"OH","juris":"PD"},"type":"Feature","geometry":{"type":"Point","coordinates":[-83.177975,41.113146]}},{"properties":{"officer":"SGN","city":"Tiffin","zip":"44883","date":{"end_time":"2011/10/20 11:00:00 -0400","original":"10/20/2011 10:59","granularity":"min","time":"2011/10/20 10:59:00 -0400"},"geo_score":0.902,"unit":59,"disposition":"200","cfs":15,"call#":11.010937,"id":"a6dqci4jv90i","geo_precision":"range","address":"130 Minerva St","state":"OH","juris":"PD"},"type":"Feature","geometry":{"type":"Point","coordinates":[-83.17642,41.124026]}},{"properties":{"officer":"MEM","city":"Tiffin","zip":"44883","date":{"end_time":"2011/09/27 19:41:00 -0400","original":"9/27/2011 19:40","granularity":"min","time":"2011/09/27 19:40:00 -0400"},"geo_score":0.902,"unit":58,"disposition":"100","cfs":15,"call#":11.010074,"id":"a6dqci2af1ow","geo_precision":"range","address":"130 Minerva St","state":"OH","juris":"PD"},"type":"Feature","geometry":{"type":"Point","coordinates":[-83.17642,41.124026]}},{"properties":{"officer":"MEM","city":"Tiffin","zip":"44883","date":{"end_time":"2011/08/10 17:39:00 -0400","original":"8/10/2011 17:38","granularity":"min","time":"2011/08/10 17:38:00 -0400"},"geo_score":0.902,"unit":57,"disposition":"100","cfs":15,"call#":11.008091,"id":"a6dqcienzds4","geo_precision":"range","address":"130 Minerva St","state":"OH","juris":"PD"},"type":"Feature","geometry":{"type":"Point","coordinates":[-83.17642,41.124026]}},{"properties":{"officer":"JPF","city":"Tiffin","zip":"44883","date":{"end_time":"2011/08/04 18:16:00 -0400","original":"8/4/2011 18:15","granularity":"min","time":"2011/08/04 18:15:00 -0400"},"geo_score":0.902,"unit":57,"disposition":"100","cfs":15,"call#":11.00788,"id":"a6dqci2a0hu0","geo_precision":"range","address":"130 Minerva St","state":"OH","juris":"PD"},"type":"Feature","geometry":{"type":"Point","coordinates":[-83.17642,41.124026]}},{"properties":{"officer":"SMM","city":"Tiffin","zip":"44883","date":{"end_time":"2011/06/08 22:29:00 -0400","original":"6/8/2011 22:28","granularity":"min","time":"2011/06/08 22:28:00 -0400"},"geo_score":0.902,"unit":60,"disposition":"100","cfs":15,"call#":11.005662,"id":"a6dqciduien8","geo_precision":"range","address":"130 Minerva St","state":"OH","juris":"PD"},"type":"Feature","geometry":{"type":"Point","coordinates":[-83.17642,41.124026]}},{"properties":{"officer":"RLT","city":"Tiffin","zip":"44883","date":{"end_time":"2011/05/28 21:00:00 -0400","original":"5/28/2011 20:59","granularity":"min","time":"2011/05/28 20:59:00 -0400"},"geo_score":0.902,"unit":61,"disposition":"230","cfs":15,"call#":11.005239,"id":"a6dqcicqpj16","geo_precision":"range","address":"130 Minerva St","state":"OH","juris":"PD"},"type":"Feature","geometry":{"type":"Point","coordinates":[-83.17642,41.124026]}},{"properties":{"officer":"SGN","city":"Tiffin","zip":"44883","date":{"end_time":"2011/05/19 09:41:00 -0400","original":"5/19/2011 9:40","granularity":"min","time":"2011/05/19 09:40:00 -0400"},"geo_score":0.902,"unit":59,"disposition":"200","cfs":15,"call#":11.004858,"id":"a6dqci8in3ow","geo_precision":"range","address":"130 Minerva St","state":"OH","juris":"PD"},"type":"Feature","geometry":{"type":"Point","coordinates":[-83.17642,41.124026]}},{"properties":{"officer":"JDW","city":"Tiffin","zip":"44883","date":{"end_time":"2011/05/11 21:46:00 -0400","original":"5/11/2011 21:45","granularity":"min","time":"2011/05/11 21:45:00 -0400"},"geo_score":0.902,"unit":60,"disposition":"100","cfs":15,"call#":11.004584,"id":"a6dqcido8prm","geo_precision":"range","address":"130 Minerva St","state":"OH","juris":"PD"},"type":"Feature","geometry":{"type":"Point","coordinates":[-83.17642,41.124026]}},{"properties":{"officer":"GTM","city":"Tiffin","zip":"44883","date":{"end_time":"2011/05/09 15:55:00 -0400","original":"5/9/2011 15:54","granularity":"min","time":"2011/05/09 15:54:00 -0400"},"geo_score":0.902,"unit":57,"disposition":"200","cfs":15,"call#":11.004497,"id":"a6dqci2lzk5r","geo_precision":"range","address":"130 Minerva St","state":"OH","juris":"PD"},"type":"Feature","geometry":{"type":"Point","coordinates":[-83.17642,41.124026]}},{"properties":{"officer":"JPF","city":"Tiffin","zip":"44883","date":{"end_time":"2011/04/27 20:09:00 -0400","original":"4/27/2011 20:08","granularity":"min","time":"2011/04/27 20:08:00 -0400"},"geo_score":0.902,"unit":59,"disposition":"450","cfs":15,"call#":11.003972,"id":"a6dqci9bk0vc","geo_precision":"range","address":"130 Minerva St","state":"OH","juris":"PD"},"type":"Feature","geometry":{"type":"Point","coordinates":[-83.17642,41.124026]}},{"properties":{"officer":"JSC","city":"Tiffin","zip":"44883","date":{"end_time":"2011/04/26 19:34:00 -0400","original":"4/26/2011 19:33","granularity":"min","time":"2011/04/26 19:33:00 -0400"},"geo_score":0.902,"unit":59,"disposition":"200","cfs":15,"call#":11.003932,"id":"a6dqcicec2dx","geo_precision":"range","address":"130 Minerva St","state":"OH","juris":"PD"},"type":"Feature","geometry":{"type":"Point","coordinates":[-83.17642,41.124026]}},{"properties":{"officer":"JMW","city":"Tiffin","zip":"44883","date":{"end_time":"2011/04/09 00:32:00 -0400","original":"4/9/2011 0:31","granularity":"min","time":"2011/04/09 00:31:00 -0400"},"geo_score":0.902,"unit":57,"disposition":"230","cfs":15,"call#":11.003205,"id":"a6dqcia5p8b7","geo_precision":"range","address":"130 Minerva St","state":"OH","juris":"PD"},"type":"Feature","geometry":{"type":"Point","coordinates":[-83.17642,41.124026]}},{"properties":{"officer":"JMW","city":"Tiffin","zip":"44883","date":{"end_time":"2011/03/18 20:30:00 -0400","original":"3/18/2011 20:29","granularity":"min","time":"2011/03/18 20:29:00 -0400"},"geo_score":0.902,"unit":57,"disposition":"100","cfs":15,"call#":11.002501,"id":"a6dqci8m8ymk","geo_precision":"range","address":"130 Minerva St","state":"OH","juris":"PD"},"type":"Feature","geometry":{"type":"Point","coordinates":[-83.17642,41.124026]}},{"properties":{"officer":"JMW","city":"Tiffin","zip":"44883","date":{"end_time":"2011/01/26 15:17:00 -0500","original":"1/26/2011 15:16","granularity":"min","time":"2011/01/26 15:16:00 -0500"},"geo_score":0.902,"unit":61,"disposition":"200","cfs":15,"call#":11.000776,"id":"a6dqci683jew","geo_precision":"range","address":"130 Minerva St","state":"OH","juris":"PD"},"type":"Feature","geometry":{"type":"Point","coordinates":[-83.17642,41.124026]}},{"properties":{"officer":"FWS","city":"Tiffin","zip":"44883","date":{"end_time":"2011/06/01 18:10:00 -0400","original":"6/1/2011 18:09","granularity":"min","time":"2011/06/01 18:09:00 -0400"},"geo_score":0.902,"unit":58,"disposition":"100","cfs":15,"call#":11.005394,"id":"a6dqcibotw5g","geo_precision":"range","address":"132 Longfellow Dr","state":"OH","juris":"PD"},"type":"Feature","geometry":{"type":"Point","coordinates":[-83.194573,41.100366]}},{"properties":{"officer":"JDW","city":"Tiffin","zip":"44883","date":{"end_time":"2011/07/14 00:33:00 -0400","original":"7/14/2011 0:32","granularity":"min","time":"2011/07/14 00:32:00 -0400"},"geo_score":0.902,"unit":58,"disposition":"200","cfs":15,"call#":11.007019,"id":"a6dqci2uqhjo","geo_precision":"range","address":"134X N Washington St","state":"OH","juris":"PD"},"type":"Feature","geometry":{"type":"Point","coordinates":[-83.177653,41.121506]}},{"properties":{"officer":"BAR","city":"Tiffin","zip":"44883","date":{"end_time":"2011/07/10 18:38:00 -0400","original":"7/10/2011 18:37","granularity":"min","time":"2011/07/10 18:37:00 -0400"},"geo_score":0.902,"unit":63,"disposition":"200","cfs":15,"call#":11.006912,"id":"a6dqcib28bw9","geo_precision":"range","address":"134X N Washington St","state":"OH","juris":"PD"},"type":"Feature","geometry":{"type":"Point","coordinates":[-83.177653,41.121506]}},{"properties":{"officer":"DES","city":"Tiffin","zip":"44883","date":{"end_time":"2011/10/14 16:35:00 -0400","original":"10/14/2011 16:34","granularity":"min","time":"2011/10/14 16:34:00 -0400"},"geo_score":0.902,"unit":58,"disposition":"100","cfs":15,"call#":11.010745,"id":"a6dqcic6bmyl","geo_precision":"range","address":"135 Coe St","state":"OH","juris":"PD"},"type":"Feature","geometry":{"type":"Point","coordinates":[-83.171437,41.107465]}},{"properties":{"officer":"JDW","city":"Tiffin","zip":"44883","date":{"end_time":"2011/01/12 17:50:00 -0500","original":"1/12/2011 17:49","granularity":"min","time":"2011/01/12 17:49:00 -0500"},"geo_score":0.902,"unit":60,"disposition":"200","cfs":15,"call#":11.000334,"id":"a6dqcibqs5er","geo_precision":"range","address":"135 Coe St","state":"OH","juris":"PD"},"type":"Feature","geometry":{"type":"Point","coordinates":[-83.171437,41.107465]}},{"properties":{"officer":"MEM","city":"Tiffin","zip":"44883","date":{"end_time":"2011/03/03 15:59:00 -0500","original":"3/3/2011 15:58","granularity":"min","time":"2011/03/03 15:58:00 -0500"},"geo_score":0.902,"unit":63,"disposition":"200","cfs":15,"call#":11.002012,"id":"a6dqciasfv91","geo_precision":"range","address":"14 Duchess Ln","state":"OH","juris":"PD"},"type":"Feature","geometry":{"type":"Point","coordinates":[-83.191503,41.103496]}},{"properties":{"officer":"RLT","city":"Tiffin","zip":"44883","date":{"end_time":"2011/07/09 20:42:00 -0400","original":"7/9/2011 20:41","granularity":"min","time":"2011/07/09 20:41:00 -0400"},"geo_score":0.902,"unit":59,"disposition":"200","cfs":15,"call#":11.006867,"id":"a6dqci9bgzmk","geo_precision":"range","address":"144 Nelson St","state":"OH","juris":"PD"},"type":"Feature","geometry":{"type":"Point","coordinates":[-83.196689,41.116712]}},{"properties":{"officer":"JMW","city":"Tiffin","zip":"44883","date":{"end_time":"2011/11/08 17:42:00 -0500","original":"11/8/2011 17:41","granularity":"min","time":"2011/11/08 17:41:00 -0500"},"geo_score":0.902,"unit":60,"disposition":"200","cfs":15,"call#":11.011683,"id":"a6dqci56k3ur","geo_precision":"range","address":"145 Madison St","state":"OH","juris":"PD"},"type":"Feature","geometry":{"type":"Point","coordinates":[-83.174721,41.113518]}},{"properties":{"officer":"SMM","city":"Tiffin","zip":"44883","date":{"end_time":"2011/04/11 19:24:00 -0400","original":"4/11/2011 19:23","granularity":"min","time":"2011/04/11 19:23:00 -0400"},"geo_score":0.537,"unit":58,"disposition":"200","cfs":15,"call#":11.003345,"id":"a6dqci7wcz2u","geo_precision":"street","address":"147 Dallas St","state":"OH","juris":"PD"},"type":"Feature","geometry":{"type":"Point","coordinates":[-82.562576,41.384496]}},{"properties":{"officer":"GTM","city":"Tiffin","zip":"44883","date":{"end_time":"2011/07/03 07:53:00 -0400","original":"7/3/2011 7:52","granularity":"min","time":"2011/07/03 07:52:00 -0400"},"geo_score":0.902,"unit":59,"disposition":"200","cfs":15,"call#":11.006641,"id":"a6dqci33dtfy","geo_precision":"range","address":"147 Tomb St","state":"OH","juris":"PD"},"type":"Feature","geometry":{"type":"Point","coordinates":[-83.1708,41.128782]}},{"properties":{"officer":"SMM","city":"Tiffin","zip":"44883","date":{"end_time":"2011/08/22 21:10:00 -0400","original":"8/22/2011 21:09","granularity":"min","time":"2011/08/22 21:09:00 -0400"},"geo_score":0.902,"unit":59,"disposition":"200","cfs":15,"call#":11.008585,"id":"a6dqci9axnr1","geo_precision":"range","address":"148 Apple St","state":"OH","juris":"PD"},"type":"Feature","geometry":{"type":"Point","coordinates":[-83.184483,41.12472]}},{"properties":{"officer":"BRB","city":"Tiffin","zip":"44883","date":{"end_time":"2011/06/20 14:26:00 -0400","original":"6/20/2011 14:25","granularity":"min","time":"2011/06/20 14:25:00 -0400"},"geo_score":0.902,"unit":63,"disposition":"200","cfs":15,"call#":11.006123,"id":"a6dqci1jkhut","geo_precision":"range","address":"148 Apple St","state":"OH","juris":"PD"},"type":"Feature","geometry":{"type":"Point","coordinates":[-83.184483,41.12472]}},{"properties":{"officer":"DES","city":"Tiffin","zip":"44883","date":{"end_time":"2011/12/18 08:50:00 -0500","original":"12/18/2011 8:49","granularity":"min","time":"2011/12/18 08:49:00 -0500"},"geo_score":0.902,"unit":61,"disposition":"200","cfs":15,"call#":11.013341,"id":"a6dqci7sg3yu","geo_precision":"range","address":"148 Minerva St","state":"OH","juris":"PD"},"type":"Feature","geometry":{"type":"Point","coordinates":[-83.17652,41.124634]}},{"properties":{"officer":"REB","city":"Tiffin","zip":"44883","date":{"end_time":"2011/02/03 15:26:00 -0500","original":"2/3/2011 15:25","granularity":"min","time":"2011/02/03 15:25:00 -0500"},"geo_score":0.902,"unit":558,"disposition":"200","cfs":15,"call#":11.001028,"id":"a6dqcifj3i8o","geo_precision":"range","address":"150 Erie St","state":"OH","juris":"PD"},"type":"Feature","geometry":{"type":"Point","coordinates":[-83.17498,41.124971]}},{"properties":{"officer":"LMK","city":"Tiffin","zip":"44883","date":{"end_time":"2011/05/20 22:56:00 -0400","original":"5/20/2011 22:55","granularity":"min","time":"2011/05/20 22:55:00 -0400"},"geo_score":0.429,"unit":58,"disposition":"100","cfs":15,"call#":11.00493,"id":"a6dqcih16nnr","geo_precision":"street","address":"151 Dallas St,B","state":"OH","juris":"PD"},"type":"Feature","geometry":{"type":"Point","coordinates":[-82.46403,41.384433]}},{"properties":{"officer":"RJO","city":"Tiffin","zip":"44883","date":{"end_time":"2011/12/02 15:08:00 -0500","original":"12/2/2011 15:07","granularity":"min","time":"2011/12/02 15:07:00 -0500"},"geo_score":0.902,"unit":60,"disposition":"200","cfs":15,"call#":11.012689,"id":"a6dqci9t8mnx","geo_precision":"range","address":"151 Elmer St","state":"OH","juris":"PD"},"type":"Feature","geometry":{"type":"Point","coordinates":[-83.193722,41.117661]}},{"properties":{"officer":"RJO","city":"Tiffin","zip":"44883","date":{"end_time":"2011/05/26 15:36:00 -0400","original":"5/26/2011 15:35","granularity":"min","time":"2011/05/26 15:35:00 -0400"},"geo_score":0.902,"unit":60,"disposition":"200","cfs":15,"call#":11.005129,"id":"a6dqcic6xsmn","geo_precision":"range","address":"151 Elmer St","state":"OH","juris":"PD"},"type":"Feature","geometry":{"type":"Point","coordinates":[-83.193722,41.117661]}},{"properties":{"officer":"JMW","city":"Tiffin","zip":"44883","date":{"end_time":"2011/05/19 17:45:00 -0400","original":"5/19/2011 17:44","granularity":"min","time":"2011/05/19 17:44:00 -0400"},"geo_score":0.902,"unit":60,"disposition":"200","cfs":15,"call#":11.00487,"id":"a6dqci8xgynx","geo_precision":"range","address":"151 Elmer St","state":"OH","juris":"PD"},"type":"Feature","geometry":{"type":"Point","coordinates":[-83.193722,41.117661]}},{"properties":{"officer":"BRB","city":"Tiffin","zip":"44883","date":{"end_time":"2011/06/24 08:59:00 -0400","original":"6/24/2011 8:58","granularity":"min","time":"2011/06/24 08:58:00 -0400"},"geo_score":0.902,"unit":63,"disposition":"200","cfs":15,"call#":11.006251,"id":"a6dqcib5ibpw","geo_precision":"range","address":"151 Minerva St","state":"OH","juris":"PD"},"type":"Feature","geometry":{"type":"Point","coordinates":[-83.176527,41.124689]}},{"properties":{"officer":"MEM","city":"Tiffin","zip":"44883","date":{"end_time":"2011/12/26 19:32:00 -0500","original":"12/26/2011 19:31","granularity":"min","time":"2011/12/26 19:31:00 -0500"},"geo_score":0.756,"unit":58,"disposition":"200","cfs":15,"call#":11.01361,"id":"a6dqciak7daq","geo_precision":"range","address":"151 Second Av","state":"OH","juris":"PD"},"type":"Feature","geometry":{"type":"Point","coordinates":[-83.18162,41.128757]}},{"properties":{"officer":"REB","city":"Tiffin","zip":"44883","date":{"end_time":"2011/11/30 16:48:00 -0500","original":"11/30/2011 16:47","granularity":"min","time":"2011/11/30 16:47:00 -0500"},"geo_score":0.756,"unit":558,"disposition":"200","cfs":15,"call#":11.012626,"id":"a6dqci392bnx","geo_precision":"range","address":"151 Second Av","state":"OH","juris":"PD"},"type":"Feature","geometry":{"type":"Point","coordinates":[-83.18162,41.128757]}},{"properties":{"officer":"SMM","city":"Tiffin","zip":"44883","date":{"end_time":"2011/03/25 17:31:00 -0400","original":"3/25/2011 17:30","granularity":"min","time":"2011/03/25 17:30:00 -0400"},"geo_score":0.756,"unit":61,"disposition":"200","cfs":15,"call#":11.002713,"id":"a6dqci3obpbx","geo_precision":"range","address":"151 Second Av","state":"OH","juris":"PD"},"type":"Feature","geometry":{"type":"Point","coordinates":[-83.18162,41.128757]}},{"properties":{"officer":"JMW","city":"Tiffin","zip":"44883","date":{"end_time":"2011/03/02 20:51:00 -0500","original":"3/2/2011 20:50","granularity":"min","time":"2011/03/02 20:50:00 -0500"},"geo_score":0.756,"unit":57,"disposition":"400","cfs":15,"call#":11.00198,"id":"a6dqci6e41ut","geo_precision":"range","address":"151 Second Av","state":"OH","juris":"PD"},"type":"Feature","geometry":{"type":"Point","coordinates":[-83.18162,41.128757]}},{"properties":{"officer":"MEM","city":"Tiffin","zip":"44883","date":{"end_time":"2011/10/26 19:41:00 -0400","original":"10/26/2011 19:40","granularity":"min","time":"2011/10/26 19:40:00 -0400"},"geo_score":0.902,"unit":58,"disposition":"100","cfs":15,"call#":11.011182,"id":"a6dqcigm6dq1","geo_precision":"range","address":"152 Madison St","state":"OH","juris":"PD"},"type":"Feature","geometry":{"type":"Point","coordinates":[-83.174582,41.113535]}},{"properties":{"officer":"EDA","city":"Tiffin","zip":"44883","date":{"end_time":"2011/03/21 22:30:00 -0400","original":"3/21/2011 22:29","granularity":"min","time":"2011/03/21 22:29:00 -0400"},"geo_score":0.902,"unit":60,"disposition":"200","cfs":15,"call#":11.002607,"id":"a6dqci57h7fh","geo_precision":"range","address":"152 Madison St","state":"OH","juris":"PD"},"type":"Feature","geometry":{"type":"Point","coordinates":[-83.174582,41.113535]}},{"properties":{"officer":"JPF","city":"Tiffin","zip":"44883","date":{"end_time":"2011/09/09 18:55:00 -0400","original":"9/9/2011 18:54","granularity":"min","time":"2011/09/09 18:54:00 -0400"},"geo_score":0.902,"unit":59,"disposition":"200","cfs":15,"call#":11.009345,"id":"a6dqcideqdmo","geo_precision":"range","address":"154 S Washington St","state":"OH","juris":"PD"},"type":"Feature","geometry":{"type":"Point","coordinates":[-83.176365,41.11326]}},{"properties":{"officer":"SMM","city":"Tiffin","zip":"44883","date":{"end_time":"2011/03/21 20:08:00 -0400","original":"3/21/2011 20:07","granularity":"min","time":"2011/03/21 20:07:00 -0400"},"geo_score":0.429,"unit":59,"disposition":"200","cfs":15,"call#":11.002604,"id":"a6dqci2babpq","geo_precision":"street","address":"157 Dallas St,D","state":"OH","juris":"PD"},"type":"Feature","geometry":{"type":"Point","coordinates":[-82.625709,41.436284]}},{"properties":{"officer":"GTM","city":"Tiffin","zip":"44883","date":{"end_time":"2011/06/28 15:40:00 -0400","original":"6/28/2011 15:39","granularity":"min","time":"2011/06/28 15:39:00 -0400"},"geo_score":0.429,"unit":61,"disposition":"450","cfs":15,"call#":11.006414,"id":"a6dqcibi5w3z","geo_precision":"street","address":"159 Dallas St,D","state":"OH","juris":"PD"},"type":"Feature","geometry":{"type":"Point","coordinates":[-82.625709,41.436284]}},{"properties":{"officer":"JAD","city":"Tiffin","zip":"44883","date":{"end_time":"2011/02/07 19:39:00 -0500","original":"2/7/2011 19:38","granularity":"min","time":"2011/02/07 19:38:00 -0500"},"geo_score":0.476,"unit":56,"disposition":"200","cfs":15,"call#":11.001225,"id":"a6dqcih5lrr5","geo_precision":"street","address":"16 E Market St,A","state":"OH","juris":"PD"},"type":"Feature","geometry":{"type":"Point","coordinates":[-83.181592,41.114111]}},{"properties":{"officer":"MEM","city":"Tiffin","zip":"44883","date":{"end_time":"2011/04/01 17:24:00 -0400","original":"4/1/2011 17:23","granularity":"min","time":"2011/04/01 17:23:00 -0400"},"geo_score":0.902,"unit":63,"disposition":"100","cfs":15,"call#":11.002916,"id":"a6dqci2bpwg7","geo_precision":"range","address":"16 E Perry St","state":"OH","juris":"PD"},"type":"Feature","geometry":{"type":"Point","coordinates":[-83.179011,41.115628]}},{"properties":{"officer":"SMM","city":"Tiffin","zip":"44883","date":{"end_time":"2011/03/17 22:55:00 -0400","original":"3/17/2011 22:54","granularity":"min","time":"2011/03/17 22:54:00 -0400"},"geo_score":0.902,"unit":60,"disposition":"200","cfs":15,"call#":11.002467,"id":"a6dqci4tdwi6","geo_precision":"range","address":"16 Tiffin St","state":"OH","juris":"PD"},"type":"Feature","geometry":{"type":"Point","coordinates":[-83.173537,41.112975]}},{"properties":{"officer":"JMW","city":"Tiffin","zip":"44883","date":{"end_time":"2011/11/16 17:33:00 -0500","original":"11/16/2011 17:32","granularity":"min","time":"2011/11/16 17:32:00 -0500"},"geo_score":0.902,"unit":60,"disposition":"200","cfs":15,"call#":11.012033,"id":"a6dqcigdmneq","geo_precision":"range","address":"160 E Perry St","state":"OH","juris":"PD"},"type":"Feature","geometry":{"type":"Point","coordinates":[-83.174106,41.116102]}},{"properties":{"officer":"EDA","city":"Tiffin","zip":"44883","date":{"end_time":"2011/03/14 18:52:00 -0400","original":"3/14/2011 18:51","granularity":"min","time":"2011/03/14 18:51:00 -0400"},"geo_score":0.756,"unit":59,"disposition":"200","cfs":15,"call#":11.002381,"id":"a6dqcic7kweo","geo_precision":"range","address":"161 Second Av","state":"OH","juris":"PD"},"type":"Feature","geometry":{"type":"Point","coordinates":[-83.18193,41.128752]}},{"properties":{"officer":"FWS","city":"Tiffin","zip":"44883","date":{"end_time":"2011/02/21 15:14:00 -0500","original":"2/21/2011 15:13","granularity":"min","time":"2011/02/21 15:13:00 -0500"},"geo_score":0.902,"unit":62,"disposition":"200","cfs":15,"call#":11.001686,"id":"a6dqcigvnqv1","geo_precision":"range","address":"163 Schonhardt St","state":"OH","juris":"PD"},"type":"Feature","geometry":{"type":"Point","coordinates":[-83.172302,41.108793]}},{"properties":{"officer":"JMW","city":"Tiffin","zip":"44883","date":{"end_time":"2011/02/24 16:59:00 -0500","original":"2/24/2011 16:58","granularity":"min","time":"2011/02/24 16:58:00 -0500"},"geo_score":0.902,"unit":57,"disposition":"200","cfs":15,"call#":11.001766,"id":"a6dqci2vhxhn","geo_precision":"range","address":"164 Melmore St","state":"OH","juris":"PD"},"type":"Feature","geometry":{"type":"Point","coordinates":[-83.17198,41.105815]}},{"properties":{"officer":"DES","city":"Tiffin","zip":"44883","date":{"end_time":"2011/01/03 10:10:00 -0500","original":"1/3/2011 10:09","granularity":"min","time":"2011/01/03 10:09:00 -0500"},"geo_score":0.902,"unit":61,"disposition":"200","cfs":15,"call#":11.000084,"id":"a6dqci1r28we","geo_precision":"range","address":"165 Lincoln Rd","state":"OH","juris":"PD"},"type":"Feature","geometry":{"type":"Point","coordinates":[-83.160798,41.101199]}},{"properties":{"officer":"MMS","city":"Tiffin","zip":"44883","date":{"end_time":"2011/09/05 22:14:00 -0400","original":"9/5/2011 22:13","granularity":"min","time":"2011/09/05 22:13:00 -0400"},"geo_score":0.902,"unit":57,"disposition":"200","cfs":15,"call#":11.009178,"id":"a6dqci42ok3q","geo_precision":"range","address":"165 Webster St","state":"OH","juris":"PD"},"type":"Feature","geometry":{"type":"Point","coordinates":[-83.179102,41.123558]}},{"properties":{"officer":"BAR","city":"Tiffin","zip":"44883","date":{"end_time":"2011/03/10 18:05:00 -0500","original":"3/10/2011 18:04","granularity":"min","time":"2011/03/10 18:04:00 -0500"},"geo_score":0.902,"unit":58,"disposition":"200","cfs":15,"call#":11.002258,"id":"a6dqci75ws8b","geo_precision":"range","address":"166 Circular St","state":"OH","juris":"PD"},"type":"Feature","geometry":{"type":"Point","coordinates":[-83.169223,41.110946]}},{"properties":{"officer":"LMK","city":"Tiffin","zip":"44883","date":{"end_time":"2011/07/08 01:14:00 -0400","original":"7/8/2011 1:13","granularity":"min","time":"2011/07/08 01:13:00 -0400"},"geo_score":0.902,"unit":61,"disposition":"100","cfs":15,"call#":11.006804,"id":"a6dqcic0hjub","geo_precision":"range","address":"166 W Market St","state":"OH","juris":"PD"},"type":"Feature","geometry":{"type":"Point","coordinates":[-83.185737,41.113677]}},{"properties":{"officer":"BRB","city":"Tiffin","zip":"44883","date":{"end_time":"2011/08/24 15:51:00 -0400","original":"8/24/2011 15:50","granularity":"min","time":"2011/08/24 15:50:00 -0400"},"geo_score":0.902,"unit":57,"disposition":"200","cfs":15,"call#":11.008665,"id":"a6dqcigwi6jj","geo_precision":"range","address":"167 E Perry St","state":"OH","juris":"PD"},"type":"Feature","geometry":{"type":"Point","coordinates":[-83.173872,41.11613]}},{"properties":{"officer":"RMN","city":"Tiffin","zip":"44883","date":{"end_time":"2011/12/09 21:42:00 -0500","original":"12/9/2011 21:41","granularity":"min","time":"2011/12/09 21:41:00 -0500"},"geo_score":0.902,"unit":57,"disposition":"200","cfs":15,"call#":11.012962,"id":"a6dqci830u1j","geo_precision":"range","address":"167 S Sandusky St","state":"OH","juris":"PD"},"type":"Feature","geometry":{"type":"Point","coordinates":[-83.185318,41.115503]}},{"properties":{"officer":"JMW","city":"Tiffin","zip":"44883","date":{"end_time":"2011/07/24 13:31:00 -0400","original":"7/24/2011 13:30","granularity":"min","time":"2011/07/24 13:30:00 -0400"},"geo_score":0.902,"unit":57,"disposition":"200","cfs":15,"call#":11.007432,"id":"a6dqci9w6mtb","geo_precision":"range","address":"168 N Monroe St","state":"OH","juris":"PD"},"type":"Feature","geometry":{"type":"Point","coordinates":[-83.179201,41.121504]}},{"properties":{"officer":"SMM","city":"Tiffin","zip":"44883","date":{"end_time":"2011/05/31 22:13:00 -0400","original":"5/31/2011 22:12","granularity":"min","time":"2011/05/31 22:12:00 -0400"},"geo_score":0.902,"unit":63,"disposition":"200","cfs":15,"call#":11.005366,"id":"a6dqci3u8g3q","geo_precision":"range","address":"1692 W Market St,33","state":"OH","juris":"PD"},"type":"Feature","geometry":{"type":"Point","coordinates":[-83.18164,41.114105]}},{"properties":{"officer":"RJO","city":"Tiffin","zip":"44883","date":{"end_time":"2011/09/04 14:56:00 -0400","original":"9/4/2011 14:55","granularity":"min","time":"2011/09/04 14:55:00 -0400"},"geo_score":0.902,"unit":57,"disposition":"200","cfs":15,"call#":11.009126,"id":"a6dqcifp18ju","geo_precision":"range","address":"1692 W Market St,50","state":"OH","juris":"PD"},"type":"Feature","geometry":{"type":"Point","coordinates":[-83.18205,41.114051]}},{"properties":{"officer":"FWS","city":"Tiffin","zip":"44883","date":{"end_time":"2011/08/18 09:13:00 -0400","original":"8/18/2011 9:12","granularity":"min","time":"2011/08/18 09:12:00 -0400"},"geo_score":0.902,"unit":58,"disposition":"200","cfs":15,"call#":11.008395,"id":"a6dqciet06i0","geo_precision":"range","address":"1692 W Market St,58","state":"OH","juris":"PD"},"type":"Feature","geometry":{"type":"Point","coordinates":[-83.182233,41.114027]}},{"properties":{"officer":"RJO","city":"Tiffin","zip":"44883","date":{"end_time":"2011/03/10 09:24:00 -0500","original":"3/10/2011 9:23","granularity":"min","time":"2011/03/10 09:23:00 -0500"},"geo_score":0.902,"unit":60,"disposition":"200","cfs":15,"call#":11.002242,"id":"a6dqcidn9f3b","geo_precision":"range","address":"170 S Washington St","state":"OH","juris":"PD"},"type":"Feature","geometry":{"type":"Point","coordinates":[-83.176304,41.112774]}},{"properties":{"officer":"GTM","city":"Tiffin","zip":"44883","date":{"end_time":"2011/09/25 11:37:00 -0400","original":"9/25/2011 11:36","granularity":"min","time":"2011/09/25 11:36:00 -0400"},"geo_score":0.902,"unit":59,"disposition":"200","cfs":15,"call#":11.00998,"id":"a6dqcifs9dsf","geo_precision":"range","address":"1714 W Market St","state":"OH","juris":"PD"},"type":"Feature","geometry":{"type":"Point","coordinates":[-83.204289,41.11169]}},{"properties":{"officer":"BRB","city":"Tiffin","zip":"44883","date":{"end_time":"2011/03/28 08:33:00 -0400","original":"3/28/2011 8:32","granularity":"min","time":"2011/03/28 08:32:00 -0400"},"geo_score":0.902,"unit":63,"disposition":"200","cfs":15,"call#":11.002797,"id":"a6dqcict6pe4","geo_precision":"range","address":"1714 W Market St","state":"OH","juris":"PD"},"type":"Feature","geometry":{"type":"Point","coordinates":[-83.204289,41.11169]}},{"properties":{"officer":"SGN","city":"Tiffin","zip":"44883","date":{"end_time":"2011/06/07 13:31:00 -0400","original":"6/7/2011 13:30","granularity":"min","time":"2011/06/07 13:30:00 -0400"},"geo_score":0.902,"unit":59,"disposition":"200","cfs":15,"call#":11.005606,"id":"a6dqci8kvie0","geo_precision":"range","address":"174 Duchess Ln","state":"OH","juris":"PD"},"type":"Feature","geometry":{"type":"Point","coordinates":[-83.191515,41.099144]}},{"properties":{"officer":"EDA","city":"Tiffin","zip":"44883","date":{"end_time":"2011/10/03 18:16:00 -0400","original":"10/3/2011 18:15","granularity":"min","time":"2011/10/03 18:15:00 -0400"},"geo_score":0.902,"unit":62,"disposition":"200","cfs":15,"call#":11.010299,"id":"a6dqci748g3u","geo_precision":"range","address":"174 Minerva St","state":"OH","juris":"PD"},"type":"Feature","geometry":{"type":"Point","coordinates":[-83.176633,41.125548]}},{"properties":{"officer":"FWS","city":"Tiffin","zip":"44883","date":{"end_time":"2011/08/18 15:34:00 -0400","original":"8/18/2011 15:33","granularity":"min","time":"2011/08/18 15:33:00 -0400"},"geo_score":0.902,"unit":58,"disposition":"100","cfs":15,"call#":11.008408,"id":"a6dqcidbx4t9","geo_precision":"range","address":"174 Minerva St","state":"OH","juris":"PD"},"type":"Feature","geometry":{"type":"Point","coordinates":[-83.176633,41.125548]}},{"properties":{"officer":"JMW","city":"Tiffin","zip":"44883","date":{"end_time":"2011/11/11 18:08:00 -0500","original":"11/11/2011 18:07","granularity":"min","time":"2011/11/11 18:07:00 -0500"},"geo_score":0.429,"unit":60,"disposition":"200","cfs":15,"call#":11.011818,"id":"a6dqciejvl8a","geo_precision":"street","address":"1742 W Market St,F","state":"OH","juris":"PD"},"type":"Feature","geometry":{"type":"Point","coordinates":[-83.181592,41.114111]}},{"properties":{"officer":"JPF","city":"Tiffin","zip":"44883","date":{"end_time":"2011/08/24 18:59:00 -0400","original":"8/24/2011 18:58","granularity":"min","time":"2011/08/24 18:58:00 -0400"},"geo_score":0.429,"unit":59,"disposition":"200","cfs":15,"call#":11.008677,"id":"a6dqci9fb352","geo_precision":"street","address":"1742 W Market St,F","state":"OH","juris":"PD"},"type":"Feature","geometry":{"type":"Point","coordinates":[-83.181592,41.114111]}},{"properties":{"officer":"SGN","city":"Tiffin","zip":"44883","date":{"end_time":"2011/08/23 16:16:00 -0400","original":"8/23/2011 16:15","granularity":"min","time":"2011/08/23 16:15:00 -0400"},"geo_score":0.429,"unit":59,"disposition":"200","cfs":15,"call#":11.008622,"id":"a6dqci54af7p","geo_precision":"street","address":"1742 W Market St,F","state":"OH","juris":"PD"},"type":"Feature","geometry":{"type":"Point","coordinates":[-83.181592,41.114111]}},{"properties":{"officer":"RMN","city":"Tiffin","zip":"44883","date":{"end_time":"2011/12/10 18:12:00 -0500","original":"12/10/2011 18:11","granularity":"min","time":"2011/12/10 18:11:00 -0500"},"geo_score":0.902,"unit":57,"disposition":"100","cfs":15,"call#":11.012994,"id":"a6dqcigisxnl","geo_precision":"range","address":"175 S Monroe St","state":"OH","juris":"PD"},"type":"Feature","geometry":{"type":"Point","coordinates":[-83.177748,41.11164]}},{"properties":{"officer":"JDW","city":"Tiffin","zip":"44883","date":{"end_time":"2011/07/29 01:35:00 -0400","original":"7/29/2011 1:34","granularity":"min","time":"2011/07/29 01:34:00 -0400"},"geo_score":0.902,"unit":58,"disposition":"200","cfs":15,"call#":11.007596,"id":"a6dqci3hsk85","geo_precision":"range","address":"175 S Monroe St","state":"OH","juris":"PD"},"type":"Feature","geometry":{"type":"Point","coordinates":[-83.177748,41.11164]}},{"properties":{"officer":"GTM","city":"Tiffin","zip":"44883","date":{"end_time":"2011/05/16 11:12:00 -0400","original":"5/16/2011 11:11","granularity":"min","time":"2011/05/16 11:11:00 -0400"},"geo_score":0.902,"unit":59,"disposition":"100","cfs":15,"call#":11.004759,"id":"a6dqcihjwx2b","geo_precision":"range","address":"175 S Monroe St","state":"OH","juris":"PD"},"type":"Feature","geometry":{"type":"Point","coordinates":[-83.177748,41.11164]}},{"properties":{"officer":"LMK","city":"Tiffin","zip":"44883","date":{"end_time":"2011/11/02 19:04:00 -0400","original":"11/2/2011 19:03","granularity":"min","time":"2011/11/02 19:03:00 -0400"},"geo_score":0.756,"unit":850,"disposition":"200","cfs":15,"call#":11.011459,"id":"a6dqcid9x6f9","geo_precision":"range","address":"176 First Av","state":"OH","juris":"PD"},"type":"Feature","geometry":{"type":"Point","coordinates":[-83.183453,41.127883]}},{"properties":{"officer":"JAD","city":"Tiffin","zip":"44883","date":{"end_time":"2011/03/27 19:45:00 -0400","original":"3/27/2011 19:44","granularity":"min","time":"2011/03/27 19:44:00 -0400"},"geo_score":0.756,"unit":56,"disposition":"200","cfs":15,"call#":11.002787,"id":"a6dqci1obcn8","geo_precision":"range","address":"176 First Av","state":"OH","juris":"PD"},"type":"Feature","geometry":{"type":"Point","coordinates":[-83.183453,41.127883]}},{"properties":{"officer":"BAR","city":"Tiffin","zip":"44883","date":{"end_time":"2011/12/31 18:52:00 -0500","original":"12/31/2011 18:51","granularity":"min","time":"2011/12/31 18:51:00 -0500"},"geo_score":0.876,"unit":63,"disposition":"200","cfs":15,"call#":11.013761,"id":"a6dqci8kzjzg","geo_precision":"range","address":"18 Virginia Av","state":"OH","juris":"PD"},"type":"Feature","geometry":{"type":"Point","coordinates":[-83.191862,41.11559]}},{"properties":{"officer":"DES","city":"Tiffin","zip":"44883","date":{"end_time":"2011/05/13 11:48:00 -0400","original":"5/13/2011 11:47","granularity":"min","time":"2011/05/13 11:47:00 -0400"},"geo_score":0.902,"unit":61,"disposition":"200","cfs":15,"call#":11.004648,"id":"a6dqci744jfh","geo_precision":"range","address":"182 S Monroe St,2","state":"OH","juris":"PD"},"type":"Feature","geometry":{"type":"Point","coordinates":[-83.178451,41.116211]}},{"properties":{"officer":"MMS","city":"Tiffin","zip":"44883","date":{"end_time":"2011/10/10 21:29:00 -0400","original":"10/10/2011 21:28","granularity":"min","time":"2011/10/10 21:28:00 -0400"},"geo_score":0.902,"unit":57,"disposition":"200","cfs":15,"call#":11.010598,"id":"a6dqci5igcfk","geo_precision":"range","address":"184 E Market St,225","state":"OH","juris":"PD"},"type":"Feature","geometry":{"type":"Point","coordinates":[-83.171646,41.115058]}},{"properties":{"officer":"MEM","city":"Tiffin","zip":"44883","date":{"end_time":"2011/06/15 16:18:00 -0400","original":"6/15/2011 16:17","granularity":"min","time":"2011/06/15 16:17:00 -0400"},"geo_score":0.902,"unit":61,"disposition":"200","cfs":15,"call#":11.005933,"id":"a6dqci5evixy","geo_precision":"range","address":"184 E Market St,322","state":"OH","juris":"PD"},"type":"Feature","geometry":{"type":"Point","coordinates":[-83.168361,41.116882]}},{"properties":{"officer":"JMW","city":"Tiffin","zip":"44883","date":{"end_time":"2011/06/08 20:28:00 -0400","original":"6/8/2011 20:27","granularity":"min","time":"2011/06/08 20:27:00 -0400"},"geo_score":0.902,"unit":57,"disposition":"200","cfs":15,"call#":11.005656,"id":"a6dqcihov4th","geo_precision":"range","address":"184 E Market St,324","state":"OH","juris":"PD"},"type":"Feature","geometry":{"type":"Point","coordinates":[-83.168341,41.1169]}},{"properties":{"officer":"MEM","city":"Tiffin","zip":"44883","date":{"end_time":"2011/04/28 15:16:00 -0400","original":"4/28/2011 15:15","granularity":"min","time":"2011/04/28 15:15:00 -0400"},"geo_score":0.902,"unit":63,"disposition":"450","cfs":15,"call#":11.004005,"id":"a6dqcigldlmy","geo_precision":"range","address":"186 S Washington St","state":"OH","juris":"PD"},"type":"Feature","geometry":{"type":"Point","coordinates":[-83.176242,41.112289]}},{"properties":{"officer":"JPF","city":"Tiffin","zip":"44883","date":{"end_time":"2011/09/29 17:22:00 -0400","original":"9/29/2011 17:21","granularity":"min","time":"2011/09/29 17:21:00 -0400"},"geo_score":0.902,"unit":59,"disposition":"200","cfs":15,"call#":11.010147,"id":"a6dqci8b9mra","geo_precision":"range","address":"19 W Market St","state":"OH","juris":"PD"},"type":"Feature","geometry":{"type":"Point","coordinates":[-83.18125,41.114134]}},{"properties":{"officer":"DES","city":"Tiffin","zip":"44883","date":{"end_time":"2011/05/20 14:54:00 -0400","original":"5/20/2011 14:53","granularity":"min","time":"2011/05/20 14:53:00 -0400"},"geo_score":0.408,"unit":61,"disposition":"200","cfs":15,"call#":11.004908,"id":"a6dqci4sbho6","geo_precision":"street","address":"190 St Francis Av","state":"OH","juris":"PD"},"type":"Feature","geometry":{"type":"Point","coordinates":[-83.435561,41.152397]}},{"properties":{"officer":"SGN","city":"Tiffin","zip":"44883","date":{"end_time":"2011/04/12 08:31:00 -0400","original":"4/12/2011 8:30","granularity":"min","time":"2011/04/12 08:30:00 -0400"},"geo_score":0.408,"unit":59,"disposition":"200","cfs":15,"call#":11.003364,"id":"a6dqci2nnual","geo_precision":"street","address":"190 St Francis Av","state":"OH","juris":"PD"},"type":"Feature","geometry":{"type":"Point","coordinates":[-83.435561,41.152397]}},{"properties":{"officer":"JDW","city":"Tiffin","zip":"44883","date":{"end_time":"2011/11/26 15:24:00 -0500","original":"11/26/2011 15:23","granularity":"min","time":"2011/11/26 15:23:00 -0500"},"geo_score":0.902,"unit":62,"disposition":"200","cfs":15,"call#":11.012437,"id":"a6dqcicrz0fi","geo_precision":"range","address":"192 Walker St","state":"OH","juris":"PD"},"type":"Feature","geometry":{"type":"Point","coordinates":[-83.165879,41.11125]}},{"properties":{"officer":"MMS","city":"Tiffin","zip":"44883","date":{"end_time":"2011/09/05 22:51:00 -0400","original":"9/5/2011 22:50","granularity":"min","time":"2011/09/05 22:50:00 -0400"},"geo_score":0.902,"unit":57,"disposition":"200","cfs":15,"call#":11.009182,"id":"a6dqci4dmqvt","geo_precision":"range","address":"198 N Sandusky St","state":"OH","juris":"PD"},"type":"Feature","geometry":{"type":"Point","coordinates":[-83.179213,41.124726]}},{"properties":{"officer":"MMS","city":"Tiffin","zip":"44883","date":{"end_time":"2011/09/05 21:53:00 -0400","original":"9/5/2011 21:52","granularity":"min","time":"2011/09/05 21:52:00 -0400"},"geo_score":0.902,"unit":57,"disposition":"200","cfs":15,"call#":11.009173,"id":"a6dqci6gl6as","geo_precision":"range","address":"198 N Sandusky St","state":"OH","juris":"PD"},"type":"Feature","geometry":{"type":"Point","coordinates":[-83.179213,41.124726]}},{"properties":{"officer":"JMW","city":"Tiffin","zip":"44883","date":{"end_time":"2011/08/09 19:28:00 -0400","original":"8/9/2011 19:27","granularity":"min","time":"2011/08/09 19:27:00 -0400"},"geo_score":0.876,"unit":63,"disposition":"200","cfs":15,"call#":11.008058,"id":"a6dqci3dvcam","geo_precision":"range","address":"20 Fairview Av","state":"OH","juris":"PD"},"type":"Feature","geometry":{"type":"Point","coordinates":[-83.186814,41.116891]}},{"properties":{"officer":"MEM","city":"Tiffin","zip":"44883","date":{"end_time":"2011/04/27 15:21:00 -0400","original":"4/27/2011 15:20","granularity":"min","time":"2011/04/27 15:20:00 -0400"},"geo_score":0.902,"unit":61,"disposition":"200","cfs":15,"call#":11.003967,"id":"a6dqciaygt9t","geo_precision":"range","address":"20 Glenn St","state":"OH","juris":"PD"},"type":"Feature","geometry":{"type":"Point","coordinates":[-83.174188,41.102179]}},{"properties":{"officer":"SGN","city":"Tiffin","zip":"44883","date":{"end_time":"2011/04/06 11:02:00 -0400","original":"4/6/2011 11:01","granularity":"min","time":"2011/04/06 11:01:00 -0400"},"geo_score":0.902,"unit":59,"disposition":"200","cfs":15,"call#":11.003075,"id":"a6dqci53rza5","geo_precision":"range","address":"20 Glenn St","state":"OH","juris":"PD"},"type":"Feature","geometry":{"type":"Point","coordinates":[-83.174188,41.102179]}},{"properties":{"officer":"JSC","city":"Tiffin","zip":"44883","date":{"end_time":"2011/02/27 23:15:00 -0500","original":"2/27/2011 23:14","granularity":"min","time":"2011/02/27 23:14:00 -0500"},"geo_score":0.902,"unit":57,"disposition":"200","cfs":15,"call#":11.0019,"id":"a6dqci5bexp9","geo_precision":"range","address":"200 E Market St,251","state":"OH","juris":"PD"},"type":"Feature","geometry":{"type":"Point","coordinates":[-83.171048,41.115205]}},{"properties":{"officer":"RMN","city":"Tiffin","zip":"44883","date":{"end_time":"2011/08/27 18:09:00 -0400","original":"8/27/2011 18:08","granularity":"min","time":"2011/08/27 18:08:00 -0400"},"geo_score":0.902,"unit":57,"disposition":"200","cfs":15,"call#":11.008796,"id":"a6dqcibnytdf","geo_precision":"range","address":"200 E Market St,352","state":"OH","juris":"PD"},"type":"Feature","geometry":{"type":"Point","coordinates":[-83.168074,41.117148]}},{"properties":{"officer":"LMK","city":"Tiffin","zip":"44883","date":{"end_time":"2011/10/26 22:41:00 -0400","original":"10/26/2011 22:40","granularity":"min","time":"2011/10/26 22:40:00 -0400"},"geo_score":0.902,"unit":57,"disposition":"200","cfs":15,"call#":11.011191,"id":"a6dqci94c6ou","geo_precision":"range","address":"200 E Market St,354","state":"OH","juris":"PD"},"type":"Feature","geometry":{"type":"Point","coordinates":[-83.168055,41.117165]}},{"properties":{"officer":"JDW","city":"Tiffin","zip":"44883","date":{"end_time":"2011/05/21 23:41:00 -0400","original":"5/21/2011 23:40","granularity":"min","time":"2011/05/21 23:40:00 -0400"},"geo_score":0.902,"unit":61,"disposition":"200","cfs":15,"call#":11.00498,"id":"a6dqci4dcd7x","geo_precision":"range","address":"200 E Market St,354","state":"OH","juris":"PD"},"type":"Feature","geometry":{"type":"Point","coordinates":[-83.168055,41.117165]}},{"properties":{"officer":"DES","city":"Tiffin","zip":"44883","date":{"end_time":"2011/04/18 07:13:00 -0400","original":"4/18/2011 7:12","granularity":"min","time":"2011/04/18 07:12:00 -0400"},"geo_score":0.902,"unit":61,"disposition":"200","cfs":15,"call#":11.003601,"id":"a6dqci7iooom","geo_precision":"range","address":"200 E Market St,354","state":"OH","juris":"PD"},"type":"Feature","geometry":{"type":"Point","coordinates":[-83.168055,41.117165]}},{"properties":{"officer":"JAD","city":"Tiffin","zip":"44883","date":{"end_time":"2011/04/10 00:55:00 -0400","original":"4/10/2011 0:54","granularity":"min","time":"2011/04/10 00:54:00 -0400"},"geo_score":0.902,"unit":56,"disposition":"200","cfs":15,"call#":11.003271,"id":"a6dqci75wiyr","geo_precision":"range","address":"200 E Market St,354","state":"OH","juris":"PD"},"type":"Feature","geometry":{"type":"Point","coordinates":[-83.168055,41.117165]}},{"properties":{"officer":"RLT","city":"Tiffin","zip":"44883","date":{"end_time":"2011/06/03 23:16:00 -0400","original":"6/3/2011 23:15","granularity":"min","time":"2011/06/03 23:15:00 -0400"},"geo_score":0.902,"unit":62,"disposition":"200","cfs":15,"call#":11.005482,"id":"a6dqcihwa3rz","geo_precision":"range","address":"201 S Sandusky St","state":"OH","juris":"PD"},"type":"Feature","geometry":{"type":"Point","coordinates":[-83.186118,41.114708]}},{"properties":{"officer":"JDW","city":"Tiffin","zip":"44883","date":{"end_time":"2011/08/03 11:12:00 -0400","original":"8/3/2011 11:11","granularity":"min","time":"2011/08/03 11:11:00 -0400"},"geo_score":0.902,"unit":60,"disposition":"200","cfs":15,"call#":11.007847,"id":"a6dqci56a6h4","geo_precision":"range","address":"204 E Market St,244","state":"OH","juris":"PD"},"type":"Feature","geometry":{"type":"Point","coordinates":[-83.1712,41.115168]}},{"properties":{"officer":"BRB","city":"Tiffin","zip":"44883","date":{"end_time":"2011/11/06 16:06:00 -0500","original":"11/6/2011 16:05","granularity":"min","time":"2011/11/06 16:05:00 -0500"},"geo_score":0.861,"unit":63,"disposition":"200","cfs":15,"call#":11.011621,"id":"a6dqci1pncr2","geo_precision":"range","address":"209 Ohio Av","state":"OH","juris":"PD"},"type":"Feature","geometry":{"type":"Point","coordinates":[-83.164287,41.12431]}},{"properties":{"officer":"PJD","city":"Tiffin","zip":"44883","date":{"end_time":"2011/09/11 22:12:00 -0400","original":"9/11/2011 22:11","granularity":"min","time":"2011/09/11 22:11:00 -0400"},"geo_score":0.861,"unit":61,"disposition":"200","cfs":15,"call#":11.009436,"id":"a6dqciaimzs4","geo_precision":"range","address":"209 Ohio Av","state":"OH","juris":"PD"},"type":"Feature","geometry":{"type":"Point","coordinates":[-83.164287,41.12431]}},{"properties":{"officer":"JPF","city":"Tiffin","zip":"44883","date":{"end_time":"2011/04/08 18:30:00 -0400","original":"4/8/2011 18:29","granularity":"min","time":"2011/04/08 18:29:00 -0400"},"geo_score":0.861,"unit":59,"disposition":"200","cfs":15,"call#":11.00318,"id":"a6dqciadyyt9","geo_precision":"range","address":"209 Ohio Av","state":"OH","juris":"PD"},"type":"Feature","geometry":{"type":"Point","coordinates":[-83.164287,41.12431]}},{"properties":{"officer":"SGN","city":"Tiffin","zip":"44883","date":{"end_time":"2011/05/26 16:11:00 -0400","original":"5/26/2011 16:10","granularity":"min","time":"2011/05/26 16:10:00 -0400"},"geo_score":0.902,"unit":59,"disposition":"200","cfs":15,"call#":11.005131,"id":"a6dqciblyi86","geo_precision":"range","address":"210 N Washington St","state":"OH","juris":"PD"},"type":"Feature","geometry":{"type":"Point","coordinates":[-83.177997,41.123731]}},{"properties":{"officer":"GTM","city":"Tiffin","zip":"44883","date":{"end_time":"2011/05/15 15:21:00 -0400","original":"5/15/2011 15:20","granularity":"min","time":"2011/05/15 15:20:00 -0400"},"geo_score":0.902,"unit":62,"disposition":"200","cfs":15,"call#":11.004744,"id":"a6dqcidegx2i","geo_precision":"range","address":"210X S Washington St","state":"OH","juris":"PD"},"type":"Feature","geometry":{"type":"Point","coordinates":[-83.176151,41.111561]}},{"properties":{"officer":"JSC","city":"Tiffin","zip":"44883","date":{"end_time":"2011/04/11 19:08:00 -0400","original":"4/11/2011 19:07","granularity":"min","time":"2011/04/11 19:07:00 -0400"},"geo_score":0.902,"unit":59,"disposition":"200","cfs":15,"call#":11.003344,"id":"a6dqcicb3asa","geo_precision":"range","address":"2128 W Market St","state":"OH","juris":"PD"},"type":"Feature","geometry":{"type":"Point","coordinates":[-83.21221,41.110273]}},{"properties":{"officer":"SGN","city":"Tiffin","zip":"44883","date":{"end_time":"2011/08/05 15:03:00 -0400","original":"8/5/2011 15:02","granularity":"min","time":"2011/08/05 15:02:00 -0400"},"geo_score":0.902,"unit":59,"disposition":"200","cfs":15,"call#":11.00791,"id":"a6dqcibzsi6w","geo_precision":"range","address":"216 Coe St","state":"OH","juris":"PD"},"type":"Feature","geometry":{"type":"Point","coordinates":[-83.168815,41.106341]}},{"properties":{"officer":"JPF","city":"Tiffin","zip":"44883","date":{"end_time":"2011/12/28 19:37:00 -0500","original":"12/28/2011 19:36","granularity":"min","time":"2011/12/28 19:36:00 -0500"},"geo_score":0.756,"unit":62,"disposition":"200","cfs":15,"call#":11.01367,"id":"a6dqciduddqi","geo_precision":"range","address":"217 Fourth Av","state":"OH","juris":"PD"},"type":"Feature","geometry":{"type":"Point","coordinates":[-83.182988,41.130462]}},{"properties":{"officer":"JPF","city":"Tiffin","zip":"44883","date":{"end_time":"2011/11/17 16:43:00 -0500","original":"11/17/2011 16:42","granularity":"min","time":"2011/11/17 16:42:00 -0500"},"geo_score":0.756,"unit":62,"disposition":"450","cfs":15,"call#":11.012075,"id":"a6dqci4436re","geo_precision":"range","address":"217 Fourth Av","state":"OH","juris":"PD"},"type":"Feature","geometry":{"type":"Point","coordinates":[-83.182988,41.130462]}},{"properties":{"officer":"BAR","city":"Tiffin","zip":"44883","date":{"end_time":"2011/09/30 16:40:00 -0400","original":"9/30/2011 16:39","granularity":"min","time":"2011/09/30 16:39:00 -0400"},"geo_score":0.756,"unit":63,"disposition":"200","cfs":15,"call#":11.010179,"id":"a6dqci8ervjy","geo_precision":"range","address":"217 Fourth Av","state":"OH","juris":"PD"},"type":"Feature","geometry":{"type":"Point","coordinates":[-83.182988,41.130462]}},{"properties":{"officer":"JDW","city":"Tiffin","zip":"44883","date":{"end_time":"2011/09/15 10:05:00 -0400","original":"9/15/2011 10:04","granularity":"min","time":"2011/09/15 10:04:00 -0400"},"geo_score":0.902,"unit":63,"disposition":"200","cfs":15,"call#":11.009546,"id":"a6dqci5ufr2y","geo_precision":"range","address":"219 W Market St","state":"OH","juris":"PD"},"type":"Feature","geometry":{"type":"Point","coordinates":[-83.187926,41.113459]}},{"properties":{"officer":"GTM","city":"Tiffin","zip":"44883","date":{"end_time":"2011/05/15 10:32:00 -0400","original":"5/15/2011 10:31","granularity":"min","time":"2011/05/15 10:31:00 -0400"},"geo_score":0.902,"unit":62,"disposition":"200","cfs":15,"call#":11.00474,"id":"a6dqcih4i9fj","geo_precision":"range","address":"22 Miami St","state":"OH","juris":"PD"},"type":"Feature","geometry":{"type":"Point","coordinates":[-83.180039,41.117027]}},{"properties":{"officer":"RJO","city":"Tiffin","zip":"44883","date":{"end_time":"2011/12/16 16:07:00 -0500","original":"12/16/2011 16:06","granularity":"min","time":"2011/12/16 16:06:00 -0500"},"geo_score":0.902,"unit":60,"disposition":"200","cfs":15,"call#":11.013257,"id":"a6dqcidyi6rs","geo_precision":"range","address":"22 Noble St","state":"OH","juris":"PD"},"type":"Feature","geometry":{"type":"Point","coordinates":[-83.173687,41.122807]}},{"properties":{"officer":"JDW","city":"Tiffin","zip":"44883","date":{"end_time":"2011/10/12 12:10:00 -0400","original":"10/12/2011 12:09","granularity":"min","time":"2011/10/12 12:09:00 -0400"},"geo_score":0.902,"unit":62,"disposition":"400","cfs":15,"call#":11.010674,"id":"a6dqciasnl56","geo_precision":"range","address":"22 Scott St","state":"OH","juris":"PD"},"type":"Feature","geometry":{"type":"Point","coordinates":[-83.188926,41.11574]}},{"properties":{"officer":"JDW","city":"Tiffin","zip":"44883","date":{"end_time":"2011/12/22 15:48:00 -0500","original":"12/22/2011 15:47","granularity":"min","time":"2011/12/22 15:47:00 -0500"},"geo_score":0.78,"unit":62,"disposition":"200","cfs":15,"call#":11.013486,"id":"a6dqci7l7tfd","geo_precision":"range","address":"220 Water St","state":"OH","juris":"PD"},"type":"Feature","geometry":{"type":"Point","coordinates":[-83.175016,41.119693]}},{"properties":{"officer":"JPF","city":"Tiffin","zip":"44883","date":{"end_time":"2011/05/05 19:58:00 -0400","original":"5/5/2011 19:57","granularity":"min","time":"2011/05/05 19:57:00 -0400"},"geo_score":0.78,"unit":59,"disposition":"100","cfs":15,"call#":11.004327,"id":"a6dqci4kjtxf","geo_precision":"range","address":"220 Water St","state":"OH","juris":"PD"},"type":"Feature","geometry":{"type":"Point","coordinates":[-83.175016,41.119693]}},{"properties":{"officer":"BAR","city":"Tiffin","zip":"44883","date":{"end_time":"2011/01/08 16:01:00 -0500","original":"1/8/2011 16:00","granularity":"min","time":"2011/01/08 16:00:00 -0500"},"geo_score":0.78,"unit":63,"disposition":"100","cfs":15,"call#":11.000203,"id":"a6dqci6gjzl2","geo_precision":"range","address":"220 Water St","state":"OH","juris":"PD"},"type":"Feature","geometry":{"type":"Point","coordinates":[-83.175016,41.119693]}},{"properties":{"officer":"SGN","city":"Tiffin","zip":"44883","date":{"end_time":"2011/06/29 14:22:00 -0400","original":"6/29/2011 14:21","granularity":"min","time":"2011/06/29 14:21:00 -0400"},"geo_score":0.902,"unit":59,"disposition":"450","cfs":15,"call#":11.006454,"id":"a6dqcihv0wnt","geo_precision":"range","address":"221 W Perry St","state":"OH","juris":"PD"},"type":"Feature","geometry":{"type":"Point","coordinates":[-83.188281,41.11517]}},{"properties":{"officer":"JMW","city":"Tiffin","zip":"44883","date":{"end_time":"2011/04/06 18:46:00 -0400","original":"4/6/2011 18:45","granularity":"min","time":"2011/04/06 18:45:00 -0400"},"geo_score":0.902,"unit":57,"disposition":"200","cfs":15,"call#":11.003089,"id":"a6dqci6tidv5","geo_precision":"range","address":"221 W Perry St","state":"OH","juris":"PD"},"type":"Feature","geometry":{"type":"Point","coordinates":[-83.188281,41.11517]}},{"properties":{"officer":"RLT","city":"Tiffin","zip":"44883","date":{"end_time":"2011/06/18 05:55:00 -0400","original":"6/18/2011 5:54","granularity":"min","time":"2011/06/18 05:54:00 -0400"},"geo_score":0.902,"unit":61,"disposition":"200","cfs":15,"call#":11.006037,"id":"a6dqci3qzwd5","geo_precision":"range","address":"223 E Perry St","state":"OH","juris":"PD"},"type":"Feature","geometry":{"type":"Point","coordinates":[-83.172021,41.11627]}},{"properties":{"officer":"LMK","city":"Tiffin","zip":"44883","date":{"end_time":"2011/11/10 22:04:00 -0500","original":"11/10/2011 22:03","granularity":"min","time":"2011/11/10 22:03:00 -0500"},"geo_score":0.902,"unit":57,"disposition":"450","cfs":15,"call#":11.011791,"id":"a6dqcicp5vti","geo_precision":"range","address":"229 Mohawk St","state":"OH","juris":"PD"},"type":"Feature","geometry":{"type":"Point","coordinates":[-83.177951,41.0973]}},{"properties":{"officer":"BRB","city":"Tiffin","zip":"44883","date":{"end_time":"2011/08/17 07:43:00 -0400","original":"8/17/2011 7:42","granularity":"min","time":"2011/08/17 07:42:00 -0400"},"geo_score":0.902,"unit":57,"disposition":"200","cfs":15,"call#":11.008353,"id":"a6dqci44d0bg","geo_precision":"range","address":"23 Avery St","state":"OH","juris":"PD"},"type":"Feature","geometry":{"type":"Point","coordinates":[-83.178598,41.112233]}},{"properties":{"officer":"MMS","city":"Tiffin","zip":"44883","date":{"end_time":"2011/09/05 23:11:00 -0400","original":"9/5/2011 23:10","granularity":"min","time":"2011/09/05 23:10:00 -0400"},"geo_score":0.902,"unit":57,"disposition":"200","cfs":15,"call#":11.009185,"id":"a6dqci9hev6c","geo_precision":"range","address":"23 Miami St","state":"OH","juris":"PD"},"type":"Feature","geometry":{"type":"Point","coordinates":[-83.180072,41.117044]}},{"properties":{"officer":"SGN","city":"Tiffin","zip":"44883","date":{"end_time":"2011/03/10 16:55:00 -0500","original":"3/10/2011 16:54","granularity":"min","time":"2011/03/10 16:54:00 -0500"},"geo_score":0.902,"unit":59,"disposition":"200","cfs":15,"call#":11.002254,"id":"a6dqcicl2czf","geo_precision":"range","address":"23 Miami St","state":"OH","juris":"PD"},"type":"Feature","geometry":{"type":"Point","coordinates":[-83.180072,41.117044]}},{"properties":{"officer":"RMN","city":"Tiffin","zip":"44883","date":{"end_time":"2011/09/23 18:25:00 -0400","original":"9/23/2011 18:24","granularity":"min","time":"2011/09/23 18:24:00 -0400"},"geo_score":0.902,"unit":58,"disposition":"200","cfs":15,"call#":11.0099,"id":"a6dqcig1fdd2","geo_precision":"range","address":"23 Seneca St","state":"OH","juris":"PD"},"type":"Feature","geometry":{"type":"Point","coordinates":[-83.161038,41.122402]}},{"properties":{"officer":"RLT","city":"Tiffin","zip":"44883","date":{"end_time":"2011/03/20 00:53:00 -0400","original":"3/20/2011 0:52","granularity":"min","time":"2011/03/20 00:52:00 -0400"},"geo_score":0.482,"unit":61,"disposition":"230","cfs":15,"call#":11.00254,"id":"a6dqci9iwvtx","geo_precision":"street","address":"231 Mohawk St,D8","state":"OH","juris":"PD"},"type":"Feature","geometry":{"type":"Point","coordinates":[-83.174815,41.084589]}},{"properties":{"officer":"SGN","city":"Tiffin","zip":"44883","date":{"end_time":"2011/09/16 07:40:00 -0400","original":"9/16/2011 7:39","granularity":"min","time":"2011/09/16 07:39:00 -0400"},"geo_score":0.902,"unit":62,"disposition":"100","cfs":15,"call#":11.009584,"id":"a6dqcietxhxg","geo_precision":"range","address":"233 S Monroe St","state":"OH","juris":"PD"},"type":"Feature","geometry":{"type":"Point","coordinates":[-83.177506,41.110162]}},{"properties":{"officer":"LMK","city":"Tiffin","zip":"44883","date":{"end_time":"2011/03/01 23:59:00 -0500","original":"3/1/2011 23:58","granularity":"min","time":"2011/03/01 23:58:00 -0500"},"geo_score":0.902,"unit":58,"disposition":"200","cfs":15,"call#":11.001958,"id":"a6dqci8niji8","geo_precision":"range","address":"236 Jefferson St","state":"OH","juris":"PD"},"type":"Feature","geometry":{"type":"Point","coordinates":[-83.174386,41.111094]}},{"properties":{"officer":"MEM","city":"Tiffin","zip":"44883","date":{"end_time":"2011/08/08 19:02:00 -0400","original":"8/8/2011 19:01","granularity":"min","time":"2011/08/08 19:01:00 -0400"},"geo_score":0.861,"unit":61,"disposition":"200","cfs":15,"call#":11.008027,"id":"a6dqcigla55j","geo_precision":"range","address":"240 Ohio Av","state":"OH","juris":"PD"},"type":"Feature","geometry":{"type":"Point","coordinates":[-83.16348,41.125056]}},{"properties":{"officer":"EDA","city":"Tiffin","zip":"44883","date":{"end_time":"2011/01/01 00:09:00 -0500","original":"1/1/2011 0:08","granularity":"min","time":"2011/01/01 00:08:00 -0500"},"geo_score":0.902,"unit":61,"disposition":"200","cfs":15,"call#":11.000001,"id":"a6dqcibfmlk1","geo_precision":"range","address":"241 Hall St","state":"OH","juris":"PD"},"type":"Feature","geometry":{"type":"Point","coordinates":[-83.185725,41.12356]}},{"properties":{"officer":"DES","city":"Tiffin","zip":"44883","date":{"end_time":"2011/05/15 14:26:00 -0400","original":"5/15/2011 14:25","granularity":"min","time":"2011/05/15 14:25:00 -0400"},"geo_score":0.902,"unit":61,"disposition":"200","cfs":15,"call#":11.004743,"id":"a6dqci76oltf","geo_precision":"range","address":"243 N Sandusky St","state":"OH","juris":"PD"},"type":"Feature","geometry":{"type":"Point","coordinates":[-83.178497,41.125732]}},{"properties":{"officer":"SGN","city":"Tiffin","zip":"44883","date":{"end_time":"2011/05/20 16:34:00 -0400","original":"5/20/2011 16:33","granularity":"min","time":"2011/05/20 16:33:00 -0400"},"geo_score":0.593,"unit":59,"disposition":"200","cfs":15,"call#":11.004911,"id":"a6dqcib2zzhr","geo_precision":"street","address":"243 Third Av","state":"OH","juris":"PD"},"type":"Feature","geometry":{"type":"Point","coordinates":[-83.184665,41.12958]}},{"properties":{"officer":"JPF","city":"Tiffin","zip":"44883","date":{"end_time":"2011/05/28 18:20:00 -0400","original":"5/28/2011 18:19","granularity":"min","time":"2011/05/28 18:19:00 -0400"},"geo_score":0.902,"unit":59,"disposition":"200","cfs":15,"call#":11.00523,"id":"a6dqcidm3g6r","geo_precision":"range","address":"245 Jefferson St","state":"OH","juris":"PD"},"type":"Feature","geometry":{"type":"Point","coordinates":[-83.174364,41.11091]}},{"properties":{"officer":"BRB","city":"Tiffin","zip":"44883","date":{"end_time":"2011/05/23 17:28:00 -0400","original":"5/23/2011 17:27","granularity":"min","time":"2011/05/23 17:27:00 -0400"},"geo_score":0.902,"unit":63,"disposition":"100","cfs":15,"call#":11.005029,"id":"a6dqci6xc4q9","geo_precision":"range","address":"25 Duchess Ln","state":"OH","juris":"PD"},"type":"Feature","geometry":{"type":"Point","coordinates":[-83.191506,41.103258]}},{"properties":{"officer":"MMS","city":"Tiffin","zip":"44883","date":{"end_time":"2011/10/02 16:33:00 -0400","original":"10/2/2011 16:32","granularity":"min","time":"2011/10/02 16:32:00 -0400"},"geo_score":0.815,"unit":63,"disposition":"200","cfs":15,"call#":11.010255,"id":"a6dqciadoiux","geo_precision":"range","address":"25 Melissa St","state":"OH","juris":"PD"},"type":"Feature","geometry":{"type":"Point","coordinates":[-83.191778,41.113291]}},{"properties":{"officer":"GTM","city":"Tiffin","zip":"44883","date":{"end_time":"2011/05/16 15:36:00 -0400","original":"5/16/2011 15:35","granularity":"min","time":"2011/05/16 15:35:00 -0400"},"geo_score":0.902,"unit":59,"disposition":"200","cfs":15,"call#":11.004766,"id":"a6dqcia6secx","geo_precision":"range","address":"25 Miami St","state":"OH","juris":"PD"},"type":"Feature","geometry":{"type":"Point","coordinates":[-83.180129,41.117074]}},{"properties":{"officer":"BAR","city":"Tiffin","zip":"44883","date":{"end_time":"2011/03/17 18:37:00 -0400","original":"3/17/2011 18:36","granularity":"min","time":"2011/03/17 18:36:00 -0400"},"geo_score":0.756,"unit":63,"disposition":"200","cfs":15,"call#":11.00246,"id":"a6dqci7l6xka","geo_precision":"range","address":"253 Fourth Av","state":"OH","juris":"PD"},"type":"Feature","geometry":{"type":"Point","coordinates":[-83.183979,41.130447]}},{"properties":{"officer":"JMW","city":"Tiffin","zip":"44883","date":{"end_time":"2011/02/02 17:04:00 -0500","original":"2/2/2011 17:03","granularity":"min","time":"2011/02/02 17:03:00 -0500"},"geo_score":0.756,"unit":57,"disposition":"200","cfs":15,"call#":11.000996,"id":"a6dqcibv1opu","geo_precision":"range","address":"253 Fourth Av","state":"OH","juris":"PD"},"type":"Feature","geometry":{"type":"Point","coordinates":[-83.183979,41.130447]}},{"properties":{"officer":"BAR","city":"Tiffin","zip":"44883","date":{"end_time":"2011/05/21 22:59:00 -0400","original":"5/21/2011 22:58","granularity":"min","time":"2011/05/21 22:58:00 -0400"},"geo_score":0.902,"unit":63,"disposition":"220","cfs":15,"call#":11.004978,"id":"a6dqci9bhfrx","geo_precision":"range","address":"254 E Market St","state":"OH","juris":"PD"},"type":"Feature","geometry":{"type":"Point","coordinates":[-83.170961,41.115227]}},{"properties":{"officer":"JSC","city":"Tiffin","zip":"44883","date":{"end_time":"2011/05/04 12:37:00 -0400","original":"5/4/2011 12:36","granularity":"min","time":"2011/05/04 12:36:00 -0400"},"geo_score":0.902,"unit":63,"disposition":"200","cfs":15,"call#":11.004285,"id":"a6dqciex1ibw","geo_precision":"range","address":"256 W Perry St","state":"OH","juris":"PD"},"type":"Feature","geometry":{"type":"Point","coordinates":[-83.189344,41.115075]}},{"properties":{"officer":"JSC","city":"Tiffin","zip":"44883","date":{"end_time":"2011/07/23 18:20:00 -0400","original":"7/23/2011 18:19","granularity":"min","time":"2011/07/23 18:19:00 -0400"},"geo_score":0.902,"unit":57,"disposition":"200","cfs":15,"call#":11.007384,"id":"a6dqciafjb2l","geo_precision":"range","address":"257 Ella St","state":"OH","juris":"PD"},"type":"Feature","geometry":{"type":"Point","coordinates":[-83.190813,41.10379]}},{"properties":{"officer":"SGN","city":"Tiffin","zip":"44883","date":{"end_time":"2011/09/16 16:32:00 -0400","original":"9/16/2011 16:31","granularity":"min","time":"2011/09/16 16:31:00 -0400"},"geo_score":0.902,"unit":62,"disposition":"200","cfs":15,"call#":11.009603,"id":"a6dqci25098d","geo_precision":"range","address":"257 Wall St","state":"OH","juris":"PD"},"type":"Feature","geometry":{"type":"Point","coordinates":[-83.186711,41.121877]}},{"properties":{"officer":"EDA","city":"Tiffin","zip":"44883","date":{"end_time":"2011/03/14 17:17:00 -0400","original":"3/14/2011 17:16","granularity":"min","time":"2011/03/14 17:16:00 -0400"},"geo_score":0.902,"unit":59,"disposition":"200","cfs":15,"call#":11.002377,"id":"a6dqci2ud0ye","geo_precision":"range","address":"259 S Monroe St","state":"OH","juris":"PD"},"type":"Feature","geometry":{"type":"Point","coordinates":[-83.177418,41.109377]}},{"properties":{"officer":"DES","city":"Tiffin","zip":"44883","date":{"end_time":"2011/01/07 11:22:00 -0500","original":"1/7/2011 11:21","granularity":"min","time":"2011/01/07 11:21:00 -0500"},"geo_score":0.902,"unit":61,"disposition":"200","cfs":15,"call#":11.000174,"id":"a6dqci2ken6t","geo_precision":"range","address":"259 S Monroe St","state":"OH","juris":"PD"},"type":"Feature","geometry":{"type":"Point","coordinates":[-83.177418,41.109377]}},{"properties":{"officer":"JSC","city":"Tiffin","zip":"44883","date":{"end_time":"2011/04/11 20:39:00 -0400","original":"4/11/2011 20:38","granularity":"min","time":"2011/04/11 20:38:00 -0400"},"geo_score":0.902,"unit":59,"disposition":"200","cfs":15,"call#":11.003349,"id":"a6dqci49hii3","geo_precision":"range","address":"26 Rebecca St","state":"OH","juris":"PD"},"type":"Feature","geometry":{"type":"Point","coordinates":[-83.170309,41.113041]}},{"properties":{"officer":"SGN","city":"Tiffin","zip":"44883","date":{"end_time":"2011/12/02 11:34:00 -0500","original":"12/2/2011 11:33","granularity":"min","time":"2011/12/02 11:33:00 -0500"},"geo_score":0.902,"unit":58,"disposition":"100","cfs":15,"call#":11.012683,"id":"a6dqcieszumn","geo_precision":"range","address":"260 S Washington St","state":"OH","juris":"PD"},"type":"Feature","geometry":{"type":"Point","coordinates":[-83.175893,41.110366]}},{"properties":{"officer":"SGN","city":"Tiffin","zip":"44883","date":{"end_time":"2011/09/15 11:51:00 -0400","original":"9/15/2011 11:50","granularity":"min","time":"2011/09/15 11:50:00 -0400"},"geo_score":0.902,"unit":62,"disposition":"100","cfs":15,"call#":11.00955,"id":"a6dqcif0z4m8","geo_precision":"range","address":"260 S Washington St","state":"OH","juris":"PD"},"type":"Feature","geometry":{"type":"Point","coordinates":[-83.175893,41.110366]}},{"properties":{"officer":"GTM","city":"Tiffin","zip":"44883","date":{"end_time":"2011/09/10 16:11:00 -0400","original":"9/10/2011 16:10","granularity":"min","time":"2011/09/10 16:10:00 -0400"},"geo_score":0.902,"unit":59,"disposition":"200","cfs":15,"call#":11.009384,"id":"a6dqcidsxp2s","geo_precision":"range","address":"264 Wall St","state":"OH","juris":"PD"},"type":"Feature","geometry":{"type":"Point","coordinates":[-83.186717,41.122144]}},{"properties":{"officer":"JSC","city":"Tiffin","zip":"44883","date":{"end_time":"2011/06/12 18:24:00 -0400","original":"6/12/2011 18:23","granularity":"min","time":"2011/06/12 18:23:00 -0400"},"geo_score":0.902,"unit":57,"disposition":"200","cfs":15,"call#":11.005823,"id":"a6dqcicdj9h5","geo_precision":"range","address":"264X S Washington St","state":"OH","juris":"PD"},"type":"Feature","geometry":{"type":"Point","coordinates":[-83.175881,41.110269]}},{"properties":{"officer":"RMN","city":"Tiffin","zip":"44883","date":{"end_time":"2011/12/05 17:07:00 -0500","original":"12/5/2011 17:06","granularity":"min","time":"2011/12/05 17:06:00 -0500"},"geo_score":0.902,"unit":57,"disposition":"200","cfs":15,"call#":11.012803,"id":"a6dqcie5tn94","geo_precision":"range","address":"265 Jackson St","state":"OH","juris":"PD"},"type":"Feature","geometry":{"type":"Point","coordinates":[-83.183602,41.120439]}},{"properties":{"officer":"RLT","city":"Tiffin","zip":"44883","date":{"end_time":"2011/06/18 23:27:00 -0400","original":"6/18/2011 23:26","granularity":"min","time":"2011/06/18 23:26:00 -0400"},"geo_score":0.902,"unit":61,"disposition":"220","cfs":15,"call#":11.006066,"id":"a6dqcic1z3lm","geo_precision":"range","address":"265 N Washington St","state":"OH","juris":"PD"},"type":"Feature","geometry":{"type":"Point","coordinates":[-83.178186,41.124992]}},{"properties":{"officer":"JDW","city":"Tiffin","zip":"44883","date":{"end_time":"2011/03/06 01:37:00 -0500","original":"3/6/2011 1:36","granularity":"min","time":"2011/03/06 01:36:00 -0500"},"geo_score":0.902,"unit":60,"disposition":"200","cfs":15,"call#":11.002118,"id":"a6dqci1v4u8v","geo_precision":"range","address":"265 N Washington St","state":"OH","juris":"PD"},"type":"Feature","geometry":{"type":"Point","coordinates":[-83.178186,41.124992]}},{"properties":{"officer":"MMS","city":"Tiffin","zip":"44883","date":{"end_time":"2011/09/20 07:21:00 -0400","original":"9/20/2011 7:20","granularity":"min","time":"2011/09/20 07:20:00 -0400"},"geo_score":0.72,"unit":63,"disposition":"200","cfs":15,"call#":11.009776,"id":"a6dqci7vb2l3","geo_precision":"street","address":"269 S Washington St,4","state":"OH","juris":"PD"},"type":"Feature","geometry":{"type":"Point","coordinates":[-83.176943,41.117025]}},{"properties":{"officer":"AMR","city":"Tiffin","zip":"44883","date":{"end_time":"2011/06/13 20:34:00 -0400","original":"6/13/2011 20:33","granularity":"min","time":"2011/06/13 20:33:00 -0400"},"geo_score":0.902,"unit":63,"disposition":"200","cfs":15,"call#":11.005866,"id":"a6dqcicjf2nn","geo_precision":"range","address":"26X Sycamore St","state":"OH","juris":"PD"},"type":"Feature","geometry":{"type":"Point","coordinates":[-83.176205,41.108961]}},{"properties":{"officer":"FWS","city":"Tiffin","zip":"44883","date":{"end_time":"2011/05/17 18:35:00 -0400","original":"5/17/2011 18:34","granularity":"min","time":"2011/05/17 18:34:00 -0400"},"geo_score":0.902,"unit":58,"disposition":"200","cfs":15,"call#":11.0048,"id":"a6dqci6bw6ms","geo_precision":"range","address":"26X Sycamore St","state":"OH","juris":"PD"},"type":"Feature","geometry":{"type":"Point","coordinates":[-83.176205,41.108961]}},{"properties":{"officer":"MMS","city":"Tiffin","zip":"44883","date":{"end_time":"2011/11/11 23:17:00 -0500","original":"11/11/2011 23:16","granularity":"min","time":"2011/11/11 23:16:00 -0500"},"geo_score":0.902,"unit":61,"disposition":"200","cfs":15,"call#":11.011834,"id":"a6dqcigfy9vq","geo_precision":"range","address":"272 N Sandusky St","state":"OH","juris":"PD"},"type":"Feature","geometry":{"type":"Point","coordinates":[-83.178238,41.126053]}},{"properties":{"officer":"MEM","city":"Tiffin","zip":"44883","date":{"end_time":"2011/10/11 20:33:00 -0400","original":"10/11/2011 20:32","granularity":"min","time":"2011/10/11 20:32:00 -0400"},"geo_score":0.873,"unit":58,"disposition":"100","cfs":15,"call#":11.010645,"id":"a6dqci59qrds","geo_precision":"range","address":"278 Clinton Av","state":"OH","juris":"PD"},"type":"Feature","geometry":{"type":"Point","coordinates":[-83.167277,41.12358]}},{"properties":{"officer":"JSC","city":"Tiffin","zip":"44883","date":{"end_time":"2011/04/19 19:03:00 -0400","original":"4/19/2011 19:02","granularity":"min","time":"2011/04/19 19:02:00 -0400"},"geo_score":0.902,"unit":59,"disposition":"200","cfs":15,"call#":11.003656,"id":"a6dqcics3m1e","geo_precision":"range","address":"28 Main St","state":"OH","juris":"PD"},"type":"Feature","geometry":{"type":"Point","coordinates":[-83.173757,41.11154]}},{"properties":{"officer":"SMM","city":"Tiffin","zip":"44883","date":{"end_time":"2011/06/10 02:45:00 -0400","original":"6/10/2011 2:44","granularity":"min","time":"2011/06/10 02:44:00 -0400"},"geo_score":0.902,"unit":60,"disposition":"100","cfs":15,"call#":11.005719,"id":"a6dqcidusn8m","geo_precision":"range","address":"28 Miami St","state":"OH","juris":"PD"},"type":"Feature","geometry":{"type":"Point","coordinates":[-83.180216,41.117119]}},{"properties":{"officer":"SGN","city":"Tiffin","zip":"44883","date":{"end_time":"2011/09/28 07:40:00 -0400","original":"9/28/2011 7:39","granularity":"min","time":"2011/09/28 07:39:00 -0400"},"geo_score":0.902,"unit":59,"disposition":"100","cfs":15,"call#":11.010099,"id":"a6dqci4lt59l","geo_precision":"range","address":"280 S Washington St","state":"OH","juris":"PD"},"type":"Feature","geometry":{"type":"Point","coordinates":[-83.175831,41.109879]}},{"properties":{"officer":"SGN","city":"Tiffin","zip":"44883","date":{"end_time":"2011/08/17 15:03:00 -0400","original":"8/17/2011 15:02","granularity":"min","time":"2011/08/17 15:02:00 -0400"},"geo_score":0.902,"unit":59,"disposition":"100","cfs":15,"call#":11.008371,"id":"a6dqci6tfgoq","geo_precision":"range","address":"280 S Washington St","state":"OH","juris":"PD"},"type":"Feature","geometry":{"type":"Point","coordinates":[-83.175831,41.109879]}},{"properties":{"officer":"JMW","city":"Tiffin","zip":"44883","date":{"end_time":"2011/12/28 15:13:00 -0500","original":"12/28/2011 15:12","granularity":"min","time":"2011/12/28 15:12:00 -0500"},"geo_score":0.582,"unit":60,"disposition":"210","cfs":15,"call#":11.013663,"id":"a6dqcih3arf7","geo_precision":"street","address":"2801 W Sr 18","state":"OH","juris":"PD"},"type":"Feature","geometry":{"type":"Point","coordinates":[-83.278292,41.108823]}},{"properties":{"officer":"GTM","city":"Tiffin","zip":"44883","date":{"end_time":"2011/12/17 10:39:00 -0500","original":"12/17/2011 10:38","granularity":"min","time":"2011/12/17 10:38:00 -0500"},"geo_score":0.582,"unit":59,"disposition":"200","cfs":15,"call#":11.013307,"id":"a6dqci2dbaoe","geo_precision":"street","address":"2801 W Sr 18","state":"OH","juris":"PD"},"type":"Feature","geometry":{"type":"Point","coordinates":[-83.278292,41.108823]}},{"properties":{"officer":"EDA","city":"Tiffin","zip":"44883","date":{"end_time":"2011/11/05 18:11:00 -0400","original":"11/5/2011 18:10","granularity":"min","time":"2011/11/05 18:10:00 -0400"},"geo_score":0.582,"unit":62,"disposition":"200","cfs":15,"call#":11.011583,"id":"a6dqci83qcdr","geo_precision":"street","address":"2801 W Sr 18","state":"OH","juris":"PD"},"type":"Feature","geometry":{"type":"Point","coordinates":[-83.278292,41.108823]}},{"properties":{"officer":"DES","city":"Tiffin","zip":"44883","date":{"end_time":"2011/10/24 16:07:00 -0400","original":"10/24/2011 16:06","granularity":"min","time":"2011/10/24 16:06:00 -0400"},"geo_score":0.582,"unit":58,"disposition":"200","cfs":15,"call#":11.011102,"id":"a6dqci8ixbdx","geo_precision":"street","address":"2801 W Sr 18","state":"OH","juris":"PD"},"type":"Feature","geometry":{"type":"Point","coordinates":[-83.278292,41.108823]}},{"properties":{"officer":"SGN","city":"Tiffin","zip":"44883","date":{"end_time":"2011/10/13 16:44:00 -0400","original":"10/13/2011 16:43","granularity":"min","time":"2011/10/13 16:43:00 -0400"},"geo_score":0.582,"unit":59,"disposition":"200","cfs":15,"call#":11.010717,"id":"a6dqcii0tzwm","geo_precision":"street","address":"2801 W Sr 18","state":"OH","juris":"PD"},"type":"Feature","geometry":{"type":"Point","coordinates":[-83.278292,41.108823]}},{"properties":{"officer":"SGN","city":"Tiffin","zip":"44883","date":{"end_time":"2011/03/02 16:28:00 -0500","original":"3/2/2011 16:27","granularity":"min","time":"2011/03/02 16:27:00 -0500"},"geo_score":0.582,"unit":59,"disposition":"100","cfs":15,"call#":11.001976,"id":"a6dqcig6662k","geo_precision":"street","address":"2801 W Sr 18","state":"OH","juris":"PD"},"type":"Feature","geometry":{"type":"Point","coordinates":[-83.278292,41.108823]}},{"properties":{"officer":"GTM","city":"Tiffin","zip":"44883","date":{"end_time":"2011/07/18 14:33:00 -0400","original":"7/18/2011 14:32","granularity":"min","time":"2011/07/18 14:32:00 -0400"},"geo_score":0.902,"unit":59,"disposition":"200","cfs":15,"call#":11.007211,"id":"a6dqciazxbkr","geo_precision":"range","address":"29 Duchess Ct","state":"OH","juris":"PD"},"type":"Feature","geometry":{"type":"Point","coordinates":[-83.19206,41.102923]}},{"properties":{"officer":"RLT","city":"Tiffin","zip":"44883","date":{"end_time":"2011/09/27 02:28:00 -0400","original":"9/27/2011 2:27","granularity":"min","time":"2011/09/27 02:27:00 -0400"},"geo_score":0.902,"unit":63,"disposition":"200","cfs":15,"call#":11.010053,"id":"a6dqcig9nnkq","geo_precision":"range","address":"29 E Perry St","state":"OH","juris":"PD"},"type":"Feature","geometry":{"type":"Point","coordinates":[-83.178773,41.115658]}},{"properties":{"officer":"EDA","city":"Tiffin","zip":"44883","date":{"end_time":"2011/08/29 23:23:00 -0400","original":"8/29/2011 23:22","granularity":"min","time":"2011/08/29 23:22:00 -0400"},"geo_score":0.902,"unit":60,"disposition":"450","cfs":15,"call#":11.008875,"id":"a6dqciam2v71","geo_precision":"range","address":"29 E Perry St","state":"OH","juris":"PD"},"type":"Feature","geometry":{"type":"Point","coordinates":[-83.178773,41.115658]}},{"properties":{"officer":"EDA","city":"Tiffin","zip":"44883","date":{"end_time":"2011/11/20 19:28:00 -0500","original":"11/20/2011 19:27","granularity":"min","time":"2011/11/20 19:27:00 -0500"},"geo_score":0.902,"unit":62,"disposition":"200","cfs":15,"call#":11.012198,"id":"a6dqci8esitj","geo_precision":"range","address":"292 W Market St","state":"OH","juris":"PD"},"type":"Feature","geometry":{"type":"Point","coordinates":[-83.190591,41.113232]}},{"properties":{"officer":"FWS","city":"Tiffin","zip":"44883","date":{"end_time":"2011/04/21 20:16:00 -0400","original":"4/21/2011 20:15","granularity":"min","time":"2011/04/21 20:15:00 -0400"},"geo_score":0.902,"unit":60,"disposition":"450","cfs":15,"call#":11.003726,"id":"a6dqci80ezub","geo_precision":"range","address":"292 W Market St","state":"OH","juris":"PD"},"type":"Feature","geometry":{"type":"Point","coordinates":[-83.190591,41.113232]}},{"properties":{"officer":"BAR","city":"Tiffin","zip":"44883","date":{"end_time":"2011/04/09 18:31:00 -0400","original":"4/9/2011 18:30","granularity":"min","time":"2011/04/09 18:30:00 -0400"},"geo_score":0.902,"unit":63,"disposition":"200","cfs":15,"call#":11.003245,"id":"a6dqci4rvh19","geo_precision":"range","address":"292 W Market St","state":"OH","juris":"PD"},"type":"Feature","geometry":{"type":"Point","coordinates":[-83.190591,41.113232]}},{"properties":{"officer":"BRB","city":"Tiffin","zip":"44883","date":{"end_time":"2011/08/17 12:05:00 -0400","original":"8/17/2011 12:04","granularity":"min","time":"2011/08/17 12:04:00 -0400"},"geo_score":0.902,"unit":57,"disposition":"200","cfs":15,"call#":11.008365,"id":"a6dqciexfzqs","geo_precision":"range","address":"30 E Davis St","state":"OH","juris":"PD"},"type":"Feature","geometry":{"type":"Point","coordinates":[-83.176988,41.125887]}},{"properties":{"officer":"MMS","city":"Tiffin","zip":"44883","date":{"end_time":"2011/09/19 07:06:00 -0400","original":"9/19/2011 7:05","granularity":"min","time":"2011/09/19 07:05:00 -0400"},"geo_score":0.902,"unit":63,"disposition":"200","cfs":15,"call#":11.00973,"id":"a6dqci4wfkre","geo_precision":"range","address":"30 Hunter St","state":"OH","juris":"PD"},"type":"Feature","geometry":{"type":"Point","coordinates":[-83.167365,41.118516]}},{"properties":{"officer":"SGN","city":"Tiffin","zip":"44883","date":{"end_time":"2011/12/06 14:50:00 -0500","original":"12/6/2011 14:49","granularity":"min","time":"2011/12/06 14:49:00 -0500"},"geo_score":0.902,"unit":60,"disposition":"200","cfs":15,"call#":11.01283,"id":"a6dqci651y4m","geo_precision":"range","address":"300 S Monroe St","state":"OH","juris":"PD"},"type":"Feature","geometry":{"type":"Point","coordinates":[-83.177173,41.107991]}},{"properties":{"officer":"SGN","city":"Tiffin","zip":"44883","date":{"end_time":"2011/12/02 13:16:00 -0500","original":"12/2/2011 13:15","granularity":"min","time":"2011/12/02 13:15:00 -0500"},"geo_score":0.902,"unit":58,"disposition":"200","cfs":15,"call#":11.012685,"id":"a6dqcih0iaqb","geo_precision":"range","address":"300 S Monroe St","state":"OH","juris":"PD"},"type":"Feature","geometry":{"type":"Point","coordinates":[-83.177173,41.107991]}},{"properties":{"officer":"SGN","city":"Tiffin","zip":"44883","date":{"end_time":"2011/11/29 07:50:00 -0500","original":"11/29/2011 7:49","granularity":"min","time":"2011/11/29 07:49:00 -0500"},"geo_score":0.902,"unit":59,"disposition":"100","cfs":15,"call#":11.012578,"id":"a6dqci8nwch7","geo_precision":"range","address":"300 S Monroe St","state":"OH","juris":"PD"},"type":"Feature","geometry":{"type":"Point","coordinates":[-83.177173,41.107991]}},{"properties":{"officer":"SGN","city":"Tiffin","zip":"44883","date":{"end_time":"2011/11/22 15:09:00 -0500","original":"11/22/2011 15:08","granularity":"min","time":"2011/11/22 15:08:00 -0500"},"geo_score":0.902,"unit":59,"disposition":"200","cfs":15,"call#":11.012283,"id":"a6dqcifkcfl9","geo_precision":"range","address":"300 S Monroe St","state":"OH","juris":"PD"},"type":"Feature","geometry":{"type":"Point","coordinates":[-83.177173,41.107991]}},{"properties":{"officer":"SGN","city":"Tiffin","zip":"44883","date":{"end_time":"2011/11/22 10:09:00 -0500","original":"11/22/2011 10:08","granularity":"min","time":"2011/11/22 10:08:00 -0500"},"geo_score":0.902,"unit":59,"disposition":"200","cfs":15,"call#":11.012269,"id":"a6dqci5xg6jq","geo_precision":"range","address":"300 S Monroe St","state":"OH","juris":"PD"},"type":"Feature","geometry":{"type":"Point","coordinates":[-83.177173,41.107991]}},{"properties":{"officer":"SGN","city":"Tiffin","zip":"44883","date":{"end_time":"2011/11/18 13:04:00 -0500","original":"11/18/2011 13:03","granularity":"min","time":"2011/11/18 13:03:00 -0500"},"geo_score":0.902,"unit":59,"disposition":"200","cfs":15,"call#":11.012115,"id":"a6dqciez4xl9","geo_precision":"range","address":"300 S Monroe St","state":"OH","juris":"PD"},"type":"Feature","geometry":{"type":"Point","coordinates":[-83.177173,41.107991]}},{"properties":{"officer":"SGN","city":"Tiffin","zip":"44883","date":{"end_time":"2011/11/18 11:45:00 -0500","original":"11/18/2011 11:44","granularity":"min","time":"2011/11/18 11:44:00 -0500"},"geo_score":0.902,"unit":59,"disposition":"200","cfs":15,"call#":11.012113,"id":"a6dqci33dx1n","geo_precision":"range","address":"300 S Monroe St","state":"OH","juris":"PD"},"type":"Feature","geometry":{"type":"Point","coordinates":[-83.177173,41.107991]}},{"properties":{"officer":"GTM","city":"Tiffin","zip":"44883","date":{"end_time":"2011/11/15 15:56:00 -0500","original":"11/15/2011 15:55","granularity":"min","time":"2011/11/15 15:55:00 -0500"},"geo_score":0.902,"unit":62,"disposition":"200","cfs":15,"call#":11.011998,"id":"a6dqci8cblye","geo_precision":"range","address":"300 S Monroe St","state":"OH","juris":"PD"},"type":"Feature","geometry":{"type":"Point","coordinates":[-83.177173,41.107991]}},{"properties":{"officer":"SGN","city":"Tiffin","zip":"44883","date":{"end_time":"2011/11/15 15:26:00 -0500","original":"11/15/2011 15:25","granularity":"min","time":"2011/11/15 15:25:00 -0500"},"geo_score":0.902,"unit":59,"disposition":"200","cfs":15,"call#":11.011993,"id":"a6dqci86oqzo","geo_precision":"range","address":"300 S Monroe St","state":"OH","juris":"PD"},"type":"Feature","geometry":{"type":"Point","coordinates":[-83.177173,41.107991]}},{"properties":{"officer":"SGN","city":"Tiffin","zip":"44883","date":{"end_time":"2011/11/01 11:18:00 -0400","original":"11/1/2011 11:17","granularity":"min","time":"2011/11/01 11:17:00 -0400"},"geo_score":0.902,"unit":59,"disposition":"200","cfs":15,"call#":11.011414,"id":"a6dqcidpzbcv","geo_precision":"range","address":"300 S Monroe St","state":"OH","juris":"PD"},"type":"Feature","geometry":{"type":"Point","coordinates":[-83.177173,41.107991]}},{"properties":{"officer":"SGN","city":"Tiffin","zip":"44883","date":{"end_time":"2011/10/05 14:26:00 -0400","original":"10/5/2011 14:25","granularity":"min","time":"2011/10/05 14:25:00 -0400"},"geo_score":0.902,"unit":59,"disposition":"200","cfs":15,"call#":11.010371,"id":"a6dqci8a8gq9","geo_precision":"range","address":"300 S Monroe St","state":"OH","juris":"PD"},"type":"Feature","geometry":{"type":"Point","coordinates":[-83.177173,41.107991]}},{"properties":{"officer":"RLT","city":"Tiffin","zip":"44883","date":{"end_time":"2011/10/02 21:44:00 -0400","original":"10/2/2011 21:43","granularity":"min","time":"2011/10/02 21:43:00 -0400"},"geo_score":0.902,"unit":59,"disposition":"200","cfs":15,"call#":11.010272,"id":"a6dqcibeqjl4","geo_precision":"range","address":"300 S Monroe St","state":"OH","juris":"PD"},"type":"Feature","geometry":{"type":"Point","coordinates":[-83.177173,41.107991]}},{"properties":{"officer":"SGN","city":"Tiffin","zip":"44883","date":{"end_time":"2011/09/09 14:30:00 -0400","original":"9/9/2011 14:29","granularity":"min","time":"2011/09/09 14:29:00 -0400"},"geo_score":0.902,"unit":59,"disposition":"200","cfs":15,"call#":11.009328,"id":"a6dqci8h50gu","geo_precision":"range","address":"300 S Monroe St","state":"OH","juris":"PD"},"type":"Feature","geometry":{"type":"Point","coordinates":[-83.177173,41.107991]}},{"properties":{"officer":"SMM","city":"Tiffin","zip":"44883","date":{"end_time":"2011/06/09 23:14:00 -0400","original":"6/9/2011 23:13","granularity":"min","time":"2011/06/09 23:13:00 -0400"},"geo_score":0.902,"unit":60,"disposition":"450","cfs":15,"call#":11.005711,"id":"a6dqci4zobbq","geo_precision":"range","address":"300 S Monroe St","state":"OH","juris":"PD"},"type":"Feature","geometry":{"type":"Point","coordinates":[-83.177173,41.107991]}},{"properties":{"officer":"SGN","city":"Tiffin","zip":"44883","date":{"end_time":"2011/05/26 13:08:00 -0400","original":"5/26/2011 13:07","granularity":"min","time":"2011/05/26 13:07:00 -0400"},"geo_score":0.902,"unit":59,"disposition":"200","cfs":15,"call#":11.005121,"id":"a6dqci25bg7h","geo_precision":"range","address":"300 S Monroe St","state":"OH","juris":"PD"},"type":"Feature","geometry":{"type":"Point","coordinates":[-83.177173,41.107991]}},{"properties":{"officer":"SGN","city":"Tiffin","zip":"44883","date":{"end_time":"2011/04/20 10:51:00 -0400","original":"4/20/2011 10:50","granularity":"min","time":"2011/04/20 10:50:00 -0400"},"geo_score":0.902,"unit":59,"disposition":"200","cfs":15,"call#":11.003677,"id":"a6dqcihncjcw","geo_precision":"range","address":"300 S Monroe St","state":"OH","juris":"PD"},"type":"Feature","geometry":{"type":"Point","coordinates":[-83.177173,41.107991]}},{"properties":{"officer":"SGN","city":"Tiffin","zip":"44883","date":{"end_time":"2011/04/15 13:38:00 -0400","original":"4/15/2011 13:37","granularity":"min","time":"2011/04/15 13:37:00 -0400"},"geo_score":0.902,"unit":59,"disposition":"200","cfs":15,"call#":11.00349,"id":"a6dqci49eqxl","geo_precision":"range","address":"300 S Monroe St","state":"OH","juris":"PD"},"type":"Feature","geometry":{"type":"Point","coordinates":[-83.177173,41.107991]}},{"properties":{"officer":"SGN","city":"Tiffin","zip":"44883","date":{"end_time":"2011/04/06 08:48:00 -0400","original":"4/6/2011 8:47","granularity":"min","time":"2011/04/06 08:47:00 -0400"},"geo_score":0.902,"unit":59,"disposition":"450","cfs":15,"call#":11.003069,"id":"a6dqci5czdne","geo_precision":"range","address":"300 S Monroe St","state":"OH","juris":"PD"},"type":"Feature","geometry":{"type":"Point","coordinates":[-83.177173,41.107991]}},{"properties":{"officer":"SGN","city":"Tiffin","zip":"44883","date":{"end_time":"2011/02/23 11:46:00 -0500","original":"2/23/2011 11:45","granularity":"min","time":"2011/02/23 11:45:00 -0500"},"geo_score":0.902,"unit":59,"disposition":"200","cfs":15,"call#":11.001723,"id":"a6dqci9sbnbp","geo_precision":"range","address":"300 S Monroe St","state":"OH","juris":"PD"},"type":"Feature","geometry":{"type":"Point","coordinates":[-83.177173,41.107991]}},{"properties":{"officer":"BAR","city":"Tiffin","zip":"44883","date":{"end_time":"2011/02/17 20:38:00 -0500","original":"2/17/2011 20:37","granularity":"min","time":"2011/02/17 20:37:00 -0500"},"geo_score":0.902,"unit":59,"disposition":"200","cfs":15,"call#":11.001571,"id":"a6dqci3630g9","geo_precision":"range","address":"300 S Monroe St","state":"OH","juris":"PD"},"type":"Feature","geometry":{"type":"Point","coordinates":[-83.177173,41.107991]}},{"properties":{"officer":"FWS","city":"Tiffin","zip":"44883","date":{"end_time":"2011/01/10 13:25:00 -0500","original":"1/10/2011 13:24","granularity":"min","time":"2011/01/10 13:24:00 -0500"},"geo_score":0.902,"unit":57,"disposition":"200","cfs":15,"call#":11.000264,"id":"a6dqci6rzpy0","geo_precision":"range","address":"300 S Monroe St","state":"OH","juris":"PD"},"type":"Feature","geometry":{"type":"Point","coordinates":[-83.177173,41.107991]}},{"properties":{"officer":"EDA","city":"Tiffin","zip":"44883","date":{"end_time":"2011/10/18 19:32:00 -0400","original":"10/18/2011 19:31","granularity":"min","time":"2011/10/18 19:31:00 -0400"},"geo_score":0.902,"unit":62,"disposition":"200","cfs":15,"call#":11.010889,"id":"a6dqcib40z7p","geo_precision":"range","address":"302 Hedges St","state":"OH","juris":"PD"},"type":"Feature","geometry":{"type":"Point","coordinates":[-83.167673,41.10874]}},{"properties":{"officer":"BAR","city":"Tiffin","zip":"44883","date":{"end_time":"2011/09/24 20:22:00 -0400","original":"9/24/2011 20:21","granularity":"min","time":"2011/09/24 20:21:00 -0400"},"geo_score":0.902,"unit":63,"disposition":"200","cfs":15,"call#":11.009948,"id":"a6dqcibk8klu","geo_precision":"range","address":"305 S Sandusky St","state":"OH","juris":"PD"},"type":"Feature","geometry":{"type":"Point","coordinates":[-83.188074,41.11194]}},{"properties":{"officer":"JMW","city":"Tiffin","zip":"44883","date":{"end_time":"2011/06/17 19:01:00 -0400","original":"6/17/2011 19:00","granularity":"min","time":"2011/06/17 19:00:00 -0400"},"geo_score":0.902,"unit":60,"disposition":"400","cfs":15,"call#":11.006001,"id":"a6dqcibaki57","geo_precision":"range","address":"306 Water St","state":"OH","juris":"PD"},"type":"Feature","geometry":{"type":"Point","coordinates":[-83.174239,41.120946]}},{"properties":{"officer":"JAD","city":"Tiffin","zip":"44883","date":{"end_time":"2011/07/05 02:18:00 -0400","original":"7/5/2011 2:17","granularity":"min","time":"2011/07/05 02:17:00 -0400"},"geo_score":0.902,"unit":56,"disposition":"200","cfs":15,"call#":11.006708,"id":"a6dqci6g8uaf","geo_precision":"range","address":"310 N Washington St","state":"OH","juris":"PD"},"type":"Feature","geometry":{"type":"Point","coordinates":[-83.178395,41.126157]}},{"properties":{"officer":"MMS","city":"Tiffin","zip":"44883","date":{"end_time":"2011/11/20 02:53:00 -0500","original":"11/20/2011 2:52","granularity":"min","time":"2011/11/20 02:52:00 -0500"},"geo_score":0.902,"unit":60,"disposition":"200","cfs":15,"call#":11.012179,"id":"a6dqci285d0f","geo_precision":"range","address":"32 Short St","state":"OH","juris":"PD"},"type":"Feature","geometry":{"type":"Point","coordinates":[-83.179462,41.126504]}},{"properties":{"officer":"RMN","city":"Tiffin","zip":"44883","date":{"end_time":"2011/10/31 10:23:00 -0400","original":"10/31/2011 10:22","granularity":"min","time":"2011/10/31 10:22:00 -0400"},"geo_score":0.854,"unit":57,"disposition":"450","cfs":15,"call#":11.011374,"id":"a6dqci5ptubq","geo_precision":"range","address":"328 Elm Av","state":"OH","juris":"PD"},"type":"Feature","geometry":{"type":"Point","coordinates":[-83.162051,41.126716]}},{"properties":{"officer":"RLT","city":"Tiffin","zip":"44883","date":{"end_time":"2011/10/16 20:29:00 -0400","original":"10/16/2011 20:28","granularity":"min","time":"2011/10/16 20:28:00 -0400"},"geo_score":0.854,"unit":62,"disposition":"200","cfs":15,"call#":11.010835,"id":"a6dqci547pwf","geo_precision":"range","address":"328 Elm Av","state":"OH","juris":"PD"},"type":"Feature","geometry":{"type":"Point","coordinates":[-83.162051,41.126716]}},{"properties":{"officer":"JMW","city":"Tiffin","zip":"44883","date":{"end_time":"2011/05/26 18:38:00 -0400","original":"5/26/2011 18:37","granularity":"min","time":"2011/05/26 18:37:00 -0400"},"geo_score":0.854,"unit":60,"disposition":"200","cfs":15,"call#":11.005133,"id":"a6dqci6wmwvv","geo_precision":"range","address":"328 Elm Av","state":"OH","juris":"PD"},"type":"Feature","geometry":{"type":"Point","coordinates":[-83.162051,41.126716]}},{"properties":{"officer":"FWS","city":"Tiffin","zip":"44883","date":{"end_time":"2011/03/21 16:15:00 -0400","original":"3/21/2011 16:14","granularity":"min","time":"2011/03/21 16:14:00 -0400"},"geo_score":0.902,"unit":58,"disposition":"200","cfs":15,"call#":11.002599,"id":"a6dqcicxsh2v","geo_precision":"range","address":"329 N Sandusky St","state":"OH","juris":"PD"},"type":"Feature","geometry":{"type":"Point","coordinates":[-83.177001,41.127754]}},{"properties":{"officer":"EDA","city":"Tiffin","zip":"44883","date":{"end_time":"2011/10/17 16:43:00 -0400","original":"10/17/2011 16:42","granularity":"min","time":"2011/10/17 16:42:00 -0400"},"geo_score":0.902,"unit":62,"disposition":"200","cfs":15,"call#":11.010859,"id":"a6dqci6kqmuo","geo_precision":"range","address":"329 Water St","state":"OH","juris":"PD"},"type":"Feature","geometry":{"type":"Point","coordinates":[-83.173844,41.121731]}},{"properties":{"officer":"JMW","city":"Tiffin","zip":"44883","date":{"end_time":"2011/11/29 20:31:00 -0500","original":"11/29/2011 20:30","granularity":"min","time":"2011/11/29 20:30:00 -0500"},"geo_score":0.902,"unit":60,"disposition":"200","cfs":15,"call#":11.0126,"id":"a6dqcigss9zz","geo_precision":"range","address":"33 E Perry St","state":"OH","juris":"PD"},"type":"Feature","geometry":{"type":"Point","coordinates":[-83.178701,41.115667]}},{"properties":{"officer":"JDW","city":"Tiffin","zip":"44883","date":{"end_time":"2011/09/23 15:11:00 -0400","original":"9/23/2011 15:10","granularity":"min","time":"2011/09/23 15:10:00 -0400"},"geo_score":0.902,"unit":62,"disposition":"200","cfs":15,"call#":11.009894,"id":"a6dqci73vidm","geo_precision":"range","address":"33 N Washington St","state":"OH","juris":"PD"},"type":"Feature","geometry":{"type":"Point","coordinates":[-83.177191,41.118567]}},{"properties":{"officer":"EDA","city":"Tiffin","zip":"44883","date":{"end_time":"2011/05/21 20:28:00 -0400","original":"5/21/2011 20:27","granularity":"min","time":"2011/05/21 20:27:00 -0400"},"geo_score":0.902,"unit":60,"disposition":"100","cfs":15,"call#":11.00497,"id":"a6dqci2g03j4","geo_precision":"range","address":"33 N Washington St","state":"OH","juris":"PD"},"type":"Feature","geometry":{"type":"Point","coordinates":[-83.177191,41.118567]}},{"properties":{"officer":"EDA","city":"Tiffin","zip":"44883","date":{"end_time":"2011/11/06 19:36:00 -0500","original":"11/6/2011 19:35","granularity":"min","time":"2011/11/06 19:35:00 -0500"},"geo_score":0.902,"unit":62,"disposition":"200","cfs":15,"call#":11.011627,"id":"a6dqci7lovht","geo_precision":"range","address":"338 Circular St","state":"OH","juris":"PD"},"type":"Feature","geometry":{"type":"Point","coordinates":[-83.1716,41.106496]}},{"properties":{"officer":"JMW","city":"Tiffin","zip":"44883","date":{"end_time":"2011/02/17 20:14:00 -0500","original":"2/17/2011 20:13","granularity":"min","time":"2011/02/17 20:13:00 -0500"},"geo_score":0.902,"unit":57,"disposition":"200","cfs":15,"call#":11.001569,"id":"a6dqci8656nc","geo_precision":"range","address":"34X Miami St","state":"OH","juris":"PD"},"type":"Feature","geometry":{"type":"Point","coordinates":[-83.180394,41.117211]}},{"properties":{"officer":"RJO","city":"Tiffin","zip":"44883","date":{"end_time":"2011/04/02 15:55:00 -0400","original":"4/2/2011 15:54","granularity":"min","time":"2011/04/02 15:54:00 -0400"},"geo_score":0.902,"unit":60,"disposition":"100","cfs":15,"call#":11.002958,"id":"a6dqcihqo2v9","geo_precision":"range","address":"35 Wentz St","state":"OH","juris":"PD"},"type":"Feature","geometry":{"type":"Point","coordinates":[-83.187104,41.117554]}},{"properties":{"officer":"RJO","city":"Tiffin","zip":"44883","date":{"end_time":"2011/12/29 11:30:00 -0500","original":"12/29/2011 11:29","granularity":"min","time":"2011/12/29 11:29:00 -0500"},"geo_score":0.902,"unit":60,"disposition":"200","cfs":15,"call#":11.01368,"id":"a6dqci4t58ln","geo_precision":"range","address":"353 S Monroe St","state":"OH","juris":"PD"},"type":"Feature","geometry":{"type":"Point","coordinates":[-83.177026,41.106797]}},{"properties":{"officer":"JSC","city":"Tiffin","zip":"44883","date":{"end_time":"2011/04/18 17:27:00 -0400","original":"4/18/2011 17:26","granularity":"min","time":"2011/04/18 17:26:00 -0400"},"geo_score":0.902,"unit":59,"disposition":"100","cfs":15,"call#":11.003621,"id":"a6dqcicdqoe3","geo_precision":"range","address":"357 S Washington St","state":"OH","juris":"PD"},"type":"Feature","geometry":{"type":"Point","coordinates":[-83.175548,41.107805]}},{"properties":{"officer":"MEM","city":"Tiffin","zip":"44883","date":{"end_time":"2011/08/10 20:29:00 -0400","original":"8/10/2011 20:28","granularity":"min","time":"2011/08/10 20:28:00 -0400"},"geo_score":0.902,"unit":57,"disposition":"100","cfs":15,"call#":11.008097,"id":"a6dqcie7u6w1","geo_precision":"range","address":"36 Melmore St","state":"OH","juris":"PD"},"type":"Feature","geometry":{"type":"Point","coordinates":[-83.174865,41.108574]}},{"properties":{"officer":"JPF","city":"Tiffin","zip":"44883","date":{"end_time":"2011/04/08 18:04:00 -0400","original":"4/8/2011 18:03","granularity":"min","time":"2011/04/08 18:03:00 -0400"},"geo_score":0.902,"unit":59,"disposition":"200","cfs":15,"call#":11.003177,"id":"a6dqci2c7bsx","geo_precision":"range","address":"361 S Monroe St","state":"OH","juris":"PD"},"type":"Feature","geometry":{"type":"Point","coordinates":[-83.177003,41.106614]}},{"properties":{"officer":"GTM","city":"Tiffin","zip":"44883","date":{"end_time":"2011/12/10 14:54:00 -0500","original":"12/10/2011 14:53","granularity":"min","time":"2011/12/10 14:53:00 -0500"},"geo_score":0.902,"unit":62,"disposition":"200","cfs":15,"call#":11.012988,"id":"a6dqcielib4n","geo_precision":"range","address":"367 Water St","state":"OH","juris":"PD"},"type":"Feature","geometry":{"type":"Point","coordinates":[-83.173414,41.122781]}},{"properties":{"officer":"JAD","city":"Tiffin","zip":"44883","date":{"end_time":"2011/09/18 01:49:00 -0400","original":"9/18/2011 1:48","granularity":"min","time":"2011/09/18 01:48:00 -0400"},"geo_score":0.902,"unit":56,"disposition":"200","cfs":15,"call#":11.009692,"id":"a6dqci3fkpjs","geo_precision":"range","address":"37 Allen St","state":"OH","juris":"PD"},"type":"Feature","geometry":{"type":"Point","coordinates":[-83.199851,41.114557]}},{"properties":{"officer":"RLT","city":"Tiffin","zip":"44883","date":{"end_time":"2011/06/23 20:52:00 -0400","original":"6/23/2011 20:51","granularity":"min","time":"2011/06/23 20:51:00 -0400"},"geo_score":0.902,"unit":62,"disposition":"200","cfs":15,"call#":11.006234,"id":"a6dqci8c9da6","geo_precision":"range","address":"37 Goodsell St","state":"OH","juris":"PD"},"type":"Feature","geometry":{"type":"Point","coordinates":[-83.166176,41.110676]}},{"properties":{"officer":"SGN","city":"Tiffin","zip":"44883","date":{"end_time":"2011/06/07 16:37:00 -0400","original":"6/7/2011 16:36","granularity":"min","time":"2011/06/07 16:36:00 -0400"},"geo_score":0.902,"unit":59,"disposition":"200","cfs":15,"call#":11.005607,"id":"a6dqci2kqf0v","geo_precision":"range","address":"37 Goodsell St","state":"OH","juris":"PD"},"type":"Feature","geometry":{"type":"Point","coordinates":[-83.166176,41.110676]}},{"properties":{"officer":"BRB","city":"Tiffin","zip":"44883","date":{"end_time":"2011/02/16 17:31:00 -0500","original":"2/16/2011 17:30","granularity":"min","time":"2011/02/16 17:30:00 -0500"},"geo_score":0.902,"unit":59,"disposition":"200","cfs":15,"call#":11.001531,"id":"a6dqcid0nw4f","geo_precision":"range","address":"37 Goodsell St","state":"OH","juris":"PD"},"type":"Feature","geometry":{"type":"Point","coordinates":[-83.166176,41.110676]}},{"properties":{"officer":"BRB","city":"Tiffin","zip":"44883","date":{"end_time":"2011/06/24 12:53:00 -0400","original":"6/24/2011 12:52","granularity":"min","time":"2011/06/24 12:52:00 -0400"},"geo_score":0.902,"unit":63,"disposition":"200","cfs":15,"call#":11.006258,"id":"a6dqci6cudu9","geo_precision":"range","address":"37 Longfellow Dr","state":"OH","juris":"PD"},"type":"Feature","geometry":{"type":"Point","coordinates":[-83.193567,41.102888]}},{"properties":{"officer":"EDA","city":"Tiffin","zip":"44883","date":{"end_time":"2011/04/24 20:37:00 -0400","original":"4/24/2011 20:36","granularity":"min","time":"2011/04/24 20:36:00 -0400"},"geo_score":0.902,"unit":60,"disposition":"200","cfs":15,"call#":11.003865,"id":"a6dqci44u4il","geo_precision":"range","address":"37 Longfellow Dr","state":"OH","juris":"PD"},"type":"Feature","geometry":{"type":"Point","coordinates":[-83.193567,41.102888]}},{"properties":{"officer":"SMM","city":"Tiffin","zip":"44883","date":{"end_time":"2011/06/13 20:17:00 -0400","original":"6/13/2011 20:16","granularity":"min","time":"2011/06/13 20:16:00 -0400"},"geo_score":0.902,"unit":59,"disposition":"100","cfs":15,"call#":11.005864,"id":"a6dqcif8xv2o","geo_precision":"range","address":"377 Benner St","state":"OH","juris":"PD"},"type":"Feature","geometry":{"type":"Point","coordinates":[-83.187372,41.112172]}},{"properties":{"officer":"REB","city":"Tiffin","zip":"44883","date":{"end_time":"2011/04/11 14:12:00 -0400","original":"4/11/2011 14:11","granularity":"min","time":"2011/04/11 14:11:00 -0400"},"geo_score":0.902,"unit":558,"disposition":"200","cfs":15,"call#":11.003336,"id":"a6dqci765ezl","geo_precision":"range","address":"380 E Market St","state":"OH","juris":"PD"},"type":"Feature","geometry":{"type":"Point","coordinates":[-83.166844,41.117902]}},{"properties":{"officer":"SGN","city":"Tiffin","zip":"44883","date":{"end_time":"2011/10/11 15:12:00 -0400","original":"10/11/2011 15:11","granularity":"min","time":"2011/10/11 15:11:00 -0400"},"geo_score":0.429,"unit":59,"disposition":"200","cfs":15,"call#":11.010634,"id":"a6dqcif971zl","geo_precision":"street","address":"388 S Washington St,B","state":"OH","juris":"PD"},"type":"Feature","geometry":{"type":"Point","coordinates":[-83.177111,41.118089]}},{"properties":{"officer":"RMN","city":"Tiffin","zip":"44883","date":{"end_time":"2011/12/12 17:02:00 -0500","original":"12/12/2011 17:01","granularity":"min","time":"2011/12/12 17:01:00 -0500"},"geo_score":0.902,"unit":57,"disposition":"200","cfs":15,"call#":11.013092,"id":"a6dqci5c8eoi","geo_precision":"range","address":"394 Water St","state":"OH","juris":"PD"},"type":"Feature","geometry":{"type":"Point","coordinates":[-83.173066,41.123528]}},{"properties":{"officer":"GTM","city":"Tiffin","zip":"44883","date":{"end_time":"2011/07/18 17:44:00 -0400","original":"7/18/2011 17:43","granularity":"min","time":"2011/07/18 17:43:00 -0400"},"geo_score":0.902,"unit":59,"disposition":"200","cfs":15,"call#":11.007216,"id":"a6dqci58u5fl","geo_precision":"range","address":"399 S Washington St","state":"OH","juris":"PD"},"type":"Feature","geometry":{"type":"Point","coordinates":[-83.175291,41.106561]}},{"properties":{"officer":"RLT","city":"Tiffin","zip":"44883","date":{"end_time":"2011/07/03 21:10:00 -0400","original":"7/3/2011 21:09","granularity":"min","time":"2011/07/03 21:09:00 -0400"},"geo_score":0.902,"unit":59,"disposition":"200","cfs":15,"call#":11.006654,"id":"a6dqcid84xlb","geo_precision":"range","address":"399 S Washington St","state":"OH","juris":"PD"},"type":"Feature","geometry":{"type":"Point","coordinates":[-83.175291,41.106561]}},{"properties":{"officer":"MMS","city":"Tiffin","zip":"44883","date":{"end_time":"2011/09/26 11:33:00 -0400","original":"9/26/2011 11:32","granularity":"min","time":"2011/09/26 11:32:00 -0400"},"geo_score":0.902,"unit":63,"disposition":"200","cfs":15,"call#":11.01002,"id":"a6dqci3qh6oj","geo_precision":"range","address":"400 N Sandusky St","state":"OH","juris":"PD"},"type":"Feature","geometry":{"type":"Point","coordinates":[-83.175902,41.129233]}},{"properties":{"officer":"AMR","city":"Tiffin","zip":"44883","date":{"end_time":"2011/01/24 18:47:00 -0500","original":"1/24/2011 18:46","granularity":"min","time":"2011/01/24 18:46:00 -0500"},"geo_score":0.805,"unit":63,"disposition":"100","cfs":15,"call#":11.000724,"id":"a6dqcig0v7u2","geo_precision":"street","address":"405 Miami St","state":"OH","juris":"PD"},"type":"Feature","geometry":{"type":"Point","coordinates":[-83.193678,41.11899]}},{"properties":{"officer":"JPF","city":"Tiffin","zip":"44883","date":{"end_time":"2011/04/13 17:18:00 -0400","original":"4/13/2011 17:17","granularity":"min","time":"2011/04/13 17:17:00 -0400"},"geo_score":0.902,"unit":59,"disposition":"200","cfs":15,"call#":11.003419,"id":"a6dqci5qb338","geo_precision":"range","address":"42 Jefferson St","state":"OH","juris":"PD"},"type":"Feature","geometry":{"type":"Point","coordinates":[-83.175456,41.116735]}},{"properties":{"officer":"MMS","city":"Tiffin","zip":"44883","date":{"end_time":"2011/11/27 21:01:00 -0500","original":"11/27/2011 21:00","granularity":"min","time":"2011/11/27 21:00:00 -0500"},"geo_score":0.902,"unit":58,"disposition":"100","cfs":15,"call#":11.012492,"id":"a6dqci53if4k","geo_precision":"range","address":"43 W Market St","state":"OH","juris":"PD"},"type":"Feature","geometry":{"type":"Point","coordinates":[-83.181879,41.114073]}},{"properties":{"officer":"BRB","city":"Tiffin","zip":"44883","date":{"end_time":"2011/03/01 08:50:00 -0500","original":"3/1/2011 8:49","granularity":"min","time":"2011/03/01 08:49:00 -0500"},"geo_score":0.902,"unit":62,"disposition":"200","cfs":15,"call#":11.001935,"id":"a6dqcigvw4gv","geo_precision":"range","address":"439 W Perry St","state":"OH","juris":"PD"},"type":"Feature","geometry":{"type":"Point","coordinates":[-83.195487,41.114067]}},{"properties":{"officer":"GTM","city":"Tiffin","zip":"44883","date":{"end_time":"2011/12/17 16:09:00 -0500","original":"12/17/2011 16:08","granularity":"min","time":"2011/12/17 16:08:00 -0500"},"geo_score":0.902,"unit":59,"disposition":"450","cfs":15,"call#":11.013314,"id":"a6dqci8aata2","geo_precision":"range","address":"44 Henry St","state":"OH","juris":"PD"},"type":"Feature","geometry":{"type":"Point","coordinates":[-83.171179,41.127342]}},{"properties":{"officer":"MEM","city":"Tiffin","zip":"44883","date":{"end_time":"2011/05/14 14:18:00 -0400","original":"5/14/2011 14:17","granularity":"min","time":"2011/05/14 14:17:00 -0400"},"geo_score":0.902,"unit":63,"disposition":"200","cfs":15,"call#":11.004701,"id":"a6dqci686njv","geo_precision":"range","address":"45 Melmore St","state":"OH","juris":"PD"},"type":"Feature","geometry":{"type":"Point","coordinates":[-83.174696,41.10835]}},{"properties":{"officer":"DES","city":"Tiffin","zip":"44883","date":{"end_time":"2011/12/31 16:15:00 -0500","original":"12/31/2011 16:14","granularity":"min","time":"2011/12/31 16:14:00 -0500"},"geo_score":0.516,"unit":61,"disposition":"200","cfs":15,"call#":11.013753,"id":"a6dqci2y2ou8","geo_precision":"street","address":"45 St Lawrence Dr","state":"OH","juris":"PD"},"type":"Feature","geometry":{"type":"Point","coordinates":[-82.718729,41.455282]}},{"properties":{"officer":"REB","city":"Tiffin","zip":"44883","date":{"end_time":"2011/12/06 10:17:00 -0500","original":"12/6/2011 10:16","granularity":"min","time":"2011/12/06 10:16:00 -0500"},"geo_score":0.516,"unit":558,"disposition":"200","cfs":15,"call#":11.012821,"id":"a6dqci4nld0o","geo_precision":"street","address":"45 St Lawrence Dr","state":"OH","juris":"PD"},"type":"Feature","geometry":{"type":"Point","coordinates":[-82.718729,41.455282]}},{"properties":{"officer":"JPF","city":"Tiffin","zip":"44883","date":{"end_time":"2011/10/05 23:39:00 -0400","original":"10/5/2011 23:38","granularity":"min","time":"2011/10/05 23:38:00 -0400"},"geo_score":0.516,"unit":59,"disposition":"200","cfs":15,"call#":11.010399,"id":"a6dqci7rzgae","geo_precision":"street","address":"45 St Lawrence Dr","state":"OH","juris":"PD"},"type":"Feature","geometry":{"type":"Point","coordinates":[-82.718729,41.455282]}},{"properties":{"officer":"BAR","city":"Tiffin","zip":"44883","date":{"end_time":"2011/07/21 18:34:00 -0400","original":"7/21/2011 18:33","granularity":"min","time":"2011/07/21 18:33:00 -0400"},"geo_score":0.516,"unit":63,"disposition":"200","cfs":15,"call#":11.007292,"id":"a6dqcie1ium4","geo_precision":"street","address":"45 St Lawrence Dr","state":"OH","juris":"PD"},"type":"Feature","geometry":{"type":"Point","coordinates":[-82.718729,41.455282]}},{"properties":{"officer":"RLT","city":"Tiffin","zip":"44883","date":{"end_time":"2011/04/23 00:13:00 -0400","original":"4/23/2011 0:12","granularity":"min","time":"2011/04/23 00:12:00 -0400"},"geo_score":0.516,"unit":61,"disposition":"400","cfs":15,"call#":11.003788,"id":"a6dqcicaeq5w","geo_precision":"street","address":"45 St Lawrence Dr","state":"OH","juris":"PD"},"type":"Feature","geometry":{"type":"Point","coordinates":[-82.718729,41.455282]}},{"properties":{"officer":"EDA","city":"Tiffin","zip":"44883","date":{"end_time":"2011/04/18 20:19:00 -0400","original":"4/18/2011 20:18","granularity":"min","time":"2011/04/18 20:18:00 -0400"},"geo_score":0.516,"unit":60,"disposition":"200","cfs":15,"call#":11.003628,"id":"a6dqci99pm1p","geo_precision":"street","address":"45 St Lawrence Dr","state":"OH","juris":"PD"},"type":"Feature","geometry":{"type":"Point","coordinates":[-82.718729,41.455282]}},{"properties":{"officer":"JSC","city":"Tiffin","zip":"44883","date":{"end_time":"2011/04/11 19:45:00 -0400","original":"4/11/2011 19:44","granularity":"min","time":"2011/04/11 19:44:00 -0400"},"geo_score":0.516,"unit":59,"disposition":"200","cfs":15,"call#":11.003347,"id":"a6dqci4ie9rw","geo_precision":"street","address":"45 St Lawrence Dr","state":"OH","juris":"PD"},"type":"Feature","geometry":{"type":"Point","coordinates":[-82.718729,41.455282]}},{"properties":{"officer":"JSC","city":"Tiffin","zip":"44883","date":{"end_time":"2011/02/08 17:57:00 -0500","original":"2/8/2011 17:56","granularity":"min","time":"2011/02/08 17:56:00 -0500"},"geo_score":0.516,"unit":59,"disposition":"200","cfs":15,"call#":11.001248,"id":"a6dqci1zmsfh","geo_precision":"street","address":"45 St Lawrence Dr","state":"OH","juris":"PD"},"type":"Feature","geometry":{"type":"Point","coordinates":[-82.718729,41.455282]}},{"properties":{"officer":"JSC","city":"Tiffin","zip":"44883","date":{"end_time":"2011/02/07 20:33:00 -0500","original":"2/7/2011 20:32","granularity":"min","time":"2011/02/07 20:32:00 -0500"},"geo_score":0.516,"unit":57,"disposition":"200","cfs":15,"call#":11.001226,"id":"a6dqcichh3qe","geo_precision":"street","address":"45 St Lawrence Dr","state":"OH","juris":"PD"},"type":"Feature","geometry":{"type":"Point","coordinates":[-82.718729,41.455282]}},{"properties":{"officer":"FWS","city":"Tiffin","zip":"44883","date":{"end_time":"2011/07/14 14:46:00 -0400","original":"7/14/2011 14:45","granularity":"min","time":"2011/07/14 14:45:00 -0400"},"geo_score":0.902,"unit":60,"disposition":"200","cfs":15,"call#":11.00704,"id":"a6dqci73vzf8","geo_precision":"range","address":"45 Tomb St,2","state":"OH","juris":"PD"},"type":"Feature","geometry":{"type":"Point","coordinates":[-83.176274,41.128719]}},{"properties":{"officer":"MEM","city":"Tiffin","zip":"44883","date":{"end_time":"2011/04/15 13:47:00 -0400","original":"4/15/2011 13:46","granularity":"min","time":"2011/04/15 13:46:00 -0400"},"geo_score":0.902,"unit":63,"disposition":"200","cfs":15,"call#":11.003491,"id":"a6dqci4fyvdz","geo_precision":"range","address":"47 Circular St","state":"OH","juris":"PD"},"type":"Feature","geometry":{"type":"Point","coordinates":[-83.170062,41.114083]}},{"properties":{"officer":"GTM","city":"Tiffin","zip":"44883","date":{"end_time":"2011/08/01 14:02:00 -0400","original":"8/1/2011 14:01","granularity":"min","time":"2011/08/01 14:01:00 -0400"},"geo_score":0.902,"unit":59,"disposition":"200","cfs":15,"call#":11.007779,"id":"a6dqci6wmrkh","geo_precision":"range","address":"49 Boehler St","state":"OH","juris":"PD"},"type":"Feature","geometry":{"type":"Point","coordinates":[-83.188434,41.117289]}},{"properties":{"officer":"JAD","city":"Tiffin","zip":"44883","date":{"end_time":"2011/07/04 20:19:00 -0400","original":"7/4/2011 20:18","granularity":"min","time":"2011/07/04 20:18:00 -0400"},"geo_score":0.902,"unit":56,"disposition":"200","cfs":15,"call#":11.00669,"id":"a6dqci6rjr9l","geo_precision":"range","address":"491 Coe St","state":"OH","juris":"PD"},"type":"Feature","geometry":{"type":"Point","coordinates":[-83.160385,41.102667]}},{"properties":{"officer":"BAR","city":"Tiffin","zip":"44883","date":{"end_time":"2011/05/28 19:03:00 -0400","original":"5/28/2011 19:02","granularity":"min","time":"2011/05/28 19:02:00 -0400"},"geo_score":0.902,"unit":63,"disposition":"200","cfs":15,"call#":11.005234,"id":"a6dqci36wytu","geo_precision":"range","address":"491 Coe St","state":"OH","juris":"PD"},"type":"Feature","geometry":{"type":"Point","coordinates":[-83.160385,41.102667]}},{"properties":{"officer":"JSC","city":"Tiffin","zip":"44883","date":{"end_time":"2011/04/24 02:38:00 -0400","original":"4/24/2011 2:37","granularity":"min","time":"2011/04/24 02:37:00 -0400"},"geo_score":0.902,"unit":57,"disposition":"100","cfs":15,"call#":11.003849,"id":"a6dqcihm7tq7","geo_precision":"range","address":"50 W Davis St","state":"OH","juris":"PD"},"type":"Feature","geometry":{"type":"Point","coordinates":[-83.179908,41.126045]}},{"properties":{"officer":"LMK","city":"Tiffin","zip":"44883","date":{"end_time":"2011/01/10 18:16:00 -0500","original":"1/10/2011 18:15","granularity":"min","time":"2011/01/10 18:15:00 -0500"},"geo_score":0.902,"unit":58,"disposition":"200","cfs":15,"call#":11.000272,"id":"a6dqciaj9qvh","geo_precision":"range","address":"508 Jackson St","state":"OH","juris":"PD"},"type":"Feature","geometry":{"type":"Point","coordinates":[-83.181056,41.126396]}},{"properties":{"officer":"MEM","city":"Tiffin","zip":"44883","date":{"end_time":"2011/05/12 17:08:00 -0400","original":"5/12/2011 17:07","granularity":"min","time":"2011/05/12 17:07:00 -0400"},"geo_score":0.902,"unit":63,"disposition":"200","cfs":15,"call#":11.004609,"id":"a6dqcienrd3v","geo_precision":"range","address":"51 St Clair St","state":"OH","juris":"PD"},"type":"Feature","geometry":{"type":"Point","coordinates":[-83.181425,41.112822]}},{"properties":{"officer":"SGN","city":"Tiffin","zip":"44883","date":{"end_time":"2011/04/20 15:27:00 -0400","original":"4/20/2011 15:26","granularity":"min","time":"2011/04/20 15:26:00 -0400"},"geo_score":0.805,"unit":59,"disposition":"200","cfs":15,"call#":11.003685,"id":"a6dqcias8srm","geo_precision":"street","address":"514 E Perry St","state":"OH","juris":"PD"},"type":"Feature","geometry":{"type":"Point","coordinates":[-83.15937,41.119124]}},{"properties":{"officer":"SGN","city":"Tiffin","zip":"44883","date":{"end_time":"2011/09/27 15:36:00 -0400","original":"9/27/2011 15:35","granularity":"min","time":"2011/09/27 15:35:00 -0400"},"geo_score":0.902,"unit":59,"disposition":"200","cfs":15,"call#":11.010067,"id":"a6dqcie0lda6","geo_precision":"range","address":"52 W Perry St","state":"OH","juris":"PD"},"type":"Feature","geometry":{"type":"Point","coordinates":[-83.181885,41.115311]}},{"properties":{"officer":"SGN","city":"Tiffin","zip":"44883","date":{"end_time":"2011/08/24 15:33:00 -0400","original":"8/24/2011 15:32","granularity":"min","time":"2011/08/24 15:32:00 -0400"},"geo_score":0.873,"unit":59,"disposition":"100","cfs":15,"call#":11.008664,"id":"a6dqci416iok","geo_precision":"range","address":"52X Clinton Av","state":"OH","juris":"PD"},"type":"Feature","geometry":{"type":"Point","coordinates":[-83.170732,41.117597]}},{"properties":{"officer":"MEM","city":"Tiffin","zip":"44883","date":{"end_time":"2011/10/10 18:08:00 -0400","original":"10/10/2011 18:07","granularity":"min","time":"2011/10/10 18:07:00 -0400"},"geo_score":0.902,"unit":59,"disposition":"100","cfs":15,"call#":11.010583,"id":"a6dqcieb3ftk","geo_precision":"range","address":"534 Circular St","state":"OH","juris":"PD"},"type":"Feature","geometry":{"type":"Point","coordinates":[-83.178344,41.105224]}},{"properties":{"officer":"SMM","city":"Tiffin","zip":"44883","date":{"end_time":"2011/09/13 22:21:00 -0400","original":"9/13/2011 22:20","granularity":"min","time":"2011/09/13 22:20:00 -0400"},"geo_score":0.902,"unit":63,"disposition":"200","cfs":15,"call#":11.009499,"id":"a6dqci2la4n3","geo_precision":"range","address":"534 Circular St","state":"OH","juris":"PD"},"type":"Feature","geometry":{"type":"Point","coordinates":[-83.178344,41.105224]}},{"properties":{"officer":"JDW","city":"Tiffin","zip":"44883","date":{"end_time":"2011/05/23 20:26:00 -0400","original":"5/23/2011 20:25","granularity":"min","time":"2011/05/23 20:25:00 -0400"},"geo_score":0.902,"unit":60,"disposition":"200","cfs":15,"call#":11.005035,"id":"a6dqci9h3z6r","geo_precision":"range","address":"534 Circular St","state":"OH","juris":"PD"},"type":"Feature","geometry":{"type":"Point","coordinates":[-83.178344,41.105224]}},{"properties":{"officer":"RLT","city":"Tiffin","zip":"44883","date":{"end_time":"2011/01/29 17:05:00 -0500","original":"1/29/2011 17:04","granularity":"min","time":"2011/01/29 17:04:00 -0500"},"geo_score":0.902,"unit":61,"disposition":"200","cfs":15,"call#":11.000893,"id":"a6dqci75vvb4","geo_precision":"range","address":"534 Circular St","state":"OH","juris":"PD"},"type":"Feature","geometry":{"type":"Point","coordinates":[-83.178344,41.105224]}},{"properties":{"officer":"BRB","city":"Tiffin","zip":"44883","date":{"end_time":"2011/05/25 10:56:00 -0400","original":"5/25/2011 10:55","granularity":"min","time":"2011/05/25 10:55:00 -0400"},"geo_score":0.902,"unit":63,"disposition":"100","cfs":15,"call#":11.005087,"id":"a6dqcif9nhzj","geo_precision":"range","address":"535 W Market St","state":"OH","juris":"PD"},"type":"Feature","geometry":{"type":"Point","coordinates":[-83.199035,41.112429]}},{"properties":{"officer":"RJO","city":"Tiffin","zip":"44883","date":{"end_time":"2011/06/30 14:27:00 -0400","original":"6/30/2011 14:26","granularity":"min","time":"2011/06/30 14:26:00 -0400"},"geo_score":0.902,"unit":60,"disposition":"200","cfs":15,"call#":11.006498,"id":"a6dqcieqn4qq","geo_precision":"range","address":"54 W Perry St","state":"OH","juris":"PD"},"type":"Feature","geometry":{"type":"Point","coordinates":[-83.18195,41.115302]}},{"properties":{"officer":"JMW","city":"Tiffin","zip":"44883","date":{"end_time":"2011/03/30 16:59:00 -0400","original":"3/30/2011 16:58","granularity":"min","time":"2011/03/30 16:58:00 -0400"},"geo_score":0.902,"unit":57,"disposition":"200","cfs":15,"call#":11.002848,"id":"a6dqci3ega87","geo_precision":"range","address":"544 Circular St","state":"OH","juris":"PD"},"type":"Feature","geometry":{"type":"Point","coordinates":[-83.178469,41.105273]}},{"properties":{"officer":"JMW","city":"Tiffin","zip":"44883","date":{"end_time":"2011/05/31 17:43:00 -0400","original":"5/31/2011 17:42","granularity":"min","time":"2011/05/31 17:42:00 -0400"},"geo_score":0.902,"unit":60,"disposition":"200","cfs":15,"call#":11.005354,"id":"a6dqcibxeom5","geo_precision":"range","address":"55 Apple St","state":"OH","juris":"PD"},"type":"Feature","geometry":{"type":"Point","coordinates":[-83.181228,41.124811]}},{"properties":{"officer":"JDW","city":"Tiffin","zip":"44883","date":{"end_time":"2011/08/31 14:38:00 -0400","original":"8/31/2011 14:37","granularity":"min","time":"2011/08/31 14:37:00 -0400"},"geo_score":0.902,"unit":57,"disposition":"200","cfs":15,"call#":11.008953,"id":"a6dqcibwfmiy","geo_precision":"range","address":"55 Avery St","state":"OH","juris":"PD"},"type":"Feature","geometry":{"type":"Point","coordinates":[-83.178149,41.110468]}},{"properties":{"officer":"EDA","city":"Tiffin","zip":"44883","date":{"end_time":"2011/09/04 17:19:00 -0400","original":"9/4/2011 17:18","granularity":"min","time":"2011/09/04 17:18:00 -0400"},"geo_score":0.902,"unit":60,"disposition":"200","cfs":15,"call#":11.009131,"id":"a6dqcig4mhsx","geo_precision":"range","address":"55 Madison St,3","state":"OH","juris":"PD"},"type":"Feature","geometry":{"type":"Point","coordinates":[-83.178806,41.113146]}},{"properties":{"officer":"BAR","city":"Tiffin","zip":"44883","date":{"end_time":"2011/04/14 17:28:00 -0400","original":"4/14/2011 17:27","granularity":"min","time":"2011/04/14 17:27:00 -0400"},"geo_score":0.902,"unit":63,"disposition":"200","cfs":15,"call#":11.003454,"id":"a6dqci818w2e","geo_precision":"range","address":"55 Madison St,3","state":"OH","juris":"PD"},"type":"Feature","geometry":{"type":"Point","coordinates":[-83.178806,41.113146]}},{"properties":{"officer":"REB","city":"Tiffin","zip":"44883","date":{"end_time":"2011/01/26 08:54:00 -0500","original":"1/26/2011 8:53","granularity":"min","time":"2011/01/26 08:53:00 -0500"},"geo_score":0.902,"unit":558,"disposition":"200","cfs":15,"call#":11.000767,"id":"a6dqci3mkd35","geo_precision":"range","address":"55 Madison St,3","state":"OH","juris":"PD"},"type":"Feature","geometry":{"type":"Point","coordinates":[-83.178806,41.113146]}},{"properties":{"officer":"JPF","city":"Tiffin","zip":"44883","date":{"end_time":"2011/08/25 17:47:00 -0400","original":"8/25/2011 17:46","granularity":"min","time":"2011/08/25 17:46:00 -0400"},"geo_score":0.902,"unit":59,"disposition":"200","cfs":15,"call#":11.008722,"id":"a6dqcickp7tj","geo_precision":"range","address":"59 E Market St","state":"OH","juris":"PD"},"type":"Feature","geometry":{"type":"Point","coordinates":[-83.177936,41.114461]}},{"properties":{"officer":"JSC","city":"Tiffin","zip":"44883","date":{"end_time":"2011/04/25 20:31:00 -0400","original":"4/25/2011 20:30","granularity":"min","time":"2011/04/25 20:30:00 -0400"},"geo_score":0.471,"unit":57,"disposition":"450","cfs":15,"call#":11.003895,"id":"a6dqcia83msg","geo_precision":"street","address":"590 S Sandusky St,A","state":"OH","juris":"PD"},"type":"Feature","geometry":{"type":"Point","coordinates":[-83.152097,41.240958]}},{"properties":{"officer":"EDA","city":"Tiffin","zip":"44883","date":{"end_time":"2011/11/29 17:33:00 -0500","original":"11/29/2011 17:32","granularity":"min","time":"2011/11/29 17:32:00 -0500"},"geo_score":0.69,"unit":62,"disposition":"100","cfs":15,"call#":11.012598,"id":"a6dqciagn0sl","geo_precision":"range","address":"60 N Sr 101","state":"OH","juris":"PD"},"type":"Feature","geometry":{"type":"Point","coordinates":[-83.158808,41.123521]}},{"properties":{"officer":"AMR","city":"Tiffin","zip":"44883","date":{"end_time":"2011/02/07 22:11:00 -0500","original":"2/7/2011 22:10","granularity":"min","time":"2011/02/07 22:10:00 -0500"},"geo_score":0.902,"unit":63,"disposition":"200","cfs":15,"call#":11.001227,"id":"a6dqci3zi2a9","geo_precision":"range","address":"60X W Perry St","state":"OH","juris":"PD"},"type":"Feature","geometry":{"type":"Point","coordinates":[-83.182147,41.115276]}},{"properties":{"officer":"SGN","city":"Tiffin","zip":"44883","date":{"end_time":"2011/10/25 16:02:00 -0400","original":"10/25/2011 16:01","granularity":"min","time":"2011/10/25 16:01:00 -0400"},"geo_score":0.471,"unit":59,"disposition":"200","cfs":15,"call#":11.011133,"id":"a6dqci4rf6ow","geo_precision":"street","address":"610 S Sandusky St,A","state":"OH","juris":"PD"},"type":"Feature","geometry":{"type":"Point","coordinates":[-83.152097,41.240958]}},{"properties":{"officer":"MEM","city":"Tiffin","zip":"44883","date":{"end_time":"2011/09/20 19:21:00 -0400","original":"9/20/2011 19:20","granularity":"min","time":"2011/09/20 19:20:00 -0400"},"geo_score":0.902,"unit":58,"disposition":"200","cfs":15,"call#":11.0098,"id":"a6dqci82f0vz","geo_precision":"range","address":"62 N Monroe St","state":"OH","juris":"PD"},"type":"Feature","geometry":{"type":"Point","coordinates":[-83.178806,41.118486]}},{"properties":{"officer":"EDA","city":"Tiffin","zip":"44883","date":{"end_time":"2011/09/24 19:29:00 -0400","original":"9/24/2011 19:28","granularity":"min","time":"2011/09/24 19:28:00 -0400"},"geo_score":0.878,"unit":62,"disposition":"200","cfs":15,"call#":11.009942,"id":"a6dqci5cla6g","geo_precision":"range","address":"63 Fairfield Av","state":"OH","juris":"PD"},"type":"Feature","geometry":{"type":"Point","coordinates":[-83.191822,41.118163]}},{"properties":{"officer":"JPF","city":"Tiffin","zip":"44883","date":{"end_time":"2011/11/10 18:17:00 -0500","original":"11/10/2011 18:16","granularity":"min","time":"2011/11/10 18:16:00 -0500"},"geo_score":0.902,"unit":59,"disposition":"200","cfs":15,"call#":11.011782,"id":"a6dqci2cy2yr","geo_precision":"range","address":"630 W Market St","state":"OH","juris":"PD"},"type":"Feature","geometry":{"type":"Point","coordinates":[-83.201361,41.112205]}},{"properties":{"officer":"RJO","city":"Tiffin","zip":"44883","date":{"end_time":"2011/06/24 12:15:00 -0400","original":"6/24/2011 12:14","granularity":"min","time":"2011/06/24 12:14:00 -0400"},"geo_score":0.902,"unit":58,"disposition":"200","cfs":15,"call#":11.006256,"id":"a6dqciaxobfs","geo_precision":"range","address":"634 W Market St","state":"OH","juris":"PD"},"type":"Feature","geometry":{"type":"Point","coordinates":[-83.201366,41.112204]}},{"properties":{"officer":"SMM","city":"Tiffin","zip":"44883","date":{"end_time":"2011/09/22 21:40:00 -0400","original":"9/22/2011 21:39","granularity":"min","time":"2011/09/22 21:39:00 -0400"},"geo_score":0.902,"unit":62,"disposition":"100","cfs":15,"call#":11.009869,"id":"a6dqci63zts0","geo_precision":"range","address":"644 W Market St","state":"OH","juris":"PD"},"type":"Feature","geometry":{"type":"Point","coordinates":[-83.203029,41.111931]}},{"properties":{"officer":"RMN","city":"Tiffin","zip":"44883","date":{"end_time":"2011/07/15 02:38:00 -0400","original":"7/15/2011 2:37","granularity":"min","time":"2011/07/15 02:37:00 -0400"},"geo_score":0.902,"unit":61,"disposition":"200","cfs":15,"call#":11.007074,"id":"a6dqcicqsco0","geo_precision":"range","address":"644 W Market St","state":"OH","juris":"PD"},"type":"Feature","geometry":{"type":"Point","coordinates":[-83.203029,41.111931]}},{"properties":{"officer":"JDW","city":"Tiffin","zip":"44883","date":{"end_time":"2011/11/02 15:24:00 -0400","original":"11/2/2011 15:23","granularity":"min","time":"2011/11/02 15:23:00 -0400"},"geo_score":0.902,"unit":62,"disposition":"200","cfs":15,"call#":11.011453,"id":"a6dqci9i0vpn","geo_precision":"range","address":"66 Charlotte St","state":"OH","juris":"PD"},"type":"Feature","geometry":{"type":"Point","coordinates":[-83.178163,41.110346]}},{"properties":{"officer":"GTM","city":"Tiffin","zip":"44883","date":{"end_time":"2011/05/10 13:50:00 -0400","original":"5/10/2011 13:49","granularity":"min","time":"2011/05/10 13:49:00 -0400"},"geo_score":0.902,"unit":57,"disposition":"100","cfs":15,"call#":11.004529,"id":"a6dqci5z9nct","geo_precision":"range","address":"66 Charlotte St","state":"OH","juris":"PD"},"type":"Feature","geometry":{"type":"Point","coordinates":[-83.178163,41.110346]}},{"properties":{"officer":"BAR","city":"Tiffin","zip":"44883","date":{"end_time":"2011/06/05 20:59:00 -0400","original":"6/5/2011 20:58","granularity":"min","time":"2011/06/05 20:58:00 -0400"},"geo_score":0.902,"unit":63,"disposition":"200","cfs":15,"call#":11.00556,"id":"a6dqciepen8i","geo_precision":"range","address":"66 Erie St","state":"OH","juris":"PD"},"type":"Feature","geometry":{"type":"Point","coordinates":[-83.17459,41.122564]}},{"properties":{"officer":"JPF","city":"Tiffin","zip":"44883","date":{"end_time":"2011/11/17 16:05:00 -0500","original":"11/17/2011 16:04","granularity":"min","time":"2011/11/17 16:04:00 -0500"},"geo_score":0.902,"unit":62,"disposition":"200","cfs":15,"call#":11.012074,"id":"a6dqcihty2ml","geo_precision":"range","address":"66 N Sandusky St","state":"OH","juris":"PD"},"type":"Feature","geometry":{"type":"Point","coordinates":[-83.181403,41.121564]}},{"properties":{"officer":"RJO","city":"Tiffin","zip":"44883","date":{"end_time":"2011/04/07 10:01:00 -0400","original":"4/7/2011 10:00","granularity":"min","time":"2011/04/07 10:00:00 -0400"},"geo_score":0.53,"unit":60,"disposition":"200","cfs":15,"call#":11.003111,"id":"a6dqcicj4os3","geo_precision":"street","address":"67 St Francis Av","state":"OH","juris":"PD"},"type":"Feature","geometry":{"type":"Point","coordinates":[-83.435561,41.152397]}},{"properties":{"officer":"FWS","city":"Tiffin","zip":"44883","date":{"end_time":"2011/03/31 11:47:00 -0400","original":"3/31/2011 11:46","granularity":"min","time":"2011/03/31 11:46:00 -0400"},"geo_score":0.53,"unit":57,"disposition":"200","cfs":15,"call#":11.002868,"id":"a6dqcihg8euj","geo_precision":"street","address":"67 St Francis Av","state":"OH","juris":"PD"},"type":"Feature","geometry":{"type":"Point","coordinates":[-83.435561,41.152397]}},{"properties":{"officer":"FWS","city":"Tiffin","zip":"44883","date":{"end_time":"2011/01/11 14:40:00 -0500","original":"1/11/2011 14:39","granularity":"min","time":"2011/01/11 14:39:00 -0500"},"geo_score":0.53,"unit":57,"disposition":"450","cfs":15,"call#":11.000305,"id":"a6dqci3qjxu5","geo_precision":"street","address":"67 St Francis Av","state":"OH","juris":"PD"},"type":"Feature","geometry":{"type":"Point","coordinates":[-83.435561,41.152397]}},{"properties":{"officer":"LMK","city":"Tiffin","zip":"44883","date":{"end_time":"2011/05/20 21:04:00 -0400","original":"5/20/2011 21:03","granularity":"min","time":"2011/05/20 21:03:00 -0400"},"geo_score":0.429,"unit":58,"disposition":"200","cfs":15,"call#":11.004925,"id":"a6dqcigzlyns","geo_precision":"street","address":"686 S Sandusky St, O","state":"OH","juris":"PD"},"type":"Feature","geometry":{"type":"Point","coordinates":[-83.183613,41.118373]}},{"properties":{"officer":"MMS","city":"Tiffin","zip":"44883","date":{"end_time":"2011/12/25 22:10:00 -0500","original":"12/25/2011 22:09","granularity":"min","time":"2011/12/25 22:09:00 -0500"},"geo_score":0.902,"unit":58,"disposition":"200","cfs":15,"call#":11.013582,"id":"a6dqcigz2yr9","geo_precision":"range","address":"686 S Sandusky St,26","state":"OH","juris":"PD"},"type":"Feature","geometry":{"type":"Point","coordinates":[-83.182934,41.11927]}},{"properties":{"officer":"JSC","city":"Tiffin","zip":"44883","date":{"end_time":"2011/03/08 17:41:00 -0500","original":"3/8/2011 17:40","granularity":"min","time":"2011/03/08 17:40:00 -0500"},"geo_score":0.429,"unit":59,"disposition":"200","cfs":15,"call#":11.0022,"id":"a6dqcia9w67n","geo_precision":"street","address":"7 W Market St,O","state":"OH","juris":"PD"},"type":"Feature","geometry":{"type":"Point","coordinates":[-83.181592,41.114111]}},{"properties":{"officer":"DES","city":"Tiffin","zip":"44883","date":{"end_time":"2011/03/28 15:39:00 -0400","original":"3/28/2011 15:38","granularity":"min","time":"2011/03/28 15:38:00 -0400"},"geo_score":0.902,"unit":61,"disposition":"200","cfs":15,"call#":11.002799,"id":"a6dqcia7w8jb","geo_precision":"range","address":"70 N Monroe St","state":"OH","juris":"PD"},"type":"Feature","geometry":{"type":"Point","coordinates":[-83.178826,41.118655]}},{"properties":{"officer":"REB","city":"Tiffin","zip":"44883","date":{"end_time":"2011/07/19 12:45:00 -0400","original":"7/19/2011 12:44","granularity":"min","time":"2011/07/19 12:44:00 -0400"},"geo_score":0.902,"unit":558,"disposition":"200","cfs":15,"call#":11.007232,"id":"a6dqci1rv5kt","geo_precision":"range","address":"70 N Sandusky St","state":"OH","juris":"PD"},"type":"Feature","geometry":{"type":"Point","coordinates":[-83.181361,41.121642]}},{"properties":{"officer":"JDW","city":"Tiffin","zip":"44883","date":{"end_time":"2011/06/29 21:37:00 -0400","original":"6/29/2011 21:36","granularity":"min","time":"2011/06/29 21:36:00 -0400"},"geo_score":0.902,"unit":60,"disposition":"200","cfs":15,"call#":11.006468,"id":"a6dqci7de2us","geo_precision":"range","address":"70 N Sandusky St","state":"OH","juris":"PD"},"type":"Feature","geometry":{"type":"Point","coordinates":[-83.181361,41.121642]}},{"properties":{"officer":"REB","city":"Tiffin","zip":"44883","date":{"end_time":"2011/03/13 13:10:00 -0400","original":"3/13/2011 13:09","granularity":"min","time":"2011/03/13 13:09:00 -0400"},"geo_score":0.902,"unit":558,"disposition":"450","cfs":15,"call#":11.002353,"id":"a6dqci904qj6","geo_precision":"range","address":"70 N Sandusky St","state":"OH","juris":"PD"},"type":"Feature","geometry":{"type":"Point","coordinates":[-83.181361,41.121642]}},{"properties":{"officer":null,"city":"Tiffin","zip":"44883","date":{"end_time":"2011/06/22 15:40:00 -0400","original":"6/22/2011 15:39","granularity":"min","time":"2011/06/22 15:39:00 -0400"},"geo_score":0.902,"unit":null,"disposition":"CAN","cfs":15,"call#":11.006199,"id":"a6dqci61iwk8","geo_precision":"range","address":"71 E Market St","state":"OH","juris":"PD"},"type":"Feature","geometry":{"type":"Point","coordinates":[-83.177644,41.114498]}},{"properties":{"officer":"JPF","city":"Tiffin","zip":"44883","date":{"end_time":"2011/08/31 17:03:00 -0400","original":"8/31/2011 17:02","granularity":"min","time":"2011/08/31 17:02:00 -0400"},"geo_score":0.902,"unit":59,"disposition":"450","cfs":15,"call#":11.00896,"id":"a6dqci7uxjwy","geo_precision":"range","address":"71 Jackson St","state":"OH","juris":"PD"},"type":"Feature","geometry":{"type":"Point","coordinates":[-83.187206,41.11531]}},{"properties":{"officer":"BRB","city":"Tiffin","zip":"44883","date":{"end_time":"2011/01/18 16:27:00 -0500","original":"1/18/2011 16:26","granularity":"min","time":"2011/01/18 16:26:00 -0500"},"geo_score":0.902,"unit":59,"disposition":"200","cfs":15,"call#":11.000552,"id":"a6dqcidfser2","geo_precision":"range","address":"71 Jackson St","state":"OH","juris":"PD"},"type":"Feature","geometry":{"type":"Point","coordinates":[-83.187206,41.11531]}},{"properties":{"officer":"FWS","city":"Tiffin","zip":"44883","date":{"end_time":"2011/08/16 15:18:00 -0400","original":"8/16/2011 15:17","granularity":"min","time":"2011/08/16 15:17:00 -0400"},"geo_score":0.902,"unit":58,"disposition":"200","cfs":15,"call#":11.008327,"id":"a6dqci7pbk86","geo_precision":"range","address":"711 W Market St","state":"OH","juris":"PD"},"type":"Feature","geometry":{"type":"Point","coordinates":[-83.204942,41.111603]}},{"properties":{"officer":"JMW","city":"Tiffin","zip":"44883","date":{"end_time":"2011/08/31 15:44:00 -0400","original":"8/31/2011 15:43","granularity":"min","time":"2011/08/31 15:43:00 -0400"},"geo_score":0.902,"unit":63,"disposition":"200","cfs":15,"call#":11.008957,"id":"a6dqcic3ogd3","geo_precision":"range","address":"72 Center St","state":"OH","juris":"PD"},"type":"Feature","geometry":{"type":"Point","coordinates":[-83.182874,41.113218]}},{"properties":{"officer":"JMW","city":"Tiffin","zip":"44883","date":{"end_time":"2011/04/27 17:33:00 -0400","original":"4/27/2011 17:32","granularity":"min","time":"2011/04/27 17:32:00 -0400"},"geo_score":0.902,"unit":57,"disposition":"450","cfs":15,"call#":11.003971,"id":"a6dqci9pp6f4","geo_precision":"range","address":"73 Douglas St","state":"OH","juris":"PD"},"type":"Feature","geometry":{"type":"Point","coordinates":[-83.173824,41.127692]}},{"properties":{"officer":"RJO","city":"Tiffin","zip":"44883","date":{"end_time":"2011/04/23 13:06:00 -0400","original":"4/23/2011 13:05","granularity":"min","time":"2011/04/23 13:05:00 -0400"},"geo_score":0.902,"unit":60,"disposition":"450","cfs":15,"call#":11.0038,"id":"a6dqciaursdn","geo_precision":"range","address":"73 Douglas St","state":"OH","juris":"PD"},"type":"Feature","geometry":{"type":"Point","coordinates":[-83.173824,41.127692]}},{"properties":{"officer":"JDW","city":"Tiffin","zip":"44883","date":{"end_time":"2011/07/28 19:33:00 -0400","original":"7/28/2011 19:32","granularity":"min","time":"2011/07/28 19:32:00 -0400"},"geo_score":0.902,"unit":58,"disposition":"200","cfs":15,"call#":11.007568,"id":"a6dqci245y6y","geo_precision":"range","address":"73 Melmore St","state":"OH","juris":"PD"},"type":"Feature","geometry":{"type":"Point","coordinates":[-83.173839,41.107724]}},{"properties":{"officer":"RLT","city":"Tiffin","zip":"44883","date":{"end_time":"2011/06/26 22:46:00 -0400","original":"6/26/2011 22:45","granularity":"min","time":"2011/06/26 22:45:00 -0400"},"geo_score":0.902,"unit":58,"disposition":"400","cfs":15,"call#":11.00636,"id":"a6dqci2gw9xa","geo_precision":"range","address":"73 Melmore St","state":"OH","juris":"PD"},"type":"Feature","geometry":{"type":"Point","coordinates":[-83.173839,41.107724]}},{"properties":{"officer":"JPF","city":"Tiffin","zip":"44883","date":{"end_time":"2011/12/21 17:28:00 -0500","original":"12/21/2011 17:27","granularity":"min","time":"2011/12/21 17:27:00 -0500"},"geo_score":0.724,"unit":62,"disposition":"100","cfs":15,"call#":11.013465,"id":"a6dqci7psec6","geo_precision":"street","address":"73 St Clair St,9","state":"OH","juris":"PD"},"type":"Feature","geometry":{"type":"Point","coordinates":[-83.181592,41.114111]}},{"properties":{"officer":"DES","city":"Tiffin","zip":"44883","date":{"end_time":"2011/09/30 15:06:00 -0400","original":"9/30/2011 15:05","granularity":"min","time":"2011/09/30 15:05:00 -0400"},"geo_score":0.902,"unit":58,"disposition":"100","cfs":15,"call#":11.010175,"id":"a6dqci98lpp4","geo_precision":"range","address":"76 Ashwood Rd","state":"OH","juris":"PD"},"type":"Feature","geometry":{"type":"Point","coordinates":[-83.201448,41.114835]}},{"properties":{"officer":"FWS","city":"Tiffin","zip":"44883","date":{"end_time":"2011/01/12 09:45:00 -0500","original":"1/12/2011 9:44","granularity":"min","time":"2011/01/12 09:44:00 -0500"},"geo_score":0.902,"unit":57,"disposition":"200","cfs":15,"call#":11.000323,"id":"a6dqcid48ktk","geo_precision":"range","address":"76 Ashwood Rd","state":"OH","juris":"PD"},"type":"Feature","geometry":{"type":"Point","coordinates":[-83.201448,41.114835]}},{"properties":{"officer":"GTM","city":"Tiffin","zip":"44883","date":{"end_time":"2011/11/21 08:23:00 -0500","original":"11/21/2011 8:22","granularity":"min","time":"2011/11/21 08:22:00 -0500"},"geo_score":0.902,"unit":62,"disposition":"200","cfs":15,"call#":11.012216,"id":"a6dqci1lvyo2","geo_precision":"range","address":"76 Clay St","state":"OH","juris":"PD"},"type":"Feature","geometry":{"type":"Point","coordinates":[-83.182428,41.116392]}},{"properties":{"officer":"GTM","city":"Tiffin","zip":"44883","date":{"end_time":"2011/11/14 09:28:00 -0500","original":"11/14/2011 9:27","granularity":"min","time":"2011/11/14 09:27:00 -0500"},"geo_score":0.902,"unit":62,"disposition":"200","cfs":15,"call#":11.011929,"id":"a6dqci8trx0f","geo_precision":"range","address":"76 Clay St","state":"OH","juris":"PD"},"type":"Feature","geometry":{"type":"Point","coordinates":[-83.182428,41.116392]}},{"properties":{"officer":"JMW","city":"Tiffin","zip":"44883","date":{"end_time":"2011/11/08 18:49:00 -0500","original":"11/8/2011 18:48","granularity":"min","time":"2011/11/08 18:48:00 -0500"},"geo_score":0.902,"unit":60,"disposition":"200","cfs":15,"call#":11.011686,"id":"a6dqci2cgrmy","geo_precision":"range","address":"76 Clay St","state":"OH","juris":"PD"},"type":"Feature","geometry":{"type":"Point","coordinates":[-83.182428,41.116392]}},{"properties":{"officer":"JMW","city":"Tiffin","zip":"44883","date":{"end_time":"2011/10/26 18:29:00 -0400","original":"10/26/2011 18:28","granularity":"min","time":"2011/10/26 18:28:00 -0400"},"geo_score":0.902,"unit":60,"disposition":"200","cfs":15,"call#":11.011181,"id":"a6dqci66sk6s","geo_precision":"range","address":"76 Clay St","state":"OH","juris":"PD"},"type":"Feature","geometry":{"type":"Point","coordinates":[-83.182428,41.116392]}},{"properties":{"officer":"MEM","city":"Tiffin","zip":"44883","date":{"end_time":"2011/07/07 11:19:00 -0400","original":"7/7/2011 11:18","granularity":"min","time":"2011/07/07 11:18:00 -0400"},"geo_score":0.902,"unit":61,"disposition":"200","cfs":15,"call#":11.006776,"id":"a6dqci3ivcqx","geo_precision":"range","address":"76 Clay St","state":"OH","juris":"PD"},"type":"Feature","geometry":{"type":"Point","coordinates":[-83.182428,41.116392]}},{"properties":{"officer":"JMW","city":"Tiffin","zip":"44883","date":{"end_time":"2011/04/13 20:24:00 -0400","original":"4/13/2011 20:23","granularity":"min","time":"2011/04/13 20:23:00 -0400"},"geo_score":0.902,"unit":57,"disposition":"200","cfs":15,"call#":11.003428,"id":"a6dqciax4d5g","geo_precision":"range","address":"76 Clay St","state":"OH","juris":"PD"},"type":"Feature","geometry":{"type":"Point","coordinates":[-83.182428,41.116392]}},{"properties":{"officer":"AMR","city":"Tiffin","zip":"44883","date":{"end_time":"2011/01/25 16:49:00 -0500","original":"1/25/2011 16:48","granularity":"min","time":"2011/01/25 16:48:00 -0500"},"geo_score":0.902,"unit":63,"disposition":"200","cfs":15,"call#":11.000744,"id":"a6dqci3lsis3","geo_precision":"range","address":"76 Clay St","state":"OH","juris":"PD"},"type":"Feature","geometry":{"type":"Point","coordinates":[-83.182428,41.116392]}},{"properties":{"officer":"GTM","city":"Tiffin","zip":"44883","date":{"end_time":"2011/01/25 15:09:00 -0500","original":"1/25/2011 15:08","granularity":"min","time":"2011/01/25 15:08:00 -0500"},"geo_score":0.902,"unit":61,"disposition":"200","cfs":15,"call#":11.000737,"id":"a6dqci226a4d","geo_precision":"range","address":"76 Schonhardt St","state":"OH","juris":"PD"},"type":"Feature","geometry":{"type":"Point","coordinates":[-83.172686,41.111025]}},{"properties":{"officer":"JPF","city":"Tiffin","zip":"44883","date":{"end_time":"2011/07/22 19:12:00 -0400","original":"7/22/2011 19:11","granularity":"min","time":"2011/07/22 19:11:00 -0400"},"geo_score":0.902,"unit":59,"disposition":"200","cfs":15,"call#":11.00733,"id":"a6dqcigw7cj8","geo_precision":"range","address":"763 S Washington St","state":"OH","juris":"PD"},"type":"Feature","geometry":{"type":"Point","coordinates":[-83.174743,41.096635]}},{"properties":{"officer":"SGN","city":"Tiffin","zip":"44883","date":{"end_time":"2011/04/26 15:40:00 -0400","original":"4/26/2011 15:39","granularity":"min","time":"2011/04/26 15:39:00 -0400"},"geo_score":0.902,"unit":59,"disposition":"100","cfs":15,"call#":11.003921,"id":"a6dqci3nbt40","geo_precision":"range","address":"77 Jefferson St","state":"OH","juris":"PD"},"type":"Feature","geometry":{"type":"Point","coordinates":[-83.17514,41.115976]}},{"properties":{"officer":"RMN","city":"Tiffin","zip":"44883","date":{"end_time":"2011/08/08 11:57:00 -0400","original":"8/8/2011 11:56","granularity":"min","time":"2011/08/08 11:56:00 -0400"},"geo_score":0.902,"unit":61,"disposition":"200","cfs":15,"call#":11.008015,"id":"a6dqci57a13e","geo_precision":"range","address":"78 Grace St","state":"OH","juris":"PD"},"type":"Feature","geometry":{"type":"Point","coordinates":[-83.186038,41.121415]}},{"properties":{"officer":"JMW","city":"Tiffin","zip":"44883","date":{"end_time":"2011/06/28 22:09:00 -0400","original":"6/28/2011 22:08","granularity":"min","time":"2011/06/28 22:08:00 -0400"},"geo_score":0.902,"unit":61,"disposition":"200","cfs":15,"call#":11.006428,"id":"a6dqciap4dty","geo_precision":"range","address":"78 Grace St","state":"OH","juris":"PD"},"type":"Feature","geometry":{"type":"Point","coordinates":[-83.186038,41.121415]}},{"properties":{"officer":"MEM","city":"Tiffin","zip":"44883","date":{"end_time":"2011/06/04 12:27:00 -0400","original":"6/4/2011 12:26","granularity":"min","time":"2011/06/04 12:26:00 -0400"},"geo_score":0.902,"unit":61,"disposition":"200","cfs":15,"call#":11.005498,"id":"a6dqci9vpsr6","geo_precision":"range","address":"78 Grace St","state":"OH","juris":"PD"},"type":"Feature","geometry":{"type":"Point","coordinates":[-83.186038,41.121415]}},{"properties":{"officer":"LMK","city":"Tiffin","zip":"44883","date":{"end_time":"2011/01/06 17:39:00 -0500","original":"1/6/2011 17:38","granularity":"min","time":"2011/01/06 17:38:00 -0500"},"geo_score":0.902,"unit":58,"disposition":"200","cfs":15,"call#":11.000162,"id":"a6dqci3n4fqn","geo_precision":"range","address":"78 Grace St","state":"OH","juris":"PD"},"type":"Feature","geometry":{"type":"Point","coordinates":[-83.186038,41.121415]}},{"properties":{"officer":"BAR","city":"Tiffin","zip":"44883","date":{"end_time":"2011/09/17 17:58:00 -0400","original":"9/17/2011 17:57","granularity":"min","time":"2011/09/17 17:57:00 -0400"},"geo_score":0.902,"unit":63,"disposition":"200","cfs":15,"call#":11.009669,"id":"a6dqcidb9yg3","geo_precision":"range","address":"79 Hancock St","state":"OH","juris":"PD"},"type":"Feature","geometry":{"type":"Point","coordinates":[-83.167628,41.10964]}},{"properties":{"officer":"EDA","city":"Tiffin","zip":"44883","date":{"end_time":"2011/07/16 19:14:00 -0400","original":"7/16/2011 19:13","granularity":"min","time":"2011/07/16 19:13:00 -0400"},"geo_score":0.78,"unit":58,"disposition":"200","cfs":15,"call#":11.007142,"id":"a6dqci2dhjah","geo_precision":"range","address":"790 W Market St","state":"OH","juris":"PD"},"type":"Feature","geometry":{"type":"Point","coordinates":[-83.207496,41.111156]}},{"properties":{"officer":"BAR","city":"Tiffin","zip":"44883","date":{"end_time":"2011/12/17 17:22:00 -0500","original":"12/17/2011 17:21","granularity":"min","time":"2011/12/17 17:21:00 -0500"},"geo_score":0.756,"unit":63,"disposition":"200","cfs":15,"call#":11.013317,"id":"a6dqcidtxh3c","geo_precision":"range","address":"82 First Av","state":"OH","juris":"PD"},"type":"Feature","geometry":{"type":"Point","coordinates":[-83.179518,41.127923]}},{"properties":{"officer":"SGN","city":"Tiffin","zip":"44883","date":{"end_time":"2011/08/05 12:38:00 -0400","original":"8/5/2011 12:37","granularity":"min","time":"2011/08/05 12:37:00 -0400"},"geo_score":0.756,"unit":59,"disposition":"200","cfs":15,"call#":11.007906,"id":"a6dqci3j49e6","geo_precision":"range","address":"82 First Av","state":"OH","juris":"PD"},"type":"Feature","geometry":{"type":"Point","coordinates":[-83.179518,41.127923]}},{"properties":{"officer":"JPF","city":"Tiffin","zip":"44883","date":{"end_time":"2011/11/10 20:08:00 -0500","original":"11/10/2011 20:07","granularity":"min","time":"2011/11/10 20:07:00 -0500"},"geo_score":0.902,"unit":59,"disposition":"100","cfs":15,"call#":11.011786,"id":"a6dqcidsv51n","geo_precision":"range","address":"83 Charlotte St","state":"OH","juris":"PD"},"type":"Feature","geometry":{"type":"Point","coordinates":[-83.180544,41.110136]}},{"properties":{"officer":"GTM","city":"Tiffin","zip":"44883","date":{"end_time":"2011/08/27 15:39:00 -0400","original":"8/27/2011 15:38","granularity":"min","time":"2011/08/27 15:38:00 -0400"},"geo_score":0.902,"unit":59,"disposition":"200","cfs":15,"call#":11.008794,"id":"a6dqcidzj55n","geo_precision":"range","address":"833 N Water St","state":"OH","juris":"PD"},"type":"Feature","geometry":{"type":"Point","coordinates":[-83.164075,41.134938]}},{"properties":{"officer":"LMK","city":"Tiffin","zip":"44883","date":{"end_time":"2011/04/26 23:25:00 -0400","original":"4/26/2011 23:24","granularity":"min","time":"2011/04/26 23:24:00 -0400"},"geo_score":0.902,"unit":63,"disposition":"100","cfs":15,"call#":11.003944,"id":"a6dqci86pl00","geo_precision":"range","address":"84 N Washington St","state":"OH","juris":"PD"},"type":"Feature","geometry":{"type":"Point","coordinates":[-83.177423,41.120102]}},{"properties":{"officer":"GTM","city":"Tiffin","zip":"44883","date":{"end_time":"2011/12/18 13:11:00 -0500","original":"12/18/2011 13:10","granularity":"min","time":"2011/12/18 13:10:00 -0500"},"geo_score":0.902,"unit":62,"disposition":"200","cfs":15,"call#":11.013346,"id":"a6dqci6hoqgi","geo_precision":"range","address":"859 Miami St,26","state":"OH","juris":"PD"},"type":"Feature","geometry":{"type":"Point","coordinates":[-83.180157,41.117088]}},{"properties":{"officer":"RMN","city":"Tiffin","zip":"44883","date":{"end_time":"2011/10/03 16:46:00 -0400","original":"10/3/2011 16:45","granularity":"min","time":"2011/10/03 16:45:00 -0400"},"geo_score":0.902,"unit":60,"disposition":"200","cfs":15,"call#":11.010294,"id":"a6dqci5w39h0","geo_precision":"range","address":"859 Miami St,26","state":"OH","juris":"PD"},"type":"Feature","geometry":{"type":"Point","coordinates":[-83.180157,41.117088]}},{"properties":{"officer":"RLT","city":"Tiffin","zip":"44883","date":{"end_time":"2011/04/10 22:29:00 -0400","original":"4/10/2011 22:28","granularity":"min","time":"2011/04/10 22:28:00 -0400"},"geo_score":0.902,"unit":62,"disposition":"200","cfs":15,"call#":11.003313,"id":"a6dqcid04zl5","geo_precision":"range","address":"89 Hunter St","state":"OH","juris":"PD"},"type":"Feature","geometry":{"type":"Point","coordinates":[-83.169107,41.119915]}},{"properties":{"officer":"LMK","city":"Tiffin","zip":"44883","date":{"end_time":"2011/01/12 16:50:00 -0500","original":"1/12/2011 16:49","granularity":"min","time":"2011/01/12 16:49:00 -0500"},"geo_score":0.87,"unit":58,"disposition":"200","cfs":15,"call#":11.000333,"id":"a6dqci43m9t8","geo_precision":"range","address":"9 Edison Av","state":"OH","juris":"PD"},"type":"Feature","geometry":{"type":"Point","coordinates":[-83.179836,41.132808]}},{"properties":{"officer":"RLT","city":"Tiffin","zip":"44883","date":{"end_time":"2011/01/01 21:30:00 -0500","original":"1/1/2011 21:29","granularity":"min","time":"2011/01/01 21:29:00 -0500"},"geo_score":0.87,"unit":59,"disposition":"200","cfs":15,"call#":11.000033,"id":"a6dqciee1e9o","geo_precision":"range","address":"9 Greeley St","state":"OH","juris":"PD"},"type":"Feature","geometry":{"type":"Point","coordinates":[-83.164488,41.116892]}},{"properties":{"officer":"SGN","city":"Tiffin","zip":"44883","date":{"end_time":"2011/08/17 14:11:00 -0400","original":"8/17/2011 14:10","granularity":"min","time":"2011/08/17 14:10:00 -0400"},"geo_score":0.902,"unit":59,"disposition":"200","cfs":15,"call#":11.008369,"id":"a6dqci7sus9r","geo_precision":"range","address":"91 Apple St","state":"OH","juris":"PD"},"type":"Feature","geometry":{"type":"Point","coordinates":[-83.182581,41.124773]}},{"properties":{"officer":"AMR","city":"Tiffin","zip":"44883","date":{"end_time":"2011/06/19 21:36:00 -0400","original":"6/19/2011 21:35","granularity":"min","time":"2011/06/19 21:35:00 -0400"},"geo_score":0.902,"unit":63,"disposition":"200","cfs":15,"call#":11.006099,"id":"a6dqcig2tk92","geo_precision":"range","address":"91 Apple St","state":"OH","juris":"PD"},"type":"Feature","geometry":{"type":"Point","coordinates":[-83.182581,41.124773]}},{"properties":{"officer":"BAR","city":"Tiffin","zip":"44883","date":{"end_time":"2011/07/24 21:20:00 -0400","original":"7/24/2011 21:19","granularity":"min","time":"2011/07/24 21:19:00 -0400"},"geo_score":0.902,"unit":63,"disposition":"230","cfs":15,"call#":11.007441,"id":"a6dqci75pjos","geo_precision":"range","address":"91 N Washington St","state":"OH","juris":"PD"},"type":"Feature","geometry":{"type":"Point","coordinates":[-83.177472,41.120343]}},{"properties":{"officer":"BRB","city":"Tiffin","zip":"44883","date":{"end_time":"2011/07/06 14:21:00 -0400","original":"7/6/2011 14:20","granularity":"min","time":"2011/07/06 14:20:00 -0400"},"geo_score":0.902,"unit":63,"disposition":"200","cfs":15,"call#":11.006754,"id":"a6dqcihip6q2","geo_precision":"range","address":"92 Madison St","state":"OH","juris":"PD"},"type":"Feature","geometry":{"type":"Point","coordinates":[-83.176333,41.113386]}},{"properties":{"officer":"GTM","city":"Tiffin","zip":"44883","date":{"end_time":"2011/12/05 15:32:00 -0500","original":"12/5/2011 15:31","granularity":"min","time":"2011/12/05 15:31:00 -0500"},"geo_score":0.78,"unit":62,"disposition":"200","cfs":15,"call#":11.012801,"id":"a6dqcieh4v7p","geo_precision":"range","address":"928 W Market St","state":"OH","juris":"PD"},"type":"Feature","geometry":{"type":"Point","coordinates":[-83.207604,41.111131]}},{"properties":{"officer":"SGN","city":"Tiffin","zip":"44883","date":{"end_time":"2011/11/17 11:40:00 -0500","original":"11/17/2011 11:39","granularity":"min","time":"2011/11/17 11:39:00 -0500"},"geo_score":0.78,"unit":59,"disposition":"200","cfs":15,"call#":11.012065,"id":"a6dqci91xa5t","geo_precision":"range","address":"928 W Market St","state":"OH","juris":"PD"},"type":"Feature","geometry":{"type":"Point","coordinates":[-83.207604,41.111131]}},{"properties":{"officer":"SGN","city":"Tiffin","zip":"44883","date":{"end_time":"2011/11/03 14:26:00 -0400","original":"11/3/2011 14:25","granularity":"min","time":"2011/11/03 14:25:00 -0400"},"geo_score":0.78,"unit":59,"disposition":"450","cfs":15,"call#":11.011476,"id":"a6dqcib5uqpg","geo_precision":"range","address":"928 W Market St","state":"OH","juris":"PD"},"type":"Feature","geometry":{"type":"Point","coordinates":[-83.207604,41.111131]}},{"properties":{"officer":"SGN","city":"Tiffin","zip":"44883","date":{"end_time":"2011/10/27 14:55:00 -0400","original":"10/27/2011 14:54","granularity":"min","time":"2011/10/27 14:54:00 -0400"},"geo_score":0.78,"unit":59,"disposition":"200","cfs":15,"call#":11.011216,"id":"a6dqcid2w445","geo_precision":"range","address":"928 W Market St","state":"OH","juris":"PD"},"type":"Feature","geometry":{"type":"Point","coordinates":[-83.207604,41.111131]}},{"properties":{"officer":"SGN","city":"Tiffin","zip":"44883","date":{"end_time":"2011/10/11 13:25:00 -0400","original":"10/11/2011 13:24","granularity":"min","time":"2011/10/11 13:24:00 -0400"},"geo_score":0.78,"unit":59,"disposition":"450","cfs":15,"call#":11.010631,"id":"a6dqci3wy1rm","geo_precision":"range","address":"928 W Market St","state":"OH","juris":"PD"},"type":"Feature","geometry":{"type":"Point","coordinates":[-83.207604,41.111131]}},{"properties":{"officer":null,"city":"Tiffin","zip":"44883","date":{"end_time":"2011/09/28 10:42:00 -0400","original":"9/28/2011 10:41","granularity":"min","time":"2011/09/28 10:41:00 -0400"},"geo_score":0.78,"unit":null,"disposition":"CAN","cfs":15,"call#":11.010104,"id":"a6dqcibg8x9v","geo_precision":"range","address":"928 W Market St","state":"OH","juris":"PD"},"type":"Feature","geometry":{"type":"Point","coordinates":[-83.207604,41.111131]}},{"properties":{"officer":"SGN","city":"Tiffin","zip":"44883","date":{"end_time":"2011/09/08 12:40:00 -0400","original":"9/8/2011 12:39","granularity":"min","time":"2011/09/08 12:39:00 -0400"},"geo_score":0.78,"unit":59,"disposition":"200","cfs":15,"call#":11.009278,"id":"a6dqcif2r221","geo_precision":"range","address":"928 W Market St","state":"OH","juris":"PD"},"type":"Feature","geometry":{"type":"Point","coordinates":[-83.207604,41.111131]}},{"properties":{"officer":"EDA","city":"Tiffin","zip":"44883","date":{"end_time":"2011/04/30 23:55:00 -0400","original":"4/30/2011 23:54","granularity":"min","time":"2011/04/30 23:54:00 -0400"},"geo_score":0.902,"unit":60,"disposition":"400","cfs":15,"call#":11.004162,"id":"a6dqcib0lcr6","geo_precision":"range","address":"93 Greenfield St","state":"OH","juris":"PD"},"type":"Feature","geometry":{"type":"Point","coordinates":[-83.166337,41.115283]}},{"properties":{"officer":"SGN","city":"Tiffin","zip":"44883","date":{"end_time":"2011/11/23 11:27:00 -0500","original":"11/23/2011 11:26","granularity":"min","time":"2011/11/23 11:26:00 -0500"},"geo_score":0.902,"unit":59,"disposition":"200","cfs":15,"call#":11.01231,"id":"a6dqcifpe2y7","geo_precision":"range","address":"95 Hudson St","state":"OH","juris":"PD"},"type":"Feature","geometry":{"type":"Point","coordinates":[-83.18094,41.120111]}},{"properties":{"officer":"GTM","city":"Tiffin","zip":"44883","date":{"end_time":"2011/11/14 15:53:00 -0500","original":"11/14/2011 15:52","granularity":"min","time":"2011/11/14 15:52:00 -0500"},"geo_score":0.902,"unit":62,"disposition":"200","cfs":15,"call#":11.011954,"id":"a6dqci4hjn58","geo_precision":"range","address":"97 W Market St","state":"OH","juris":"PD"},"type":"Feature","geometry":{"type":"Point","coordinates":[-83.183752,41.113898]}},{"properties":{"officer":"SGN","city":"Tiffin","zip":"44883","date":{"end_time":"2011/03/11 13:44:00 -0500","original":"3/11/2011 13:43","granularity":"min","time":"2011/03/11 13:43:00 -0500"},"geo_score":0.902,"unit":59,"disposition":"200","cfs":15,"call#":11.002293,"id":"a6dqcibf1l3l","geo_precision":"range","address":"97 W Market St","state":"OH","juris":"PD"},"type":"Feature","geometry":{"type":"Point","coordinates":[-83.183752,41.113898]}},{"properties":{"officer":"FWS","city":"Tiffin","zip":"44883","date":{"end_time":"2011/05/23 17:49:00 -0400","original":"5/23/2011 17:48","granularity":"min","time":"2011/05/23 17:48:00 -0400"},"geo_score":0.537,"unit":58,"disposition":"200","cfs":15,"call#":11.00503,"id":"a6dqci7qv87p","geo_precision":"street","address":"99 Dallas St","state":"OH","juris":"PD"},"type":"Feature","geometry":{"type":"Point","coordinates":[-82.562576,41.384496]}},{"properties":{"officer":"JDW","city":"Tiffin","zip":"44883","date":{"end_time":"2011/03/24 19:22:00 -0400","original":"3/24/2011 19:21","granularity":"min","time":"2011/03/24 19:21:00 -0400"},"geo_score":0.902,"unit":60,"disposition":"100","cfs":15,"call#":11.002683,"id":"a6dqcicxml7w","geo_precision":"range","address":"99 Maule Rd","state":"OH","juris":"PD"},"type":"Feature","geometry":{"type":"Point","coordinates":[-83.189874,41.129373]}},{"properties":{"officer":"GTM","city":"Tiffin","zip":"44883","date":{"end_time":"2011/09/27 15:45:00 -0400","original":"9/27/2011 15:44","granularity":"min","time":"2011/09/27 15:44:00 -0400"},"geo_score":0.857,"unit":60,"disposition":"100","cfs":15,"call#":11.010068,"id":"a6dqci23ozlq","geo_precision":"street","address":"Coe St/Jefferson St","state":"OH","juris":"PD"},"type":"Feature","geometry":{"type":"Point","coordinates":[-83.174672,41.108987]}},{"properties":{"officer":"BRB","city":"Tiffin","zip":"44883","date":{"end_time":"2011/07/25 14:13:00 -0400","original":"7/25/2011 14:12","granularity":"min","time":"2011/07/25 14:12:00 -0400"},"geo_score":0.814,"unit":57,"disposition":"200","cfs":15,"call#":11.00746,"id":"a6dqci741rxr","geo_precision":"street","address":"Cottage Av/Hopewell Av","state":"OH","juris":"PD"},"type":"Feature","geometry":{"type":"Point","coordinates":[-83.193721,41.107434]}},{"properties":{"officer":"DES","city":"Tiffin","zip":"44883","date":{"end_time":"2011/11/27 14:53:00 -0500","original":"11/27/2011 14:52","granularity":"min","time":"2011/11/27 14:52:00 -0500"},"geo_score":0.857,"unit":61,"disposition":"200","cfs":15,"call#":11.012478,"id":"a6dqci1su105","geo_precision":"street","address":"E Perry St/City Limits","state":"OH","juris":"PD"},"type":"Feature","geometry":{"type":"Point","coordinates":[-83.178368,41.11568]}},{"properties":{"officer":"EDA","city":"Tiffin","zip":"44883","date":{"end_time":"2011/04/15 20:28:00 -0400","original":"4/15/2011 20:27","granularity":"min","time":"2011/04/15 20:27:00 -0400"},"geo_score":0.857,"unit":60,"disposition":"200","cfs":15,"call#":11.003505,"id":"a6dqcibc1eep","geo_precision":"street","address":"Ella St/Shepherd Dr","state":"OH","juris":"PD"},"type":"Feature","geometry":{"type":"Point","coordinates":[-83.184968,41.104152]}},{"properties":{"officer":"BAR","city":"Tiffin","zip":"44883","date":{"end_time":"2011/04/23 00:36:00 -0400","original":"4/23/2011 0:35","granularity":"min","time":"2011/04/23 00:35:00 -0400"},"geo_score":0.857,"unit":63,"disposition":"220","cfs":15,"call#":11.00379,"id":"a6dqci4rvwmi","geo_precision":"street","address":"Franklin St/Clay St","state":"OH","juris":"PD"},"type":"Feature","geometry":{"type":"Point","coordinates":[-83.1824,41.116381]}},{"properties":{"officer":"JPF","city":"Tiffin","zip":"44883","date":{"end_time":"2011/09/15 17:27:00 -0400","original":"9/15/2011 17:26","granularity":"min","time":"2011/09/15 17:26:00 -0400"},"geo_score":0.762,"unit":62,"disposition":"200","cfs":15,"call#":11.009563,"id":"a6dqci36l0jb","geo_precision":"street","address":"Frost Py/N Monroe St","state":"OH","juris":"PD"},"type":"Feature","geometry":{"type":"Point","coordinates":[-83.180549,41.115641]}},{"properties":{"officer":"SMM","city":"Tiffin","zip":"44883","date":{"end_time":"2011/08/03 19:30:00 -0400","original":"8/3/2011 19:29","granularity":"min","time":"2011/08/03 19:29:00 -0400"},"geo_score":0.857,"unit":58,"disposition":"100","cfs":15,"call#":11.007859,"id":"a6dqci6hlozc","geo_precision":"street","address":"Gail Ln/Longfellow Dr","state":"OH","juris":"PD"},"type":"Feature","geometry":{"type":"Point","coordinates":[-83.196041,41.101225]}},{"properties":{"officer":"MEM","city":"Tiffin","zip":"44883","date":{"end_time":"2011/10/05 20:07:00 -0400","original":"10/5/2011 20:06","granularity":"min","time":"2011/10/05 20:06:00 -0400"},"geo_score":0.857,"unit":58,"disposition":"100","cfs":15,"call#":11.010389,"id":"a6dqcifl8xlj","geo_precision":"street","address":"Gary Ln/S Sandusky St","state":"OH","juris":"PD"},"type":"Feature","geometry":{"type":"Point","coordinates":[-83.197419,41.099703]}},{"properties":{"officer":"AMR","city":"Tiffin","zip":"44883","date":{"end_time":"2011/06/14 20:58:00 -0400","original":"6/14/2011 20:57","granularity":"min","time":"2011/06/14 20:57:00 -0400"},"geo_score":0.857,"unit":63,"disposition":"200","cfs":15,"call#":11.005906,"id":"a6dqcihvso10","geo_precision":"street","address":"Grace St/Wall St","state":"OH","juris":"PD"},"type":"Feature","geometry":{"type":"Point","coordinates":[-83.187545,41.120733]}},{"properties":{"officer":"DES","city":"Tiffin","zip":"44883","date":{"end_time":"2011/12/10 15:32:00 -0500","original":"12/10/2011 15:31","granularity":"min","time":"2011/12/10 15:31:00 -0500"},"geo_score":0.643,"unit":61,"disposition":"200","cfs":15,"call#":11.01299,"id":"a6dqci8andqg","geo_precision":"street","address":"Grand Av/Sixth Av","state":"OH","juris":"PD"},"type":"Feature","geometry":{"type":"Point","coordinates":[-83.174032,41.13182]}},{"properties":{"officer":"SGN","city":"Tiffin","zip":"44883","date":{"end_time":"2011/09/06 16:20:00 -0400","original":"9/6/2011 16:19","granularity":"min","time":"2011/09/06 16:19:00 -0400"},"geo_score":0.857,"unit":59,"disposition":"200","cfs":15,"call#":11.009214,"id":"a6dqciggiqzx","geo_precision":"street","address":"Hall St/Franklin St","state":"OH","juris":"PD"},"type":"Feature","geometry":{"type":"Point","coordinates":[-83.179229,41.121269]}},{"properties":{"officer":"BRB","city":"Tiffin","zip":"44883","date":{"end_time":"2011/12/26 12:24:00 -0500","original":"12/26/2011 12:23","granularity":"min","time":"2011/12/26 12:23:00 -0500"},"geo_score":0.857,"unit":63,"disposition":"100","cfs":15,"call#":11.013599,"id":"a6dqcicljr8d","geo_precision":"street","address":"Hall St/N Sandusky St","state":"OH","juris":"PD"},"type":"Feature","geometry":{"type":"Point","coordinates":[-83.179229,41.121269]}},{"properties":{"officer":"RJO","city":"Tiffin","zip":"44883","date":{"end_time":"2011/10/15 18:33:00 -0400","original":"10/15/2011 18:32","granularity":"min","time":"2011/10/15 18:32:00 -0400"},"geo_score":0.857,"unit":60,"disposition":"200","cfs":15,"call#":11.010794,"id":"a6dqci7gx67k","geo_precision":"street","address":"Hall St/N Sandusky St","state":"OH","juris":"PD"},"type":"Feature","geometry":{"type":"Point","coordinates":[-83.179229,41.121269]}},{"properties":{"officer":"JMW","city":"Tiffin","zip":"44883","date":{"end_time":"2011/07/14 19:34:00 -0400","original":"7/14/2011 19:33","granularity":"min","time":"2011/07/14 19:33:00 -0400"},"geo_score":0.857,"unit":63,"disposition":"100","cfs":15,"call#":11.00705,"id":"a6dqci7mtzet","geo_precision":"street","address":"Hall St/N Washington St","state":"OH","juris":"PD"},"type":"Feature","geometry":{"type":"Point","coordinates":[-83.179229,41.121269]}},{"properties":{"officer":"RJO","city":"Tiffin","zip":"44883","date":{"end_time":"2011/03/25 17:49:00 -0400","original":"3/25/2011 17:48","granularity":"min","time":"2011/03/25 17:48:00 -0400"},"geo_score":0.857,"unit":60,"disposition":"200","cfs":15,"call#":11.002714,"id":"a6dqci1mkrvr","geo_precision":"street","address":"Holmes St/Crayon St","state":"OH","juris":"PD"},"type":"Feature","geometry":{"type":"Point","coordinates":[-83.159016,41.113078]}},{"properties":{"officer":"BAR","city":"Tiffin","zip":"44883","date":{"end_time":"2011/10/27 19:12:00 -0400","original":"10/27/2011 19:11","granularity":"min","time":"2011/10/27 19:11:00 -0400"},"geo_score":0.536,"unit":63,"disposition":"200","cfs":15,"call#":11.011226,"id":"a6dqcig3ic4m","geo_precision":"street","address":"Hudson St/Clyde St","state":"OH","juris":"PD"},"type":"Feature","geometry":{"type":"Point","coordinates":[-83.17906,41.120069]}},{"properties":{"officer":"JAD","city":"Tiffin","zip":"44883","date":{"end_time":"2011/03/27 04:53:00 -0400","original":"3/27/2011 4:52","granularity":"min","time":"2011/03/27 04:52:00 -0400"},"geo_score":0.857,"unit":56,"disposition":"200","cfs":15,"call#":11.002768,"id":"a6dqci9gn5f4","geo_precision":"street","address":"Jefferson St/Main St","state":"OH","juris":"PD"},"type":"Feature","geometry":{"type":"Point","coordinates":[-83.17504,41.11141]}},{"properties":{"officer":"SGN","city":"Tiffin","zip":"44883","date":{"end_time":"2011/08/30 15:13:00 -0400","original":"8/30/2011 15:12","granularity":"min","time":"2011/08/30 15:12:00 -0400"},"geo_score":0.857,"unit":59,"disposition":"200","cfs":15,"call#":11.008914,"id":"a6dqcifele8c","geo_precision":"street","address":"Madison St/S Monroe St","state":"OH","juris":"PD"},"type":"Feature","geometry":{"type":"Point","coordinates":[-83.177984,41.113223]}},{"properties":{"officer":"JDW","city":"Tiffin","zip":"44883","date":{"end_time":"2011/06/04 03:50:00 -0400","original":"6/4/2011 3:49","granularity":"min","time":"2011/06/04 03:49:00 -0400"},"geo_score":0.857,"unit":60,"disposition":"450","cfs":15,"call#":11.005495,"id":"a6dqci3pkpjf","geo_precision":"street","address":"Miami St/Frost Py","state":"OH","juris":"PD"},"type":"Feature","geometry":{"type":"Point","coordinates":[-83.181876,41.117677]}},{"properties":{"officer":"JPF","city":"Tiffin","zip":"44883","date":{"end_time":"2011/08/11 19:34:00 -0400","original":"8/11/2011 19:33","granularity":"min","time":"2011/08/11 19:33:00 -0400"},"geo_score":0.857,"unit":59,"disposition":"100","cfs":15,"call#":11.00813,"id":"a6dqcidpx1cm","geo_precision":"street","address":"Minerva St/Noble St","state":"OH","juris":"PD"},"type":"Feature","geometry":{"type":"Point","coordinates":[-83.176206,41.122592]}},{"properties":{"officer":"RMN","city":"Tiffin","zip":"44883","date":{"end_time":"2011/08/10 14:42:00 -0400","original":"8/10/2011 14:41","granularity":"min","time":"2011/08/10 14:41:00 -0400"},"geo_score":0.857,"unit":59,"disposition":"100","cfs":15,"call#":11.008083,"id":"a6dqci8orzv5","geo_precision":"street","address":"N River Rd/Huss St","state":"OH","juris":"PD"},"type":"Feature","geometry":{"type":"Point","coordinates":[-83.166843,41.131124]}},{"properties":{"officer":"RLT","city":"Tiffin","zip":"44883","date":{"end_time":"2011/11/15 20:09:00 -0500","original":"11/15/2011 20:08","granularity":"min","time":"2011/11/15 20:08:00 -0500"},"geo_score":0.643,"unit":59,"disposition":"100","cfs":15,"call#":11.012005,"id":"a6dqci9b7ts8","geo_precision":"street","address":"N Washington St/First Av","state":"OH","juris":"PD"},"type":"Feature","geometry":{"type":"Point","coordinates":[-83.180681,41.127913]}},{"properties":{"officer":"SMM","city":"Tiffin","zip":"44883","date":{"end_time":"2011/06/09 21:26:00 -0400","original":"6/9/2011 21:25","granularity":"min","time":"2011/06/09 21:25:00 -0400"},"geo_score":0.643,"unit":60,"disposition":"200","cfs":15,"call#":11.005707,"id":"a6dqcie5q7td","geo_precision":"street","address":"N Washington St/First Av","state":"OH","juris":"PD"},"type":"Feature","geometry":{"type":"Point","coordinates":[-83.180681,41.127913]}},{"properties":{"officer":"SMM","city":"Tiffin","zip":"44883","date":{"end_time":"2011/05/31 00:49:00 -0400","original":"5/31/2011 0:48","granularity":"min","time":"2011/05/31 00:48:00 -0400"},"geo_score":0.857,"unit":59,"disposition":"200","cfs":15,"call#":11.005327,"id":"a6dqci7jonf7","geo_precision":"street","address":"N Washington St/N Sandusky St","state":"OH","juris":"PD"},"type":"Feature","geometry":{"type":"Point","coordinates":[-83.182448,41.120039]}},{"properties":{"officer":"BAR","city":"Tiffin","zip":"44883","date":{"end_time":"2011/03/20 17:42:00 -0400","original":"3/20/2011 17:41","granularity":"min","time":"2011/03/20 17:41:00 -0400"},"geo_score":0.857,"unit":59,"disposition":"200","cfs":15,"call#":11.002562,"id":"a6dqci7qimb3","geo_precision":"street","address":"Noble St/Water St","state":"OH","juris":"PD"},"type":"Feature","geometry":{"type":"Point","coordinates":[-83.176206,41.122592]}},{"properties":{"officer":"PJD","city":"Tiffin","zip":"44883","date":{"end_time":"2011/06/21 22:06:00 -0400","original":"6/21/2011 22:05","granularity":"min","time":"2011/06/21 22:05:00 -0400"},"geo_score":0.857,"unit":61,"disposition":"100","cfs":15,"call#":11.006179,"id":"a6dqcibd11m0","geo_precision":"street","address":"Oak St/Noble St","state":"OH","juris":"PD"},"type":"Feature","geometry":{"type":"Point","coordinates":[-83.184953,41.122777]}},{"properties":{"officer":"RLT","city":"Tiffin","zip":"44883","date":{"end_time":"2011/07/04 06:01:00 -0400","original":"7/4/2011 6:00","granularity":"min","time":"2011/07/04 06:00:00 -0400"},"geo_score":0.796,"unit":59,"disposition":"100","cfs":15,"call#":11.006673,"id":"a6dqcihjsdda","geo_precision":"street","address":"Ohio Av/Huss St","state":"OH","juris":"PD"},"type":"Feature","geometry":{"type":"Point","coordinates":[-83.165776,41.122932]}},{"properties":{"officer":"LMK","city":"Tiffin","zip":"44883","date":{"end_time":"2011/01/06 20:14:00 -0500","original":"1/6/2011 20:13","granularity":"min","time":"2011/01/06 20:13:00 -0500"},"geo_score":0.857,"unit":58,"disposition":"100","cfs":15,"call#":11.000165,"id":"a6dqci3rtsx2","geo_precision":"street","address":"Oil St/W Perry St","state":"OH","juris":"PD"},"type":"Feature","geometry":{"type":"Point","coordinates":[-83.190237,41.112809]}},{"properties":{"officer":"JPF","city":"Tiffin","zip":"44883","date":{"end_time":"2011/10/07 23:59:00 -0400","original":"10/7/2011 23:58","granularity":"min","time":"2011/10/07 23:58:00 -0400"},"geo_score":0.857,"unit":59,"disposition":"200","cfs":15,"call#":11.010468,"id":"a6dqciboz1am","geo_precision":"street","address":"Penn St/Greeley St","state":"OH","juris":"PD"},"type":"Feature","geometry":{"type":"Point","coordinates":[-83.1647,41.116892]}},{"properties":{"officer":"JDW","city":"Tiffin","zip":"44883","date":{"end_time":"2011/04/02 02:06:00 -0400","original":"4/2/2011 2:05","granularity":"min","time":"2011/04/02 02:05:00 -0400"},"geo_score":0.857,"unit":60,"disposition":"200","cfs":15,"call#":11.002942,"id":"a6dqcid1sir9","geo_precision":"street","address":"Riverside Dr/S Washington St","state":"OH","juris":"PD"},"type":"Feature","geometry":{"type":"Point","coordinates":[-83.175456,41.117806]}},{"properties":{"officer":"RMN","city":"Tiffin","zip":"44883","date":{"end_time":"2011/07/14 23:13:00 -0400","original":"7/14/2011 23:12","granularity":"min","time":"2011/07/14 23:12:00 -0400"},"geo_score":0.857,"unit":61,"disposition":"200","cfs":15,"call#":11.007063,"id":"a6dqci565805","geo_precision":"street","address":"S River Rd/Ella St","state":"OH","juris":"PD"},"type":"Feature","geometry":{"type":"Point","coordinates":[-83.184968,41.104152]}},{"properties":{"officer":"GTM","city":"Tiffin","zip":"44883","date":{"end_time":"2011/02/28 15:00:00 -0500","original":"2/28/2011 14:59","granularity":"min","time":"2011/02/28 14:59:00 -0500"},"geo_score":0.857,"unit":57,"disposition":"200","cfs":15,"call#":11.001914,"id":"a6dqci7drhhy","geo_precision":"street","address":"S River Rd/Ella St","state":"OH","juris":"PD"},"type":"Feature","geometry":{"type":"Point","coordinates":[-83.184968,41.104152]}},{"properties":{"officer":"BRB","city":"Tiffin","zip":"44883","date":{"end_time":"2011/01/31 15:12:00 -0500","original":"1/31/2011 15:11","granularity":"min","time":"2011/01/31 15:11:00 -0500"},"geo_score":0.857,"unit":59,"disposition":"100","cfs":15,"call#":11.000951,"id":"a6dqcihpze58","geo_precision":"street","address":"S River Rd/Ella St","state":"OH","juris":"PD"},"type":"Feature","geometry":{"type":"Point","coordinates":[-83.184968,41.104152]}},{"properties":{"officer":"REB","city":"Tiffin","zip":"44883","date":{"end_time":"2011/04/01 14:04:00 -0400","original":"4/1/2011 14:03","granularity":"min","time":"2011/04/01 14:03:00 -0400"},"geo_score":0.857,"unit":558,"disposition":"200","cfs":15,"call#":11.002908,"id":"a6dqci92sbmq","geo_precision":"street","address":"S Sandusky St/W Perry St","state":"OH","juris":"PD"},"type":"Feature","geometry":{"type":"Point","coordinates":[-83.183601,41.115173]}},{"properties":{"officer":"EDA","city":"Tiffin","zip":"44883","date":{"end_time":"2011/08/23 20:35:00 -0400","original":"8/23/2011 20:34","granularity":"min","time":"2011/08/23 20:34:00 -0400"},"geo_score":0.857,"unit":60,"disposition":"100","cfs":15,"call#":11.008634,"id":"a6dqci6jt76f","geo_precision":"street","address":"S Washington St/E Perry St","state":"OH","juris":"PD"},"type":"Feature","geometry":{"type":"Point","coordinates":[-83.178368,41.11568]}},{"properties":{"officer":"JDW","city":"Tiffin","zip":"44883","date":{"end_time":"2011/07/28 01:23:00 -0400","original":"7/28/2011 1:22","granularity":"min","time":"2011/07/28 01:22:00 -0400"},"geo_score":0.857,"unit":58,"disposition":"200","cfs":15,"call#":11.007549,"id":"a6dqcih4wecd","geo_precision":"street","address":"S Washington St/Madison St","state":"OH","juris":"PD"},"type":"Feature","geometry":{"type":"Point","coordinates":[-83.177984,41.113223]}},{"properties":{"officer":"JDW","city":"Tiffin","zip":"44883","date":{"end_time":"2011/10/12 14:55:00 -0400","original":"10/12/2011 14:54","granularity":"min","time":"2011/10/12 14:54:00 -0400"},"geo_score":0.857,"unit":62,"disposition":"200","cfs":15,"call#":11.010682,"id":"a6dqcift5e27","geo_precision":"street","address":"Shepherd Dr/Union St","state":"OH","juris":"PD"},"type":"Feature","geometry":{"type":"Point","coordinates":[-83.181503,41.107685]}},{"properties":{"officer":"PJD","city":"Tiffin","zip":"44883","date":{"end_time":"2011/07/13 21:24:00 -0400","original":"7/13/2011 21:23","granularity":"min","time":"2011/07/13 21:23:00 -0400"},"geo_score":0.857,"unit":61,"disposition":"100","cfs":15,"call#":11.007014,"id":"a6dqci3kj6k3","geo_precision":"street","address":"W Market St/Hopewell Av","state":"OH","juris":"PD"},"type":"Feature","geometry":{"type":"Point","coordinates":[-83.181592,41.114111]}},{"properties":{"officer":"EDA","city":"Tiffin","zip":"44883","date":{"end_time":"2011/01/15 01:57:00 -0500","original":"1/15/2011 1:56","granularity":"min","time":"2011/01/15 01:56:00 -0500"},"geo_score":0.857,"unit":58,"disposition":"200","cfs":15,"call#":11.000392,"id":"a6dqcib3oxgy","geo_precision":"street","address":"W Market St/S Sandusky St","state":"OH","juris":"PD"},"type":"Feature","geometry":{"type":"Point","coordinates":[-83.181592,41.114111]}},{"properties":{"officer":"EDA","city":"Tiffin","zip":"44883","date":{"end_time":"2011/12/13 20:17:00 -0500","original":"12/13/2011 20:16","granularity":"min","time":"2011/12/13 20:16:00 -0500"},"geo_score":0.857,"unit":62,"disposition":"100","cfs":15,"call#":11.013149,"id":"a6dqci1tp67e","geo_precision":"street","address":"Wall St/Miami St","state":"OH","juris":"PD"},"type":"Feature","geometry":{"type":"Point","coordinates":[-83.187545,41.120733]}}],"is_temporal":true,"author":{"url":"","metadata":"","contact_name":"","contact_address":"","source":"","contact_phone":""},"source":"","pagination":{"sort":null,"start":0,"total":422,"limit":1000000},"state":"complete","tags":"","published":"2014-08-15T04:15:06-04:00","id":219562}