{"type":"FeatureCollection","data_type":"Dataset","url_type":null,"permissions":[{"permissions":{"download":true,"view":true},"group_id":"everyone"}],"classification":null,"title":"auto theft 2011","count":24,"stream_id":219553,"contributor":{"url":"http://geocommons.com/users/42302","name":"hillproject"},"data_attributes":null,"calculation_params":null,"icon_link":null,"link":"http://geocommons.com/overlays/219553.json","extent":[-83.1912,41.1103,-83.1678,41.1279],"geometry_types":["point"],"unique_name":null,"name":"auto theft 2011","feature_count":24,"description":"","next_feature":null,"is_raster":false,"short_classification":"Y","stats":{"date":{"max":"2011/12/19 17:13:00 -0500","mean":"2011/08/21 21:06:45 -0400","variance":57981809558895.6,"stdev":7614578.75124393,"min":"2011/04/01 00:05:00 -0400","median":"2011/09/30 18:56:00 -0400"},"unit":{"max":63,"mean":60.1428571428571,"variance":5.22857142857143,"stdev":2.28660696853907,"min":56,"median":60},"cfs":{"max":7,"mean":7.0,"variance":0.0,"stdev":0.0,"min":7,"median":7},"call#":{"max":11.013386,"mean":11.008595625,"variance":1.2237551809782e-05,"stdev":0.00349822123511107,"min":11.002891,"median":11.010186}},"features":[{"properties":{"officer":null,"city":"Tiffin","zip":"44883","date":{"end_time":"2011/07/07 11:01:00 -0400","original":"7/7/2011 11:00","granularity":"min","time":"2011/07/07 11:00:00 -0400"},"geo_score":0.902,"unit":null,"disposition":"CAN","cfs":7,"call#":11.006775,"id":"a625eraxzz3l","geo_precision":"range","address":"107 Frost Pkwy","state":"OH","juris":"PD"},"type":"Feature","geometry":{"type":"Point","coordinates":[-83.179348,41.116848]}},{"properties":{"officer":"JAD","city":"Tiffin","zip":"44883","date":{"end_time":"2011/10/09 03:13:00 -0400","original":"10/9/2011 3:12","granularity":"min","time":"2011/10/09 03:12:00 -0400"},"geo_score":0.837,"unit":56,"disposition":"200","cfs":7,"call#":11.010534,"id":"a625erg4k0fx","geo_precision":"range","address":"109 Frost Py","state":"OH","juris":"PD"},"type":"Feature","geometry":{"type":"Point","coordinates":[-83.179322,41.11688]}},{"properties":{"officer":null,"city":"Tiffin","zip":"44883","date":{"end_time":"2011/09/30 18:57:00 -0400","original":"9/30/2011 18:56","granularity":"min","time":"2011/09/30 18:56:00 -0400"},"geo_score":0.902,"unit":null,"disposition":"CAN","cfs":7,"call#":11.010186,"id":"a625erfznrdh","geo_precision":"range","address":"142 Jackson St","state":"OH","juris":"PD"},"type":"Feature","geometry":{"type":"Point","coordinates":[-83.186116,41.117392]}},{"properties":{"officer":"JDW","city":"Tiffin","zip":"44883","date":{"end_time":"2011/04/01 00:06:00 -0400","original":"4/1/2011 0:05","granularity":"min","time":"2011/04/01 00:05:00 -0400"},"geo_score":0.902,"unit":60,"disposition":"200","cfs":7,"call#":11.002891,"id":"a625erkb137q","geo_precision":"range","address":"16 Tiffin St","state":"OH","juris":"PD"},"type":"Feature","geometry":{"type":"Point","coordinates":[-83.173537,41.112975]}},{"properties":{"officer":"JPF","city":"Tiffin","zip":"44883","date":{"end_time":"2011/12/08 20:07:00 -0500","original":"12/8/2011 20:06","granularity":"min","time":"2011/12/08 20:06:00 -0500"},"geo_score":0.902,"unit":59,"disposition":"200","cfs":7,"call#":11.012913,"id":"a625eri6uuf2","geo_precision":"range","address":"169 S Washington St","state":"OH","juris":"PD"},"type":"Feature","geometry":{"type":"Point","coordinates":[-83.176311,41.112835]}},{"properties":{"officer":"JMW","city":"Tiffin","zip":"44883","date":{"end_time":"2011/10/18 19:08:00 -0400","original":"10/18/2011 19:07","granularity":"min","time":"2011/10/18 19:07:00 -0400"},"geo_score":0.902,"unit":63,"disposition":"200","cfs":7,"call#":11.010888,"id":"a625erbvtu12","geo_precision":"range","address":"1692 W Market St,39","state":"OH","juris":"PD"},"type":"Feature","geometry":{"type":"Point","coordinates":[-83.181783,41.114086]}},{"properties":{"officer":"DES","city":"Tiffin","zip":"44883","date":{"end_time":"2011/12/11 10:34:00 -0500","original":"12/11/2011 10:33","granularity":"min","time":"2011/12/11 10:33:00 -0500"},"geo_score":0.429,"unit":61,"disposition":"400","cfs":7,"call#":11.013034,"id":"a625erq2vg5c","geo_precision":"street","address":"184 E Market St, O","state":"OH","juris":"PD"},"type":"Feature","geometry":{"type":"Point","coordinates":[-83.181592,41.114111]}},{"properties":{"officer":"JMW","city":"Tiffin","zip":"44883","date":{"end_time":"2011/05/18 21:31:00 -0400","original":"5/18/2011 21:30","granularity":"min","time":"2011/05/18 21:30:00 -0400"},"geo_score":0.902,"unit":60,"disposition":"200","cfs":7,"call#":11.004838,"id":"a625erl3q2jr","geo_precision":"range","address":"192 Hall St","state":"OH","juris":"PD"},"type":"Feature","geometry":{"type":"Point","coordinates":[-83.183715,41.123224]}},{"properties":{"officer":"MEM","city":"Tiffin","zip":"44883","date":{"end_time":"2011/12/19 17:14:00 -0500","original":"12/19/2011 17:13","granularity":"min","time":"2011/12/19 17:13:00 -0500"},"geo_score":0.902,"unit":58,"disposition":"450","cfs":7,"call#":11.013386,"id":"a625erebdyxo","geo_precision":"range","address":"194 E Perry St","state":"OH","juris":"PD"},"type":"Feature","geometry":{"type":"Point","coordinates":[-83.172463,41.116218]}},{"properties":{"officer":"JSC","city":"Tiffin","zip":"44883","date":{"end_time":"2011/05/02 19:39:00 -0400","original":"5/2/2011 19:38","granularity":"min","time":"2011/05/02 19:38:00 -0400"},"geo_score":0.902,"unit":57,"disposition":"200","cfs":7,"call#":11.004236,"id":"a625erc1htft","geo_precision":"range","address":"200 S Sandusky St","state":"OH","juris":"PD"},"type":"Feature","geometry":{"type":"Point","coordinates":[-83.185994,41.114943]}},{"properties":{"officer":"JSC","city":"Tiffin","zip":"44883","date":{"end_time":"2011/06/12 01:04:00 -0400","original":"6/12/2011 1:03","granularity":"min","time":"2011/06/12 01:03:00 -0400"},"geo_score":0.902,"unit":57,"disposition":"200","cfs":7,"call#":11.005802,"id":"a625erklsoog","geo_precision":"range","address":"208 S Washington St","state":"OH","juris":"PD"},"type":"Feature","geometry":{"type":"Point","coordinates":[-83.176158,41.111621]}},{"properties":{"officer":"LMK","city":"Tiffin","zip":"44883","date":{"end_time":"2011/09/18 04:29:00 -0400","original":"9/18/2011 4:28","granularity":"min","time":"2011/09/18 04:28:00 -0400"},"geo_score":0.902,"unit":62,"disposition":"200","cfs":7,"call#":11.009701,"id":"a625eriuwfcy","geo_precision":"range","address":"215 Hudson St","state":"OH","juris":"PD"},"type":"Feature","geometry":{"type":"Point","coordinates":[-83.184623,41.121819]}},{"properties":{"officer":"MEM","city":"Tiffin","zip":"44883","date":{"end_time":"2011/08/01 21:35:00 -0400","original":"8/1/2011 21:34","granularity":"min","time":"2011/08/01 21:34:00 -0400"},"geo_score":0.756,"unit":61,"disposition":"400","cfs":7,"call#":11.007792,"id":"a625ere4gogx","geo_precision":"range","address":"221 First Av","state":"OH","juris":"PD"},"type":"Feature","geometry":{"type":"Point","coordinates":[-83.184082,41.127875]}},{"properties":{"officer":"BRB","city":"Tiffin","zip":"44883","date":{"end_time":"2011/11/15 08:03:00 -0500","original":"11/15/2011 8:02","granularity":"min","time":"2011/11/15 08:02:00 -0500"},"geo_score":0.902,"unit":63,"disposition":"200","cfs":7,"call#":11.011979,"id":"a625erli7c0s","geo_precision":"range","address":"243 Hedges St","state":"OH","juris":"PD"},"type":"Feature","geometry":{"type":"Point","coordinates":[-83.167758,41.110275]}},{"properties":{"officer":"JSC","city":"Tiffin","zip":"44883","date":{"end_time":"2011/10/20 21:44:00 -0400","original":"10/20/2011 21:43","granularity":"min","time":"2011/10/20 21:43:00 -0400"},"geo_score":0.902,"unit":63,"disposition":"400","cfs":7,"call#":11.010955,"id":"a625erj59i1w","geo_precision":"range","address":"255 N Washington St","state":"OH","juris":"PD"},"type":"Feature","geometry":{"type":"Point","coordinates":[-83.178157,41.12475]}},{"properties":{"officer":"EDA","city":"Tiffin","zip":"44883","date":{"end_time":"2011/12/11 20:11:00 -0500","original":"12/11/2011 20:10","granularity":"min","time":"2011/12/11 20:10:00 -0500"},"geo_score":0.902,"unit":58,"disposition":"200","cfs":7,"call#":11.013048,"id":"a625erm12wjj","geo_precision":"range","address":"318 W Market St","state":"OH","juris":"PD"},"type":"Feature","geometry":{"type":"Point","coordinates":[-83.191227,41.113152]}},{"properties":{"officer":"BRB","city":"Tiffin","zip":"44883","date":{"end_time":"2011/04/11 08:03:00 -0400","original":"4/11/2011 8:02","granularity":"min","time":"2011/04/11 08:02:00 -0400"},"geo_score":0.902,"unit":63,"disposition":"200","cfs":7,"call#":11.003325,"id":"a625erit20t8","geo_precision":"range","address":"38 Walker St","state":"OH","juris":"PD"},"type":"Feature","geometry":{"type":"Point","coordinates":[-83.171034,41.110783]}},{"properties":{"officer":"GTM","city":"Tiffin","zip":"44883","date":{"end_time":"2011/06/07 13:05:00 -0400","original":"6/7/2011 13:04","granularity":"min","time":"2011/06/07 13:04:00 -0400"},"geo_score":0.429,"unit":58,"disposition":"200","cfs":7,"call#":11.005605,"id":"a625erh5ff4w","geo_precision":"street","address":"40 Jackson St,REAR","state":"OH","juris":"PD"},"type":"Feature","geometry":{"type":"Point","coordinates":[-83.188463,41.113439]}},{"properties":{"officer":null,"city":"Tiffin","zip":"44883","date":{"end_time":"2011/04/16 19:16:00 -0400","original":"4/16/2011 19:15","granularity":"min","time":"2011/04/16 19:15:00 -0400"},"geo_score":0.902,"unit":null,"disposition":"CAN","cfs":7,"call#":11.003536,"id":"a625eribtddc","geo_precision":"range","address":"69 Erie St","state":"OH","juris":"PD"},"type":"Feature","geometry":{"type":"Point","coordinates":[-83.174633,41.122734]}},{"properties":{"officer":"EDA","city":"Tiffin","zip":"44883","date":{"end_time":"2011/10/03 17:32:00 -0400","original":"10/3/2011 17:31","granularity":"min","time":"2011/10/03 17:31:00 -0400"},"geo_score":0.902,"unit":62,"disposition":"200","cfs":7,"call#":11.010297,"id":"a625ergdtpwp","geo_precision":"range","address":"8 Adams St","state":"OH","juris":"PD"},"type":"Feature","geometry":{"type":"Point","coordinates":[-83.178372,41.117853]}},{"properties":{"officer":"LMK","city":"Tiffin","zip":"44883","date":{"end_time":"2011/08/13 23:08:00 -0400","original":"8/13/2011 23:07","granularity":"min","time":"2011/08/13 23:07:00 -0400"},"geo_score":0.902,"unit":61,"disposition":"450","cfs":7,"call#":11.008236,"id":"a625erheor39","geo_precision":"range","address":"82 Franklin St","state":"OH","juris":"PD"},"type":"Feature","geometry":{"type":"Point","coordinates":[-83.182978,41.117359]}},{"properties":{"officer":"RLT","city":"Tiffin","zip":"44883","date":{"end_time":"2011/10/04 21:32:00 -0400","original":"10/4/2011 21:31","granularity":"min","time":"2011/10/04 21:31:00 -0400"},"geo_score":0.902,"unit":59,"disposition":"200","cfs":7,"call#":11.010346,"id":"a625ero84wej","geo_precision":"range","address":"82X Franklin St","state":"OH","juris":"PD"},"type":"Feature","geometry":{"type":"Point","coordinates":[-83.182978,41.117359]}},{"properties":{"officer":"JPF","city":"Tiffin","zip":"44883","date":{"end_time":"2011/11/02 20:57:00 -0400","original":"11/2/2011 20:56","granularity":"min","time":"2011/11/02 20:56:00 -0400"},"geo_score":0.476,"unit":59,"disposition":"100","cfs":7,"call#":11.011461,"id":"a625ernlfpmc","geo_precision":"street","address":"870 W Market St, R","state":"OH","juris":"PD"},"type":"Feature","geometry":{"type":"Point","coordinates":[-83.181592,41.114111]}},{"properties":{"officer":"BRB","city":"Tiffin","zip":"44883","date":{"end_time":"2011/05/10 15:57:00 -0400","original":"5/10/2011 15:56","granularity":"min","time":"2011/05/10 15:56:00 -0400"},"geo_score":0.857,"unit":63,"disposition":"100","cfs":7,"call#":11.004531,"id":"a625erakyj4s","geo_precision":"street","address":"W Market St/Hopewell Av","state":"OH","juris":"PD"},"type":"Feature","geometry":{"type":"Point","coordinates":[-83.181592,41.114111]}}],"is_temporal":true,"author":{"url":"","metadata":"","contact_name":"","contact_address":"","source":"","contact_phone":""},"source":"","pagination":{"sort":null,"start":0,"total":24,"limit":1000000},"state":"complete","tags":"","published":"2014-08-15T04:14:37-04:00","id":219553}