{"type":"FeatureCollection","data_type":"Dataset","url_type":null,"permissions":[{"permissions":{"download":true,"view":true},"group_id":"everyone"}],"classification":null,"title":"murder 2011","count":46,"stream_id":219821,"contributor":{"url":"http://geocommons.com/users/42302","name":"hillproject"},"data_attributes":null,"calculation_params":null,"icon_link":null,"link":"http://geocommons.com/overlays/219821.json","extent":[-83.2197,41.0989,-82.7187,41.4553],"geometry_types":["point"],"unique_name":null,"name":"murder 2011","feature_count":46,"description":"","next_feature":null,"is_raster":false,"short_classification":"Y","stats":{"date":{"max":"2011/12/31 10:05:00 -0500","mean":"2011/08/13 04:45:05 -0400","variance":82247402493092.2,"stdev":9069035.36728643,"min":"2011/01/05 18:23:00 -0500","median":"2011/08/20 17:11:00 -0400"},"unit":{"max":63,"mean":59.6739130434783,"variance":3.95797101449276,"stdev":1.98946500710436,"min":56,"median":60},"disposition":{"max":400,"mean":208.695652173913,"variance":4367.14975845411,"stdev":66.0844138844713,"min":100,"median":200},"cfs":{"max":1,"mean":1.0,"variance":0.0,"stdev":0.0,"min":1,"median":1},"call#":{"max":11.013748,"mean":11.0082895217391,"variance":1.66449288772945e-05,"stdev":0.00407981971137139,"min":11.000138,"median":11.008499}},"features":[{"properties":{"officer":"RJO","city":"Tiffin","zip":"44883","date":{"end_time":"2011/07/10 14:03:00 -0400","original":"7/10/2011 14:02","granularity":"min","time":"2011/07/10 14:02:00 -0400"},"geo_score":0.902,"unit":60,"disposition":200,"cfs":1,"call#":11.006904,"id":"a64nj5imxjkp","geo_precision":"range","address":"100 Douglas St","state":"OH","juris":"PD"},"type":"Feature","geometry":{"type":"Point","coordinates":[-83.173299,41.127714]}},{"properties":{"officer":"REB","city":"Tiffin","zip":"44883","date":{"end_time":"2011/10/07 14:14:00 -0400","original":"10/7/2011 14:13","granularity":"min","time":"2011/10/07 14:13:00 -0400"},"geo_score":0.902,"unit":62,"disposition":100,"cfs":1,"call#":11.010442,"id":"a64nj5iia5dx","geo_precision":"range","address":"105 Indian Ln","state":"OH","juris":"PD"},"type":"Feature","geometry":{"type":"Point","coordinates":[-83.176857,41.100078]}},{"properties":{"officer":"MEM","city":"Tiffin","zip":"44883","date":{"end_time":"2011/10/16 20:46:00 -0400","original":"10/16/2011 20:45","granularity":"min","time":"2011/10/16 20:45:00 -0400"},"geo_score":0.902,"unit":58,"disposition":200,"cfs":1,"call#":11.010836,"id":"a64nj5oi2d0g","geo_precision":"range","address":"109 Frost Pkwy","state":"OH","juris":"PD"},"type":"Feature","geometry":{"type":"Point","coordinates":[-83.179322,41.11688]}},{"properties":{"officer":"BAR","city":"Tiffin","zip":"44883","date":{"end_time":"2011/02/19 17:35:00 -0500","original":"2/19/2011 17:34","granularity":"min","time":"2011/02/19 17:34:00 -0500"},"geo_score":0.902,"unit":58,"disposition":400,"cfs":1,"call#":11.001635,"id":"a64nj5d8a19f","geo_precision":"range","address":"147 Madison St","state":"OH","juris":"PD"},"type":"Feature","geometry":{"type":"Point","coordinates":[-83.174677,41.113524]}},{"properties":{"officer":"BAR","city":"Tiffin","zip":"44883","date":{"end_time":"2011/05/07 17:01:00 -0400","original":"5/7/2011 17:00","granularity":"min","time":"2011/05/07 17:00:00 -0400"},"geo_score":0.902,"unit":63,"disposition":200,"cfs":1,"call#":11.004408,"id":"a64nj5doh7r7","geo_precision":"range","address":"154 S Washington St,300","state":"OH","juris":"PD"},"type":"Feature","geometry":{"type":"Point","coordinates":[-83.175743,41.109463]}},{"properties":{"officer":"EDA","city":"Tiffin","zip":"44883","date":{"end_time":"2011/08/20 17:12:00 -0400","original":"8/20/2011 17:11","granularity":"min","time":"2011/08/20 17:11:00 -0400"},"geo_score":0.902,"unit":60,"disposition":200,"cfs":1,"call#":11.008499,"id":"a64nj5o4t5tq","geo_precision":"range","address":"166 Circular St","state":"OH","juris":"PD"},"type":"Feature","geometry":{"type":"Point","coordinates":[-83.169223,41.110946]}},{"properties":{"officer":"MMS","city":"Tiffin","zip":"44883","date":{"end_time":"2011/12/03 21:25:00 -0500","original":"12/3/2011 21:24","granularity":"min","time":"2011/12/03 21:24:00 -0500"},"geo_score":0.902,"unit":61,"disposition":200,"cfs":1,"call#":11.012745,"id":"a64nj5qmhg0l","geo_precision":"range","address":"166 Hall St","state":"OH","juris":"PD"},"type":"Feature","geometry":{"type":"Point","coordinates":[-83.183045,41.122875]}},{"properties":{"officer":"BAR","city":"Tiffin","zip":"44883","date":{"end_time":"2011/05/05 20:57:00 -0400","original":"5/5/2011 20:56","granularity":"min","time":"2011/05/05 20:56:00 -0400"},"geo_score":0.707,"unit":63,"disposition":100,"cfs":1,"call#":11.004329,"id":"a64nj5d23nzg","geo_precision":"street","address":"1700 Duchess Ln","state":"OH","juris":"PD"},"type":"Feature","geometry":{"type":"Point","coordinates":[-83.191514,41.098863]}},{"properties":{"officer":"EDA","city":"Tiffin","zip":"44883","date":{"end_time":"2011/07/31 23:32:00 -0400","original":"7/31/2011 23:31","granularity":"min","time":"2011/07/31 23:31:00 -0400"},"geo_score":0.756,"unit":58,"disposition":200,"cfs":1,"call#":11.007762,"id":"a64nj5odtk04","geo_precision":"range","address":"175 Second Av","state":"OH","juris":"PD"},"type":"Feature","geometry":{"type":"Point","coordinates":[-83.182772,41.128746]}},{"properties":{"officer":"DES","city":"Tiffin","zip":"44883","date":{"end_time":"2011/07/08 17:42:00 -0400","original":"7/8/2011 17:41","granularity":"min","time":"2011/07/08 17:41:00 -0400"},"geo_score":0.756,"unit":59,"disposition":200,"cfs":1,"call#":11.006826,"id":"a64nj5d64r3t","geo_precision":"range","address":"175 Second Av","state":"OH","juris":"PD"},"type":"Feature","geometry":{"type":"Point","coordinates":[-83.182772,41.128746]}},{"properties":{"officer":"JAD","city":"Tiffin","zip":"44883","date":{"end_time":"2011/06/18 21:27:00 -0400","original":"6/18/2011 21:26","granularity":"min","time":"2011/06/18 21:26:00 -0400"},"geo_score":0.902,"unit":56,"disposition":200,"cfs":1,"call#":11.006058,"id":"a64nj5ko6mau","geo_precision":"range","address":"186 E Market St,237","state":"OH","juris":"PD"},"type":"Feature","geometry":{"type":"Point","coordinates":[-83.17137,41.115126]}},{"properties":{"officer":"RLT","city":"Tiffin","zip":"44883","date":{"end_time":"2011/05/20 22:18:00 -0400","original":"5/20/2011 22:17","granularity":"min","time":"2011/05/20 22:17:00 -0400"},"geo_score":0.902,"unit":62,"disposition":200,"cfs":1,"call#":11.004927,"id":"a64nj5i47mja","geo_precision":"range","address":"186 E Market St,238","state":"OH","juris":"PD"},"type":"Feature","geometry":{"type":"Point","coordinates":[-83.171343,41.115133]}},{"properties":{"officer":"RLT","city":"Tiffin","zip":"44883","date":{"end_time":"2011/01/14 17:15:00 -0500","original":"1/14/2011 17:14","granularity":"min","time":"2011/01/14 17:14:00 -0500"},"geo_score":0.902,"unit":61,"disposition":200,"cfs":1,"call#":11.000374,"id":"a64nj5h8pmy0","geo_precision":"range","address":"186 Hall St","state":"OH","juris":"PD"},"type":"Feature","geometry":{"type":"Point","coordinates":[-83.18356,41.123144]}},{"properties":{"officer":"RLT","city":"Tiffin","zip":"44883","date":{"end_time":"2011/02/12 22:12:00 -0500","original":"2/12/2011 22:11","granularity":"min","time":"2011/02/12 22:11:00 -0500"},"geo_score":0.902,"unit":61,"disposition":200,"cfs":1,"call#":11.001416,"id":"a64nj5fvbchd","geo_precision":"range","address":"190 Circular St","state":"OH","juris":"PD"},"type":"Feature","geometry":{"type":"Point","coordinates":[-83.169154,41.110341]}},{"properties":{"officer":"MEM","city":"Tiffin","zip":"44883","date":{"end_time":"2011/11/21 19:59:00 -0500","original":"11/21/2011 19:58","granularity":"min","time":"2011/11/21 19:58:00 -0500"},"geo_score":0.756,"unit":58,"disposition":200,"cfs":1,"call#":11.012242,"id":"a64nj5jsvvt2","geo_precision":"range","address":"198 Second Av","state":"OH","juris":"PD"},"type":"Feature","geometry":{"type":"Point","coordinates":[-83.183384,41.128736]}},{"properties":{"officer":"SMM","city":"Tiffin","zip":"44883","date":{"end_time":"2011/08/04 22:44:00 -0400","original":"8/4/2011 22:43","granularity":"min","time":"2011/08/04 22:43:00 -0400"},"geo_score":0.902,"unit":58,"disposition":200,"cfs":1,"call#":11.007889,"id":"a64nj5oxswjs","geo_precision":"range","address":"204 E Market St,244","state":"OH","juris":"PD"},"type":"Feature","geometry":{"type":"Point","coordinates":[-83.1712,41.115168]}},{"properties":{"officer":"JMW","city":"Tiffin","zip":"44883","date":{"end_time":"2011/04/15 16:52:00 -0400","original":"4/15/2011 16:51","granularity":"min","time":"2011/04/15 16:51:00 -0400"},"geo_score":0.902,"unit":57,"disposition":200,"cfs":1,"call#":11.0035,"id":"a64nj5iij9in","geo_precision":"range","address":"23 Wentz St","state":"OH","juris":"PD"},"type":"Feature","geometry":{"type":"Point","coordinates":[-83.186774,41.117667]}},{"properties":{"officer":"MEM","city":"Tiffin","zip":"44883","date":{"end_time":"2011/05/20 15:38:00 -0400","original":"5/20/2011 15:37","granularity":"min","time":"2011/05/20 15:37:00 -0400"},"geo_score":0.902,"unit":63,"disposition":200,"cfs":1,"call#":11.004909,"id":"a64nj5lhgnfq","geo_precision":"range","address":"245 Beechwood Dr","state":"OH","juris":"PD"},"type":"Feature","geometry":{"type":"Point","coordinates":[-83.208552,41.115636]}},{"properties":{"officer":"RJO","city":"Tiffin","zip":"44883","date":{"end_time":"2011/12/10 13:37:00 -0500","original":"12/10/2011 13:36","granularity":"min","time":"2011/12/10 13:36:00 -0500"},"geo_score":0.902,"unit":60,"disposition":200,"cfs":1,"call#":11.012987,"id":"a64nj5fh5xde","geo_precision":"range","address":"2499 W Market St","state":"OH","juris":"PD"},"type":"Feature","geometry":{"type":"Point","coordinates":[-83.218519,41.109235]}},{"properties":{"officer":"JSC","city":"Tiffin","zip":"44883","date":{"end_time":"2011/10/16 00:59:00 -0400","original":"10/16/2011 0:58","granularity":"min","time":"2011/10/16 00:58:00 -0400"},"geo_score":0.902,"unit":58,"disposition":200,"cfs":1,"call#":11.010811,"id":"a64nj5iy2ale","geo_precision":"range","address":"24X Miami St","state":"OH","juris":"PD"},"type":"Feature","geometry":{"type":"Point","coordinates":[-83.180098,41.117058]}},{"properties":{"officer":"SGN","city":"Tiffin","zip":"44883","date":{"end_time":"2011/12/09 13:15:00 -0500","original":"12/9/2011 13:14","granularity":"min","time":"2011/12/09 13:14:00 -0500"},"geo_score":0.902,"unit":59,"disposition":200,"cfs":1,"call#":11.012942,"id":"a64nj5ewpxrz","geo_precision":"range","address":"2562 W Market St","state":"OH","juris":"PD"},"type":"Feature","geometry":{"type":"Point","coordinates":[-83.219677,41.109031]}},{"properties":{"officer":"JAD","city":"Tiffin","zip":"44883","date":{"end_time":"2011/12/24 22:38:00 -0500","original":"12/24/2011 22:37","granularity":"min","time":"2011/12/24 22:37:00 -0500"},"geo_score":0.902,"unit":56,"disposition":200,"cfs":1,"call#":11.01356,"id":"a64nj5oijcfz","geo_precision":"range","address":"27 Coe St","state":"OH","juris":"PD"},"type":"Feature","geometry":{"type":"Point","coordinates":[-83.174621,41.108957]}},{"properties":{"officer":"JPF","city":"Tiffin","zip":"44883","date":{"end_time":"2011/12/09 22:14:00 -0500","original":"12/9/2011 22:13","granularity":"min","time":"2011/12/09 22:13:00 -0500"},"geo_score":0.854,"unit":59,"disposition":400,"cfs":1,"call#":11.012966,"id":"a64nj5slxw2y","geo_precision":"range","address":"270 Elm Av","state":"OH","juris":"PD"},"type":"Feature","geometry":{"type":"Point","coordinates":[-83.162137,41.125099]}},{"properties":{"officer":"JDW","city":"Tiffin","zip":"44883","date":{"end_time":"2011/10/21 13:01:00 -0400","original":"10/21/2011 13:00","granularity":"min","time":"2011/10/21 13:00:00 -0400"},"geo_score":0.854,"unit":62,"disposition":200,"cfs":1,"call#":11.010972,"id":"a64nj5o66rzi","geo_precision":"range","address":"270 Elm Av","state":"OH","juris":"PD"},"type":"Feature","geometry":{"type":"Point","coordinates":[-83.162137,41.125099]}},{"properties":{"officer":"RMN","city":"Tiffin","zip":"44883","date":{"end_time":"2011/09/19 23:41:00 -0400","original":"9/19/2011 23:40","granularity":"min","time":"2011/09/19 23:40:00 -0400"},"geo_score":0.902,"unit":59,"disposition":200,"cfs":1,"call#":11.009761,"id":"a64nj5micgel","geo_precision":"range","address":"287 Noble St","state":"OH","juris":"PD"},"type":"Feature","geometry":{"type":"Point","coordinates":[-83.183236,41.123625]}},{"properties":{"officer":"BRB","city":"Tiffin","zip":"44883","date":{"end_time":"2011/02/23 16:16:00 -0500","original":"2/23/2011 16:15","granularity":"min","time":"2011/02/23 16:15:00 -0500"},"geo_score":0.902,"unit":62,"disposition":200,"cfs":1,"call#":11.00173,"id":"a64nj5gg743u","geo_precision":"range","address":"297 N Sandusky St","state":"OH","juris":"PD"},"type":"Feature","geometry":{"type":"Point","coordinates":[-83.178118,41.126272]}},{"properties":{"officer":"GTM","city":"Tiffin","zip":"44883","date":{"end_time":"2011/05/28 15:11:00 -0400","original":"5/28/2011 15:10","granularity":"min","time":"2011/05/28 15:10:00 -0400"},"geo_score":0.902,"unit":57,"disposition":100,"cfs":1,"call#":11.005223,"id":"a64nj5tbym5h","geo_precision":"range","address":"306 Water St","state":"OH","juris":"PD"},"type":"Feature","geometry":{"type":"Point","coordinates":[-83.174239,41.120946]}},{"properties":{"officer":"JSC","city":"Tiffin","zip":"44883","date":{"end_time":"2011/07/26 19:09:00 -0400","original":"7/26/2011 19:08","granularity":"min","time":"2011/07/26 19:08:00 -0400"},"geo_score":0.854,"unit":58,"disposition":200,"cfs":1,"call#":11.007511,"id":"a64nj5pt5xng","geo_precision":"range","address":"34 Riverlea Pk","state":"OH","juris":"PD"},"type":"Feature","geometry":{"type":"Point","coordinates":[-83.17131,41.12191]}},{"properties":{"officer":"BAR","city":"Tiffin","zip":"44883","date":{"end_time":"2011/12/25 20:24:00 -0500","original":"12/25/2011 20:23","granularity":"min","time":"2011/12/25 20:23:00 -0500"},"geo_score":0.902,"unit":63,"disposition":200,"cfs":1,"call#":11.013578,"id":"a64nj5mz95yy","geo_precision":"range","address":"366 Wentz St","state":"OH","juris":"PD"},"type":"Feature","geometry":{"type":"Point","coordinates":[-83.198801,41.11361]}},{"properties":{"officer":"RLT","city":"Tiffin","zip":"44883","date":{"end_time":"2011/06/17 21:52:00 -0400","original":"6/17/2011 21:51","granularity":"min","time":"2011/06/17 21:51:00 -0400"},"geo_score":0.902,"unit":61,"disposition":200,"cfs":1,"call#":11.006011,"id":"a64nj5t5d8iy","geo_precision":"range","address":"366 Wentz St","state":"OH","juris":"PD"},"type":"Feature","geometry":{"type":"Point","coordinates":[-83.198801,41.11361]}},{"properties":{"officer":"JPF","city":"Tiffin","zip":"44883","date":{"end_time":"2011/01/05 18:24:00 -0500","original":"1/5/2011 18:23","granularity":"min","time":"2011/01/05 18:23:00 -0500"},"geo_score":0.902,"unit":59,"disposition":200,"cfs":1,"call#":11.000138,"id":"a64nj5h8d1th","geo_precision":"range","address":"366 Wentz St","state":"OH","juris":"PD"},"type":"Feature","geometry":{"type":"Point","coordinates":[-83.198801,41.11361]}},{"properties":{"officer":"JDW","city":"Tiffin","zip":"44883","date":{"end_time":"2011/04/16 22:16:00 -0400","original":"4/16/2011 22:15","granularity":"min","time":"2011/04/16 22:15:00 -0400"},"geo_score":0.902,"unit":61,"disposition":200,"cfs":1,"call#":11.003546,"id":"a64nj5gpap79","geo_precision":"range","address":"367 Water St","state":"OH","juris":"PD"},"type":"Feature","geometry":{"type":"Point","coordinates":[-83.173414,41.122781]}},{"properties":{"officer":"JSC","city":"Tiffin","zip":"44883","date":{"end_time":"2011/05/15 20:17:00 -0400","original":"5/15/2011 20:16","granularity":"min","time":"2011/05/15 20:16:00 -0400"},"geo_score":0.902,"unit":57,"disposition":200,"cfs":1,"call#":11.00475,"id":"a64nj5ok4j9d","geo_precision":"range","address":"371 Water St","state":"OH","juris":"PD"},"type":"Feature","geometry":{"type":"Point","coordinates":[-83.173315,41.122851]}},{"properties":{"officer":"RJO","city":"Tiffin","zip":"44883","date":{"end_time":"2011/12/31 10:06:00 -0500","original":"12/31/2011 10:05","granularity":"min","time":"2011/12/31 10:05:00 -0500"},"geo_score":0.902,"unit":60,"disposition":400,"cfs":1,"call#":11.013748,"id":"a64nj5gdbkfa","geo_precision":"range","address":"383 Greenfield St","state":"OH","juris":"PD"},"type":"Feature","geometry":{"type":"Point","coordinates":[-83.156545,41.112296]}},{"properties":{"officer":"LMK","city":"Tiffin","zip":"44883","date":{"end_time":"2011/12/23 04:26:00 -0500","original":"12/23/2011 4:25","granularity":"min","time":"2011/12/23 04:25:00 -0500"},"geo_score":0.516,"unit":61,"disposition":200,"cfs":1,"call#":11.013501,"id":"a64nj5kuiq0h","geo_precision":"street","address":"45 St Lawrence Dr","state":"OH","juris":"PD"},"type":"Feature","geometry":{"type":"Point","coordinates":[-82.718729,41.455282]}},{"properties":{"officer":"MMS","city":"Tiffin","zip":"44883","date":{"end_time":"2011/09/25 15:39:00 -0400","original":"9/25/2011 15:38","granularity":"min","time":"2011/09/25 15:38:00 -0400"},"geo_score":0.72,"unit":63,"disposition":200,"cfs":1,"call#":11.009988,"id":"a64nj5lxhmgl","geo_precision":"street","address":"47 S Washington St,4","state":"OH","juris":"PD"},"type":"Feature","geometry":{"type":"Point","coordinates":[-83.176943,41.117025]}},{"properties":{"officer":"RMN","city":"Tiffin","zip":"44883","date":{"end_time":"2011/07/29 02:48:00 -0400","original":"7/29/2011 2:47","granularity":"min","time":"2011/07/29 02:47:00 -0400"},"geo_score":0.902,"unit":60,"disposition":200,"cfs":1,"call#":11.007599,"id":"a64nj5q5bowq","geo_precision":"range","address":"54 S Washington St","state":"OH","juris":"PD"},"type":"Feature","geometry":{"type":"Point","coordinates":[-83.176822,41.116008]}},{"properties":{"officer":"RMN","city":"Tiffin","zip":"44883","date":{"end_time":"2011/08/14 19:29:00 -0400","original":"8/14/2011 19:28","granularity":"min","time":"2011/08/14 19:28:00 -0400"},"geo_score":0.902,"unit":57,"disposition":200,"cfs":1,"call#":11.008267,"id":"a64nj5gumh4p","geo_precision":"range","address":"552X N Sandusky St","state":"OH","juris":"PD"},"type":"Feature","geometry":{"type":"Point","coordinates":[-83.173272,41.132934]}},{"properties":{"officer":"SMM","city":"Tiffin","zip":"44883","date":{"end_time":"2011/11/30 19:06:00 -0500","original":"11/30/2011 19:05","granularity":"min","time":"2011/11/30 19:05:00 -0500"},"geo_score":0.514,"unit":58,"disposition":200,"cfs":1,"call#":11.012628,"id":"a64nj5q6k89d","geo_precision":"street","address":"630 S Sandusky St,C","state":"OH","juris":"PD"},"type":"Feature","geometry":{"type":"Point","coordinates":[-83.174672,41.108987]}},{"properties":{"officer":"EDA","city":"Tiffin","zip":"44883","date":{"end_time":"2011/05/09 21:03:00 -0400","original":"5/9/2011 21:02","granularity":"min","time":"2011/05/09 21:02:00 -0400"},"geo_score":0.902,"unit":60,"disposition":200,"cfs":1,"call#":11.00451,"id":"a64nj5o0ffpm","geo_precision":"range","address":"686 S Sandusky St,66","state":"OH","juris":"PD"},"type":"Feature","geometry":{"type":"Point","coordinates":[-83.183803,41.118011]}},{"properties":{"officer":"RLT","city":"Tiffin","zip":"44883","date":{"end_time":"2011/11/15 01:00:00 -0500","original":"11/15/2011 0:59","granularity":"min","time":"2011/11/15 00:59:00 -0500"},"geo_score":0.902,"unit":59,"disposition":400,"cfs":1,"call#":11.011976,"id":"a64nj5g85dg6","geo_precision":"range","address":"686 S Sandusky St,75","state":"OH","juris":"PD"},"type":"Feature","geometry":{"type":"Point","coordinates":[-83.183925,41.117779]}},{"properties":{"officer":"FWS","city":"Tiffin","zip":"44883","date":{"end_time":"2011/11/01 15:22:00 -0400","original":"11/1/2011 15:21","granularity":"min","time":"2011/11/01 15:21:00 -0400"},"geo_score":0.902,"unit":58,"disposition":200,"cfs":1,"call#":11.011418,"id":"a64nj5k68axx","geo_precision":"range","address":"7 Beechwood Dr","state":"OH","juris":"PD"},"type":"Feature","geometry":{"type":"Point","coordinates":[-83.200784,41.115377]}},{"properties":{"officer":"EDA","city":"Tiffin","zip":"44883","date":{"end_time":"2011/09/05 18:32:00 -0400","original":"9/5/2011 18:31","granularity":"min","time":"2011/09/05 18:31:00 -0400"},"geo_score":0.429,"unit":60,"disposition":200,"cfs":1,"call#":11.009162,"id":"a64nj5i6t8ss","geo_precision":"street","address":"7 W Market St,O","state":"OH","juris":"PD"},"type":"Feature","geometry":{"type":"Point","coordinates":[-83.181592,41.114111]}},{"properties":{"officer":"DES","city":"Tiffin","zip":"44883","date":{"end_time":"2011/12/09 15:08:00 -0500","original":"12/9/2011 15:07","granularity":"min","time":"2011/12/09 15:07:00 -0500"},"geo_score":0.902,"unit":61,"disposition":100,"cfs":1,"call#":11.012948,"id":"a64nj5tcgjan","geo_precision":"range","address":"76 Ashwood Rd","state":"OH","juris":"PD"},"type":"Feature","geometry":{"type":"Point","coordinates":[-83.201448,41.114835]}},{"properties":{"officer":"RMN","city":"Tiffin","zip":"44883","date":{"end_time":"2011/10/07 15:29:00 -0400","original":"10/7/2011 15:28","granularity":"min","time":"2011/10/07 15:28:00 -0400"},"geo_score":0.902,"unit":58,"disposition":200,"cfs":1,"call#":11.010445,"id":"a64nj5n68phy","geo_precision":"range","address":"89 Jackson St","state":"OH","juris":"PD"},"type":"Feature","geometry":{"type":"Point","coordinates":[-83.186926,41.115845]}},{"properties":{"officer":"DES","city":"Tiffin","zip":"44883","date":{"end_time":"2011/12/09 13:06:00 -0500","original":"12/9/2011 13:05","granularity":"min","time":"2011/12/09 13:05:00 -0500"},"geo_score":0.902,"unit":61,"disposition":200,"cfs":1,"call#":11.012941,"id":"a64nj5eczv0l","geo_precision":"range","address":"93 Jackson St","state":"OH","juris":"PD"},"type":"Feature","geometry":{"type":"Point","coordinates":[-83.186864,41.115964]}}],"is_temporal":true,"author":{"url":"","metadata":"","contact_name":"","contact_address":"","source":"","contact_phone":""},"source":"","pagination":{"sort":null,"start":0,"total":46,"limit":1000000},"state":"complete","tags":"","published":"2014-08-15T04:23:59-04:00","id":219821}