{"type":"FeatureCollection","data_type":"Dataset","url_type":null,"permissions":[{"permissions":{"download":true,"view":true},"group_id":"everyone"}],"classification":null,"title":"SJ Europe Coverage","count":49,"stream_id":22004,"contributor":{"url":"http://geocommons.com/users/10808","name":"sommelier"},"data_attributes":null,"calculation_params":null,"icon_link":null,"link":"http://geocommons.com/overlays/22004.json","extent":[-28.5494,27.7347,46.7108,71.1547],"geometry_types":[],"unique_name":null,"name":"SJ Europe Coverage","feature_count":49,"description":"","next_feature":null,"is_raster":false,"short_classification":"Y","stats":{"GMI_CNTRY":{"max":11.0,"mean":0.693877551020408,"variance":4.55017006802721,"stdev":2.1331127649581,"min":0.0,"median":0.0}},"features":[{"properties":{"NAME":"Albania","id":"a62wrirzjtvc","REGION":"Europe","GMI_CNTRY":0.0},"type":"Feature","geometry":null},{"properties":{"NAME":"Andorra","id":"a62wrizm3zjc","REGION":"Europe","GMI_CNTRY":0.0},"type":"Feature","geometry":null},{"properties":{"NAME":"Armenia","id":"a62wrj0o7dfz","REGION":"Asia","GMI_CNTRY":0.0},"type":"Feature","geometry":null},{"properties":{"NAME":"Austria","id":"a62wriyoxx2l","REGION":"Europe","GMI_CNTRY":5.0},"type":"Feature","geometry":null},{"properties":{"NAME":"Belgium","id":"a62wrirwgwv1","REGION":"Europe","GMI_CNTRY":0.0},"type":"Feature","geometry":null},{"properties":{"NAME":"Bosnia and Herzegovina","id":"a62wrj4e9nwn","REGION":"Europe","GMI_CNTRY":0.0},"type":"Feature","geometry":null},{"properties":{"NAME":"Bulgaria","id":"a62wriuvg04a","REGION":"Europe","GMI_CNTRY":0.0},"type":"Feature","geometry":null},{"properties":{"NAME":"Byelarus","id":"a62wriqnoiv3","REGION":"Europe","GMI_CNTRY":0.0},"type":"Feature","geometry":null},{"properties":{"NAME":"Croatia","id":"a62wrj06dywb","REGION":"Europe","GMI_CNTRY":1.0},"type":"Feature","geometry":null},{"properties":{"NAME":"Cyprus","id":"a62wriot3gpi","REGION":"Asia","GMI_CNTRY":0.0},"type":"Feature","geometry":null},{"properties":{"NAME":"Czech Republic","id":"a62wrj4gngpz","REGION":"Europe","GMI_CNTRY":0.0},"type":"Feature","geometry":null},{"properties":{"NAME":"Denmark","id":"a62wrj3b5kxn","REGION":"Europe","GMI_CNTRY":0.0},"type":"Feature","geometry":null},{"properties":{"NAME":"Estonia","id":"a62wrj15kpo6","REGION":"Europe","GMI_CNTRY":0.0},"type":"Feature","geometry":null},{"properties":{"NAME":"Finland","id":"a62wrj0vh4i5","REGION":"Europe","GMI_CNTRY":0.0},"type":"Feature","geometry":null},{"properties":{"NAME":"France","id":"a62wrj2d5h3p","REGION":"Europe","GMI_CNTRY":0.0},"type":"Feature","geometry":null},{"properties":{"NAME":"Gaza Strip","id":"a62wriwms9zl","REGION":"Asia","GMI_CNTRY":0.0},"type":"Feature","geometry":null},{"properties":{"NAME":"Georgia","id":"a62wriqtn7q8","REGION":"Asia","GMI_CNTRY":0.0},"type":"Feature","geometry":null},{"properties":{"NAME":"Germany","id":"a62wripso3er","REGION":"Europe","GMI_CNTRY":5.0},"type":"Feature","geometry":null},{"properties":{"NAME":"Greece","id":"a62writp8mj0","REGION":"Europe","GMI_CNTRY":1.0},"type":"Feature","geometry":null},{"properties":{"NAME":"Hungary","id":"a62wriy4wz1z","REGION":"Europe","GMI_CNTRY":0.0},"type":"Feature","geometry":null},{"properties":{"NAME":"Iceland","id":"a62wrj4t8ao1","REGION":"Europe","GMI_CNTRY":0.0},"type":"Feature","geometry":null},{"properties":{"NAME":"Ireland","id":"a62wrj3trjig","REGION":"Europe","GMI_CNTRY":0.0},"type":"Feature","geometry":null},{"properties":{"NAME":"Israel","id":"a62wrix3huht","REGION":"Asia","GMI_CNTRY":0.0},"type":"Feature","geometry":null},{"properties":{"NAME":"Italy","id":"a62wriqi2w04","REGION":"Europe","GMI_CNTRY":11.0},"type":"Feature","geometry":null},{"properties":{"NAME":"Jordan","id":"a62wriz3z1uk","REGION":"Asia","GMI_CNTRY":0.0},"type":"Feature","geometry":null},{"properties":{"NAME":"Latvia","id":"a62wrj3r9vrb","REGION":"Europe","GMI_CNTRY":0.0},"type":"Feature","geometry":null},{"properties":{"NAME":"Lebanon","id":"a62wriqv631w","REGION":"Asia","GMI_CNTRY":0.0},"type":"Feature","geometry":null},{"properties":{"NAME":"Liechtenstein","id":"a62wrip6u7yg","REGION":"Europe","GMI_CNTRY":0.0},"type":"Feature","geometry":null},{"properties":{"NAME":"Lithuania","id":"a62wrirm2sg4","REGION":"Europe","GMI_CNTRY":0.0},"type":"Feature","geometry":null},{"properties":{"NAME":"Luxembourg","id":"a62wriznncfi","REGION":"Europe","GMI_CNTRY":0.0},"type":"Feature","geometry":null},{"properties":{"NAME":"Macedonia","id":"a62wriopilh9","REGION":"Europe","GMI_CNTRY":0.0},"type":"Feature","geometry":null},{"properties":{"NAME":"Malta","id":"a62wris5lrfs","REGION":"Pacific","GMI_CNTRY":0.0},"type":"Feature","geometry":null},{"properties":{"NAME":"Monaco","id":"a62wriqh33fm","REGION":"Europe","GMI_CNTRY":0.0},"type":"Feature","geometry":null},{"properties":{"NAME":"Netherlands","id":"a62wriyrscq3","REGION":"Europe","GMI_CNTRY":0.0},"type":"Feature","geometry":null},{"properties":{"NAME":"Norway","id":"a62wrj4dvo41","REGION":"Europe","GMI_CNTRY":0.0},"type":"Feature","geometry":null},{"properties":{"NAME":"Poland","id":"a62wriu0lahn","REGION":"Europe","GMI_CNTRY":0.0},"type":"Feature","geometry":null},{"properties":{"NAME":"Portugal","id":"a62wrisptway","REGION":"Europe","GMI_CNTRY":2.0},"type":"Feature","geometry":null},{"properties":{"NAME":"Romania","id":"a62wrj31m4wi","REGION":"Europe","GMI_CNTRY":0.0},"type":"Feature","geometry":null},{"properties":{"NAME":"San Marino","id":"a62wrj1koapo","REGION":"Europe","GMI_CNTRY":0.0},"type":"Feature","geometry":null},{"properties":{"NAME":"Slovakia","id":"a62wrj0lpd9s","REGION":"Europe","GMI_CNTRY":0.0},"type":"Feature","geometry":null},{"properties":{"NAME":"Slovenia","id":"a62wrj353nfm","REGION":"Europe","GMI_CNTRY":1.0},"type":"Feature","geometry":null},{"properties":{"NAME":"Spain","id":"a62wrj24pk2o","REGION":"Europe","GMI_CNTRY":8.0},"type":"Feature","geometry":null},{"properties":{"NAME":"Sweden","id":"a62wrj0hrusl","REGION":"Europe","GMI_CNTRY":0.0},"type":"Feature","geometry":null},{"properties":{"NAME":"Switzerland","id":"a62wrj389p2z","REGION":"Europe","GMI_CNTRY":0.0},"type":"Feature","geometry":null},{"properties":{"NAME":"Syria","id":"a62wriq0hkqb","REGION":"Asia","GMI_CNTRY":0.0},"type":"Feature","geometry":null},{"properties":{"NAME":"Turkey","id":"a62writbhi0v","REGION":"Asia","GMI_CNTRY":0.0},"type":"Feature","geometry":null},{"properties":{"NAME":"Ukraine","id":"a62wrj546e2r","REGION":"Europe","GMI_CNTRY":0.0},"type":"Feature","geometry":null},{"properties":{"NAME":"United Kingdom","id":"a62wriyyoh2f","REGION":"Europe","GMI_CNTRY":0.0},"type":"Feature","geometry":null},{"properties":{"NAME":"Yugoslavia","id":"a62wriwhr44e","REGION":"Europe","GMI_CNTRY":0.0},"type":"Feature","geometry":null}],"is_temporal":false,"author":{"url":"","metadata":"","contact_name":"","contact_address":"","source":"","contact_phone":""},"source":"","pagination":{"sort":null,"start":0,"total":49,"limit":1000000},"state":"complete","tags":"","published":"2014-08-10T14:04:35-04:00","id":22004}