{"type":"FeatureCollection","data_type":"Dataset","url_type":null,"permissions":[{"permissions":{"download":true,"view":true},"group_id":"everyone"}],"classification":null,"title":"Christine_-_Real_Estate_-_ran_March_26th","count":196,"stream_id":220220,"contributor":{"url":"http://geocommons.com/users/39447","name":"sam.felipe"},"data_attributes":null,"calculation_params":null,"icon_link":null,"link":"http://geocommons.com/overlays/220220.json","extent":[-122.166,36.9112,-120.331,37.7943],"geometry_types":["point"],"unique_name":null,"name":"Christine_-_Real_Estate_-_ran_March_26th","feature_count":196,"description":"","next_feature":null,"is_raster":false,"short_classification":"Y","stats":{"rep? (1 for yes, 0 for no)":{"max":1,"mean":0.48469387755102,"variance":0.251046572475144,"stdev":0.501045479447868,"min":0,"median":0}},"features":[{"properties":{"rep? (1 for yes, 0 for no)":1,"city":"Modesto","zip":"95350","real estate office":"PMZ","geo_score":0.602,"street address":"1230 E. Orangeburg","id":"a640g8cxwkw2","geo_precision":"street","state":"CA"},"type":"Feature","geometry":{"type":"Point","coordinates":[-120.99392,37.663665]}},{"properties":{"rep? (1 for yes, 0 for no)":0,"city":"Modesto","zip":"95351","real estate office":"PMZ","geo_score":0.558,"street address":"1600 N. Carpenter Rd.","id":"a640g8cvpq7q","geo_precision":"street","state":"CA"},"type":"Feature","geometry":{"type":"Point","coordinates":[-121.030461,37.627719]}},{"properties":{"rep? (1 for yes, 0 for no)":1,"city":"Modesto","zip":"95350","real estate office":"Century 21 M&amp;M","geo_score":1.0,"street address":"605 Standiford Ave","id":"a640g89oe2et","geo_precision":"range","state":"CA"},"type":"Feature","geometry":{"type":"Point","coordinates":[-121.000718,37.689186]}},{"properties":{"rep? (1 for yes, 0 for no)":1,"city":"Turlock","zip":"95380","real estate office":"Century 21 M&amp;M","geo_score":0.633,"street address":"331 E. Main St","id":"a640g85fqo2z","geo_precision":"street","state":"CA"},"type":"Feature","geometry":{"type":"Point","coordinates":[-120.846612,37.494161]}},{"properties":{"rep? (1 for yes, 0 for no)":1,"city":"Modesto","zip":"95355","real estate office":"Re/Max","geo_score":1.0,"street address":"3425 coffee Rd.","id":"a640g8dn35vs","geo_precision":"range","state":"CA"},"type":"Feature","geometry":{"type":"Point","coordinates":[-120.976047,37.687824]}},{"properties":{"rep? (1 for yes, 0 for no)":1,"city":"Modesto","zip":"95350","real estate office":"Prudential","geo_score":1.0,"street address":"1101 Sylvan Ave","id":"a640g8cdf2t4","geo_precision":"range","state":"CA"},"type":"Feature","geometry":{"type":"Point","coordinates":[-120.980096,37.688923]}},{"properties":{"rep? (1 for yes, 0 for no)":0,"city":"Oakdale","zip":"95361","real estate office":"PMZ","geo_score":0.494,"street address":"190 S. Maag Ave","id":"a640g7z67eub","geo_precision":"street","state":"CA"},"type":"Feature","geometry":{"type":"Point","coordinates":[-120.828747,37.769101]}},{"properties":{"rep? (1 for yes, 0 for no)":1,"city":"Modesto","zip":"95350","real estate office":"Keller Williams","geo_score":1.0,"street address":"1001 Sylvan Ave","id":"a640g8b09x7w","geo_precision":"range","state":"CA"},"type":"Feature","geometry":{"type":"Point","coordinates":[-120.981499,37.688943]}},{"properties":{"rep? (1 for yes, 0 for no)":1,"city":"Turlock","zip":"95382","real estate office":"Powerhouse Realty","geo_score":1.0,"street address":"2130 Geer Rd","id":"a640g8081xnf","geo_precision":"range","state":"CA"},"type":"Feature","geometry":{"type":"Point","coordinates":[-120.848882,37.512745]}},{"properties":{"rep? (1 for yes, 0 for no)":1,"city":"Modesto","zip":"95350","real estate office":"Coldwell Banker/Vinson Chase","geo_score":1.0,"street address":"220 Standiford Ave","id":"a640g89brpmz","geo_precision":"range","state":"CA"},"type":"Feature","geometry":{"type":"Point","coordinates":[-120.994411,37.68909]}},{"properties":{"rep? (1 for yes, 0 for no)":0,"city":"Oakdale","zip":"95361","real estate office":"Century 21 M&amp;M","geo_score":0.655,"street address":"1414 East F. St.","id":"a640g877y75y","geo_precision":"street","state":"CA"},"type":"Feature","geometry":{"type":"Point","coordinates":[-120.84959,37.76557]}},{"properties":{"rep? (1 for yes, 0 for no)":1,"city":"Modesto","zip":"95350","real estate office":"Matel Realtors","geo_score":1.0,"street address":"1562 Tully Rd.","id":"a640g876dwg2","geo_precision":"range","state":"CA"},"type":"Feature","geometry":{"type":"Point","coordinates":[-121.012179,37.667138]}},{"properties":{"rep? (1 for yes, 0 for no)":1,"city":"Turlock","zip":"95380","real estate office":"PMZ","geo_score":1.0,"street address":"1500 Fulkerth Rd","id":"a640g8bjyuex","geo_precision":"range","state":"CA"},"type":"Feature","geometry":{"type":"Point","coordinates":[-120.865848,37.5073]}},{"properties":{"rep? (1 for yes, 0 for no)":0,"city":"Turlock","zip":"95382","real estate office":"Atlantic Realty","geo_score":1.0,"street address":"2100 Geer Rd","id":"a640g8dwcuk5","geo_precision":"range","state":"CA"},"type":"Feature","geometry":{"type":"Point","coordinates":[-120.848882,37.512533]}},{"properties":{"rep? (1 for yes, 0 for no)":1,"city":"Turlock","zip":"95382","real estate office":"Prudential","geo_score":1.0,"street address":"2051 Geer Rd","id":"a640g830cpnl","geo_precision":"range","state":"CA"},"type":"Feature","geometry":{"type":"Point","coordinates":[-120.848885,37.511391]}},{"properties":{"rep? (1 for yes, 0 for no)":0,"city":"Modesto","zip":"95357","real estate office":"Atlantic &amp; Pacific Real Estate","geo_score":1.0,"street address":"3516 Oakdale Rd.","id":"a640g83fp0vp","geo_precision":"range","state":"CA"},"type":"Feature","geometry":{"type":"Point","coordinates":[-120.957988,37.690213]}},{"properties":{"rep? (1 for yes, 0 for no)":1,"city":"Turlock","zip":"95382","real estate office":"PMZ","geo_score":1.0,"street address":"3800 Geer Rd","id":"a640g8cf0qqz","geo_precision":"range","state":"CA"},"type":"Feature","geometry":{"type":"Point","coordinates":[-120.848947,37.526972]}},{"properties":{"rep? (1 for yes, 0 for no)":0,"city":"Modesto","zip":"95351","real estate office":"PMZ","geo_score":0.965,"street address":"1392 Mitchell Rd","id":"a640g8cj9xvy","geo_precision":"range","state":"CA"},"type":"Feature","geometry":{"type":"Point","coordinates":[-120.938729,37.6112]}},{"properties":{"rep? (1 for yes, 0 for no)":0,"city":"Waterford","zip":"95386","real estate office":"Joslin Real Estate","geo_score":1.0,"street address":"12645 Bentley St","id":"a640g87h944z","geo_precision":"range","state":"CA"},"type":"Feature","geometry":{"type":"Point","coordinates":[-120.761162,37.640824]}},{"properties":{"rep? (1 for yes, 0 for no)":1,"city":"Patterson","zip":"95363","real estate office":"Century 21 M&amp;M","geo_score":0.509,"street address":"1040 W. Las Palmas Ave","id":"a640g877i87u","geo_precision":"street","state":"CA"},"type":"Feature","geometry":{"type":"Point","coordinates":[-121.127531,37.472735]}},{"properties":{"rep? (1 for yes, 0 for no)":1,"city":"Turlock","zip":"95380","real estate office":"Reed Realty","geo_score":0.633,"street address":"5 E. Main St","id":"a640g8cek2ba","geo_precision":"street","state":"CA"},"type":"Feature","geometry":{"type":"Point","coordinates":[-120.846612,37.494161]}},{"properties":{"rep? (1 for yes, 0 for no)":1,"city":"Modesto","zip":"95350","real estate office":"Exit Realty","geo_score":1.0,"street address":"901 McHenry Ave","id":"a640g81ra6mm","geo_precision":"range","state":"CA"},"type":"Feature","geometry":{"type":"Point","coordinates":[-120.993822,37.655739]}},{"properties":{"rep? (1 for yes, 0 for no)":0,"city":"Modesto","zip":"95355","real estate office":"Harmony Homes","geo_score":0.805,"street address":"3125 McHenry Ave","id":"a640g80d2mzi","geo_precision":"range","state":"CA"},"type":"Feature","geometry":{"type":"Point","coordinates":[-120.996638,37.794304]}},{"properties":{"rep? (1 for yes, 0 for no)":1,"city":"Patterson","zip":"95363","real estate office":"Realty World/Scheuber Properties","geo_score":0.818,"street address":"11 Plaza","id":"a640g84g5uco","geo_precision":"range","state":"CA"},"type":"Feature","geometry":{"type":"Point","coordinates":[-121.130434,37.471295]}},{"properties":{"rep? (1 for yes, 0 for no)":1,"city":"Modesto","zip":"95354","real estate office":"Granite Realty","geo_score":0.902,"street address":"1120 13th St.","id":"a640g876ufs8","geo_precision":"range","state":"CA"},"type":"Feature","geometry":{"type":"Point","coordinates":[-120.998778,37.643826]}},{"properties":{"rep? (1 for yes, 0 for no)":0,"city":"Newman","zip":"95360","real estate office":"Stephens &amp; Borrelli","geo_score":1.0,"street address":"1350 Main St.","id":"a640g8bf1hvd","geo_precision":"range","state":"CA"},"type":"Feature","geometry":{"type":"Point","coordinates":[-121.022681,37.315249]}},{"properties":{"rep? (1 for yes, 0 for no)":1,"city":"Modesto","zip":"95350","real estate office":"Almond Valley Realty","geo_score":1.0,"street address":"180 Leveland Lane","id":"a640g85bx9f0","geo_precision":"range","state":"CA"},"type":"Feature","geometry":{"type":"Point","coordinates":[-120.996014,37.679127]}},{"properties":{"rep? (1 for yes, 0 for no)":1,"city":"Modesto","zip":"95350","real estate office":"Weeks Real Estate","geo_score":1.0,"street address":"946 Mchenry Ave","id":"a640g83v76yo","geo_precision":"range","state":"CA"},"type":"Feature","geometry":{"type":"Point","coordinates":[-120.993827,37.656286]}},{"properties":{"rep? (1 for yes, 0 for no)":1,"city":"Modesto","zip":"95350","real estate office":"Capital Real Estate","geo_score":1.0,"street address":"1500 Standiford Ave","id":"a640g8cb6gk6","geo_precision":"range","state":"CA"},"type":"Feature","geometry":{"type":"Point","coordinates":[-121.017135,37.689419]}},{"properties":{"rep? (1 for yes, 0 for no)":1,"city":"Modesto","zip":"95350","real estate office":"PMZ","geo_score":0.89,"street address":"1120 Scenic Dr.","id":"a640g87nrk0v","geo_precision":"range","state":"CA"},"type":"Feature","geometry":{"type":"Point","coordinates":[-120.980328,37.647366]}},{"properties":{"rep? (1 for yes, 0 for no)":1,"city":"Modesto","zip":"95354","real estate office":"Love Real Estate","geo_score":0.902,"street address":"1008 12th St.","id":"a640g8boxanq","geo_precision":"range","state":"CA"},"type":"Feature","geometry":{"type":"Point","coordinates":[-120.998488,37.642035]}},{"properties":{"rep? (1 for yes, 0 for no)":0,"city":"Ceres","zip":"95307","real estate office":"Excel Realtors","geo_score":0.614,"street address":"2600 E. Whitmore Ave","id":"a640g8d0a69p","geo_precision":"street","state":"CA"},"type":"Feature","geometry":{"type":"Point","coordinates":[-120.958327,37.593997]}},{"properties":{"rep? (1 for yes, 0 for no)":1,"city":"Turlcok","zip":"95380","real estate office":"Exit Realty","geo_score":0.592,"street address":"600 E. Main St.","id":"a640g84tczpx","geo_precision":"street","state":"CA"},"type":"Feature","geometry":{"type":"Point","coordinates":[-120.846612,37.494161]}},{"properties":{"rep? (1 for yes, 0 for no)":0,"city":"Modesto","zip":"95356","real estate office":"Taffeco Real Estate","geo_score":1.0,"street address":"4807 Sisk Rd.","id":"a640g89s1y20","geo_precision":"range","state":"CA"},"type":"Feature","geometry":{"type":"Point","coordinates":[-121.077547,37.707597]}},{"properties":{"rep? (1 for yes, 0 for no)":1,"city":"Modesto","zip":"95354","real estate office":"The Land Group","geo_score":1.0,"street address":"1401 F Street","id":"a640g8asbdt9","geo_precision":"range","state":"CA"},"type":"Feature","geometry":{"type":"Point","coordinates":[-120.991888,37.63952]}},{"properties":{"rep? (1 for yes, 0 for no)":1,"city":"Modesto","zip":"95350","real estate office":"Great Valley Realtors","geo_score":0.768,"street address":"2813 Coffe Rd","id":"a640g873xgyo","geo_precision":"range","state":"CA"},"type":"Feature","geometry":{"type":"Point","coordinates":[-120.975869,37.679966]}},{"properties":{"rep? (1 for yes, 0 for no)":0,"city":"Oakdale","zip":"95361","real estate office":"Allison James Estates &amp; Homes","geo_score":0.911,"street address":"214 East F Street","id":"a640g84yyrhp","geo_precision":"range","state":"CA"},"type":"Feature","geometry":{"type":"Point","coordinates":[-120.84863,37.765981]}},{"properties":{"rep? (1 for yes, 0 for no)":1,"city":"Modesto","zip":"95350","real estate office":"Castle Real Estate","geo_score":1.0,"street address":"1608 Tully Rd","id":"a640g81ir5mn","geo_precision":"range","state":"CA"},"type":"Feature","geometry":{"type":"Point","coordinates":[-121.012186,37.667756]}},{"properties":{"rep? (1 for yes, 0 for no)":1,"city":"Modesto","zip":"95350","real estate office":"New Destiny Real Estate","geo_score":0.89,"street address":"509 Scenic Dr.","id":"a640g80synpx","geo_precision":"range","state":"CA"},"type":"Feature","geometry":{"type":"Point","coordinates":[-120.987765,37.645882]}},{"properties":{"rep? (1 for yes, 0 for no)":1,"city":"Modesto","zip":"95350","real estate office":"RMH Realty","geo_score":1.0,"street address":"1700 Standiford Ave","id":"a640g8a4eswi","geo_precision":"range","state":"CA"},"type":"Feature","geometry":{"type":"Point","coordinates":[-121.02241,37.68944]}},{"properties":{"rep? (1 for yes, 0 for no)":0,"city":"Oakdale","zip":"95361","real estate office":"Coldwell Banker","geo_score":0.911,"street address":"801 West F Street","id":"a640g80suugr","geo_precision":"range","state":"CA"},"type":"Feature","geometry":{"type":"Point","coordinates":[-120.856484,37.762626]}},{"properties":{"rep? (1 for yes, 0 for no)":0,"city":"La Grange","zip":"95329","real estate office":"Coldwell Banker","geo_score":0.808,"street address":"14375 Las Moras St.","id":"a640g834iyud","geo_precision":"street","state":"CA"},"type":"Feature","geometry":{"type":"Point","coordinates":[-120.330728,37.685407]}},{"properties":{"rep? (1 for yes, 0 for no)":1,"city":"Modesto","zip":"95354","real estate office":"Best Choice Realty","geo_score":0.714,"street address":"1300 H. Street","id":"a640g82x5zbq","geo_precision":"street","state":"CA"},"type":"Feature","geometry":{"type":"Point","coordinates":[-121.002353,37.635269]}},{"properties":{"rep? (1 for yes, 0 for no)":0,"city":"Modesto","zip":"95355","real estate office":"Integrity Real Estate","geo_score":1.0,"street address":"3931 Coffee Rd.","id":"a640g8byqizs","geo_precision":"range","state":"CA"},"type":"Feature","geometry":{"type":"Point","coordinates":[-120.976149,37.69552]}},{"properties":{"rep? (1 for yes, 0 for no)":0,"city":"Modesto","zip":"95355","real estate office":"Lebon Real Estate","geo_score":1.0,"street address":"1508 Coffee Rd","id":"a640g8d00zx7","geo_precision":"range","state":"CA"},"type":"Feature","geometry":{"type":"Point","coordinates":[-120.975717,37.665499]}},{"properties":{"rep? (1 for yes, 0 for no)":0,"city":"Ceres","zip":"95307","real estate office":"Cmg Realty","geo_score":1.0,"street address":"1901 Ginkgo Ct","id":"a640g89mwioo","geo_precision":"range","state":"CA"},"type":"Feature","geometry":{"type":"Point","coordinates":[-120.930809,37.602466]}},{"properties":{"rep? (1 for yes, 0 for no)":1,"city":"Turlcok","zip":"95380","real estate office":"Realty World Sungate realty","geo_score":0.584,"street address":"2082 E. Canal Dr","id":"a640g8djmf0x","geo_precision":"street","state":"CA"},"type":"Feature","geometry":{"type":"Point","coordinates":[-120.847736,37.500288]}},{"properties":{"rep? (1 for yes, 0 for no)":1,"city":"Capiola","zip":"95010","real estate office":"David Lyng &amp; assoc","geo_score":0.904,"street address":"2170 41st Ave.","id":"a640g7z4utbg","geo_precision":"range","state":"CA"},"type":"Feature","geometry":{"type":"Point","coordinates":[-121.96491,36.98063]}},{"properties":{"rep? (1 for yes, 0 for no)":1,"city":"Aptos","zip":"95003","real estate office":"Bailey Properties","geo_score":0.902,"street address":"9119 Soquel Dr","id":"a640g86ukzdz","geo_precision":"range","state":"CA"},"type":"Feature","geometry":{"type":"Point","coordinates":[-121.885701,36.976214]}},{"properties":{"rep? (1 for yes, 0 for no)":1,"city":"Santa Cruz","zip":"95062","real estate office":"American Dream Realty","geo_score":0.83,"street address":"1041 41st Ave.","id":"a640g7xvqh21","geo_precision":"range","state":"CA"},"type":"Feature","geometry":{"type":"Point","coordinates":[-121.964898,36.967019]}},{"properties":{"rep? (1 for yes, 0 for no)":0,"city":"Aptos","zip":"95003","real estate office":"Coldwell Banker","geo_score":0.805,"street address":"7979 Soquel Ave","id":"a640g86xxn80","geo_precision":"range","state":"CA"},"type":"Feature","geometry":{"type":"Point","coordinates":[-121.902652,36.976885]}},{"properties":{"rep? (1 for yes, 0 for no)":1,"city":"Santa Cruz","zip":"95062","real estate office":"Keller Williams","geo_score":0.913,"street address":"1414 Soquel Ave","id":"a640g8cgs6iy","geo_precision":"range","state":"CA"},"type":"Feature","geometry":{"type":"Point","coordinates":[-122.006333,36.981405]}},{"properties":{"rep? (1 for yes, 0 for no)":1,"city":"Santa Cruz","zip":"95060","real estate office":"Bailey Properties","geo_score":0.911,"street address":"1602 Ocean St","id":"a640g8bbtwla","geo_precision":"range","state":"CA"},"type":"Feature","geometry":{"type":"Point","coordinates":[-122.023979,36.985368]}},{"properties":{"rep? (1 for yes, 0 for no)":1,"city":"Capitola","zip":"95010","real estate office":"Thunderbird Real Estate","geo_score":1.0,"street address":"3555 clares St.","id":"a640g8519gi1","geo_precision":"range","state":"CA"},"type":"Feature","geometry":{"type":"Point","coordinates":[-121.969775,36.976678]}},{"properties":{"rep? (1 for yes, 0 for no)":0,"city":"Santa Cruz","zip":"95060","real estate office":"Coldwell Banker","geo_score":0.911,"street address":"824 Mission St","id":"a640g886lrrn","geo_precision":"range","state":"CA"},"type":"Feature","geometry":{"type":"Point","coordinates":[-122.035147,36.97287]}},{"properties":{"rep? (1 for yes, 0 for no)":1,"city":"Capitola","zip":"95010","real estate office":"Monterey Bay Properties","geo_score":1.0,"street address":"620 Capitola Ave","id":"a640g89s76uc","geo_precision":"range","state":"CA"},"type":"Feature","geometry":{"type":"Point","coordinates":[-121.953367,36.977336]}},{"properties":{"rep? (1 for yes, 0 for no)":0,"city":"Aptos","zip":"95003","real estate office":"Century 21 Lad","geo_score":0.78,"street address":"9047 Soquel dr.","id":"a640g7zu5n60","geo_precision":"range","state":"CA"},"type":"Feature","geometry":{"type":"Point","coordinates":[-121.885803,36.976017]}},{"properties":{"rep? (1 for yes, 0 for no)":0,"city":"Capitola","zip":"95010","real estate office":"Coldwell Banker","geo_score":0.916,"street address":"2140 41st Ave","id":"a640g854y3nc","geo_precision":"range","state":"CA"},"type":"Feature","geometry":{"type":"Point","coordinates":[-121.964928,36.980228]}},{"properties":{"rep? (1 for yes, 0 for no)":0,"city":"Soquel","zip":"95073","real estate office":"Sereno Group","geo_score":1.0,"street address":"2407 Porter St","id":"a640g8616u80","geo_precision":"range","state":"CA"},"type":"Feature","geometry":{"type":"Point","coordinates":[-121.957121,36.983686]}},{"properties":{"rep? (1 for yes, 0 for no)":1,"city":"Scotts Valley","zip":"95066","real estate office":"Bailey Properties","geo_score":1.0,"street address":"4788 Scotts Valley Dr.","id":"a640g7ys15yp","geo_precision":"range","state":"CA"},"type":"Feature","geometry":{"type":"Point","coordinates":[-122.014536,37.051352]}},{"properties":{"rep? (1 for yes, 0 for no)":0,"city":"Watsonville","zip":"95076","real estate office":"Century 21 Classic Prop.","geo_score":0.495,"street address":"713 E. Lake Ave","id":"a640g87q017q","geo_precision":"street","state":"CA"},"type":"Feature","geometry":{"type":"Point","coordinates":[-121.756962,36.912666]}},{"properties":{"rep? (1 for yes, 0 for no)":0,"city":"Santa Cruz","zip":"95062","real estate office":"Lifestyles Real Estate","geo_score":0.913,"street address":"500 Seabright Ave","id":"a640g88o61s6","geo_precision":"range","state":"CA"},"type":"Feature","geometry":{"type":"Point","coordinates":[-122.007817,36.966733]}},{"properties":{"rep? (1 for yes, 0 for no)":1,"city":"Santa Cruz","zip":"95062","real estate office":"Vanguard Real Estate","geo_score":0.913,"street address":"1142 Soquel Ave","id":"a640g81tzl9j","geo_precision":"range","state":"CA"},"type":"Feature","geometry":{"type":"Point","coordinates":[-122.011436,36.979374]}},{"properties":{"rep? (1 for yes, 0 for no)":1,"city":"Scotts Valley","zip":"95066","real estate office":"Century 21 Showcase","geo_score":0.619,"street address":"237 Mt. Hermon Rd.","id":"a640g81v62gd","geo_precision":"street","state":"CA"},"type":"Feature","geometry":{"type":"Point","coordinates":[-122.00264,37.060732]}},{"properties":{"rep? (1 for yes, 0 for no)":1,"city":"Santa Cruz","zip":"95060","real estate office":"David Lyng Real Estate","geo_score":0.911,"street address":"129 Water St","id":"a640g880t2ng","geo_precision":"range","state":"CA"},"type":"Feature","geometry":{"type":"Point","coordinates":[-122.025607,36.977658]}},{"properties":{"rep? (1 for yes, 0 for no)":1,"city":"Capitola","zip":"95010","real estate office":"David Lyng &amp; assoc","geo_score":1.0,"street address":"301 Capitola Ave","id":"a640g89jvhp0","geo_precision":"range","state":"CA"},"type":"Feature","geometry":{"type":"Point","coordinates":[-121.951901,36.973071]}},{"properties":{"rep? (1 for yes, 0 for no)":1,"city":"Santa Cruz","zip":"95062","real estate office":"Unique Homes","geo_score":0.913,"street address":"543 Seabright Ave","id":"a640g83x6gth","geo_precision":"range","state":"CA"},"type":"Feature","geometry":{"type":"Point","coordinates":[-122.007888,36.967809]}},{"properties":{"rep? (1 for yes, 0 for no)":1,"city":"Watsonville","zip":"95076","real estate office":"Coldwell Banker","geo_score":0.495,"street address":"617 E. Lake Ave","id":"a640g8bz7z52","geo_precision":"street","state":"CA"},"type":"Feature","geometry":{"type":"Point","coordinates":[-121.756962,36.912666]}},{"properties":{"rep? (1 for yes, 0 for no)":1,"city":"Scotts Valley","zip":"95066","real estate office":"American Dream Realty","geo_score":1.0,"street address":"5522 Scotts Valley Dr.","id":"a640g8duly18","geo_precision":"range","state":"CA"},"type":"Feature","geometry":{"type":"Point","coordinates":[-122.008687,37.060524]}},{"properties":{"rep? (1 for yes, 0 for no)":1,"city":"Watsonville","zip":"95076","real estate office":"Raeid Farhat Real Estate","geo_score":0.495,"street address":"734 E. Lake Ave","id":"a640g7zauz95","geo_precision":"street","state":"CA"},"type":"Feature","geometry":{"type":"Point","coordinates":[-121.756962,36.912666]}},{"properties":{"rep? (1 for yes, 0 for no)":1,"city":"Watsonville","zip":"95076","real estate office":"David Lyng &amp; assoc","geo_score":0.911,"street address":"55 Penny Lane","id":"a640g830rh3a","geo_precision":"range","state":"CA"},"type":"Feature","geometry":{"type":"Point","coordinates":[-121.778514,36.93038]}},{"properties":{"rep? (1 for yes, 0 for no)":1,"city":"Felton","zip":"95018","real estate office":"American Dream Realty","geo_score":0.902,"street address":"6990 Highway 9","id":"a640g80y9qwk","geo_precision":"range","state":"CA"},"type":"Feature","geometry":{"type":"Point","coordinates":[-122.079489,37.060091]}},{"properties":{"rep? (1 for yes, 0 for no)":1,"city":"Watsonville","zip":"95076","real estate office":"Bailey Properties","geo_score":0.489,"street address":"1052 S. Green Valley Rd.","id":"a640g8djeybj","geo_precision":"street","state":"CA"},"type":"Feature","geometry":{"type":"Point","coordinates":[-121.761368,36.911153]}},{"properties":{"rep? (1 for yes, 0 for no)":1,"city":"Watsonville","zip":"95076","real estate office":"Qunitero Real Estate","geo_score":0.911,"street address":"1205 Lincoln St.","id":"a640g8d8gmgr","geo_precision":"range","state":"CA"},"type":"Feature","geometry":{"type":"Point","coordinates":[-121.760069,36.921908]}},{"properties":{"rep? (1 for yes, 0 for no)":1,"city":"Santa Cruz","zip":"95060","real estate office":"Linda Burroughs R.E.","geo_score":0.911,"street address":"133 Mission St","id":"a640g84tw7gr","geo_precision":"range","state":"CA"},"type":"Feature","geometry":{"type":"Point","coordinates":[-122.028094,36.976932]}},{"properties":{"rep? (1 for yes, 0 for no)":1,"city":"Santa Cruz","zip":"95060","real estate office":"Karon Properties","geo_score":0.911,"street address":"1103 Mission St","id":"a640g821kjd8","geo_precision":"range","state":"CA"},"type":"Feature","geometry":{"type":"Point","coordinates":[-122.036618,36.970597]}},{"properties":{"rep? (1 for yes, 0 for no)":1,"city":"Watsonville","zip":"95076","real estate office":"Re/Max","geo_score":0.911,"street address":"1051 Freedom Blvd","id":"a640g8dalh2k","geo_precision":"range","state":"CA"},"type":"Feature","geometry":{"type":"Point","coordinates":[-121.76141,36.922313]}},{"properties":{"rep? (1 for yes, 0 for no)":1,"city":"Santa Cruz","zip":"95062","real estate office":"Santa Cruz Properties","geo_score":0.913,"street address":"100 Doyle St","id":"a640g84pvmmc","geo_precision":"range","state":"CA"},"type":"Feature","geometry":{"type":"Point","coordinates":[-122.012376,36.978857]}},{"properties":{"rep? (1 for yes, 0 for no)":0,"city":"Boulder Creek","zip":"95006","real estate office":"Coldwell Banker","geo_score":0.919,"street address":"13117 Hwy 9","id":"a640g8edb5y0","geo_precision":"range","state":"CA"},"type":"Feature","geometry":{"type":"Point","coordinates":[-122.121866,37.124075]}},{"properties":{"rep? (1 for yes, 0 for no)":0,"city":"Santa Cruz","zip":"95060","real estate office":"Pacific Sun Properties","geo_score":0.911,"street address":"734 Chestnut St.","id":"a640g8aohpi8","geo_precision":"range","state":"CA"},"type":"Feature","geometry":{"type":"Point","coordinates":[-122.029166,36.97625]}},{"properties":{"rep? (1 for yes, 0 for no)":0,"city":"Boulder Creek","zip":"95006","real estate office":"Century 21 Showcase","geo_score":0.919,"street address":"13210 Hwy 9","id":"a640g8datkwy","geo_precision":"range","state":"CA"},"type":"Feature","geometry":{"type":"Point","coordinates":[-122.122362,37.125608]}},{"properties":{"rep? (1 for yes, 0 for no)":1,"city":"Santa Cruz","zip":"95060","real estate office":"Centrury 21 Award","geo_score":0.911,"street address":"1307 Ocean St","id":"a640g835cxbm","geo_precision":"range","state":"CA"},"type":"Feature","geometry":{"type":"Point","coordinates":[-122.022735,36.983357]}},{"properties":{"rep? (1 for yes, 0 for no)":1,"city":"Capitola","zip":"95010","real estate office":"Beccaria &amp; Weber","geo_score":1.0,"street address":"830 Bay Ave","id":"a640g850ku8t","geo_precision":"range","state":"CA"},"type":"Feature","geometry":{"type":"Point","coordinates":[-121.956205,36.981856]}},{"properties":{"rep? (1 for yes, 0 for no)":1,"city":"Santa Cruz","zip":"95060","real estate office":"Shaffer &amp; Associates","geo_score":0.911,"street address":"825 Cedar St","id":"a640g880u5mv","geo_precision":"range","state":"CA"},"type":"Feature","geometry":{"type":"Point","coordinates":[-122.027239,36.973573]}},{"properties":{"rep? (1 for yes, 0 for no)":1,"city":"Watsonville","zip":"95076","real estate office":"Fair Deal Real Estate","geo_score":0.495,"street address":"2233 E. Lake Ave","id":"a640g80pm70y","geo_precision":"street","state":"CA"},"type":"Feature","geometry":{"type":"Point","coordinates":[-121.756962,36.912666]}},{"properties":{"rep? (1 for yes, 0 for no)":1,"city":"Capitola","zip":"95010","real estate office":"Sherman &amp; Boone Realtors","geo_score":0.916,"street address":"1260 41st Ave","id":"a640g8e5f4q9","geo_precision":"range","state":"CA"},"type":"Feature","geometry":{"type":"Point","coordinates":[-121.9649,36.969636]}},{"properties":{"rep? (1 for yes, 0 for no)":0,"city":"Boulder Creek","zip":"95006","real estate office":"Donner Land &amp; Homes Inc","geo_score":0.471,"street address":"1624 Don's Road","id":"a640g864tc80","geo_precision":"street","state":"CA"},"type":"Feature","geometry":{"type":"Point","coordinates":[-121.95581,37.357359]}},{"properties":{"rep? (1 for yes, 0 for no)":0,"city":"Soquel","zip":"95073","real estate office":"Main Street Realtors","geo_score":1.0,"street address":"2567 Main St.","id":"a640g7z2a6ah","geo_precision":"range","state":"CA"},"type":"Feature","geometry":{"type":"Point","coordinates":[-121.955146,36.984969]}},{"properties":{"rep? (1 for yes, 0 for no)":1,"city":"Santa Cruz","zip":"95062","real estate office":"Indigo Beach Properties","geo_score":0.83,"street address":"250 21st Ave","id":"a640g85zj9z9","geo_precision":"range","state":"CA"},"type":"Feature","geometry":{"type":"Point","coordinates":[-121.985138,36.961674]}},{"properties":{"rep? (1 for yes, 0 for no)":1,"city":"Watsonville","zip":"95076","real estate office":"Mbi Real Estate","geo_score":0.911,"street address":"275 Race Horse Lane","id":"a640g8dl51wi","geo_precision":"range","state":"CA"},"type":"Feature","geometry":{"type":"Point","coordinates":[-121.861107,36.966477]}},{"properties":{"rep? (1 for yes, 0 for no)":1,"city":"Aptos","zip":"95003","real estate office":"Strock Real Estate","geo_score":0.772,"street address":"251-A Center Dr","id":"a640g8ae7v2k","geo_precision":"range","state":"CA"},"type":"Feature","geometry":{"type":"Point","coordinates":[-121.911174,36.97439]}},{"properties":{"rep? (1 for yes, 0 for no)":1,"city":"Aptos","zip":"95003","real estate office":"Bayview Properties","geo_score":0.902,"street address":"8032 Soquel Dr.","id":"a640g8007y22","geo_precision":"range","state":"CA"},"type":"Feature","geometry":{"type":"Point","coordinates":[-121.900794,36.977107]}},{"properties":{"rep? (1 for yes, 0 for no)":1,"city":"Capitola","zip":"95010","real estate office":"Monterey Bay Properties","geo_score":1.0,"street address":"716 Capitola Ave","id":"a640g8ckfryb","geo_precision":"range","state":"CA"},"type":"Feature","geometry":{"type":"Point","coordinates":[-121.952892,36.979763]}},{"properties":{"rep? (1 for yes, 0 for no)":0,"city":"Felton","zip":"95018","real estate office":"California Dreaming Real Estate","geo_score":0.902,"street address":"6223 Highway 9","id":"a640g81t9q1f","geo_precision":"range","state":"CA"},"type":"Feature","geometry":{"type":"Point","coordinates":[-122.073241,37.051488]}},{"properties":{"rep? (1 for yes, 0 for no)":1,"city":"Watsonville","zip":"95076","real estate office":"Watsonville Real Estate","geo_score":0.911,"street address":"1017 Freedom Blvd","id":"a640g7y5ltr1","geo_precision":"range","state":"CA"},"type":"Feature","geometry":{"type":"Point","coordinates":[-121.761042,36.921333]}},{"properties":{"rep? (1 for yes, 0 for no)":0,"city":"Palo Alto","zip":"94301","real estate office":"Alain Pinel","geo_score":1.0,"street address":"578 University Ave","id":"a640g8eabbn6","geo_precision":"range","state":"CA"},"type":"Feature","geometry":{"type":"Point","coordinates":[-122.158241,37.449322]}},{"properties":{"rep? (1 for yes, 0 for no)":1,"city":"Los Gatos","zip":"95030","real estate office":"Coldwell Banker","geo_score":0.508,"street address":"410 N. Santa Cruz Ave","id":"a640g8br6hk9","geo_precision":"street","state":"CA"},"type":"Feature","geometry":{"type":"Point","coordinates":[-121.96856,37.215219]}},{"properties":{"rep? (1 for yes, 0 for no)":1,"city":"Los Gatos","zip":"95032","real estate office":"Alain Pinel","geo_score":0.878,"street address":"750 University Ave","id":"a640g81vwvbn","geo_precision":"street","state":"CA"},"type":"Feature","geometry":{"type":"Point","coordinates":[-121.97481,37.23861]}},{"properties":{"rep? (1 for yes, 0 for no)":1,"city":"Cupertino","zip":"95014","real estate office":"Intero Real Estate","geo_score":0.505,"street address":"10275 N. DeAnza Blvd","id":"a640g84mlf13","geo_precision":"street","state":"CA"},"type":"Feature","geometry":{"type":"Point","coordinates":[-122.064699,37.310041]}},{"properties":{"rep? (1 for yes, 0 for no)":0,"city":"Los Altos","zip":"94022","real estate office":"Alain Pinel","geo_score":0.518,"street address":"167 S. San Antonio Rd.","id":"a640g88etk0t","geo_precision":"street","state":"CA"},"type":"Feature","geometry":{"type":"Point","coordinates":[-122.11406,37.38157]}},{"properties":{"rep? (1 for yes, 0 for no)":0,"city":"Palo Alto","zip":"94301","real estate office":"Keller Williams","geo_score":0.747,"street address":"505 Hamilton","id":"a640g7zgg5dr","geo_precision":"street","state":"CA"},"type":"Feature","geometry":{"type":"Point","coordinates":[-122.15021,37.45493]}},{"properties":{"rep? (1 for yes, 0 for no)":1,"city":"Saratoga","zip":"95070","real estate office":"Coldwell Banker","geo_score":0.925,"street address":"12029 Saratoga-Sunnyvale Rd","id":"a640g83y06zt","geo_precision":"range","state":"CA"},"type":"Feature","geometry":{"type":"Point","coordinates":[-122.032287,37.293684]}},{"properties":{"rep? (1 for yes, 0 for no)":0,"city":"Los Altos","zip":"94022","real estate office":"Intero Real Estate","geo_score":0.822,"street address":"496 First St","id":"a640g87thh31","geo_precision":"range","state":"CA"},"type":"Feature","geometry":{"type":"Point","coordinates":[-122.114191,37.373971]}},{"properties":{"rep? (1 for yes, 0 for no)":1,"city":"Saratoga","zip":"95070","real estate office":"Alain Pinel","geo_score":0.731,"street address":"12772 Saratoga-Sunnyvale Rd","id":"a640g84x9kha","geo_precision":"street","state":"CA"},"type":"Feature","geometry":{"type":"Point","coordinates":[-122.03243,37.289]}},{"properties":{"rep? (1 for yes, 0 for no)":1,"city":"San Jose","zip":"95125","real estate office":"Intero Real Estate","geo_score":1.0,"street address":"1567 Meridian Ave","id":"a640g86kcfg1","geo_precision":"range","state":"CA"},"type":"Feature","geometry":{"type":"Point","coordinates":[-121.913548,37.295541]}},{"properties":{"rep? (1 for yes, 0 for no)":1,"city":"Los Gatos","zip":"95030","real estate office":"Sereno Group","geo_score":0.915,"street address":"214 Los Gatos Saratoga Rd.","id":"a640g82bmhk2","geo_precision":"range","state":"CA"},"type":"Feature","geometry":{"type":"Point","coordinates":[-121.981243,37.229139]}},{"properties":{"rep? (1 for yes, 0 for no)":1,"city":"Saratoga","zip":"94301","real estate office":"Coldwell Banker","geo_score":0.927,"street address":"245 Lytton Ave","id":"a640g848g9ar","geo_precision":"range","state":"CA"},"type":"Feature","geometry":{"type":"Point","coordinates":[-122.163543,37.445961]}},{"properties":{"rep? (1 for yes, 0 for no)":1,"city":"Saratoga","zip":"95070","real estate office":"Intero Real Estate","geo_score":0.925,"street address":"12900 Saratoga Ave","id":"a640g85ks609","geo_precision":"range","state":"CA"},"type":"Feature","geometry":{"type":"Point","coordinates":[-122.003632,37.280604]}},{"properties":{"rep? (1 for yes, 0 for no)":1,"city":"Los Gatos","zip":"95030","real estate office":"Intero Real Estate","geo_score":0.508,"street address":"518 N. Santa Cruz Blvd","id":"a640g843bvz0","geo_precision":"street","state":"CA"},"type":"Feature","geometry":{"type":"Point","coordinates":[-121.96856,37.215219]}},{"properties":{"rep? (1 for yes, 0 for no)":0,"city":"Los Altos","zip":"94022","real estate office":"Sereno Group","geo_score":0.939,"street address":"369 South San Antonio Rd","id":"a640g85qd7po","geo_precision":"range","state":"CA"},"type":"Feature","geometry":{"type":"Point","coordinates":[-122.114095,37.375564]}},{"properties":{"rep? (1 for yes, 0 for no)":0,"city":"San Jose","zip":"95121","real estate office":"Coldwell Banker Platinum","geo_score":0.61,"street address":"1630 E. Capital Expressway","id":"a640g83935d0","geo_precision":"street","state":"CA"},"type":"Feature","geometry":{"type":"Point","coordinates":[-121.812503,37.305892]}},{"properties":{"rep? (1 for yes, 0 for no)":0,"city":"San Jose","zip":"95123","real estate office":"Coldwell Banker","geo_score":1.0,"street address":"1096 Blossom Hill Rd.","id":"a640g89h09jg","geo_precision":"range","state":"CA"},"type":"Feature","geometry":{"type":"Point","coordinates":[-121.87518,37.250819]}},{"properties":{"rep? (1 for yes, 0 for no)":1,"city":"Campbell","zip":"95008","real estate office":"Keller Williams","geo_score":0.625,"street address":"2110 S. Bascom Ave","id":"a640g88dg632","geo_precision":"street","state":"CA"},"type":"Feature","geometry":{"type":"Point","coordinates":[-121.94725,37.25945]}},{"properties":{"rep? (1 for yes, 0 for no)":1,"city":"San Jose","zip":"95123","real estate office":"Alain Pinel","geo_score":1.0,"street address":"1071 Blossom Hill Rd","id":"a640g81jyjpf","geo_precision":"range","state":"CA"},"type":"Feature","geometry":{"type":"Point","coordinates":[-121.873769,37.250795]}},{"properties":{"rep? (1 for yes, 0 for no)":1,"city":"Morgan Hill","zip":"95037","real estate office":"Intero Real Estate","geo_score":0.496,"street address":"175 E. Main Ave","id":"a640g86glft6","geo_precision":"street","state":"CA"},"type":"Feature","geometry":{"type":"Point","coordinates":[-121.65453,37.130259]}},{"properties":{"rep? (1 for yes, 0 for no)":0,"city":"San Jose","zip":"95121","real estate office":"Coldwell Banker","geo_score":0.61,"street address":"1630 E. Capital Expressway","id":"a640g8dku7qv","geo_precision":"street","state":"CA"},"type":"Feature","geometry":{"type":"Point","coordinates":[-121.812503,37.305892]}},{"properties":{"rep? (1 for yes, 0 for no)":1,"city":"San Jose","zip":"95123","real estate office":"Coldwell Banker","geo_score":1.0,"street address":"1096 Blossom Hill Rd.","id":"a640g8e9ikb0","geo_precision":"range","state":"CA"},"type":"Feature","geometry":{"type":"Point","coordinates":[-121.87518,37.250819]}},{"properties":{"rep? (1 for yes, 0 for no)":1,"city":"Campbell","zip":"95008","real estate office":"Keller Williams","geo_score":1.0,"street address":"2110 S Bascom Ave","id":"a640g8avc9il","geo_precision":"range","state":"CA"},"type":"Feature","geometry":{"type":"Point","coordinates":[-121.93174,37.2848]}},{"properties":{"rep? (1 for yes, 0 for no)":1,"city":"Morgan Hill","zip":"95037","real estate office":"Coldwell Banker","geo_score":0.723,"street address":"950 Tennant Station","id":"a640g7zxnwvd","geo_precision":"street","state":"CA"},"type":"Feature","geometry":{"type":"Point","coordinates":[-121.629651,37.1181]}},{"properties":{"rep? (1 for yes, 0 for no)":0,"city":"Sunnyvale","zip":"94086","real estate office":"Maxreal","geo_score":1.0,"street address":"1288 Kifer Rd.","id":"a640g87rgzr8","geo_precision":"range","state":"CA"},"type":"Feature","geometry":{"type":"Point","coordinates":[-121.99674,37.37383]}},{"properties":{"rep? (1 for yes, 0 for no)":0,"city":"Cupertino","zip":"95014","real estate office":"Keller Williams","geo_score":0.457,"street address":"20230 Steven Creek. Blvd.","id":"a640g8aatjum","geo_precision":"street","state":"CA"},"type":"Feature","geometry":{"type":"Point","coordinates":[-122.03465,37.31775]}},{"properties":{"rep? (1 for yes, 0 for no)":0,"city":"Cupertino","zip":"95014","real estate office":"Re/Max","geo_score":0.922,"street address":"19200 Stevens Creek Blvd.","id":"a640g83brgy2","geo_precision":"range","state":"CA"},"type":"Feature","geometry":{"type":"Point","coordinates":[-122.01047,37.32289]}},{"properties":{"rep? (1 for yes, 0 for no)":0,"city":"San Jose","zip":"95138","real estate office":"Intero Real Estate","geo_score":1.0,"street address":"5609 Silver Creek Valley Rd","id":"a640g83iah0l","geo_precision":"range","state":"CA"},"type":"Feature","geometry":{"type":"Point","coordinates":[-121.785491,37.258458]}},{"properties":{"rep? (1 for yes, 0 for no)":0,"city":"San Jose","zip":"95125","real estate office":"Coldwell Banker","geo_score":1.0,"street address":"1045 Willow St","id":"a640g87m3n9y","geo_precision":"range","state":"CA"},"type":"Feature","geometry":{"type":"Point","coordinates":[-121.899926,37.308975]}},{"properties":{"rep? (1 for yes, 0 for no)":1,"city":"San Jose","zip":"95124","real estate office":"Intero Real Estate","geo_score":0.919,"street address":"1900 Camden Ave","id":"a640g84jbai8","geo_precision":"range","state":"CA"},"type":"Feature","geometry":{"type":"Point","coordinates":[-121.923729,37.261744]}},{"properties":{"rep? (1 for yes, 0 for no)":1,"city":"San Jose","zip":"95125","real estate office":"Coldwell Banker","geo_score":1.0,"street address":"1712 Meridian Ave","id":"a640g83dqce2","geo_precision":"range","state":"CA"},"type":"Feature","geometry":{"type":"Point","coordinates":[-121.913522,37.292361]}},{"properties":{"rep? (1 for yes, 0 for no)":1,"city":"Cupertino","zip":"95014","real estate office":"Century 21 Champion","geo_score":0.5,"street address":"10420 S. DeAnza Blvd","id":"a640g87bg4o7","geo_precision":"street","state":"CA"},"type":"Feature","geometry":{"type":"Point","coordinates":[-122.064699,37.310041]}},{"properties":{"rep? (1 for yes, 0 for no)":0,"city":"San Jose","zip":"95118","real estate office":"Intero Real Estate","geo_score":0.489,"street address":"5580 Almaden Expwy.","id":"a640g80uzn0o","geo_precision":"street","state":"CA"},"type":"Feature","geometry":{"type":"Point","coordinates":[-121.875315,37.250817]}},{"properties":{"rep? (1 for yes, 0 for no)":0,"city":"San Jose","zip":"95120","real estate office":"Better Homes and Garden","geo_score":0.976,"street address":"5985 Almaden Expwy.","id":"a640g88i7xcj","geo_precision":"range","state":"CA"},"type":"Feature","geometry":{"type":"Point","coordinates":[-121.871961,37.233721]}},{"properties":{"rep? (1 for yes, 0 for no)":0,"city":"Cupertino","zip":"95014","real estate office":"Referral Realty","geo_score":0.5,"street address":"1601 S. DeAnza Blvd","id":"a640g7z1ia2o","geo_precision":"street","state":"CA"},"type":"Feature","geometry":{"type":"Point","coordinates":[-122.064699,37.310041]}},{"properties":{"rep? (1 for yes, 0 for no)":0,"city":"San Jose","zip":"95128","real estate office":"Atlas Realty","geo_score":0.927,"street address":"1190 Bascom Ave","id":"a640g80icv52","geo_precision":"range","state":"CA"},"type":"Feature","geometry":{"type":"Point","coordinates":[-121.9367,37.335347]}},{"properties":{"rep? (1 for yes, 0 for no)":0,"city":"San Jose","zip":"95125","real estate office":"Altera Real Estate","geo_score":1.0,"street address":"1124 Meridian Ave","id":"a640g8cfshee","geo_precision":"range","state":"CA"},"type":"Feature","geometry":{"type":"Point","coordinates":[-121.913601,37.303593]}},{"properties":{"rep? (1 for yes, 0 for no)":1,"city":"San Jose","zip":"95119","real estate office":"Keller Williams - Gateway","geo_score":1.0,"street address":"180 Great Oaks Blvd.","id":"a640g80v8vsi","geo_precision":"range","state":"CA"},"type":"Feature","geometry":{"type":"Point","coordinates":[-121.781361,37.232279]}},{"properties":{"rep? (1 for yes, 0 for no)":0,"city":"San Jose","zip":"95125","real estate office":"Fireside Realty","geo_score":1.0,"street address":"2111 Lincoln Ave","id":"a640g8a2s6hn","geo_precision":"range","state":"CA"},"type":"Feature","geometry":{"type":"Point","coordinates":[-121.889377,37.292335]}},{"properties":{"rep? (1 for yes, 0 for no)":0,"city":"San Jose","zip":"95110","real estate office":"Bay One real Estate","geo_score":1.0,"street address":"1754 Technology Dr.","id":"a640g8eamig4","geo_precision":"range","state":"ca"},"type":"Feature","geometry":{"type":"Point","coordinates":[-121.919136,37.368111]}},{"properties":{"rep? (1 for yes, 0 for no)":0,"city":"San Jose","zip":"95123","real estate office":"Csr Real Estate","geo_score":0.922,"street address":"5671 Santa Teresa Dr","id":"a640g8bdh5hd","geo_precision":"range","state":"Ca"},"type":"Feature","geometry":{"type":"Point","coordinates":[-121.857941,37.240472]}},{"properties":{"rep? (1 for yes, 0 for no)":0,"city":"Palo Alto","zip":"94306","real estate office":"Coldwell Banker","geo_score":1.0,"street address":"2754 Middlefield Rd.","id":"a640g88fivdm","geo_precision":"range","state":"CA"},"type":"Feature","geometry":{"type":"Point","coordinates":[-122.1286,37.432944]}},{"properties":{"rep? (1 for yes, 0 for no)":0,"city":"San Jose","zip":"95129","real estate office":"World Properties","geo_score":0.61,"street address":"1072 S. DeAnza Blvd.","id":"a640g85qxzeu","geo_precision":"street","state":"CA"},"type":"Feature","geometry":{"type":"Point","coordinates":[-122.032471,37.312242]}},{"properties":{"rep? (1 for yes, 0 for no)":0,"city":"Cupertino","zip":"95014","real estate office":"Maxreal","geo_score":0.505,"street address":"10991 N. DeAnza Blvd","id":"a640g8b81t0s","geo_precision":"street","state":"CA"},"type":"Feature","geometry":{"type":"Point","coordinates":[-122.064699,37.310041]}},{"properties":{"rep? (1 for yes, 0 for no)":0,"city":"Gilroy","zip":"95020","real estate office":"Coldwell Banker","geo_score":0.902,"street address":"8050 Santa Teresa Blvd.","id":"a640g86cl1x2","geo_precision":"range","state":"CA"},"type":"Feature","geometry":{"type":"Point","coordinates":[-121.599583,37.013532]}},{"properties":{"rep? (1 for yes, 0 for no)":0,"city":"San Jose","zip":"95138","real estate office":"Century 21 Alpha","geo_score":1.0,"street address":"5978 Silver Creek Valley Rd","id":"a640g83pr5tj","geo_precision":"range","state":"CA"},"type":"Feature","geometry":{"type":"Point","coordinates":[-121.789273,37.257125]}},{"properties":{"rep? (1 for yes, 0 for no)":0,"city":"San Jose","zip":"95118","real estate office":"Century 21 M&amp;M","geo_score":0.919,"street address":"3150 Almaden Expressway","id":"a640g87df7u3","geo_precision":"range","state":"CA"},"type":"Feature","geometry":{"type":"Point","coordinates":[-121.879356,37.276474]}},{"properties":{"rep? (1 for yes, 0 for no)":0,"city":"San Jose","zip":"95110","real estate office":"Re/Max","geo_score":1.0,"street address":"1731 Technology Dr.","id":"a640g7z7r0oi","geo_precision":"range","state":"CA"},"type":"Feature","geometry":{"type":"Point","coordinates":[-121.918924,37.367837]}},{"properties":{"rep? (1 for yes, 0 for no)":1,"city":"Campbell","zip":"95008","real estate office":"Bayview Residential","geo_score":0.602,"street address":"1925 S. Winchester Blvd","id":"a640g8b6sh31","geo_precision":"street","state":"CA"},"type":"Feature","geometry":{"type":"Point","coordinates":[-121.949915,37.296576]}},{"properties":{"rep? (1 for yes, 0 for no)":0,"city":"Gilroy","zip":"95020","real estate office":"Intero Real Estate","geo_score":0.785,"street address":"790 First St.","id":"a640g87fjtbv","geo_precision":"range","state":"CA"},"type":"Feature","geometry":{"type":"Point","coordinates":[-121.582956,37.013414]}},{"properties":{"rep? (1 for yes, 0 for no)":0,"city":"Los Altos","zip":"94022","real estate office":"Campi Properties","geo_score":0.518,"street address":"195 S. San Antonio","id":"a640g88asp73","geo_precision":"street","state":"CA"},"type":"Feature","geometry":{"type":"Point","coordinates":[-122.11406,37.38157]}},{"properties":{"rep? (1 for yes, 0 for no)":0,"city":"San Jose","zip":"95138","real estate office":"Windermere","geo_score":1.0,"street address":"5609 Silver Creek Valley Rd","id":"a640g80vj7ft","geo_precision":"range","state":"CA"},"type":"Feature","geometry":{"type":"Point","coordinates":[-121.785491,37.258458]}},{"properties":{"rep? (1 for yes, 0 for no)":0,"city":"Campbell","zip":"95008","real estate office":"Century 21 Alpha","geo_score":0.61,"street address":"419 E. Hamilton Ave","id":"a640g843kpqa","geo_precision":"street","state":"CA"},"type":"Feature","geometry":{"type":"Point","coordinates":[-121.929559,37.294236]}},{"properties":{"rep? (1 for yes, 0 for no)":0,"city":"Palo Alto","zip":"94301","real estate office":"Sereno Group","geo_score":1.0,"street address":"258 High St","id":"a640g7y570wf","geo_precision":"range","state":"CA"},"type":"Feature","geometry":{"type":"Point","coordinates":[-122.166403,37.445973]}},{"properties":{"rep? (1 for yes, 0 for no)":0,"city":"Sunnyvale","zip":"94087","real estate office":"Century 21","geo_score":0.607,"street address":"761 E. El Camino Real","id":"a640g7zwdk5f","geo_precision":"street","state":"CA"},"type":"Feature","geometry":{"type":"Point","coordinates":[-122.01127,37.351941]}},{"properties":{"rep? (1 for yes, 0 for no)":1,"city":"San Jose","zip":"95132","real estate office":"Coldwell Banker","geo_score":0.929,"street address":"2698 Berryessa Rd","id":"a640g8c0gslz","geo_precision":"range","state":"CA"},"type":"Feature","geometry":{"type":"Point","coordinates":[-121.856207,37.389683]}},{"properties":{"rep? (1 for yes, 0 for no)":0,"city":"San jose","zip":"95122","real estate office":"Akimax Realty","geo_score":0.805,"street address":"1694 Tully Rd.","id":"a640g8bvwkqx","geo_precision":"range","state":"CA"},"type":"Feature","geometry":{"type":"Point","coordinates":[-121.82603,37.322296]}},{"properties":{"rep? (1 for yes, 0 for no)":0,"city":"Morgan Hill","zip":"95037","real estate office":"Alain Pinel","geo_score":0.75,"street address":"501 Vineyard Town Center","id":"a640g845fsa1","geo_precision":"range","state":"CA"},"type":"Feature","geometry":{"type":"Point","coordinates":[-121.641827,37.108776]}},{"properties":{"rep? (1 for yes, 0 for no)":0,"city":"Los Altos","zip":"94022","real estate office":"Coldwell Banker","geo_score":0.822,"street address":"95 First St.","id":"a640g81ixily","geo_precision":"range","state":"CA"},"type":"Feature","geometry":{"type":"Point","coordinates":[-122.119781,37.380248]}},{"properties":{"rep? (1 for yes, 0 for no)":0,"city":"Palo Alto","zip":"94301","real estate office":"dreyfus Properties","geo_score":1.0,"street address":"728 Emerson St","id":"a640g86buqhk","geo_precision":"range","state":"Ca"},"type":"Feature","geometry":{"type":"Point","coordinates":[-122.159931,37.442884]}},{"properties":{"rep? (1 for yes, 0 for no)":0,"city":"San Jose","zip":"95128","real estate office":"Re/Max","geo_score":0.732,"street address":"1530 Parkmoor Ave","id":"a640g8598svh","geo_precision":"street","state":"CA"},"type":"Feature","geometry":{"type":"Point","coordinates":[-121.93917,37.319784]}},{"properties":{"rep? (1 for yes, 0 for no)":0,"city":"SanJose","zip":"95119","real estate office":"Real Time Realty","geo_score":0.493,"street address":"6110 Camino Verde Dr.","id":"a640g80q4ukf","geo_precision":"street","state":"CA"},"type":"Feature","geometry":{"type":"Point","coordinates":[-121.826427,37.287784]}},{"properties":{"rep? (1 for yes, 0 for no)":1,"city":"San Jose","zip":"95125","real estate office":"Intero Real Estate","geo_score":1.0,"street address":"2061 Lincoln Ave","id":"a640g86plrj4","geo_precision":"range","state":"CA"},"type":"Feature","geometry":{"type":"Point","coordinates":[-121.889996,37.293247]}},{"properties":{"rep? (1 for yes, 0 for no)":0,"city":"Milpitas","zip":"95035","real estate office":"Judy Wang Realtors","geo_score":1.0,"street address":"1221 E Calaveras Blvd","id":"a640g867cm7x","geo_precision":"range","state":"CA"},"type":"Feature","geometry":{"type":"Point","coordinates":[-121.885856,37.435286]}},{"properties":{"rep? (1 for yes, 0 for no)":1,"city":"Campbell","zip":"95008","real estate office":"A to B Realty","geo_score":0.61,"street address":"1500 E. Hamilton Ave","id":"a640g85cmhk5","geo_precision":"street","state":"CA"},"type":"Feature","geometry":{"type":"Point","coordinates":[-121.929559,37.294236]}},{"properties":{"rep? (1 for yes, 0 for no)":0,"city":"San Jose","zip":"95122","real estate office":"Intero Real Estate","geo_score":1.0,"street address":"2110 Story Rd.","id":"a640g7yw8gnd","geo_precision":"range","state":"CA"},"type":"Feature","geometry":{"type":"Point","coordinates":[-121.83621,37.344726]}},{"properties":{"rep? (1 for yes, 0 for no)":0,"city":"San Jose","zip":"95135","real estate office":"Interrasol Inc.","geo_score":0.532,"street address":"4075 Evergreen Valley","id":"a640g83ojgx6","geo_precision":"street","state":"CA"},"type":"Feature","geometry":{"type":"Point","coordinates":[-121.780914,37.306433]}},{"properties":{"rep? (1 for yes, 0 for no)":0,"city":"San Jose","zip":"95121","real estate office":"Century 21 A-1 Network","geo_score":1.0,"street address":"3111 Mclaughlin Ave","id":"a640g86olvvb","geo_precision":"range","state":"CA"},"type":"Feature","geometry":{"type":"Point","coordinates":[-121.819934,37.299569]}},{"properties":{"rep? (1 for yes, 0 for no)":0,"city":"San Jose","zip":"95135","real estate office":"Iterrasol Inc.","geo_score":0.532,"street address":"4075 Evergreen Valley","id":"a640g88yzel9","geo_precision":"street","state":"ca"},"type":"Feature","geometry":{"type":"Point","coordinates":[-121.780914,37.306433]}},{"properties":{"rep? (1 for yes, 0 for no)":0,"city":"San Jose","zip":"95138","real estate office":"Tuscana Properties","geo_score":1.0,"street address":"5542 Monterey Rd.","id":"a640g8aje9y8","geo_precision":"range","state":"CA"},"type":"Feature","geometry":{"type":"Point","coordinates":[-121.795927,37.251655]}},{"properties":{"rep? (1 for yes, 0 for no)":0,"city":"Sunnyvale","zip":"94085","real estate office":"Starriver Inc.","geo_score":0.878,"street address":"500 Lawrence Expressway","id":"a640g85shhfp","geo_precision":"street","state":"ca"},"type":"Feature","geometry":{"type":"Point","coordinates":[-121.99576,37.383669]}},{"properties":{"rep? (1 for yes, 0 for no)":0,"city":"San Jose","zip":"95126","real estate office":"Silicon Valley Assoc.","geo_score":1.0,"street address":"1590 The Alameda","id":"a640g86eykhb","geo_precision":"range","state":"CA"},"type":"Feature","geometry":{"type":"Point","coordinates":[-121.916423,37.335227]}},{"properties":{"rep? (1 for yes, 0 for no)":0,"city":"San Jose","zip":"95117","real estate office":"Choice Properties","geo_score":1.0,"street address":"4020 Moorpark Ave","id":"a640g81muk75","geo_precision":"range","state":"CA"},"type":"Feature","geometry":{"type":"Point","coordinates":[-121.972056,37.315897]}},{"properties":{"rep? (1 for yes, 0 for no)":0,"city":"San Jose","zip":"95125","real estate office":"Better Homes and Garden","geo_score":1.0,"street address":"1213 Lincoln Ave","id":"a640g8dg1li9","geo_precision":"range","state":"CA"},"type":"Feature","geometry":{"type":"Point","coordinates":[-121.899701,37.306504]}},{"properties":{"rep? (1 for yes, 0 for no)":1,"city":"Campbell","zip":"95008","real estate office":"Re/Max","geo_score":0.625,"street address":"3395 S. Bascom Ave","id":"a640g87ot1x9","geo_precision":"street","state":"CA"},"type":"Feature","geometry":{"type":"Point","coordinates":[-121.94725,37.25945]}},{"properties":{"rep? (1 for yes, 0 for no)":0,"city":"Santa Clara","zip":"95054","real estate office":"Goodview Financial &amp; Real Estate","geo_score":0.912,"street address":"2350 Mission College Blvd","id":"a640g810ifo6","geo_precision":"range","state":"CA"},"type":"Feature","geometry":{"type":"Point","coordinates":[-121.96659,37.38879]}},{"properties":{"rep? (1 for yes, 0 for no)":0,"city":"San Jose","zip":"95148","real estate office":"Realty World Golden Hills","geo_score":0.625,"street address":"2680 S. White Rd.","id":"a640g84bqkek","geo_precision":"street","state":"CA"},"type":"Feature","geometry":{"type":"Point","coordinates":[-121.808585,37.344549]}},{"properties":{"rep? (1 for yes, 0 for no)":0,"city":"San Jose","zip":"95131","real estate office":"Selection Realty","geo_score":1.0,"street address":"2200 Ringwood Ave.","id":"a640g87zed33","geo_precision":"range","state":"CA"},"type":"Feature","geometry":{"type":"Point","coordinates":[-121.89788,37.396488]}},{"properties":{"rep? (1 for yes, 0 for no)":0,"city":"Palo Alto","zip":"94306","real estate office":"Midtown Realty","geo_score":1.0,"street address":"2775 Middlefield Rd","id":"a640g87wyniv","geo_precision":"range","state":"ca"},"type":"Feature","geometry":{"type":"Point","coordinates":[-122.128762,37.43304]}},{"properties":{"rep? (1 for yes, 0 for no)":0,"city":"San Jose","zip":"95123","real estate office":"Prudential","geo_score":0.536,"street address":"841 Blosson Hill Rd.","id":"a640g81emboc","geo_precision":"street","state":"CA"},"type":"Feature","geometry":{"type":"Point","coordinates":[-121.826924,37.229803]}},{"properties":{"rep? (1 for yes, 0 for no)":0,"city":"San Jose","zip":"95112","real estate office":"Tuscany Real Estate","geo_score":1.0,"street address":"2268 Senter Rd","id":"a640g89jjwcr","geo_precision":"range","state":"CA"},"type":"Feature","geometry":{"type":"Point","coordinates":[-121.849608,37.309777]}},{"properties":{"rep? (1 for yes, 0 for no)":0,"city":"San Jose","zip":"95112","real estate office":"Realty World","geo_score":1.0,"street address":"2030 Senter Rd","id":"a640g82d7zdc","geo_precision":"range","state":"CA"},"type":"Feature","geometry":{"type":"Point","coordinates":[-121.852162,37.31215]}},{"properties":{"rep? (1 for yes, 0 for no)":1,"city":"Milpitas","zip":"95035","real estate office":"Intero Real Estate","geo_score":1.0,"street address":"200 Serra Way","id":"a640g87kg7ej","geo_precision":"range","state":"CA"},"type":"Feature","geometry":{"type":"Point","coordinates":[-121.909299,37.427477]}},{"properties":{"rep? (1 for yes, 0 for no)":0,"city":"San Jose","zip":"95128","real estate office":"Elite Realty Services","geo_score":0.805,"street address":"2030 Senter Rd","id":"a640g8b2383z","geo_precision":"range","state":"CA"},"type":"Feature","geometry":{"type":"Point","coordinates":[-121.852162,37.31215]}},{"properties":{"rep? (1 for yes, 0 for no)":0,"city":"Palo Alto","zip":"94303","real estate office":"Rainmaker Properties","geo_score":1.0,"street address":"1020 Corporation Way","id":"a640g8022bpr","geo_precision":"range","state":"CA"},"type":"Feature","geometry":{"type":"Point","coordinates":[-122.103127,37.430759]}},{"properties":{"rep? (1 for yes, 0 for no)":1,"city":"Cupertino","zip":"95014","real estate office":"Era Happy Realty","geo_score":0.511,"street address":"10950 N. Blaney Ave","id":"a640g8059dy0","geo_precision":"street","state":"CA"},"type":"Feature","geometry":{"type":"Point","coordinates":[-122.02314,37.318097]}},{"properties":{"rep? (1 for yes, 0 for no)":1,"city":"Campbell","zip":"95008","real estate office":"Stevensen &amp; Neal Realtors","geo_score":0.607,"street address":"116 E. Campbell Ave","id":"a640g81o1a9o","geo_precision":"street","state":"CA"},"type":"Feature","geometry":{"type":"Point","coordinates":[-121.94975,37.28702]}},{"properties":{"rep? (1 for yes, 0 for no)":0,"city":"San Jose","zip":"95110","real estate office":"Realty World - svi group","geo_score":1.0,"street address":"1731 Technology Dr.","id":"a640g81ec7yy","geo_precision":"range","state":"CA"},"type":"Feature","geometry":{"type":"Point","coordinates":[-121.918924,37.367837]}},{"properties":{"rep? (1 for yes, 0 for no)":0,"city":"Cupertino","zip":"95014","real estate office":"Green Valley Realty","geo_score":0.473,"street address":"19620 Steven Creek Blvd","id":"a640g8489v4y","geo_precision":"street","state":"CA"},"type":"Feature","geometry":{"type":"Point","coordinates":[-122.03465,37.31775]}},{"properties":{"rep? (1 for yes, 0 for no)":0,"city":"Palo Alto","zip":"94303","real estate office":"Nai Bt Commerical","geo_score":1.0,"street address":"1950 University Ave","id":"a640g887u187","geo_precision":"range","state":"CA"},"type":"Feature","geometry":{"type":"Point","coordinates":[-122.14199,37.459366]}},{"properties":{"rep? (1 for yes, 0 for no)":0,"city":"Milpitas","zip":"95035","real estate office":"Estatemind Realty","geo_score":0.687,"street address":"995 Montague Expwy.","id":"a640g89he4h5","geo_precision":"street","state":"CA"},"type":"Feature","geometry":{"type":"Point","coordinates":[-121.886566,37.412532]}},{"properties":{"rep? (1 for yes, 0 for no)":0,"city":"San Jose","zip":"95131","real estate office":"Green Homes","geo_score":1.0,"street address":"2162 Ringwood Ave","id":"a640g8ac5u4u","geo_precision":"range","state":"CA"},"type":"Feature","geometry":{"type":"Point","coordinates":[-121.897808,37.395738]}},{"properties":{"rep? (1 for yes, 0 for no)":0,"city":"Los Gatos","zip":"95032","real estate office":"Pertria","geo_score":0.902,"street address":"100 Los Gatos-Saratoga Rd","id":"a640g7y61zsc","geo_precision":"street","state":"CA"},"type":"Feature","geometry":{"type":"Point","coordinates":[-121.97957,37.2281]}},{"properties":{"rep? (1 for yes, 0 for no)":0,"city":"San Jose","zip":"95122","real estate office":"Plaza Real Estate","geo_score":1.0,"street address":"1325 McLaughlin Ave","id":"a640g8e2bf98","geo_precision":"range","state":"CA"},"type":"Feature","geometry":{"type":"Point","coordinates":[-121.85089,37.329887]}},{"properties":{"rep? (1 for yes, 0 for no)":0,"city":"Cupertino","zip":"95014","real estate office":"Giant Realty","geo_score":0.922,"street address":"20375 Stevens Creek Blvd.","id":"a640g8751j84","geo_precision":"range","state":"CA"},"type":"Feature","geometry":{"type":"Point","coordinates":[-122.031746,37.322802]}},{"properties":{"rep? (1 for yes, 0 for no)":1,"city":"San Jose","zip":"95129","real estate office":"Baycal Realty","geo_score":0.61,"street address":"1072 S. DeAnza Blvd.","id":"a640g7y5tz6n","geo_precision":"street","state":"CA"},"type":"Feature","geometry":{"type":"Point","coordinates":[-122.032471,37.312242]}},{"properties":{"rep? (1 for yes, 0 for no)":0,"city":"San Jose","zip":"95129","real estate office":"Advisors Real Estate Group","geo_score":1.0,"street address":"890 Saratoga Ave","id":"a640g8dp1r4m","geo_precision":"range","state":"CA"},"type":"Feature","geometry":{"type":"Point","coordinates":[-121.977333,37.310837]}},{"properties":{"rep? (1 for yes, 0 for no)":0,"city":"San jose","zip":"95110","real estate office":"Bayone Real Estate","geo_score":1.0,"street address":"1754 Technology Dr.","id":"a640g870n9rh","geo_precision":"range","state":"CA"},"type":"Feature","geometry":{"type":"Point","coordinates":[-121.919136,37.368111]}},{"properties":{"rep? (1 for yes, 0 for no)":0,"city":"San Jose","zip":"95138","real estate office":"Provence Realty","geo_score":0.427,"street address":"4935 Shiloh Place","id":"a640g7yzun6w","geo_precision":"street","state":"CA"},"type":"Feature","geometry":{"type":"Point","coordinates":[-121.84155,37.236843]}},{"properties":{"rep? (1 for yes, 0 for no)":0,"city":"San Jose","zip":"95126","real estate office":"Charles R. Baldwinm Broker","geo_score":1.0,"street address":"2185 The Alameda","id":"a640g89of2w0","geo_precision":"range","state":"CA"},"type":"Feature","geometry":{"type":"Point","coordinates":[-121.931656,37.34438]}},{"properties":{"rep? (1 for yes, 0 for no)":1,"city":"San Jose","zip":"95148","real estate office":"New Land Corp.","geo_score":0.625,"street address":"3230 S. White Rd","id":"a640g800wboh","geo_precision":"street","state":"CA"},"type":"Feature","geometry":{"type":"Point","coordinates":[-121.808585,37.344549]}}],"is_temporal":false,"author":{"url":"","metadata":null,"contact_name":null,"contact_address":null,"source":null,"contact_phone":null},"source":"","pagination":{"sort":null,"start":0,"total":196,"limit":1000000},"state":"complete","tags":"","published":"2014-08-14T15:07:10-04:00","id":220220}