{"type":"FeatureCollection","data_type":"Dataset","url_type":null,"permissions":[{"permissions":{"download":true,"view":true},"group_id":"everyone"}],"classification":null,"title":"Christine_-_Municipalities_-_ran_March_26th","count":16,"stream_id":220230,"contributor":{"url":"http://geocommons.com/users/39447","name":"sam.felipe"},"data_attributes":null,"calculation_params":null,"icon_link":null,"link":"http://geocommons.com/overlays/220230.json","extent":[-122.161,36.9084,-121.572,37.4445],"geometry_types":["point"],"unique_name":null,"name":"Christine_-_Municipalities_-_ran_March_26th","feature_count":16,"description":"","next_feature":null,"is_raster":false,"short_classification":"Y","stats":{"rep? (1 for yes, 0 for no)":{"max":1,"mean":0.625,"variance":0.25,"stdev":0.5,"min":0,"median":1}},"features":[{"properties":{"rep? (1 for yes, 0 for no)":1,"city":"San Jose","zip":"95113","geo_score":0.604,"street address":"20 E. Santa Clara St.","city office":"City of San Jose","id":"a66dvsah1qm0","geo_precision":"street","state":"CA"},"type":"Feature","geometry":{"type":"Point","coordinates":[-121.890566,37.336168]}},{"properties":{"rep? (1 for yes, 0 for no)":1,"city":"Saratoga","zip":"95070","geo_score":0.925,"street address":"13777 Fruitvale Ave.","city office":"City of Saratoga","id":"a66dvseg1q0j","geo_precision":"range","state":"CA"},"type":"Feature","geometry":{"type":"Point","coordinates":[-122.014045,37.26876]}},{"properties":{"rep? (1 for yes, 0 for no)":1,"city":"Los Gatos","zip":"95030","geo_score":0.915,"street address":"110 East  Main St.","city office":"(city) Town of Los Gatos","id":"a66dvshfmj20","geo_precision":"range","state":"CA"},"type":"Feature","geometry":{"type":"Point","coordinates":[-121.97936,37.221299]}},{"properties":{"rep? (1 for yes, 0 for no)":1,"city":"Campbell","zip":"95008","geo_score":0.643,"street address":"70 N. First St.","city office":"City  of Campbell","id":"a66dvs9l49x8","geo_precision":"street","state":"CA"},"type":"Feature","geometry":{"type":"Point","coordinates":[-121.94483,37.287839]}},{"properties":{"rep? (1 for yes, 0 for no)":1,"city":"Morgan Hill","zip":"95037","geo_score":0.912,"street address":"17575 Peak Ave","city office":"City  of Morgan Hill","id":"a66dvsarirbo","geo_precision":"range","state":"CA"},"type":"Feature","geometry":{"type":"Point","coordinates":[-121.661853,37.125973]}},{"properties":{"rep? (1 for yes, 0 for no)":0,"city":"Gilroy","zip":"95020","geo_score":0.902,"street address":"7351 Rosanna St","city office":"City of Gilroy","id":"a66dvsfmlej4","geo_precision":"range","state":"CA"},"type":"Feature","geometry":{"type":"Point","coordinates":[-121.571926,37.004954]}},{"properties":{"rep? (1 for yes, 0 for no)":0,"city":"Mt. View","zip":"94039","geo_score":0.805,"street address":"500 Castro St.","city office":"City of Mt. View","id":"a66dvseh0bd3","geo_precision":"range","state":"CA"},"type":"Feature","geometry":{"type":"Point","coordinates":[-122.08134,37.39006]}},{"properties":{"rep? (1 for yes, 0 for no)":0,"city":"Palo Alto","zip":"94301","geo_score":1.0,"street address":"250 Hamilton Ave","city office":"City of Palo Alto","id":"a66dvsca8rrs","geo_precision":"range","state":"Ca"},"type":"Feature","geometry":{"type":"Point","coordinates":[-122.16091,37.44448]}},{"properties":{"rep? (1 for yes, 0 for no)":0,"city":"Santa Clara","zip":"95050","geo_score":1.0,"street address":"1500 Warburton Ave","city office":"City of Santa Clara","id":"a66dvsamjyw0","geo_precision":"range","state":"CA"},"type":"Feature","geometry":{"type":"Point","coordinates":[-121.95534,37.355869]}},{"properties":{"rep? (1 for yes, 0 for no)":0,"city":"Sunnyvale","zip":"94086","geo_score":0.619,"street address":"456 W. Olive Ave","city office":"City of Sunnyvale","id":"a66dvsjlka4q","geo_precision":"street","state":"CA"},"type":"Feature","geometry":{"type":"Point","coordinates":[-122.03206,37.370969]}},{"properties":{"rep? (1 for yes, 0 for no)":0,"city":"Milpitas","zip":"95035","geo_score":1.0,"street address":"455 East Calaveras Blvd.","city office":"City of Milpitas","id":"a66dvsanxpuj","geo_precision":"range","state":"CA"},"type":"Feature","geometry":{"type":"Point","coordinates":[-121.899651,37.432238]}},{"properties":{"rep? (1 for yes, 0 for no)":1,"city":"Santa Cruz","zip":"95060","geo_score":0.911,"street address":"809 Center St.","city office":"City of Santa Cruz","id":"a66dvslrwi3d","geo_precision":"range","state":"CA"},"type":"Feature","geometry":{"type":"Point","coordinates":[-122.028807,36.974192]}},{"properties":{"rep? (1 for yes, 0 for no)":1,"city":"Capitola","zip":"95010","geo_score":1.0,"street address":"420 Capitola Ave","city office":"City of Capitola","id":"a66dvshbi333","geo_precision":"range","state":"CA"},"type":"Feature","geometry":{"type":"Point","coordinates":[-121.953327,36.974027]}},{"properties":{"rep? (1 for yes, 0 for no)":1,"city":"Scotts Valley","zip":"95066","geo_score":0.969,"street address":"One Civic Center Dr.","city office":"City of Scotts Valley","id":"a66dvsl2o7pk","geo_precision":"street","state":"CA"},"type":"Feature","geometry":{"type":"Point","coordinates":[-122.017615,37.049602]}},{"properties":{"rep? (1 for yes, 0 for no)":1,"city":"Watsonville","zip":"95076","geo_score":0.911,"street address":"250 Main Street","city office":"City of Watsonville","id":"a66dvscol3tp","geo_precision":"range","state":"CA"},"type":"Feature","geometry":{"type":"Point","coordinates":[-121.754818,36.908433]}},{"properties":{"rep? (1 for yes, 0 for no)":1,"city":"Cupertino","zip":"95014","geo_score":0.922,"street address":"10300 Torre Ave","city office":"City of Cupertino","id":"a66dvshqnpzp","geo_precision":"range","state":"CA"},"type":"Feature","geometry":{"type":"Point","coordinates":[-122.02923,37.3193]}}],"is_temporal":false,"author":{"url":"","metadata":null,"contact_name":null,"contact_address":null,"source":null,"contact_phone":null},"source":"","pagination":{"sort":null,"start":0,"total":16,"limit":1000000},"state":"complete","tags":"","published":"2014-08-14T15:08:26-04:00","id":220230}