{"type":"FeatureCollection","data_type":"Dataset","url_type":null,"permissions":[{"permissions":{"download":true,"view":true},"group_id":"everyone"}],"classification":null,"title":"Socialist Groups","count":284,"stream_id":220290,"contributor":{"url":"http://geocommons.com/users/42693","name":"NealM88"},"data_attributes":null,"calculation_params":null,"icon_link":null,"link":"http://geocommons.com/overlays/220290.json","extent":[-147.624,25.7743,-70.294,64.9013],"geometry_types":["point"],"unique_name":null,"name":"Socialist Groups","feature_count":284,"description":"","next_feature":null,"is_raster":false,"short_classification":"Y","stats":{},"features":[{"properties":{"city":"Tucson","name":"CPUSA - Arizona District","zip":"85726","geo_score":0.357,"id":"a640oh7gsiw1","geo_precision":"street","address":"P.O. Box 26912","state":"AZ"},"type":"Feature","geometry":{"type":"Point","coordinates":[-110.908659,32.225229]}},{"properties":{"city":"Philadelphia","name":"CPUSA - Eastern Pennsylvania and Delaware","zip":"19143","geo_score":0.927,"id":"a640oh6pvshv","geo_precision":"range","address":"4515 Baltimore","state":"PA"},"type":"Feature","geometry":{"type":"Point","coordinates":[-75.213624,39.94899]}},{"properties":{"city":"South Paris","name":"CPUSA - Maine","zip":"04281","geo_score":0.817,"id":"a640ohlad5kf","geo_precision":"street","address":"102 Twitchell Road","state":"ME"},"type":"Feature","geometry":{"type":"Point","coordinates":[-70.496588,44.24678]}},{"properties":{"city":"Albuquerque","name":"CPUSA - New Mexico","zip":null,"geo_score":0.857,"id":"a640oh7uwzed","geo_precision":"city","address":null,"state":"NM"},"type":"Feature","geometry":{"type":"Point","coordinates":[-106.651137,35.084491]}},{"properties":{"city":"Seattle","name":"CPUSA - Washington State","zip":"98124","geo_score":0.347,"id":"a640ohkz8arx","geo_precision":"street","address":"P.O. Box 24806","state":"WA"},"type":"Feature","geometry":{"type":"Point","coordinates":[-122.310529,47.59177]}},{"properties":{"city":"St. Louis","name":"CPUSA - Missouri-Kansas District","zip":"63130","geo_score":0.615,"id":"a640oh6437z8","geo_precision":"street","address":"438 North Skinker Ave","state":"MO"},"type":"Feature","geometry":{"type":"Point","coordinates":[-90.300921,38.647335]}},{"properties":{"city":"Charleston","name":"CPUSA - South Carolina","zip":null,"geo_score":0.798,"id":"a640ohak6zic","geo_precision":"city","address":null,"state":"SC"},"type":"Feature","geometry":{"type":"Point","coordinates":[-79.970643,32.85712]}},{"properties":{"city":"Oakland","name":"CPUSA - California District Northern Region","zip":"94609","geo_score":1.0,"id":"a640oh9kpdjx","geo_precision":"range","address":"6501 Telegraph Ave","state":"CA"},"type":"Feature","geometry":{"type":"Point","coordinates":[-122.26047,37.851048]}},{"properties":{"city":"Chicago","name":"CPUSA - Illinois","zip":"60608","geo_score":0.941,"id":"a640ohcdv618","geo_precision":"range","address":"3339 South Halsted","state":"IL"},"type":"Feature","geometry":{"type":"Point","coordinates":[-87.646172,41.833477]}},{"properties":{"city":"Baltimore","name":"CPUSA - Maryland","zip":null,"geo_score":0.857,"id":"a640ohjf1fcw","geo_precision":"city","address":null,"state":"MD"},"type":"Feature","geometry":{"type":"Point","coordinates":[-76.612189,39.290385]}},{"properties":{"city":"St. Paul","name":"CPUSA - Minnesota and the Dakotas","zip":"55106","geo_score":0.56,"id":"a640oha11s0k","geo_precision":"street","address":"723 Jessamine Ave. East","state":"MN"},"type":"Feature","geometry":{"type":"Point","coordinates":[-93.035463,44.974484]}},{"properties":{"city":"Cleveland","name":"CPUSA - Ohio","zip":"44101","geo_score":0.714,"id":"a640ohjekwsy","geo_precision":"street","address":"P.O. Box 93957","state":"OH"},"type":"Feature","geometry":{"type":"Point","coordinates":[-81.704265,41.419232]}},{"properties":{"city":"Pittsburgh","name":"CPUSA - Western Pennsylvania","zip":null,"geo_score":0.857,"id":"a640ohdt06u3","geo_precision":"city","address":null,"state":"PA"},"type":"Feature","geometry":{"type":"Point","coordinates":[-79.995886,40.440625]}},{"properties":{"city":"New Haven","name":"CPUSA - Connecticut","zip":"06506","geo_score":0.286,"id":"a640ohhe0i0l","geo_precision":"street","address":"P.O. Box 1437","state":"CT"},"type":"Feature","geometry":{"type":"Point","coordinates":[-72.931776,41.264727]}},{"properties":{"city":"St. Petersburg","name":"CPUSA - Florida District","zip":"33734","geo_score":0.339,"id":"a640oh7fyug7","geo_precision":"street","address":"P.O. Box 7664","state":"FL"},"type":"Feature","geometry":{"type":"Point","coordinates":[-82.750735,27.736113]}},{"properties":{"city":"Los Angeles","name":"CPUSA - California District Southern Region","zip":"90019","geo_score":0.403,"id":"a640ohjrhrki","geo_precision":"street","address":"1251 South St. Andrews Place","state":"CA"},"type":"Feature","geometry":{"type":"Point","coordinates":[-118.226718,34.047664]}},{"properties":{"city":"Gary","name":"CPUSA - Indiana","zip":"46401","geo_score":0.857,"id":"a640oheo7h2a","geo_precision":"zip","address":"P.O. Box 64575","state":"IN"},"type":"Feature","geometry":{"type":"Point","coordinates":[-86.675005,40.261147]}},{"properties":{"city":"Cambridge","name":"CPUSA - Massachusetts","zip":"02139","geo_score":0.97,"id":"a640oh6rni8l","geo_precision":"range","address":"550 Massachusetts Ave","state":"MA"},"type":"Feature","geometry":{"type":"Point","coordinates":[-71.102208,42.364559]}},{"properties":{"city":"Jersey City","name":"CPUSA - New Jersey","zip":"07306","geo_score":0.286,"id":"a640ohg421n3","geo_precision":"street","address":"P.O. Box 6356","state":"NJ"},"type":"Feature","geometry":{"type":"Point","coordinates":[-74.054859,40.743317]}},{"properties":{"city":"Dallas","name":"CPUSA - Texas","zip":"75222","geo_score":0.371,"id":"a640oh718sp8","geo_precision":"street","address":"P.O. Box 226147","state":"TX"},"type":"Feature","geometry":{"type":"Point","coordinates":[-96.791654,32.80632]}},{"properties":{"city":"New York","name":"CPUSA - NATIONAL OFFICE","zip":"10011","geo_score":0.679,"id":"a640oh9e7vmm","geo_precision":"street","address":"235 W. 23rd Street 8th Floor","state":"NY"},"type":"Feature","geometry":{"type":"Point","coordinates":[-73.997987,40.732946]}},{"properties":{"city":"Charlotte","name":"CPUSA - North Carolina","zip":null,"geo_score":0.857,"id":"a640ohdud0gl","geo_precision":"city","address":null,"state":"NC"},"type":"Feature","geometry":{"type":"Point","coordinates":[-80.843127,35.227087]}},{"properties":{"city":"New York","name":"CPUSA - New York State","zip":"10011","geo_score":0.679,"id":"a640ohkq3xob","geo_precision":"street","address":"235 W. 23rd Street 8th Floor","state":"NY"},"type":"Feature","geometry":{"type":"Point","coordinates":[-73.997987,40.732946]}},{"properties":{"city":"Phoenix","name":"SPUSA - Arizona","zip":null,"geo_score":0.857,"id":"a640ohld5u9a","geo_precision":"city","address":null,"state":"AZ"},"type":"Feature","geometry":{"type":"Point","coordinates":[-112.074037,33.448377]}},{"properties":{"city":"Los Angeles","name":"SPUSA - California State","zip":"90066","geo_score":0.286,"id":"a640oh8fdinn","geo_precision":"street","address":"P.O. Box 661483","state":"CA"},"type":"Feature","geometry":{"type":"Point","coordinates":[-118.217433,34.090752]}},{"properties":{"city":"Los Angeles","name":"SPUSA - Los Angeles","zip":"90016","geo_score":1.0,"id":"a640oh9nx10x","geo_precision":"range","address":"2617 Hauser Boulevard","state":"CA"},"type":"Feature","geometry":{"type":"Point","coordinates":[-118.362795,34.031964]}},{"properties":{"city":"Murrieta","name":"SPUSA - Riverside County, CA","zip":"92563","geo_score":0.921,"id":"a640ohdrff0u","geo_precision":"zip","address":null,"state":"CA"},"type":"Feature","geometry":{"type":"Point","coordinates":[-117.158088,33.560581]}},{"properties":{"city":"Alameda","name":"SPUSA - San Francisco Bay Area","zip":"94502","geo_score":1.0,"id":"a640ohg47mrp","geo_precision":"range","address":"518 Holly Oak Lane","state":"CA"},"type":"Feature","geometry":{"type":"Point","coordinates":[-122.24616,37.737812]}},{"properties":{"city":"Colchester","name":"SPUSA - Connecticut State","zip":"06415","geo_score":0.948,"id":"a640ohbx57ce","geo_precision":"zip","address":null,"state":"CT"},"type":"Feature","geometry":{"type":"Point","coordinates":[-72.41203,41.550655]}},{"properties":{"city":"Carmel","name":"SPUSA - Greater Indianapolis","zip":"46033","geo_score":1.0,"id":"a640oh7ppoey","geo_precision":"zip","address":null,"state":"IN"},"type":"Feature","geometry":{"type":"Point","coordinates":[-86.082936,39.974404]}},{"properties":{"city":"Chicago","name":"SPUSA - Illinois","zip":"60661","geo_score":0.357,"id":"a640ohby0uuy","geo_precision":"street","address":"P.O. Box 618124","state":"IL"},"type":"Feature","geometry":{"type":"Point","coordinates":[-87.654314,41.915461]}},{"properties":{"city":"Shelbyville","name":"SPUSA - Kentucky","zip":"40066","geo_score":0.286,"id":"a640oh8cwb8y","geo_precision":"street","address":"P.O. Box 786","state":"KY"},"type":"Feature","geometry":{"type":"Point","coordinates":[-85.16697,38.204437]}},{"properties":{"city":"Baltimore","name":"SPUSA - Baltimore","zip":null,"geo_score":0.857,"id":"a640oh9jko5f","geo_precision":"city","address":null,"state":"MD"},"type":"Feature","geometry":{"type":"Point","coordinates":[-76.612189,39.290385]}},{"properties":{"city":"Boston","name":"SPUSA - Boston/Massachusetts State","zip":"02215","geo_score":1.0,"id":"a640ohc4tu8f","geo_precision":"zip","address":"P.O. Box 15342","state":"MA"},"type":"Feature","geometry":{"type":"Point","coordinates":[-71.107653,42.345079]}},{"properties":{"city":"Detroit","name":"SPUSA - Detroit/Michigan State","zip":"48202","geo_score":0.805,"id":"a640ohcl45xh","geo_precision":"street","address":"2937 East Grand Boulevard #3","state":"MI"},"type":"Feature","geometry":{"type":"Point","coordinates":[-83.062147,42.374283]}},{"properties":{"city":"Omaha","name":"SPUSA - Omaha","zip":"68102","geo_score":1.0,"id":"a640ohg3xefi","geo_precision":"zip","address":null,"state":"NE"},"type":"Feature","geometry":{"type":"Point","coordinates":[-95.933564,41.262003]}},{"properties":{"city":"Upper Montclair","name":"SPUSA - Northern New Jersey","zip":"07043","geo_score":1.0,"id":"a640ohkr2e8l","geo_precision":"zip","address":null,"state":"NJ"},"type":"Feature","geometry":{"type":"Point","coordinates":[-74.201257,40.846211]}},{"properties":{"city":"Red Bank","name":"SPUSA - Greater Monmouth and Ocean Counties/New Jersey State","zip":"07701","geo_score":0.857,"id":"a640oheg4e15","geo_precision":"zip","address":null,"state":"NJ"},"type":"Feature","geometry":{"type":"Point","coordinates":[-74.086807,40.373165]}},{"properties":{"city":"New York","name":"SPUSA - New York City/New York State","zip":"10012","geo_score":1.0,"id":"a640ohlsz0u8","geo_precision":"range","address":"339 Lafayette St. #303","state":"NY"},"type":"Feature","geometry":{"type":"Point","coordinates":[-73.995672,40.724742]}},{"properties":{"city":"University Station Syracuse","name":"SPUSA - Central New York","zip":"13235","geo_score":0.286,"id":"a640ohc7tigf","geo_precision":"street","address":"P.O. Box 35113","state":"NY"},"type":"Feature","geometry":{"type":"Point","coordinates":[-76.245104,43.100078]}},{"properties":{"city":"Lakewood","name":"SPUSA - NE Ohio/Ohio","zip":"44107","geo_score":0.619,"id":"a640oh6h3bv7","geo_precision":"street","address":"P.O. Box 770631","state":"OH"},"type":"Feature","geometry":{"type":"Point","coordinates":[-81.773235,41.486478]}},{"properties":{"city":"Pittsburgh","name":"SPUSA - Allegheny County","zip":"15232","geo_score":0.445,"id":"a640ohaffgn0","geo_precision":"street","address":"725 S. Negley Ave. #9","state":"PA"},"type":"Feature","geometry":{"type":"Point","coordinates":[-79.932398,40.460678]}},{"properties":{"city":"Philadelphia","name":"SPUSA - Philadelphia","zip":"19118","geo_score":0.357,"id":"a640ohamw45k","geo_precision":"street","address":"P.O. Box 27562","state":"PA"},"type":"Feature","geometry":{"type":"Point","coordinates":[-75.164752,39.947424]}},{"properties":{"city":"Memphis","name":"SPUSA - Memphis","zip":"38174","geo_score":0.357,"id":"a640ohgn6233","geo_precision":"street","address":"P.O. Box 40723","state":"TN"},"type":"Feature","geometry":{"type":"Point","coordinates":[-89.987195,35.097362]}},{"properties":{"city":"Hixson","name":"SPUSA - Greater Chattanooga","zip":null,"geo_score":0.371,"id":"a640ohhsexe3","geo_precision":"street","address":"P.O. Box 2008","state":"TN"},"type":"Feature","geometry":{"type":"Point","coordinates":[-86.097062,35.203943]}},{"properties":{"city":"Rowlett","name":"SPUSA - Dallas Fort Worth/Texas State","zip":"75088","geo_score":1.0,"id":"a640ohczx3no","geo_precision":"range","address":"4202 Bluffpoint Road","state":"TX"},"type":"Feature","geometry":{"type":"Point","coordinates":[-96.563328,32.880683]}},{"properties":{"city":"Pharr","name":"SPUSA - Rio Grande Valley","zip":"78577","geo_score":0.902,"id":"a640ohkkli4h","geo_precision":"range","address":"1012 West Warren St","state":"TX"},"type":"Feature","geometry":{"type":"Point","coordinates":[-98.195884,26.210032]}},{"properties":{"city":"Putney","name":"SPUSA - Brattleboro","zip":"05346","geo_score":0.824,"id":"a640oh910eva","geo_precision":"street","address":"71 Westminster Road","state":"VT"},"type":"Feature","geometry":{"type":"Point","coordinates":[-72.526091,43.020404]}},{"properties":{"city":"Charlottesville","name":"SPUSA - Central Virginia","zip":"22902","geo_score":1.0,"id":"a640oh7dylq7","geo_precision":"range","address":"536 Meade Ave","state":"VA"},"type":"Feature","geometry":{"type":"Point","coordinates":[-78.46453,38.030893]}},{"properties":{"city":"Milwaukee","name":"SPUSA - Milwaukee County/Wisconsin State","zip":"53212","geo_score":0.902,"id":"a640ohdrcwcs","geo_precision":"range","address":"1001 East Keefe","state":"WI"},"type":"Feature","geometry":{"type":"Point","coordinates":[-87.898799,43.081983]}},{"properties":{"city":"New York","name":"SPUSA - NATIONAL OFFICE","zip":null,"geo_score":0.805,"id":"a640ohjjeda1","geo_precision":"range","address":"339 Lafayette St. #303","state":"NY"},"type":"Feature","geometry":{"type":"Point","coordinates":[-73.995672,40.724742]}},{"properties":{"city":"Los Angeles","name":"Solidarity - Los Angeles","zip":null,"geo_score":0.857,"id":"a640oheq74yu","geo_precision":"city","address":null,"state":"CA"},"type":"Feature","geometry":{"type":"Point","coordinates":[-118.243685,34.052234]}},{"properties":{"city":"San Francisco","name":"Solidarity - San Francisco Bay Area","zip":null,"geo_score":0.857,"id":"a640ohi5a20a","geo_precision":"city","address":null,"state":"CA"},"type":"Feature","geometry":{"type":"Point","coordinates":[-122.419416,37.77493]}},{"properties":{"city":"Washington","name":"Solidarity - District of Columbia","zip":null,"geo_score":0.857,"id":"a640ohe4248q","geo_precision":"city","address":null,"state":"DC"},"type":"Feature","geometry":{"type":"Point","coordinates":[-77.036366,38.895112]}},{"properties":{"city":"Atlanta","name":"Solidarity - Atlanta","zip":null,"geo_score":0.857,"id":"a640oheekbgq","geo_precision":"city","address":null,"state":"GA"},"type":"Feature","geometry":{"type":"Point","coordinates":[-84.387982,33.748995]}},{"properties":{"city":"Miami","name":"Solidarity - Miami","zip":null,"geo_score":0.857,"id":"a640ohg8fyk3","geo_precision":"city","address":null,"state":"FL"},"type":"Feature","geometry":{"type":"Point","coordinates":[-80.193659,25.774266]}},{"properties":{"city":"Chicago","name":"Solidarity - Chicago","zip":null,"geo_score":0.857,"id":"a640ohm0kpck","geo_precision":"city","address":null,"state":"IL"},"type":"Feature","geometry":{"type":"Point","coordinates":[-87.650052,41.850033]}},{"properties":{"city":"Baltimore","name":"Solidarity - Baltimore","zip":null,"geo_score":0.857,"id":"a640ohcnaghq","geo_precision":"city","address":null,"state":"MD"},"type":"Feature","geometry":{"type":"Point","coordinates":[-76.612189,39.290385]}},{"properties":{"city":"Boston","name":"Solidarity - Boston","zip":null,"geo_score":0.857,"id":"a640ohfo27ze","geo_precision":"city","address":null,"state":"MA"},"type":"Feature","geometry":{"type":"Point","coordinates":[-71.059773,42.358431]}},{"properties":{"city":"Amherst","name":"Solidarity - Amherst","zip":null,"geo_score":0.857,"id":"a640ohhsbxg1","geo_precision":"city","address":null,"state":"MA"},"type":"Feature","geometry":{"type":"Point","coordinates":[-72.464571,42.367092]}},{"properties":{"city":"Ann Arbor","name":"Solidarity - Ann Arbor","zip":null,"geo_score":0.75,"id":"a640oh98mw19","geo_precision":"city","address":null,"state":"MI"},"type":"Feature","geometry":{"type":"Point","coordinates":[-86.176715,42.96502]}},{"properties":{"city":"Detroit","name":"Solidarity - NATIONAL OFFICE","zip":null,"geo_score":0.857,"id":"a640oha9safw","geo_precision":"city","address":null,"state":"MI"},"type":"Feature","geometry":{"type":"Point","coordinates":[-83.045754,42.331427]}},{"properties":{"city":"New York","name":"Solidarity - Brooklyn","zip":null,"geo_score":0.857,"id":"a640ohblstnr","geo_precision":"city","address":null,"state":"NY"},"type":"Feature","geometry":{"type":"Point","coordinates":[-74.005973,40.714269]}},{"properties":{"city":"New York","name":"Solidarity - Uptown and the Bronx","zip":null,"geo_score":0.857,"id":"a640ohjuulsu","geo_precision":"city","address":null,"state":"NY"},"type":"Feature","geometry":{"type":"Point","coordinates":[-74.005973,40.714269]}},{"properties":{"city":"Cincinnati","name":"Solidarity - Cincinnati","zip":null,"geo_score":0.857,"id":"a640ohl529fy","geo_precision":"city","address":null,"state":"OH"},"type":"Feature","geometry":{"type":"Point","coordinates":[-84.456886,39.162004]}},{"properties":{"city":"Portland","name":"Solidarity - Portland","zip":null,"geo_score":0.857,"id":"a640ohha5rlf","geo_precision":"city","address":null,"state":"OR"},"type":"Feature","geometry":{"type":"Point","coordinates":[-122.676207,45.523452]}},{"properties":{"city":"Philadelphia","name":"Solidarity - Philadelphia","zip":null,"geo_score":0.857,"id":"a640oham2uuc","geo_precision":"city","address":null,"state":"PA"},"type":"Feature","geometry":{"type":"Point","coordinates":[-75.163789,39.952335]}},{"properties":{"city":"Providence","name":"Solidarity - Providence","zip":null,"geo_score":0.857,"id":"a640ohdypqmp","geo_precision":"city","address":null,"state":"RI"},"type":"Feature","geometry":{"type":"Point","coordinates":[-71.412834,41.823989]}},{"properties":{"city":"Nashville","name":"Solidarity - Murfreesboro-Nashville","zip":null,"geo_score":0.857,"id":"a640oh9k0x6x","geo_precision":"city","address":null,"state":"TN"},"type":"Feature","geometry":{"type":"Point","coordinates":[-86.784443,36.16589]}},{"properties":{"city":"Houston","name":"Solidarity - Houston","zip":null,"geo_score":0.816,"id":"a640ohju2aym","geo_precision":"city","address":null,"state":"TX"},"type":"Feature","geometry":{"type":"Point","coordinates":[-96.919704,29.845783]}},{"properties":{"city":"Austin","name":"Solidarity - Austin","zip":null,"geo_score":0.857,"id":"a640ohdhyl3u","geo_precision":"city","address":null,"state":"TX"},"type":"Feature","geometry":{"type":"Point","coordinates":[-97.743061,30.267153]}},{"properties":{"city":"San Antonio","name":"Solidarity - San Antonio","zip":null,"geo_score":0.857,"id":"a640ohadvxdz","geo_precision":"city","address":null,"state":"TX"},"type":"Feature","geometry":{"type":"Point","coordinates":[-98.493628,29.424122]}},{"properties":{"city":"Dallas","name":"Solidarity - Dallas","zip":null,"geo_score":0.857,"id":"a640ohdmkmsj","geo_precision":"city","address":null,"state":"TX"},"type":"Feature","geometry":{"type":"Point","coordinates":[-96.806667,32.783056]}},{"properties":{"city":"Madison","name":"Solidarity - Madison","zip":null,"geo_score":0.857,"id":"a640oh74cev7","geo_precision":"city","address":null,"state":"WI"},"type":"Feature","geometry":{"type":"Point","coordinates":[-89.40123,43.073052]}},{"properties":{"city":"Milwaukee","name":"Solidarity - Milwaukee","zip":null,"geo_score":0.857,"id":"a640ohbut7fh","geo_precision":"city","address":null,"state":"WI"},"type":"Feature","geometry":{"type":"Point","coordinates":[-87.906474,43.038903]}},{"properties":{"city":"New York","name":"Socialist Alternative - NATIONAL OFFICE","zip":"11215","geo_score":0.393,"id":"a640ohhpsdfa","geo_precision":"street","address":"P.O. Box 150457","state":"NY"},"type":"Feature","geometry":{"type":"Point","coordinates":[-73.983477,40.607662]}},{"properties":{"city":"Ann Arbor","name":"Socialist Alternative - Ann Arbor","zip":null,"geo_score":0.75,"id":"a640ohkaswt4","geo_precision":"city","address":null,"state":"MI"},"type":"Feature","geometry":{"type":"Point","coordinates":[-86.176715,42.96502]}},{"properties":{"city":"Bellingham","name":"Socialist Alternative - Bellingham","zip":null,"geo_score":0.857,"id":"a640oh6zorwu","geo_precision":"city","address":null,"state":"WA"},"type":"Feature","geometry":{"type":"Point","coordinates":[-122.454297,48.747687]}},{"properties":{"city":"Boston","name":"Socialist Alternative - Boston","zip":null,"geo_score":0.857,"id":"a640oh6g7uls","geo_precision":"city","address":null,"state":"MA"},"type":"Feature","geometry":{"type":"Point","coordinates":[-71.059773,42.358431]}},{"properties":{"city":"Chapel Hill","name":"Socialist Alternative - Chapel Hill","zip":"27514","geo_score":0.457,"id":"a640ohhmdisj","geo_precision":"street","address":"425 Hillsborough St, Apt 8A","state":"NC"},"type":"Feature","geometry":{"type":"Point","coordinates":[-79.050409,35.917739]}},{"properties":{"city":"Chicago","name":"Socialist Alternative - Chicago","zip":null,"geo_score":0.857,"id":"a640ohavhw94","geo_precision":"city","address":null,"state":"IL"},"type":"Feature","geometry":{"type":"Point","coordinates":[-87.650052,41.850033]}},{"properties":{"city":"Dallas","name":"Socialist Alternative - Dallas/Houston","zip":null,"geo_score":0.857,"id":"a640ohcckllv","geo_precision":"city","address":null,"state":"TX"},"type":"Feature","geometry":{"type":"Point","coordinates":[-96.806667,32.783056]}},{"properties":{"city":"Madison","name":"Socialist Alternative - Madison","zip":null,"geo_score":0.857,"id":"a640ohdo8oeu","geo_precision":"city","address":null,"state":"WI"},"type":"Feature","geometry":{"type":"Point","coordinates":[-89.40123,43.073052]}},{"properties":{"city":"Milwaukee","name":"Socialist Alternative - Milwaukee","zip":null,"geo_score":0.857,"id":"a640oh6y1bru","geo_precision":"city","address":null,"state":"WI"},"type":"Feature","geometry":{"type":"Point","coordinates":[-87.906474,43.038903]}},{"properties":{"city":"Nashua","name":"Socialist Alternative","zip":null,"geo_score":0.857,"id":"a640ohe511bb","geo_precision":"city","address":null,"state":"NH"},"type":"Feature","geometry":{"type":"Point","coordinates":[-71.626336,42.771537]}},{"properties":{"city":"New Orleans","name":"Socialist Alternative - New Orleans","zip":null,"geo_score":0.857,"id":"a640ohg1gmv4","geo_precision":"city","address":null,"state":"LA"},"type":"Feature","geometry":{"type":"Point","coordinates":[-89.930956,30.068812]}},{"properties":{"city":"New York","name":"Socialist Alternative - New York City","zip":"11215","geo_score":0.393,"id":"a640ohd2zlrj","geo_precision":"street","address":"P.O. Box 150457","state":"NY"},"type":"Feature","geometry":{"type":"Point","coordinates":[-73.983477,40.607662]}},{"properties":{"city":"Olympia","name":"Socialist Alternative - Olympia","zip":null,"geo_score":0.857,"id":"a640oh9eilwg","geo_precision":"city","address":null,"state":"WA"},"type":"Feature","geometry":{"type":"Point","coordinates":[-122.900695,47.037874]}},{"properties":{"city":"Philadelphia","name":"Socialist Alternative - Philadelphia","zip":null,"geo_score":0.857,"id":"a640oh8gbyc7","geo_precision":"city","address":null,"state":"PA"},"type":"Feature","geometry":{"type":"Point","coordinates":[-75.163789,39.952335]}},{"properties":{"city":"Seattle","name":"Socialist Alternative - Seattle","zip":"98145","geo_score":0.347,"id":"a640ohl0lp4t","geo_precision":"street","address":"P.O. Box 45343","state":"WA"},"type":"Feature","geometry":{"type":"Point","coordinates":[-122.310529,47.59177]}},{"properties":{"city":"Saint Petersburg","name":"Socialist Alternative - St. Petersburg","zip":null,"geo_score":0.857,"id":"a640oh9x78j1","geo_precision":"city","address":null,"state":"FL"},"type":"Feature","geometry":{"type":"Point","coordinates":[-82.679266,27.770861]}},{"properties":{"city":"Seattle","name":"Socialist Alternative - Tacoma","zip":"98145","geo_score":0.347,"id":"a640oh78ol3q","geo_precision":"street","address":"P.O. Box 45343","state":"WA"},"type":"Feature","geometry":{"type":"Point","coordinates":[-122.310529,47.59177]}},{"properties":{"city":"New York","name":"WWP - NATIONAL OFFICE","zip":"10011","geo_score":1.0,"id":"a640ohk4uxgt","geo_precision":"range","address":"55 West 17th St.","state":"NY"},"type":"Feature","geometry":{"type":"Point","coordinates":[-73.993569,40.738663]}},{"properties":{"city":"Atlanta","name":"WWP - Atlanta","zip":"30301","geo_score":0.286,"id":"a640ohm63zeu","geo_precision":"street","address":"P.O. Box 424","state":"GA"},"type":"Feature","geometry":{"type":"Point","coordinates":[-84.277861,33.976282]}},{"properties":{"city":"Baltimore","name":"WWP - Baltimore","zip":"21218","geo_score":0.924,"id":"a640ohdqaojc","geo_precision":"range","address":"2011 North Charles St.","state":"MD"},"type":"Feature","geometry":{"type":"Point","coordinates":[-76.616654,39.312328]}},{"properties":{"city":"Boston","name":"WWP - Boston","zip":"02130","geo_score":0.911,"id":"a640ohfpr48f","geo_precision":"range","address":"284 Amory St.","state":"MA"},"type":"Feature","geometry":{"type":"Point","coordinates":[-71.104526,42.31493]}},{"properties":{"city":"Buffalo","name":"WWP - Buffalo","zip":"14202","geo_score":1.0,"id":"a640ohi35nz0","geo_precision":"range","address":"367 Delaware Ave.","state":"NY"},"type":"Feature","geometry":{"type":"Point","coordinates":[-78.875664,42.894156]}},{"properties":{"city":"Chicago","name":"WWP - Chicago","zip":"60606","geo_score":0.74,"id":"a640ohb2rmix","geo_precision":"range","address":"27 N. Wacker Drive #138","state":"IL"},"type":"Feature","geometry":{"type":"Point","coordinates":[-87.636817,41.884218]}},{"properties":{"city":"Cleveland","name":"WWP - Cleveland","zip":"44101","geo_score":0.714,"id":"a640oh7ofw2n","geo_precision":"street","address":"P.O. Box 5963","state":"OH"},"type":"Feature","geometry":{"type":"Point","coordinates":[-81.704265,41.419232]}},{"properties":{"city":"Denver","name":"WWP - Denver","zip":null,"geo_score":0.857,"id":"a640ohg8mjhj","geo_precision":"city","address":null,"state":"CO"},"type":"Feature","geometry":{"type":"Point","coordinates":[-104.984703,39.739154]}},{"properties":{"city":"Detroit","name":"WWP - Detroit","zip":"48202","geo_score":0.902,"id":"a640ohlldmyu","geo_precision":"range","address":"5920 Second Ave.","state":"MI"},"type":"Feature","geometry":{"type":"Point","coordinates":[-83.072907,42.362776]}},{"properties":{"city":"Durham","name":"WWP - Durham","zip":"27701","geo_score":0.633,"id":"a640ohilbdk0","geo_precision":"street","address":"331 W. Main St. Suite 408","state":"NC"},"type":"Feature","geometry":{"type":"Point","coordinates":[-78.901868,35.995705]}},{"properties":{"city":"Houston","name":"WWP - Houston","zip":"77253","geo_score":1.0,"id":"a640ohdg2x5w","geo_precision":"zip","address":"P.O. Box 3454","state":"TX"},"type":"Feature","geometry":{"type":"Point","coordinates":[-95.434241,29.83399]}},{"properties":{"city":"Los Angeles","name":"WWP - Los Angeles","zip":"90018","geo_score":1.0,"id":"a640oh8cfd2q","geo_precision":"range","address":"1905 Rodeo Rd.","state":"CA"},"type":"Feature","geometry":{"type":"Point","coordinates":[-118.316191,34.01827]}},{"properties":{"city":"Milwaukee","name":"WWP - Milwaukee","zip":null,"geo_score":0.857,"id":"a640ohd98y8a","geo_precision":"city","address":null,"state":"WI"},"type":"Feature","geometry":{"type":"Point","coordinates":[-87.906474,43.038903]}},{"properties":{"city":"New York","name":"WWP - New York City","zip":"10011","geo_score":1.0,"id":"a640oh7zitr8","geo_precision":"range","address":"55 West 17th St.","state":"NY"},"type":"Feature","geometry":{"type":"Point","coordinates":[-73.993569,40.738663]}},{"properties":{"city":"Philadelphia","name":"WWP - Philadelphia","zip":"19101","geo_score":0.357,"id":"a640ohm5fzit","geo_precision":"street","address":"P.O. Box 34249","state":"PA"},"type":"Feature","geometry":{"type":"Point","coordinates":[-75.164752,39.947424]}},{"properties":{"city":"Pittsburgh","name":"WWP - Pittsburgh","zip":null,"geo_score":0.857,"id":"a640ohiymcwc","geo_precision":"city","address":null,"state":"PA"},"type":"Feature","geometry":{"type":"Point","coordinates":[-79.995886,40.440625]}},{"properties":{"city":"Rochester","name":"WWP - Rochester","zip":null,"geo_score":0.857,"id":"a640ohcgx5yx","geo_precision":"city","address":null,"state":"NY"},"type":"Feature","geometry":{"type":"Point","coordinates":[-77.615557,43.154785]}},{"properties":{"city":"San Diego","name":"WWP - San Diego","zip":"92163","geo_score":0.371,"id":"a640oh7wr2k7","geo_precision":"street","address":"P.O. Box 33447","state":"CA"},"type":"Feature","geometry":{"type":"Point","coordinates":[-117.22478,32.731612]}},{"properties":{"city":"San Francisco","name":"WWP - San Francisco","zip":"94103","geo_score":0.78,"id":"a640oh7gb8a1","geo_precision":"range","address":"2940 16th St. #207","state":"CA"},"type":"Feature","geometry":{"type":"Point","coordinates":[-122.388563,37.766928]}},{"properties":{"city":"Tucson","name":"WWP - Tucson","zip":null,"geo_score":0.857,"id":"a640ohdcifen","geo_precision":"city","address":null,"state":"AZ"},"type":"Feature","geometry":{"type":"Point","coordinates":[-110.926479,32.221743]}},{"properties":{"city":"Washington","name":"WWP - District of Columbia","zip":"20037","geo_score":0.657,"id":"a640oh9dbo5y","geo_precision":"street","address":"P.O. Box 57300","state":"DC"},"type":"Feature","geometry":{"type":"Point","coordinates":[-77.046635,38.909639]}},{"properties":{"city":"Chicago","name":"ISO - NATIONAL OFFICE","zip":"60616","geo_score":0.357,"id":"a640ohhqitzz","geo_precision":"street","address":"P.O. Box 16085","state":"IL"},"type":"Feature","geometry":{"type":"Point","coordinates":[-87.654314,41.915461]}},{"properties":{"city":"Albany","name":"ISO - Albany","zip":null,"geo_score":0.857,"id":"a640ohla7fqh","geo_precision":"city","address":null,"state":"NY"},"type":"Feature","geometry":{"type":"Point","coordinates":[-73.756232,42.652579]}},{"properties":{"city":"Amherst","name":"ISO - Amherst","zip":null,"geo_score":0.857,"id":"a640ohhwzi5r","geo_precision":"city","address":null,"state":"MA"},"type":"Feature","geometry":{"type":"Point","coordinates":[-72.464571,42.367092]}},{"properties":{"city":"Asheville","name":"ISO - Asheville","zip":null,"geo_score":0.857,"id":"a640ohjiuhp8","geo_precision":"city","address":null,"state":"NC"},"type":"Feature","geometry":{"type":"Point","coordinates":[-82.554015,35.600945]}},{"properties":{"city":"Atlanta","name":"ISO - Atlanta","zip":null,"geo_score":0.857,"id":"a640oh8lp8yz","geo_precision":"city","address":null,"state":"GA"},"type":"Feature","geometry":{"type":"Point","coordinates":[-84.387982,33.748995]}},{"properties":{"city":"Austin","name":"ISO - UT Austin","zip":null,"geo_score":0.857,"id":"a640ohj0jqwt","geo_precision":"city","address":null,"state":"TX"},"type":"Feature","geometry":{"type":"Point","coordinates":[-97.743061,30.267153]}},{"properties":{"city":"Austin","name":"ISO - Austin","zip":null,"geo_score":0.857,"id":"a640ohhc7f90","geo_precision":"city","address":null,"state":"TX"},"type":"Feature","geometry":{"type":"Point","coordinates":[-97.743061,30.267153]}},{"properties":{"city":"Baltimore","name":"ISO - Baltimore","zip":null,"geo_score":0.857,"id":"a640ohmha1rp","geo_precision":"city","address":null,"state":"MD"},"type":"Feature","geometry":{"type":"Point","coordinates":[-76.612189,39.290385]}},{"properties":{"city":"Berkeley","name":"ISO - UC Berkeley","zip":null,"geo_score":0.857,"id":"a640ohg0su28","geo_precision":"city","address":null,"state":"CA"},"type":"Feature","geometry":{"type":"Point","coordinates":[-122.29673,37.860576]}},{"properties":{"city":"Boone","name":"ISO - Boone","zip":null,"geo_score":0.771,"id":"a640ohigtu9o","geo_precision":"city","address":null,"state":"NC"},"type":"Feature","geometry":{"type":"Point","coordinates":[-78.208581,35.982555]}},{"properties":{"city":"Boston","name":"ISO - Boston","zip":null,"geo_score":0.857,"id":"a640ohalz1gn","geo_precision":"city","address":null,"state":"MA"},"type":"Feature","geometry":{"type":"Point","coordinates":[-71.059773,42.358431]}},{"properties":{"city":"Boston","name":"ISO - UMASS Boston","zip":null,"geo_score":0.857,"id":"a640oh80bz4r","geo_precision":"city","address":null,"state":"MA"},"type":"Feature","geometry":{"type":"Point","coordinates":[-71.059773,42.358431]}},{"properties":{"city":"Burlington","name":"ISO - UVM","zip":null,"geo_score":0.78,"id":"a640oh9gw8r0","geo_precision":"city","address":null,"state":"VT"},"type":"Feature","geometry":{"type":"Point","coordinates":[-72.575941,44.21006]}},{"properties":{"city":"Burlington","name":"ISO - Burlington","zip":null,"geo_score":0.78,"id":"a640ohi7l9gf","geo_precision":"city","address":null,"state":"VT"},"type":"Feature","geometry":{"type":"Point","coordinates":[-72.575941,44.21006]}},{"properties":{"city":"Carbondale","name":"ISO - Southern Illinois University","zip":null,"geo_score":0.857,"id":"a640ohadyoqu","geo_precision":"city","address":null,"state":"IL"},"type":"Feature","geometry":{"type":"Point","coordinates":[-89.387286,37.77452]}},{"properties":{"city":"Trenton","name":"ISO - Central Jersey","zip":null,"geo_score":0.857,"id":"a640ohfpp2wx","geo_precision":"city","address":null,"state":"NJ"},"type":"Feature","geometry":{"type":"Point","coordinates":[-74.742939,40.217053]}},{"properties":{"city":"Champaign","name":"ISO - Champaign","zip":null,"geo_score":0.857,"id":"a640ohdqfbjl","geo_precision":"city","address":null,"state":"IL"},"type":"Feature","geometry":{"type":"Point","coordinates":[-88.243383,40.116421]}},{"properties":{"city":"Charlotte","name":"ISO - Charlotte","zip":null,"geo_score":0.857,"id":"a640ohe0pcr0","geo_precision":"city","address":null,"state":"NC"},"type":"Feature","geometry":{"type":"Point","coordinates":[-80.843127,35.227087]}},{"properties":{"city":"Chicago","name":"ISO - Logan Square","zip":null,"geo_score":0.857,"id":"a640oh6xmwtp","geo_precision":"city","address":null,"state":"IL"},"type":"Feature","geometry":{"type":"Point","coordinates":[-87.650052,41.850033]}},{"properties":{"city":"Chicago","name":"ISO - Pilsen","zip":null,"geo_score":0.857,"id":"a640ohiqf8fg","geo_precision":"city","address":null,"state":"IL"},"type":"Feature","geometry":{"type":"Point","coordinates":[-87.650052,41.850033]}},{"properties":{"city":"Chicago","name":"ISO - Rogers Park","zip":null,"geo_score":0.857,"id":"a640ohauvxjx","geo_precision":"city","address":null,"state":"IL"},"type":"Feature","geometry":{"type":"Point","coordinates":[-87.650052,41.850033]}},{"properties":{"city":"Chicago","name":"ISO - UIC","zip":null,"geo_score":0.857,"id":"a640oh8g96v3","geo_precision":"city","address":null,"state":"IL"},"type":"Feature","geometry":{"type":"Point","coordinates":[-87.650052,41.850033]}},{"properties":{"city":"Cincinnati","name":"ISO - Cincinnati","zip":null,"geo_score":0.857,"id":"a640oh6z7s1d","geo_precision":"city","address":null,"state":"OH"},"type":"Feature","geometry":{"type":"Point","coordinates":[-84.456886,39.162004]}},{"properties":{"city":"Cleveland","name":"ISO - Cleveland","zip":null,"geo_score":0.857,"id":"a640ohfiqhcj","geo_precision":"city","address":null,"state":"OH"},"type":"Feature","geometry":{"type":"Point","coordinates":[-81.695409,41.499495]}},{"properties":{"city":"College Park","name":"ISO - University of Maryland","zip":null,"geo_score":0.812,"id":"a640ohe321ee","geo_precision":"city","address":null,"state":"MD"},"type":"Feature","geometry":{"type":"Point","coordinates":[-76.951086,39.008721]}},{"properties":{"city":"Columbia","name":"ISO - University of South Carolina","zip":null,"geo_score":0.857,"id":"a640ohigicnl","geo_precision":"city","address":null,"state":"SC"},"type":"Feature","geometry":{"type":"Point","coordinates":[-81.024864,33.987454]}},{"properties":{"city":"Columbus","name":"ISO - Columbus","zip":null,"geo_score":0.776,"id":"a640ohb0r9bo","geo_precision":"city","address":null,"state":"OH"},"type":"Feature","geometry":{"type":"Point","coordinates":[-82.695724,39.998397]}},{"properties":{"city":"Corpus Christi","name":"ISO - Corpus Christi","zip":null,"geo_score":0.857,"id":"a640ohiqpc5s","geo_precision":"city","address":null,"state":"TX"},"type":"Feature","geometry":{"type":"Point","coordinates":[-97.396381,27.800583]}},{"properties":{"city":"Dallas","name":"ISO - Dallas","zip":null,"geo_score":0.857,"id":"a640oh9n9y0v","geo_precision":"city","address":null,"state":"TX"},"type":"Feature","geometry":{"type":"Point","coordinates":[-96.806667,32.783056]}},{"properties":{"city":"Denton","name":"ISO - University of North Texas","zip":null,"geo_score":0.857,"id":"a640oh7r6ywl","geo_precision":"city","address":null,"state":"TX"},"type":"Feature","geometry":{"type":"Point","coordinates":[-99.539522,32.258742]}},{"properties":{"city":"Denver","name":"ISO - Denver","zip":null,"geo_score":0.857,"id":"a640ohbtuno4","geo_precision":"city","address":null,"state":"CO"},"type":"Feature","geometry":{"type":"Point","coordinates":[-104.984703,39.739154]}},{"properties":{"city":"Detroit","name":"ISO - Detroit","zip":null,"geo_score":0.857,"id":"a640ohg9page","geo_precision":"city","address":null,"state":"MI"},"type":"Feature","geometry":{"type":"Point","coordinates":[-83.045754,42.331427]}},{"properties":{"city":"Chapel Hill","name":"ISO - Durham/Chapel Hill","zip":null,"geo_score":0.857,"id":"a640ohbtsqyb","geo_precision":"city","address":null,"state":"NC"},"type":"Feature","geometry":{"type":"Point","coordinates":[-79.038605,35.926939]}},{"properties":{"city":"Eugene","name":"ISO - Eugene","zip":null,"geo_score":0.857,"id":"a640ohdl0bds","geo_precision":"city","address":null,"state":"OR"},"type":"Feature","geometry":{"type":"Point","coordinates":[-123.086754,44.052069]}},{"properties":{"city":"Fairfax","name":"ISO - George Mason University","zip":null,"geo_score":0.857,"id":"a640ohh4pp06","geo_precision":"city","address":null,"state":"VA"},"type":"Feature","geometry":{"type":"Point","coordinates":[-77.305097,38.853231]}},{"properties":{"city":"Gainesville","name":"ISO - Gainesville","zip":null,"geo_score":0.818,"id":"a640ohkpl6kg","geo_precision":"city","address":null,"state":"FL"},"type":"Feature","geometry":{"type":"Point","coordinates":[-85.354651,30.731305]}},{"properties":{"city":"Greensboro","name":"ISO - Greensboro","zip":null,"geo_score":0.857,"id":"a640ohkkq2d3","geo_precision":"city","address":null,"state":"NC"},"type":"Feature","geometry":{"type":"Point","coordinates":[-79.791975,36.072636]}},{"properties":{"city":"Houston","name":"ISO - Houston","zip":null,"geo_score":0.816,"id":"a640ohbkylgh","geo_precision":"city","address":null,"state":"TX"},"type":"Feature","geometry":{"type":"Point","coordinates":[-96.919704,29.845783]}},{"properties":{"city":"Iowa City","name":"ISO - Iowa City","zip":null,"geo_score":0.732,"id":"a640ohauehrj","geo_precision":"city","address":null,"state":"IA"},"type":"Feature","geometry":{"type":"Point","coordinates":[-92.161281,43.198027]}},{"properties":{"city":"Juneau","name":"ISO - Juneau","zip":null,"geo_score":0.857,"id":"a640ohel191j","geo_precision":"city","address":null,"state":"AK"},"type":"Feature","geometry":{"type":"Point","coordinates":[-134.523946,58.373561]}},{"properties":{"city":"Kent","name":"ISO - Kent","zip":null,"geo_score":0.755,"id":"a640ohd4liud","geo_precision":"city","address":null,"state":"OH"},"type":"Feature","geometry":{"type":"Point","coordinates":[-82.254594,39.411459]}},{"properties":{"city":"Knoxville","name":"ISO - Knoxville","zip":null,"geo_score":0.794,"id":"a640ohi34hjj","geo_precision":"city","address":null,"state":"TN"},"type":"Feature","geometry":{"type":"Point","coordinates":[-86.784443,36.16589]}},{"properties":{"city":"Long Beach","name":"ISO - Long Beach","zip":null,"geo_score":0.857,"id":"a640oh6svasd","geo_precision":"city","address":null,"state":"CA"},"type":"Feature","geometry":{"type":"Point","coordinates":[-118.189235,33.766962]}},{"properties":{"city":"Los Angeles","name":"ISO - Los Angeles","zip":null,"geo_score":0.857,"id":"a640ohi4e12e","geo_precision":"city","address":null,"state":"CA"},"type":"Feature","geometry":{"type":"Point","coordinates":[-118.243685,34.052234]}},{"properties":{"city":"Los Angeles","name":"ISO - University of Southern California","zip":null,"geo_score":0.857,"id":"a640oh8gs5zn","geo_precision":"city","address":null,"state":"CA"},"type":"Feature","geometry":{"type":"Point","coordinates":[-118.243685,34.052234]}},{"properties":{"city":"Madison","name":"ISO - Madison","zip":null,"geo_score":0.857,"id":"a640oh8s839p","geo_precision":"city","address":null,"state":"WI"},"type":"Feature","geometry":{"type":"Point","coordinates":[-89.40123,43.073052]}},{"properties":{"city":"Madison","name":"ISO - University of Wisconsin","zip":null,"geo_score":0.857,"id":"a640ohco8dkc","geo_precision":"city","address":null,"state":"WI"},"type":"Feature","geometry":{"type":"Point","coordinates":[-89.40123,43.073052]}},{"properties":{"city":"Minneapolis","name":"ISO - Minneapolis","zip":null,"geo_score":0.857,"id":"a640ohh0ozfn","geo_precision":"city","address":null,"state":"MN"},"type":"Feature","geometry":{"type":"Point","coordinates":[-93.263836,44.979965]}},{"properties":{"city":"New Haven","name":"ISO - New Haven","zip":null,"geo_score":0.857,"id":"a640ohd0lsx0","geo_precision":"city","address":null,"state":"CT"},"type":"Feature","geometry":{"type":"Point","coordinates":[-72.928158,41.308153]}},{"properties":{"city":"New Orleans","name":"ISO - New Orleans","zip":null,"geo_score":0.857,"id":"a640ohgjuw52","geo_precision":"city","address":null,"state":"LA"},"type":"Feature","geometry":{"type":"Point","coordinates":[-89.930956,30.068812]}},{"properties":{"city":"New York","name":"ISO - Brooklyn College","zip":null,"geo_score":0.857,"id":"a640ohjualy3","geo_precision":"city","address":null,"state":"NY"},"type":"Feature","geometry":{"type":"Point","coordinates":[-74.005973,40.714269]}},{"properties":{"city":"New York","name":"ISO - City College/Washington Heights","zip":null,"geo_score":0.857,"id":"a640ohcmdbix","geo_precision":"city","address":null,"state":"NY"},"type":"Feature","geometry":{"type":"Point","coordinates":[-74.005973,40.714269]}},{"properties":{"city":"New York","name":"ISO - Columbia University/Barnard College","zip":null,"geo_score":0.857,"id":"a640ohm90pi3","geo_precision":"city","address":null,"state":"NY"},"type":"Feature","geometry":{"type":"Point","coordinates":[-74.005973,40.714269]}},{"properties":{"city":"New York","name":"ISO - Hunter College","zip":null,"geo_score":0.857,"id":"a640oh699rpq","geo_precision":"city","address":null,"state":"NY"},"type":"Feature","geometry":{"type":"Point","coordinates":[-74.005973,40.714269]}},{"properties":{"city":"New York","name":"ISO - New York University","zip":null,"geo_score":0.857,"id":"a640ohmkbgug","geo_precision":"city","address":null,"state":"NY"},"type":"Feature","geometry":{"type":"Point","coordinates":[-74.005973,40.714269]}},{"properties":{"city":"New York","name":"ISO - Queens","zip":null,"geo_score":0.857,"id":"a640ohb6ijt3","geo_precision":"city","address":null,"state":"NY"},"type":"Feature","geometry":{"type":"Point","coordinates":[-74.005973,40.714269]}},{"properties":{"city":"New York","name":"ISO - Uptown","zip":null,"geo_score":0.857,"id":"a640ohi46sza","geo_precision":"city","address":null,"state":"NY"},"type":"Feature","geometry":{"type":"Point","coordinates":[-74.005973,40.714269]}},{"properties":{"city":"Newark","name":"ISO - Newark","zip":null,"geo_score":0.857,"id":"a640ohe27tva","geo_precision":"city","address":null,"state":"NJ"},"type":"Feature","geometry":{"type":"Point","coordinates":[-74.172367,40.735657]}},{"properties":{"city":"Northeast","name":"ISO - Northeast","zip":null,"geo_score":0.8,"id":"a640ohbp8uui","geo_precision":"city","address":null,"state":"IA"},"type":"Feature","geometry":{"type":"Point","coordinates":[-92.455743,42.554706]}},{"properties":{"city":"Oakland","name":"ISO - Laney College","zip":null,"geo_score":0.857,"id":"a640ohl540is","geo_precision":"city","address":null,"state":"CA"},"type":"Feature","geometry":{"type":"Point","coordinates":[-122.270803,37.804372]}},{"properties":{"city":"Oklahoma City","name":"ISO - Oklahoma City","zip":null,"geo_score":0.857,"id":"a640ohf2r524","geo_precision":"city","address":null,"state":"OK"},"type":"Feature","geometry":{"type":"Point","coordinates":[-97.516428,35.46756]}},{"properties":{"city":"Olympia","name":"ISO - Olympia","zip":null,"geo_score":0.857,"id":"a640ohggod44","geo_precision":"city","address":null,"state":"WA"},"type":"Feature","geometry":{"type":"Point","coordinates":[-122.900695,47.037874]}},{"properties":{"city":"Philadelphia","name":"ISO - Philadelphia","zip":null,"geo_score":0.857,"id":"a640ohlzvvfc","geo_precision":"city","address":null,"state":"PA"},"type":"Feature","geometry":{"type":"Point","coordinates":[-75.163789,39.952335]}},{"properties":{"city":"Phoenix","name":"ISO - Phoenix","zip":null,"geo_score":0.857,"id":"a640ohjys6w3","geo_precision":"city","address":null,"state":"AZ"},"type":"Feature","geometry":{"type":"Point","coordinates":[-112.074037,33.448377]}},{"properties":{"city":"Pittsburgh","name":"ISO - Pittsburgh","zip":null,"geo_score":0.857,"id":"a640ohimq70t","geo_precision":"city","address":null,"state":"PA"},"type":"Feature","geometry":{"type":"Point","coordinates":[-79.995886,40.440625]}},{"properties":{"city":"Portland","name":"ISO - Portland State University","zip":null,"geo_score":0.857,"id":"a640ohf1g43v","geo_precision":"city","address":null,"state":"OR"},"type":"Feature","geometry":{"type":"Point","coordinates":[-122.676207,45.523452]}},{"properties":{"city":"Portland","name":"ISO - Portland","zip":null,"geo_score":0.857,"id":"a640ohlifpdf","geo_precision":"city","address":null,"state":"OR"},"type":"Feature","geometry":{"type":"Point","coordinates":[-122.676207,45.523452]}},{"properties":{"city":"Providence","name":"ISO - Providence","zip":null,"geo_score":0.857,"id":"a640ohhrzu6d","geo_precision":"city","address":null,"state":"RI"},"type":"Feature","geometry":{"type":"Point","coordinates":[-71.412834,41.823989]}},{"properties":{"city":"Rochester","name":"ISO - Rochester Institute of Technology","zip":null,"geo_score":0.857,"id":"a640ohkiq3ha","geo_precision":"city","address":null,"state":"NY"},"type":"Feature","geometry":{"type":"Point","coordinates":[-77.615557,43.154785]}},{"properties":{"city":"Sacramento","name":"ISO - Sacramento","zip":null,"geo_score":0.857,"id":"a640ohd4wkke","geo_precision":"city","address":null,"state":"CA"},"type":"Feature","geometry":{"type":"Point","coordinates":[-121.4944,38.581572]}},{"properties":{"city":"San Diego","name":"ISO - UC San Diego","zip":null,"geo_score":0.857,"id":"a640oh63xka1","geo_precision":"city","address":null,"state":"CA"},"type":"Feature","geometry":{"type":"Point","coordinates":[-117.157255,32.715329]}},{"properties":{"city":"San Diego","name":"ISO - City Heights","zip":null,"geo_score":0.857,"id":"a640ohabyxs6","geo_precision":"city","address":null,"state":"CA"},"type":"Feature","geometry":{"type":"Point","coordinates":[-117.157255,32.715329]}},{"properties":{"city":"San Diego","name":"ISO - Barrio Sherman","zip":null,"geo_score":0.857,"id":"a640oha4sec5","geo_precision":"city","address":null,"state":"CA"},"type":"Feature","geometry":{"type":"Point","coordinates":[-117.157255,32.715329]}},{"properties":{"city":"San Diego","name":"ISO - Mission","zip":null,"geo_score":0.857,"id":"a640ohetfjq6","geo_precision":"city","address":null,"state":"CA"},"type":"Feature","geometry":{"type":"Point","coordinates":[-117.157255,32.715329]}},{"properties":{"city":"San Francisco","name":"ISO - San Francisco State University","zip":null,"geo_score":0.857,"id":"a640oha1774v","geo_precision":"city","address":null,"state":"CA"},"type":"Feature","geometry":{"type":"Point","coordinates":[-122.419416,37.77493]}},{"properties":{"city":"Santa Cruz","name":"ISO - UC Santa Cruz","zip":null,"geo_score":0.762,"id":"a640oh6h1m1v","geo_precision":"city","address":null,"state":"CA"},"type":"Feature","geometry":{"type":"Point","coordinates":[-119.045658,36.114674]}},{"properties":{"city":"Seattle","name":"ISO - Seattle","zip":null,"geo_score":0.857,"id":"a640ohac7kf3","geo_precision":"city","address":null,"state":"WA"},"type":"Feature","geometry":{"type":"Point","coordinates":[-122.332071,47.60621]}},{"properties":{"city":"Seattle","name":"ISO - University of Washington","zip":null,"geo_score":0.857,"id":"a640ohl5aunx","geo_precision":"city","address":null,"state":"WA"},"type":"Feature","geometry":{"type":"Point","coordinates":[-122.332071,47.60621]}},{"properties":{"city":"Shreveport","name":"ISO - Shreveport","zip":null,"geo_score":0.857,"id":"a640oh84fru5","geo_precision":"city","address":null,"state":"LA"},"type":"Feature","geometry":{"type":"Point","coordinates":[-93.750179,32.525152]}},{"properties":{"city":"St. Cloud","name":"ISO - St. Cloud","zip":null,"geo_score":0.755,"id":"a640ohbh6rop","geo_precision":"city","address":null,"state":"MN"},"type":"Feature","geometry":{"type":"Point","coordinates":[-91.979323,43.894685]}},{"properties":{"city":"Syracuse","name":"ISO - Syracuse","zip":null,"geo_score":0.857,"id":"a640ohljit02","geo_precision":"city","address":null,"state":"NY"},"type":"Feature","geometry":{"type":"Point","coordinates":[-76.147424,43.048122]}},{"properties":{"city":"Toledo","name":"ISO - Toledo","zip":null,"geo_score":0.857,"id":"a640ohfa1va4","geo_precision":"city","address":null,"state":"OH"},"type":"Feature","geometry":{"type":"Point","coordinates":[-83.555212,41.663938]}},{"properties":{"city":"Tucson","name":"ISO - Tucson","zip":null,"geo_score":0.857,"id":"a640ohm3gi20","geo_precision":"city","address":null,"state":"AZ"},"type":"Feature","geometry":{"type":"Point","coordinates":[-110.926479,32.221743]}},{"properties":{"city":"Ventura County","name":"ISO - Ventura County","zip":null,"geo_score":0.791,"id":"a640ohktlaw6","geo_precision":"city","address":null,"state":"CA"},"type":"Feature","geometry":{"type":"Point","coordinates":[-119.358352,34.330829]}},{"properties":{"city":"Washington","name":"ISO - Mt. Pleasant","zip":null,"geo_score":0.857,"id":"a640ohaoznwa","geo_precision":"city","address":null,"state":"DC"},"type":"Feature","geometry":{"type":"Point","coordinates":[-77.036366,38.895112]}},{"properties":{"city":"Boston","name":"DSA - Boston","zip":"02205","geo_score":1.0,"id":"a640oh9w9c5z","geo_precision":"zip","address":"P.O. Box 51356","state":"MA"},"type":"Feature","geometry":{"type":"Point","coordinates":[-71.053877,42.350334]}},{"properties":{"city":"Washington","name":"DSA - DC/MD/Northern Virginia","zip":"20009","geo_score":0.657,"id":"a640ohbvwdji","geo_precision":"street","address":"1742 Hobart St. NW","state":"DC"},"type":"Feature","geometry":{"type":"Point","coordinates":[-77.037005,38.927866]}},{"properties":{"city":"Ithaca","name":"DSA - Ithaca","zip":"14850","geo_score":0.919,"id":"a640ohj6po55","geo_precision":"range","address":"206 Eddy St","state":"NY"},"type":"Feature","geometry":{"type":"Point","coordinates":[-76.487386,42.439767]}},{"properties":{"city":"Portland","name":"DSA - Maine","zip":"04102","geo_score":0.939,"id":"a640ohfxf4p0","geo_precision":"range","address":"44 Mitton St.","state":"ME"},"type":"Feature","geometry":{"type":"Point","coordinates":[-70.294035,43.656718]}},{"properties":{"city":"Paterson","name":"DSA - New Jersey","zip":"07514","geo_score":0.916,"id":"a640ohjfvzu8","geo_precision":"range","address":"150 East 33rd St.","state":"NJ"},"type":"Feature","geometry":{"type":"Point","coordinates":[-74.14173,40.9188]}},{"properties":{"city":"New York","name":"DSA - New York City","zip":"10038","geo_score":0.854,"id":"a640oh78bspm","geo_precision":"range","address":"75 Maiden Ln Suite 505","state":"NY"},"type":"Feature","geometry":{"type":"Point","coordinates":[-74.007839,40.707673]}},{"properties":{"city":"Philadelphia","name":"DSA - Greater Philadelphia","zip":null,"geo_score":0.857,"id":"a640ohhskuu6","geo_precision":"city","address":null,"state":"PA"},"type":"Feature","geometry":{"type":"Point","coordinates":[-75.163789,39.952335]}},{"properties":{"city":"Indianapolis","name":"DSA - Central Indiana","zip":"46202","geo_score":1.0,"id":"a640ohhpv1wa","geo_precision":"range","address":"1504 North Pennsylvania St.","state":"IN"},"type":"Feature","geometry":{"type":"Point","coordinates":[-86.15579,39.787238]}},{"properties":{"city":"Chicago","name":"DSA - Chicago","zip":"60647","geo_score":0.805,"id":"a640ohe1pjql","geo_precision":"street","address":"1608 North Milwaukee Ave #403","state":"IL"},"type":"Feature","geometry":{"type":"Point","coordinates":[-87.677625,41.910482]}},{"properties":{"city":"Columbus","name":"DSA - Columbus","zip":"43202","geo_score":0.286,"id":"a640oh88dv7d","geo_precision":"street","address":"P.O. Box 82588","state":"OH"},"type":"Feature","geometry":{"type":"Point","coordinates":[-82.985883,39.947278]}},{"properties":{"city":"Des Moines","name":"DSA - Des Moines","zip":null,"geo_score":0.857,"id":"a640ohcj7cf6","geo_precision":"city","address":null,"state":"IA"},"type":"Feature","geometry":{"type":"Point","coordinates":[-93.609106,41.600545]}},{"properties":{"city":"Farmington Hills","name":"DSA - Detroit","zip":"48334","geo_score":0.593,"id":"a640ohies4d9","geo_precision":"street","address":"28292 Harwich St.","state":"MI"},"type":"Feature","geometry":{"type":"Point","coordinates":[-83.33005,42.503518]}},{"properties":{"city":"Madison","name":"DSA - Madison","zip":"53706","geo_score":0.637,"id":"a640ohfkk4g2","geo_precision":"street","address":"818 Van Hise Hall, University of Wisconsin","state":"WI"},"type":"Feature","geometry":{"type":"Point","coordinates":[-89.397432,43.073221]}},{"properties":{"city":"Ramsey","name":"DSA - Twin Cities","zip":"55303","geo_score":0.641,"id":"a640ohlgom30","geo_precision":"street","address":"5425 144th Way NW Unit 12","state":"MN"},"type":"Feature","geometry":{"type":"Point","coordinates":[-93.417837,45.232853]}},{"properties":{"city":"Wichita","name":"DSA - Wichita","zip":null,"geo_score":0.857,"id":"a640ohln29zh","geo_precision":"city","address":null,"state":"KS"},"type":"Feature","geometry":{"type":"Point","coordinates":[-97.337545,37.692236]}},{"properties":{"city":"Atlanta","name":"DSA - Atlanta","zip":"30338","geo_score":0.902,"id":"a640oh98rupv","geo_precision":"range","address":"5425 Brooke Ridge Circle","state":"GA"},"type":"Feature","geometry":{"type":"Point","coordinates":[-84.294602,33.959282]}},{"properties":{"city":"Memphis","name":"DSA - Memphis","zip":null,"geo_score":0.857,"id":"a640ohfgu7n3","geo_precision":"city","address":null,"state":"TN"},"type":"Feature","geometry":{"type":"Point","coordinates":[-90.04898,35.149534]}},{"properties":{"city":"Fairbanks","name":"DSA - Alaska","zip":"99708","geo_score":0.286,"id":"a640ohha5msy","geo_precision":"street","address":"P.O. Box 80967","state":"AK"},"type":"Feature","geometry":{"type":"Point","coordinates":[-147.624416,64.901288]}},{"properties":{"city":"Boulder","name":"DSA - Colorado","zip":"80303","geo_score":0.571,"id":"a640ohc49crz","geo_precision":"street","address":"3353 Madison Ave #U318","state":"CO"},"type":"Feature","geometry":{"type":"Point","coordinates":[-105.253103,40.005945]}},{"properties":{"city":"Berkeley","name":"DSA - East Bay CA","zip":"94707","geo_score":0.912,"id":"a640ohde3ewn","geo_precision":"range","address":"1256 Monterey Ave","state":"CA"},"type":"Feature","geometry":{"type":"Point","coordinates":[-122.281511,37.88403]}},{"properties":{"city":"Los Angeles","name":"DSA - LA County","zip":null,"geo_score":0.857,"id":"a640ohks0dqa","geo_precision":"city","address":null,"state":"CA"},"type":"Feature","geometry":{"type":"Point","coordinates":[-118.243685,34.052234]}},{"properties":{"city":"Sacramento","name":"DSA - Sacramento Valley","zip":null,"geo_score":0.857,"id":"a640ohfh015c","geo_precision":"city","address":null,"state":"CA"},"type":"Feature","geometry":{"type":"Point","coordinates":[-121.4944,38.581572]}},{"properties":{"city":"San Diego","name":"DSA - San Diego","zip":"92120","geo_score":0.932,"id":"a640ohjt4rbl","geo_precision":"range","address":"6142 Romany Drive","state":"CA"},"type":"Feature","geometry":{"type":"Point","coordinates":[-117.067128,32.784017]}},{"properties":{"city":"San Francisco","name":"DSA - San Francisco","zip":"94131","geo_score":1.0,"id":"a640ohlhrl58","geo_precision":"range","address":"11 Panorama Drive","state":"CA"},"type":"Feature","geometry":{"type":"Point","coordinates":[-122.449505,37.746706]}},{"properties":{"city":"Seattle","name":"DSA - Seattle","zip":"98115","geo_score":0.841,"id":"a640ohfm4ao5","geo_precision":"range","address":"5818 NE 70th St","state":"WA"},"type":"Feature","geometry":{"type":"Point","coordinates":[-122.265267,47.67937]}},{"properties":{"city":"Conway","name":"DSA - YDS Arkansas OC","zip":null,"geo_score":0.857,"id":"a640oh76e96r","geo_precision":"city","address":null,"state":"AR"},"type":"Feature","geometry":{"type":"Point","coordinates":[-92.459422,35.081581]}},{"properties":{"city":"Los Angeles","name":"DSA - YDS LA Coalition","zip":null,"geo_score":0.857,"id":"a640oh9lwuk9","geo_precision":"city","address":null,"state":"CA"},"type":"Feature","geometry":{"type":"Point","coordinates":[-118.243685,34.052234]}},{"properties":{"city":"Davis","name":"DSA - YDS UC Davis OC","zip":null,"geo_score":0.857,"id":"a640ohlxzdma","geo_precision":"city","address":null,"state":"CA"},"type":"Feature","geometry":{"type":"Point","coordinates":[-121.749016,38.521776]}},{"properties":{"city":"Middletown","name":"DSA - YDS Wesleyan University","zip":null,"geo_score":0.857,"id":"a640ohh2r5z1","geo_precision":"city","address":null,"state":"CT"},"type":"Feature","geometry":{"type":"Point","coordinates":[-72.655357,41.550139]}},{"properties":{"city":"Orlando","name":"DSA - YDS Valencia Community College OC","zip":null,"geo_score":0.857,"id":"a640ohb7glfs","geo_precision":"city","address":null,"state":"FL"},"type":"Feature","geometry":{"type":"Point","coordinates":[-81.379237,28.538336]}},{"properties":{"city":"Indianapolis","name":"DSA - YDS IUPUI OC","zip":null,"geo_score":0.857,"id":"a640ohli0xwh","geo_precision":"city","address":null,"state":"IN"},"type":"Feature","geometry":{"type":"Point","coordinates":[-86.158042,39.768377]}},{"properties":{"city":"Columbia","name":"DSA - YDS Lindsey Wilson College","zip":null,"geo_score":0.857,"id":"a640oh6ymjrq","geo_precision":"city","address":null,"state":"KY"},"type":"Feature","geometry":{"type":"Point","coordinates":[-85.265586,37.116131]}},{"properties":{"city":"Danville","name":"DSA - YDS Centre College OC","zip":null,"geo_score":0.8,"id":"a640oh9v87xq","geo_precision":"city","address":null,"state":"KY"},"type":"Feature","geometry":{"type":"Point","coordinates":[-85.796072,37.609506]}},{"properties":{"city":"Wichita","name":"DSA - YDS Wichita State University","zip":null,"geo_score":0.857,"id":"a640ohdqagmq","geo_precision":"city","address":null,"state":"KS"},"type":"Feature","geometry":{"type":"Point","coordinates":[-97.337545,37.692236]}},{"properties":{"city":"Lawrence","name":"DSA - YDS Kansas University","zip":null,"geo_score":0.857,"id":"a640oh8fqmqf","geo_precision":"city","address":null,"state":"KS"},"type":"Feature","geometry":{"type":"Point","coordinates":[-95.283982,38.907518]}},{"properties":{"city":"Amherst","name":"DSA - YDS UMASS Amherst OC","zip":null,"geo_score":0.857,"id":"a640oh78xrg4","geo_precision":"city","address":null,"state":"MA"},"type":"Feature","geometry":{"type":"Point","coordinates":[-72.464571,42.367092]}},{"properties":{"city":"East Lansing","name":"DSA - YDS Michigan State University","zip":null,"geo_score":0.805,"id":"a640ohdztpxk","geo_precision":"city","address":null,"state":"MI"},"type":"Feature","geometry":{"type":"Point","coordinates":[-84.555535,42.732535]}},{"properties":{"city":"Wayne","name":"DSA - YDS William Paterson University","zip":null,"geo_score":0.857,"id":"a640ohew1zlr","geo_precision":"city","address":null,"state":"NJ"},"type":"Feature","geometry":{"type":"Point","coordinates":[-74.241168,40.948689]}},{"properties":{"city":"New Brunswick","name":"DSA - YDS Rutgers University OC","zip":null,"geo_score":0.857,"id":"a640ohc7uts7","geo_precision":"city","address":null,"state":"NJ"},"type":"Feature","geometry":{"type":"Point","coordinates":[-74.451819,40.486216]}},{"properties":{"city":"New York","name":"DSA - YDS New York City","zip":null,"geo_score":0.857,"id":"a640oheq8kq1","geo_precision":"city","address":null,"state":"NY"},"type":"Feature","geometry":{"type":"Point","coordinates":[-74.005973,40.714269]}},{"properties":{"city":"New York","name":"DSA - YDS Vassar College","zip":null,"geo_score":0.857,"id":"a640ohgqja0w","geo_precision":"city","address":null,"state":"NY"},"type":"Feature","geometry":{"type":"Point","coordinates":[-74.005973,40.714269]}},{"properties":{"city":"Wooster","name":"DSA - YDS Wooster College","zip":null,"geo_score":0.857,"id":"a640ohja4ew4","geo_precision":"city","address":null,"state":"OH"},"type":"Feature","geometry":{"type":"Point","coordinates":[-81.895377,40.830699]}},{"properties":{"city":"Athens","name":"DSA - YDS Ohio University","zip":null,"geo_score":0.857,"id":"a640ohk9c73j","geo_precision":"city","address":null,"state":"OH"},"type":"Feature","geometry":{"type":"Point","coordinates":[-82.013803,39.339279]}},{"properties":{"city":"Dayton","name":"DSA - YDS Wright State University OC","zip":null,"geo_score":0.857,"id":"a640ohdak66y","geo_precision":"city","address":null,"state":"OH"},"type":"Feature","geometry":{"type":"Point","coordinates":[-84.191607,39.758948]}},{"properties":{"city":"Youngstown","name":"DSA - YDS Youngstown State University OC","zip":null,"geo_score":0.857,"id":"a640ohm1zhmm","geo_precision":"city","address":null,"state":"OH"},"type":"Feature","geometry":{"type":"Point","coordinates":[-80.649519,41.09978]}},{"properties":{"city":"Tulsa","name":"DSA - YDS University of Tulsa OC","zip":null,"geo_score":0.857,"id":"a640ohhtb3fh","geo_precision":"city","address":null,"state":"OK"},"type":"Feature","geometry":{"type":"Point","coordinates":[-95.992775,36.153982]}},{"properties":{"city":"Eugene","name":"DSA - YDS University of Oregon OC","zip":null,"geo_score":0.857,"id":"a640ohe8dubq","geo_precision":"city","address":null,"state":"OR"},"type":"Feature","geometry":{"type":"Point","coordinates":[-123.086754,44.052069]}},{"properties":{"city":"Philadelphia","name":"DSA - YDS Temple University","zip":null,"geo_score":0.857,"id":"a640oh6detr9","geo_precision":"city","address":null,"state":"PA"},"type":"Feature","geometry":{"type":"Point","coordinates":[-75.163789,39.952335]}},{"properties":{"city":"State Colllege","name":"DSA - YDS Penn State","zip":null,"geo_score":0.736,"id":"a640ohagn10b","geo_precision":"city","address":null,"state":"PA"},"type":"Feature","geometry":{"type":"Point","coordinates":[-80.446733,40.303681]}},{"properties":{"city":"Philadelphia","name":"DSA - YDS University of Pennsylvania","zip":null,"geo_score":0.857,"id":"a640ohfasoo0","geo_precision":"city","address":null,"state":"PA"},"type":"Feature","geometry":{"type":"Point","coordinates":[-75.163789,39.952335]}},{"properties":{"city":"Huntsville","name":"DSA - YDS Sam Houston State","zip":null,"geo_score":0.857,"id":"a640ohlsechn","geo_precision":"city","address":null,"state":"TX"},"type":"Feature","geometry":{"type":"Point","coordinates":[-95.597029,30.846986]}},{"properties":{"city":"Houston","name":"DSA - YDS Lonestar State Kingwood","zip":null,"geo_score":0.816,"id":"a640ohaapef2","geo_precision":"city","address":null,"state":"TX"},"type":"Feature","geometry":{"type":"Point","coordinates":[-96.919704,29.845783]}},{"properties":{"city":"New York","name":"DSA - NATIONAL OFFICE","zip":"10038","geo_score":0.854,"id":"a640oh6y1ay2","geo_precision":"range","address":"75 Maiden Ln Suite 505","state":"NY"},"type":"Feature","geometry":{"type":"Point","coordinates":[-74.007839,40.707673]}},{"properties":{"city":"San Francisco","name":"Socialist Organizer - NATIONAL OFFICE","zip":"94140","geo_score":0.286,"id":"a640oh6oa92n","geo_precision":"street","address":"P.O. Box 40009","state":"CA"},"type":"Feature","geometry":{"type":"Point","coordinates":[-122.417571,37.733948]}},{"properties":{"city":"Oakland","name":"Socialist Action - NATIONAL OFFICE","zip":"94610","geo_score":0.286,"id":"a640ohfdwgj1","geo_precision":"street","address":"P.O. Box 10328","state":"CA"},"type":"Feature","geometry":{"type":"Point","coordinates":[-122.289171,37.823707]}},{"properties":{"city":"Boston","name":"Platypus - Boston","zip":null,"geo_score":0.857,"id":"a640ohfbueog","geo_precision":"city","address":null,"state":"MA"},"type":"Feature","geometry":{"type":"Point","coordinates":[-71.059773,42.358431]}},{"properties":{"city":"Chicago","name":"Platypus - Chicago","zip":null,"geo_score":0.857,"id":"a640ohm3jcpl","geo_precision":"city","address":null,"state":"IL"},"type":"Feature","geometry":{"type":"Point","coordinates":[-87.650052,41.850033]}},{"properties":{"city":"New York","name":"Platypus - New York","zip":null,"geo_score":0.857,"id":"a640ohfv04bx","geo_precision":"city","address":null,"state":"NY"},"type":"Feature","geometry":{"type":"Point","coordinates":[-74.005973,40.714269]}},{"properties":{"city":"Philadelphia","name":"Platypus - Philadelphia","zip":null,"geo_score":0.857,"id":"a640ohjj88w1","geo_precision":"city","address":null,"state":"PA"},"type":"Feature","geometry":{"type":"Point","coordinates":[-75.163789,39.952335]}},{"properties":{"city":"New York","name":"FRSO - NATIONAL OFFICE","zip":"10009","geo_score":0.6,"id":"a640oh6he8p4","geo_precision":"street","address":"P.O. Box 1386 Stuyvesant Station","state":"NY"},"type":"Feature","geometry":{"type":"Point","coordinates":[-73.980711,40.733813]}},{"properties":{"city":"Chicago","name":"FRSO/Fight Back - NATIONAL OFFICE","zip":"60680","geo_score":0.357,"id":"a640ohlqb9as","geo_precision":"street","address":"P.O. Box 87613","state":"IL"},"type":"Feature","geometry":{"type":"Point","coordinates":[-87.654314,41.915461]}},{"properties":{"city":"San Diego","name":"PSL - San Diego","zip":null,"geo_score":0.857,"id":"a640ohaar7zg","geo_precision":"city","address":null,"state":"CA"},"type":"Feature","geometry":{"type":"Point","coordinates":[-117.157255,32.715329]}},{"properties":{"city":"Inland Empire","name":"PSL - Inland Empire","zip":null,"geo_score":0.786,"id":"a640ohhigjzt","geo_precision":"city","address":null,"state":"CA"},"type":"Feature","geometry":{"type":"Point","coordinates":[-120.906593,37.637531]}},{"properties":{"city":"San Jose","name":"PSL - San Jose","zip":null,"geo_score":0.857,"id":"a640oh9b2k0z","geo_precision":"city","address":null,"state":"CA"},"type":"Feature","geometry":{"type":"Point","coordinates":[-121.894956,37.339386]}},{"properties":{"city":"Long Beach","name":"PSL - Long Beach","zip":null,"geo_score":0.857,"id":"a640ohiwa1lw","geo_precision":"city","address":null,"state":"CA"},"type":"Feature","geometry":{"type":"Point","coordinates":[-118.189235,33.766962]}},{"properties":{"city":"Los Angeles","name":"PSL - Los Angeles","zip":null,"geo_score":0.857,"id":"a640ohfeqi0r","geo_precision":"city","address":null,"state":"CA"},"type":"Feature","geometry":{"type":"Point","coordinates":[-118.243685,34.052234]}},{"properties":{"city":"Sacramento","name":"PSL - Sacramento","zip":null,"geo_score":0.857,"id":"a640ohjtkrgi","geo_precision":"city","address":null,"state":"CA"},"type":"Feature","geometry":{"type":"Point","coordinates":[-121.4944,38.581572]}},{"properties":{"city":"San Francisco","name":"PSL - San Francisco","zip":null,"geo_score":0.857,"id":"a640ohko04bk","geo_precision":"city","address":null,"state":"CA"},"type":"Feature","geometry":{"type":"Point","coordinates":[-122.419416,37.77493]}},{"properties":{"city":"Santa Cruz","name":"PSL - Santa Cruz","zip":null,"geo_score":0.762,"id":"a640ohkfwgiw","geo_precision":"city","address":null,"state":"CA"},"type":"Feature","geometry":{"type":"Point","coordinates":[-119.045658,36.114674]}},{"properties":{"city":"New Haven","name":"PSL - Connecticut","zip":null,"geo_score":0.857,"id":"a640oh98l945","geo_precision":"city","address":null,"state":"CT"},"type":"Feature","geometry":{"type":"Point","coordinates":[-72.928158,41.308153]}},{"properties":{"city":"Washington","name":"PSL - District of Columbia","zip":null,"geo_score":0.857,"id":"a640ohftx4ke","geo_precision":"city","address":null,"state":"DC"},"type":"Feature","geometry":{"type":"Point","coordinates":[-77.036366,38.895112]}},{"properties":{"city":"Miami","name":"PSL - Miami","zip":null,"geo_score":0.857,"id":"a640ohbtvriz","geo_precision":"city","address":null,"state":"FL"},"type":"Feature","geometry":{"type":"Point","coordinates":[-80.193659,25.774266]}},{"properties":{"city":"Orlando","name":"PSL - Orlando","zip":null,"geo_score":0.857,"id":"a640oh65lnyb","geo_precision":"city","address":null,"state":"FL"},"type":"Feature","geometry":{"type":"Point","coordinates":[-81.379237,28.538336]}},{"properties":{"city":"Chicago","name":"PSL - Chicago","zip":null,"geo_score":0.857,"id":"a640ohhonqy8","geo_precision":"city","address":null,"state":"IL"},"type":"Feature","geometry":{"type":"Point","coordinates":[-87.650052,41.850033]}},{"properties":{"city":"Boston","name":"PSL - Boston","zip":null,"geo_score":0.857,"id":"a640ohbnb4lt","geo_precision":"city","address":null,"state":"MA"},"type":"Feature","geometry":{"type":"Point","coordinates":[-71.059773,42.358431]}},{"properties":{"city":"Baltimore","name":"PSL - Baltimore","zip":null,"geo_score":0.857,"id":"a640ohjbxhcf","geo_precision":"city","address":null,"state":"MD"},"type":"Feature","geometry":{"type":"Point","coordinates":[-76.612189,39.290385]}},{"properties":{"city":"Saint Louis","name":"PSL - St. Louis","zip":null,"geo_score":0.857,"id":"a640oh97wl19","geo_precision":"city","address":null,"state":"MO"},"type":"Feature","geometry":{"type":"Point","coordinates":[-90.197889,38.627273]}},{"properties":{"city":"Albuquerque","name":"PSL - Albuquerque","zip":null,"geo_score":0.857,"id":"a640oh7n78a8","geo_precision":"city","address":null,"state":"NM"},"type":"Feature","geometry":{"type":"Point","coordinates":[-106.651137,35.084491]}},{"properties":{"city":"New Paltz","name":"PSL - New Paltz","zip":null,"geo_score":0.857,"id":"a640ohkli9nm","geo_precision":"city","address":null,"state":"NY"},"type":"Feature","geometry":{"type":"Point","coordinates":[-74.109241,41.74638]}},{"properties":{"city":"Syracuse","name":"PSL - Syracuse","zip":null,"geo_score":0.857,"id":"a640ohk3cugs","geo_precision":"city","address":null,"state":"NY"},"type":"Feature","geometry":{"type":"Point","coordinates":[-76.147424,43.048122]}},{"properties":{"city":"New York","name":"PSL - New York City","zip":null,"geo_score":0.857,"id":"a640ohmhhboc","geo_precision":"city","address":null,"state":"NY"},"type":"Feature","geometry":{"type":"Point","coordinates":[-74.005973,40.714269]}},{"properties":{"city":"Philadelphia","name":"PSL - Philadelphia","zip":null,"geo_score":0.857,"id":"a640ohhjo5yb","geo_precision":"city","address":null,"state":"PA"},"type":"Feature","geometry":{"type":"Point","coordinates":[-75.163789,39.952335]}},{"properties":{"city":"Pittsburgh","name":"PSL - Pittsburgh","zip":null,"geo_score":0.857,"id":"a640ohh5ao76","geo_precision":"city","address":null,"state":"PA"},"type":"Feature","geometry":{"type":"Point","coordinates":[-79.995886,40.440625]}},{"properties":{"city":"Sioux Falls","name":"PSL - Sioux Falls","zip":null,"geo_score":0.857,"id":"a640ohkix4qu","geo_precision":"city","address":null,"state":"SD"},"type":"Feature","geometry":{"type":"Point","coordinates":[-96.730328,43.546642]}},{"properties":{"city":"Austin","name":"PSL - Austin","zip":null,"geo_score":0.857,"id":"a640ohbxr77s","geo_precision":"city","address":null,"state":"TX"},"type":"Feature","geometry":{"type":"Point","coordinates":[-97.743061,30.267153]}},{"properties":{"city":"Seattle","name":"PSL - Seattle","zip":null,"geo_score":0.857,"id":"a640ohgke29w","geo_precision":"city","address":null,"state":"WA"},"type":"Feature","geometry":{"type":"Point","coordinates":[-122.332071,47.60621]}}],"is_temporal":false,"author":{"url":"","metadata":"","contact_name":"","contact_address":"","source":"","contact_phone":""},"source":"","pagination":{"sort":null,"start":0,"total":284,"limit":1000000},"state":"complete","tags":"","published":"2014-08-14T15:14:46-04:00","id":220290}