{"type":"FeatureCollection","data_type":"Dataset","url_type":null,"permissions":[{"permissions":{"download":true,"view":true},"group_id":"everyone"}],"classification":null,"title":"Kevin_-_Old_Republic_-_ran_March_26th","count":24,"stream_id":220304,"contributor":{"url":"http://geocommons.com/users/39447","name":"sam.felipe"},"data_attributes":null,"calculation_params":null,"icon_link":null,"link":"http://geocommons.com/overlays/220304.json","extent":[-122.703,37.7315,-121.126,38.6643],"geometry_types":["point"],"unique_name":null,"name":"Kevin_-_Old_Republic_-_ran_March_26th","feature_count":24,"description":"","next_feature":null,"is_raster":false,"short_classification":"Y","stats":{"competitor code":{"max":23,"mean":23.0,"variance":0.0,"stdev":0.0,"min":23,"median":23},"mode":{"max":45,"mean":45.0,"variance":0.0,"stdev":0.0,"min":45,"median":45},"vp code":{"max":3,"mean":3.0,"variance":0.0,"stdev":0.0,"min":3,"median":3}},"features":[{"properties":{"city":"Danville","name of competitor":"Old Republic Title","zip":"94526","competitor code":23,"mode":45,"geo_score":0.816,"street address":"419 Sycamore Valley Rd W","vp name":"Kevin","vp code":3,"id":"a6dprzs39mdj","geo_precision":"range"},"type":"Feature","geometry":{"type":"Point","coordinates":[-121.997702,37.812131]}},{"properties":{"city":"Fair Oaks","name of competitor":"Old Republic Title","zip":"95628","competitor code":23,"mode":45,"geo_score":0.902,"street address":"8525 Madison Ave","vp name":"Kevin","vp code":3,"id":"a6dprzgrj7eb","geo_precision":"range"},"type":"Feature","geometry":{"type":"Point","coordinates":[-121.243287,38.664256]}},{"properties":{"city":"Folsom","name of competitor":"Old Republic Title","zip":"95630","competitor code":23,"mode":45,"geo_score":0.614,"street address":"2365 Iron Point Rd","vp name":"Kevin","vp code":3,"id":"a6dprzn1t7sg","geo_precision":"range"},"type":"Feature","geometry":{"type":"Point","coordinates":[-121.126036,38.645778]}},{"properties":{"city":"Greenbrae","name of competitor":"Old Republic Title","zip":"94904","competitor code":23,"mode":45,"geo_score":0.499,"street address":"300 Drakes Landing","vp name":"Kevin","vp code":3,"id":"a6dprzh9lmjv","geo_precision":"zip"},"type":"Feature","geometry":{"type":"Point","coordinates":[-122.5572,37.952147]}},{"properties":{"city":"Mill Valley","name of competitor":"Old Republic Title","zip":"94941","competitor code":23,"mode":45,"geo_score":0.759,"street address":"110 Tiburon Blvd","vp name":"Kevin","vp code":3,"id":"a6dprzn0il2o","geo_precision":"range"},"type":"Feature","geometry":{"type":"Point","coordinates":[-122.511092,37.902131]}},{"properties":{"city":"Novato","name of competitor":"Old Republic Title","zip":"94949","competitor code":23,"mode":45,"geo_score":0.805,"street address":"1450 Grant Ave","vp name":"Kevin","vp code":3,"id":"a6dprzczmzel","geo_precision":"range"},"type":"Feature","geometry":{"type":"Point","coordinates":[-122.575281,38.10857]}},{"properties":{"city":"Novato","name of competitor":"Old Republic Title","zip":"94945","competitor code":23,"mode":45,"geo_score":0.815,"street address":"1450 Grant Ave","vp name":"Kevin","vp code":3,"id":"a6dprzfgmjnp","geo_precision":"range"},"type":"Feature","geometry":{"type":"Point","coordinates":[-122.575281,38.10857]}},{"properties":{"city":"Novato","name of competitor":"Old Republic Title","zip":"94947","competitor code":23,"mode":45,"geo_score":0.508,"street address":"1450 Grant Ave","vp name":"Kevin","vp code":3,"id":"a6dprzfckb0m","geo_precision":"street"},"type":"Feature","geometry":{"type":"Point","coordinates":[-122.601875,38.113519]}},{"properties":{"city":"Petaluma","name of competitor":"Old Republic Title","zip":"94952","competitor code":23,"mode":45,"geo_score":0.699,"street address":"201 1st St.","vp name":"Kevin","vp code":3,"id":"a6dprzjay78d","geo_precision":"range"},"type":"Feature","geometry":{"type":"Point","coordinates":[-122.636073,38.233802]}},{"properties":{"city":"Sacramento","name of competitor":"Old Republic Title","zip":"95825","competitor code":23,"mode":45,"geo_score":0.844,"street address":"3 Park Center Dr","vp name":"Kevin","vp code":3,"id":"a6dprznv3ox1","geo_precision":"range"},"type":"Feature","geometry":{"type":"Point","coordinates":[-121.415189,38.572257]}},{"properties":{"city":"San Francisco","name of competitor":"Old Republic Title","zip":"94122","competitor code":23,"mode":45,"geo_score":0.902,"street address":"927 Irving St","vp name":"Kevin","vp code":3,"id":"a6dprziix01c","geo_precision":"range"},"type":"Feature","geometry":{"type":"Point","coordinates":[-122.467607,37.763978]}},{"properties":{"city":"San Francisco","name of competitor":"Old Republic Title","zip":"94114","competitor code":23,"mode":45,"geo_score":0.429,"street address":"4045 24th St #A","vp name":"Kevin","vp code":3,"id":"a6dprze1zkik","geo_precision":"street"},"type":"Feature","geometry":{"type":"Point","coordinates":[-122.425153,37.751842]}},{"properties":{"city":"San Francisco","name of competitor":"Old Republic Title","zip":"94104","competitor code":23,"mode":45,"geo_score":0.902,"street address":"265 Montgomery St","vp name":"Kevin","vp code":3,"id":"a6dprzi3byur","geo_precision":"range"},"type":"Feature","geometry":{"type":"Point","coordinates":[-122.402479,37.791576]}},{"properties":{"city":"San Francisco","name of competitor":"Old Republic Title","zip":"94132","competitor code":23,"mode":45,"geo_score":0.902,"street address":"2566 Ocean Ave","vp name":"Kevin","vp code":3,"id":"a6dprzoawgz0","geo_precision":"range"},"type":"Feature","geometry":{"type":"Point","coordinates":[-122.472618,37.731463]}},{"properties":{"city":"San Francisco","name of competitor":"Old Republic Title","zip":"94132","competitor code":23,"mode":45,"geo_score":0.805,"street address":"3216 Fillmore St","vp name":"Kevin","vp code":3,"id":"a6dprzfzs1lh","geo_precision":"range"},"type":"Feature","geometry":{"type":"Point","coordinates":[-122.435891,37.799108]}},{"properties":{"city":"San Rafael","name of competitor":"Old Republic Title","zip":"94901","competitor code":23,"mode":45,"geo_score":0.785,"street address":"545 4th St","vp name":"Kevin","vp code":3,"id":"a6dprzdqb9f6","geo_precision":"range"},"type":"Feature","geometry":{"type":"Point","coordinates":[-122.519464,37.972071]}},{"properties":{"city":"San Rafael","name of competitor":"Old Republic Title","zip":"94903","competitor code":23,"mode":45,"geo_score":0.688,"street address":"545 4th St","vp name":"Kevin","vp code":3,"id":"a6dprzqhmwn7","geo_precision":"range"},"type":"Feature","geometry":{"type":"Point","coordinates":[-122.519464,37.972071]}},{"properties":{"city":"Santa Rosa","name of competitor":"Old Republic Title","zip":"95404","competitor code":23,"mode":45,"geo_score":0.829,"street address":"101 Brookwood","vp name":"Kevin","vp code":3,"id":"a6dprzm0z85j","geo_precision":"range"},"type":"Feature","geometry":{"type":"Point","coordinates":[-122.702818,38.440357]}},{"properties":{"city":"Santa Rosa","name of competitor":"Old Republic Title","zip":"95402","competitor code":23,"mode":45,"geo_score":0.732,"street address":"101 Brookwood","vp name":"Kevin","vp code":3,"id":"a6dprzhwa7w8","geo_precision":"range"},"type":"Feature","geometry":{"type":"Point","coordinates":[-122.702818,38.440357]}},{"properties":{"city":"Santa Rosa","name of competitor":"Old Republic Title","zip":"95403","competitor code":23,"mode":45,"geo_score":0.732,"street address":"101 Brookwood","vp name":"Kevin","vp code":3,"id":"a6dprzpf2d0m","geo_precision":"range"},"type":"Feature","geometry":{"type":"Point","coordinates":[-122.702818,38.440357]}},{"properties":{"city":"Santa Rosa","name of competitor":"Old Republic Title","zip":"95405","competitor code":23,"mode":45,"geo_score":0.732,"street address":"101 Brookwood","vp name":"Kevin","vp code":3,"id":"a6dprzgf3c7x","geo_precision":"range"},"type":"Feature","geometry":{"type":"Point","coordinates":[-122.702818,38.440357]}},{"properties":{"city":"Santa Rosa","name of competitor":"Old Republic Title","zip":"95407","competitor code":23,"mode":45,"geo_score":0.732,"street address":"101 Brookwood","vp name":"Kevin","vp code":3,"id":"a6dprzhc6ydp","geo_precision":"range"},"type":"Feature","geometry":{"type":"Point","coordinates":[-122.702818,38.440357]}},{"properties":{"city":"Santa Rosa","name of competitor":"Old Republic Title","zip":"95401","competitor code":23,"mode":45,"geo_score":0.732,"street address":"101 Brookwood","vp name":"Kevin","vp code":3,"id":"a6dprzpcb0q2","geo_precision":"range"},"type":"Feature","geometry":{"type":"Point","coordinates":[-122.702818,38.440357]}},{"properties":{"city":"Walnut Creek","name of competitor":"Old Republic Title","zip":"94595","competitor code":23,"mode":45,"geo_score":0.49,"street address":"500 Ygnacio Valley Rd, ste 110","vp name":"Kevin","vp code":3,"id":"a6dprzfe8f18","geo_precision":"street"},"type":"Feature","geometry":{"type":"Point","coordinates":[-122.069034,37.893105]}}],"is_temporal":false,"author":{"url":"","metadata":null,"contact_name":null,"contact_address":null,"source":null,"contact_phone":null},"source":"","pagination":{"sort":null,"start":0,"total":24,"limit":1000000},"state":"complete","tags":"","published":"2014-08-14T15:16:06-04:00","id":220304}