{"type":"FeatureCollection","data_type":"Dataset","url_type":null,"permissions":[{"permissions":{"download":true,"view":true},"group_id":"everyone"}],"classification":null,"title":"Kevin_-_North_Coast_-_ran_March_26th","count":6,"stream_id":220303,"contributor":{"url":"http://geocommons.com/users/39447","name":"sam.felipe"},"data_attributes":null,"calculation_params":null,"icon_link":null,"link":"http://geocommons.com/overlays/220303.json","extent":[-122.717,38.4406,-122.714,38.461],"geometry_types":["point"],"unique_name":null,"name":"Kevin_-_North_Coast_-_ran_March_26th","feature_count":6,"description":"","next_feature":null,"is_raster":false,"short_classification":"Y","stats":{"competitor code":{"max":22,"mean":22.0,"variance":0.0,"stdev":0.0,"min":22,"median":22},"mode":{"max":6,"mean":6.0,"variance":0.0,"stdev":0.0,"min":6,"median":6},"vp code":{"max":3,"mean":3.0,"variance":0.0,"stdev":0.0,"min":3,"median":3}},"features":[{"properties":{"city":"Santa Rosa","name of competitor":"North Coast Title","zip":"95401","competitor code":22,"mode":6,"geo_score":0.802,"street address":"318 Mendocino Av","vp name":"Kevin","vp code":3,"id":"a66dvxxcilfq","geo_precision":"range"},"type":"Feature","geometry":{"type":"Point","coordinates":[-122.714069,38.440577]}},{"properties":{"city":"Santa Rosa","name of competitor":"North Coast Title","zip":"95402","competitor code":22,"mode":6,"geo_score":0.78,"street address":"318 Mendocino Av","vp name":"Kevin","vp code":3,"id":"a66dvxuvytjn","geo_precision":"range"},"type":"Feature","geometry":{"type":"Point","coordinates":[-122.714069,38.440577]}},{"properties":{"city":"Santa Rosa","name of competitor":"North Coast Title","zip":"95403","competitor code":22,"mode":6,"geo_score":0.596,"street address":"318 Mendocino Av","vp name":"Kevin","vp code":3,"id":"a66dvxy2njs0","geo_precision":"street"},"type":"Feature","geometry":{"type":"Point","coordinates":[-122.717158,38.461006]}},{"properties":{"city":"Santa Rosa","name of competitor":"North Coast Title","zip":"95404","competitor code":22,"mode":6,"geo_score":0.78,"street address":"318 Mendocino Av","vp name":"Kevin","vp code":3,"id":"a66dvxzfb5x6","geo_precision":"range"},"type":"Feature","geometry":{"type":"Point","coordinates":[-122.714069,38.440577]}},{"properties":{"city":"Santa Rosa","name of competitor":"North Coast Title","zip":"95405","competitor code":22,"mode":6,"geo_score":0.78,"street address":"318 Mendocino Av","vp name":"Kevin","vp code":3,"id":"a66dvy33q1y8","geo_precision":"range"},"type":"Feature","geometry":{"type":"Point","coordinates":[-122.714069,38.440577]}},{"properties":{"city":"Santa Rosa","name of competitor":"North Coast Title","zip":"95407","competitor code":22,"mode":6,"geo_score":0.78,"street address":"318 Mendocino Av","vp name":"Kevin","vp code":3,"id":"a66dvxzdx70n","geo_precision":"range"},"type":"Feature","geometry":{"type":"Point","coordinates":[-122.714069,38.440577]}}],"is_temporal":false,"author":{"url":"","metadata":null,"contact_name":null,"contact_address":null,"source":null,"contact_phone":null},"source":"","pagination":{"sort":null,"start":0,"total":6,"limit":1000000},"state":"complete","tags":"","published":"2014-08-14T15:16:06-04:00","id":220303}