{"type":"FeatureCollection","data_type":"Dataset","url_type":null,"permissions":[{"permissions":{"download":true,"view":true},"group_id":"everyone"}],"classification":null,"title":"James_-_Equity_-_ran_March_27th","count":11,"stream_id":220681,"contributor":{"url":"http://geocommons.com/users/39447","name":"sam.felipe"},"data_attributes":null,"calculation_params":null,"icon_link":null,"link":"http://geocommons.com/overlays/220681.json","extent":[-117.843,33.7481,-117.843,33.7481],"geometry_types":["point"],"unique_name":null,"name":"James_-_Equity_-_ran_March_27th","feature_count":11,"description":"","next_feature":null,"is_raster":false,"short_classification":"Y","stats":{"mode":{"max":11,"mean":11.0,"variance":0.0,"stdev":0.0,"min":11,"median":11}},"features":[{"properties":{"city":"Santa Ana","name of competitor":"Equity Title","zip":"92705","mode":11,"geo_score":0.395,"street address":"2112 E. 4th Street","id":"a66n2t4rqnll","geo_precision":"street"},"type":"Feature","geometry":{"type":"Point","coordinates":[-117.843,33.748129]}},{"properties":{"city":"Santa Ana","name of competitor":"Equity Title","zip":"92705","mode":11,"geo_score":0.395,"street address":"2112 E. 4th Street","id":"a66n2t801ry9","geo_precision":"street"},"type":"Feature","geometry":{"type":"Point","coordinates":[-117.843,33.748129]}},{"properties":{"city":"Santa Ana","name of competitor":"Equity Title","zip":"92705","mode":11,"geo_score":0.395,"street address":"2112 E. 4th Street","id":"a66n2t2hy0q8","geo_precision":"street"},"type":"Feature","geometry":{"type":"Point","coordinates":[-117.843,33.748129]}},{"properties":{"city":"Santa Ana","name of competitor":"Equity Title","zip":"92705","mode":11,"geo_score":0.395,"street address":"2112 E. 4th Street","id":"a66n2t2b8jrw","geo_precision":"street"},"type":"Feature","geometry":{"type":"Point","coordinates":[-117.843,33.748129]}},{"properties":{"city":"Santa Ana","name of competitor":"Equity Title","zip":"92705","mode":11,"geo_score":0.395,"street address":"2112 E. 4th Street","id":"a66n2syek8en","geo_precision":"street"},"type":"Feature","geometry":{"type":"Point","coordinates":[-117.843,33.748129]}},{"properties":{"city":"Santa Ana","name of competitor":"Equity Title","zip":"92705","mode":11,"geo_score":0.395,"street address":"2112 E. 4th Street","id":"a66n2t10jndt","geo_precision":"street"},"type":"Feature","geometry":{"type":"Point","coordinates":[-117.843,33.748129]}},{"properties":{"city":"Santa Ana","name of competitor":"Equity Title","zip":"92705","mode":11,"geo_score":0.395,"street address":"2112 E. 4th Street","id":"a66n2tchxk0g","geo_precision":"street"},"type":"Feature","geometry":{"type":"Point","coordinates":[-117.843,33.748129]}},{"properties":{"city":"Santa Ana","name of competitor":"Equity Title","zip":"92705","mode":11,"geo_score":0.395,"street address":"2112 E. 4th Street","id":"a66n2sz9aros","geo_precision":"street"},"type":"Feature","geometry":{"type":"Point","coordinates":[-117.843,33.748129]}},{"properties":{"city":"Santa Ana","name of competitor":"Equity Title","zip":"92705","mode":11,"geo_score":0.395,"street address":"2112 E. 4th Street","id":"a66n2t5mgsoj","geo_precision":"street"},"type":"Feature","geometry":{"type":"Point","coordinates":[-117.843,33.748129]}},{"properties":{"city":"Santa Ana","name of competitor":"Equity Title","zip":"92705","mode":11,"geo_score":0.395,"street address":"2112 E. 4th Street","id":"a66n2t74zs66","geo_precision":"street"},"type":"Feature","geometry":{"type":"Point","coordinates":[-117.843,33.748129]}},{"properties":{"city":"Santa Ana","name of competitor":"Equity Title","zip":"92705","mode":11,"geo_score":0.395,"street address":"2112 E. 4th Street","id":"a66n2t1ts4mo","geo_precision":"street"},"type":"Feature","geometry":{"type":"Point","coordinates":[-117.843,33.748129]}}],"is_temporal":false,"author":{"url":"","metadata":null,"contact_name":null,"contact_address":null,"source":null,"contact_phone":null},"source":"","pagination":{"sort":null,"start":0,"total":11,"limit":1000000},"state":"complete","tags":"","published":"2014-08-14T15:39:25-04:00","id":220681}