{"type":"FeatureCollection","data_type":"Dataset","url_type":null,"permissions":[{"permissions":{"download":true,"view":true},"group_id":"everyone"}],"classification":null,"title":"ovi traf viol 2008","count":348,"stream_id":220669,"contributor":{"url":"http://geocommons.com/users/42302","name":"hillproject"},"data_attributes":null,"calculation_params":null,"icon_link":null,"link":"http://geocommons.com/overlays/220669.json","extent":[-83.2854,41.093,-83.1602,41.2148],"geometry_types":["point"],"unique_name":null,"name":"ovi traf viol 2008","feature_count":348,"description":"","next_feature":null,"is_raster":false,"short_classification":"Y","stats":{"date":{"max":"2008/12/29 17:49:39 -0500","mean":"2008/06/26 00:50:40 -0400","variance":81260655883172.1,"stdev":9014469.25132989,"min":"2008/01/01 03:33:21 -0500","median":"2008/06/20 02:02:00 -0400"},"cfs":{"max":19,"mean":19.0,"variance":0.0,"stdev":0.0,"min":19,"median":19},"call#":{"max":8.013627,"mean":8.00666300574713,"variance":1.64231208011197e-05,"stdev":0.00405254497829694,"min":8.000018,"median":8.006321}},"features":[{"properties":{"officer":"MAM","city":"Tiffin","zip":"44883","date":{"end_time":"2008/09/03 17:25:02 -0400","original":"9/3/2008 5:25:01 PM","granularity":"sec","time":"2008/09/03 17:25:01 -0400"},"geo_score":0.578,"unit":"58","disposition":"200","cfs":19,"call#":8.009432,"id":"a69x6orkxeun","geo_precision":"street","address":"1 Applejack Park","state":"OH","juris":"PD"},"type":"Feature","geometry":{"type":"Point","coordinates":[-83.172916,41.112623]}},{"properties":{"officer":"SMM","city":"Tiffin","zip":"44883","date":{"end_time":"2008/11/29 02:41:35 -0500","original":"11/29/2008 2:41:34 AM","granularity":"sec","time":"2008/11/29 02:41:34 -0500"},"geo_score":0.646,"unit":"60","disposition":"400","cfs":19,"call#":8.012698,"id":"a69x6oolnd3d","geo_precision":"range","address":"1 City Lot 7","state":"OH","juris":"PD"},"type":"Feature","geometry":{"type":"Point","coordinates":[-83.285418,41.123483]}},{"properties":{"officer":"RLT","city":"Tiffin","zip":"44883","date":{"end_time":"2008/01/04 21:27:24 -0500","original":"1/4/2008 9:27:23 PM","granularity":"sec","time":"2008/01/04 21:27:23 -0500"},"geo_score":0.637,"unit":"60","disposition":"100","cfs":19,"call#":8.000135,"id":"a69x6osvndyl","geo_precision":"street","address":"1 Highland Park","state":"OH","juris":"PD"},"type":"Feature","geometry":{"type":"Point","coordinates":[-83.176302,41.133976]}},{"properties":{"officer":"REB","city":"Tiffin","zip":"44883","date":{"end_time":"2008/02/04 12:33:24 -0500","original":"2/4/2008 12:33:23 PM","granularity":"sec","time":"2008/02/04 12:33:23 -0500"},"geo_score":0.902,"unit":"63","disposition":"100","cfs":19,"call#":8.001219,"id":"a69x6ovw29ro","geo_precision":"range","address":"1 Huss St","state":"OH","juris":"PD"},"type":"Feature","geometry":{"type":"Point","coordinates":[-83.166843,41.131124]}},{"properties":{"officer":"SWK","city":"Tiffin","zip":"44883","date":{"end_time":"2008/10/30 19:11:05 -0400","original":"10/30/2008 7:11:04 PM","granularity":"sec","time":"2008/10/30 19:11:04 -0400"},"geo_score":0.902,"unit":"61","disposition":"100","cfs":19,"call#":8.011722,"id":"a69x6oz8nthq","geo_precision":"range","address":"1 N Sandusky St","state":"OH","juris":"PD"},"type":"Feature","geometry":{"type":"Point","coordinates":[-83.182448,41.120039]}},{"properties":{"officer":"SWK","city":"Tiffin","zip":"44883","date":{"end_time":"2008/07/03 22:11:55 -0400","original":"7/3/2008 10:11:54 PM","granularity":"sec","time":"2008/07/03 22:11:54 -0400"},"geo_score":0.902,"unit":"61","disposition":"100","cfs":19,"call#":8.006862,"id":"a69x6oobghfg","geo_precision":"range","address":"1 N Sandusky St","state":"OH","juris":"PD"},"type":"Feature","geometry":{"type":"Point","coordinates":[-83.182448,41.120039]}},{"properties":{"officer":"SGN","city":"Tiffin","zip":"44883","date":{"end_time":"2008/04/24 11:06:55 -0400","original":"4/24/2008 11:06:54 AM","granularity":"sec","time":"2008/04/24 11:06:54 -0400"},"geo_score":0.902,"unit":"62","disposition":"100","cfs":19,"call#":8.004121,"id":"a69x6ot6ocyp","geo_precision":"range","address":"1 N Washington St","state":"OH","juris":"PD"},"type":"Feature","geometry":{"type":"Point","coordinates":[-83.177111,41.118089]}},{"properties":{"officer":"DES","city":"Tiffin","zip":"44883","date":{"end_time":"2008/01/03 18:55:40 -0500","original":"1/3/2008 6:55:39 PM","granularity":"sec","time":"2008/01/03 18:55:39 -0500"},"geo_score":0.902,"unit":"60","disposition":"100","cfs":19,"call#":8.0001,"id":"a69x6oqlnp8t","geo_precision":"range","address":"1 N Washington St","state":"OH","juris":"PD"},"type":"Feature","geometry":{"type":"Point","coordinates":[-83.177111,41.118089]}},{"properties":{"officer":"JPF","city":"Tiffin","zip":"44883","date":{"end_time":"2008/11/09 01:41:32 -0500","original":"11/9/2008 1:41:31 AM","granularity":"sec","time":"2008/11/09 01:41:31 -0500"},"geo_score":0.709,"unit":"57","disposition":"100","cfs":19,"call#":8.012087,"id":"a69x6ov6lfrz","geo_precision":"street","address":"1 Wall St","state":"OH","juris":"PD"},"type":"Feature","geometry":{"type":"Point","coordinates":[-83.188667,41.117231]}},{"properties":{"officer":"JPF","city":"Tiffin","zip":"44883","date":{"end_time":"2008/08/28 20:15:13 -0400","original":"8/28/2008 8:15:12 PM","granularity":"sec","time":"2008/08/28 20:15:12 -0400"},"geo_score":0.585,"unit":"57","disposition":"200","cfs":19,"call#":8.009146,"id":"a69x6or00unw","geo_precision":"zip","address":"103 Shepherd Dr","state":"OH","juris":"PD"},"type":"Feature","geometry":{"type":"Point","coordinates":[-83.225755,41.214776]}},{"properties":{"officer":"FWS","city":"Tiffin","zip":"44883","date":{"end_time":"2008/08/08 13:17:17 -0400","original":"8/8/2008 1:17:16 PM","granularity":"sec","time":"2008/08/08 13:17:16 -0400"},"geo_score":0.902,"unit":"59","disposition":"100","cfs":19,"call#":8.008305,"id":"a69x6oymwo4o","geo_precision":"range","address":"110 Longfellow Dr","state":"OH","juris":"PD"},"type":"Feature","geometry":{"type":"Point","coordinates":[-83.194347,41.100952]}},{"properties":{"officer":"RJO","city":"Tiffin","zip":"44883","date":{"end_time":"2008/12/17 09:19:32 -0500","original":"12/17/2008 9:19:31 AM","granularity":"sec","time":"2008/12/17 09:19:31 -0500"},"geo_score":0.902,"unit":"57","disposition":"100","cfs":19,"call#":8.013276,"id":"a69x6oxp6eed","geo_precision":"range","address":"116 E Market St","state":"OH","juris":"PD"},"type":"Feature","geometry":{"type":"Point","coordinates":[-83.17587,41.11467]}},{"properties":{"officer":"RJO","city":"Tiffin","zip":"44883","date":{"end_time":"2008/11/10 09:24:13 -0500","original":"11/10/2008 9:24:12 AM","granularity":"sec","time":"2008/11/10 09:24:12 -0500"},"geo_score":0.861,"unit":"57","disposition":"200","cfs":19,"call#":8.012124,"id":"a69x6ox384de","geo_precision":"range","address":"124 Ohio Av","state":"OH","juris":"PD"},"type":"Feature","geometry":{"type":"Point","coordinates":[-83.167037,41.122619]}},{"properties":{"officer":"LMK","city":"Tiffin","zip":"44883","date":{"end_time":"2008/03/04 22:08:06 -0500","original":"3/4/2008 10:08:05 PM","granularity":"sec","time":"2008/03/04 22:08:05 -0500"},"geo_score":0.756,"unit":"60","disposition":"200","cfs":19,"call#":8.002262,"id":"a69x6oni8iee","geo_precision":"range","address":"125 First Av","state":"OH","juris":"PD"},"type":"Feature","geometry":{"type":"Point","coordinates":[-83.18148,41.127902]}},{"properties":{"officer":"JAD","city":"Tiffin","zip":"44883","date":{"end_time":"2008/12/07 01:12:41 -0500","original":"12/7/2008 1:12:40 AM","granularity":"sec","time":"2008/12/07 01:12:40 -0500"},"geo_score":0.902,"unit":"56","disposition":"120","cfs":19,"call#":8.012957,"id":"a69x6ozmljr2","geo_precision":"range","address":"129 S Washington St","state":"OH","juris":"PD"},"type":"Feature","geometry":{"type":"Point","coordinates":[-83.176496,41.113983]}},{"properties":{"officer":"RLT","city":"Tiffin","zip":"44883","date":{"end_time":"2008/04/12 01:01:37 -0400","original":"4/12/2008 1:01:36 AM","granularity":"sec","time":"2008/04/12 01:01:36 -0400"},"geo_score":0.902,"unit":"61","disposition":"100","cfs":19,"call#":8.003629,"id":"a69x6ou109x9","geo_precision":"range","address":"129 S Washington St","state":"OH","juris":"PD"},"type":"Feature","geometry":{"type":"Point","coordinates":[-83.176496,41.113983]}},{"properties":{"officer":"LMK","city":"Tiffin","zip":"44883","date":{"end_time":"2008/04/06 00:43:32 -0400","original":"4/6/2008 12:43:31 AM","granularity":"sec","time":"2008/04/06 00:43:31 -0400"},"geo_score":0.902,"unit":"61","disposition":"200","cfs":19,"call#":8.003438,"id":"a69x6ol8jr2y","geo_precision":"range","address":"129 S Washington St","state":"OH","juris":"PD"},"type":"Feature","geometry":{"type":"Point","coordinates":[-83.176496,41.113983]}},{"properties":{"officer":"JPF","city":"Tiffin","zip":"44883","date":{"end_time":"2008/04/13 01:49:49 -0400","original":"4/13/2008 1:49:48 AM","granularity":"sec","time":"2008/04/13 01:49:48 -0400"},"geo_score":0.902,"unit":"58","disposition":"200","cfs":19,"call#":8.003692,"id":"a69x6olwsef0","geo_precision":"range","address":"14 E Perry St","state":"OH","juris":"PD"},"type":"Feature","geometry":{"type":"Point","coordinates":[-83.179049,41.115623]}},{"properties":{"officer":"MEM","city":"Tiffin","zip":"44883","date":{"end_time":"2008/02/10 03:18:00 -0500","original":"2/10/2008 3:17:00 AM","granularity":"min","time":"2008/02/10 03:17:00 -0500"},"geo_score":0.746,"unit":"62","disposition":"400","cfs":19,"call#":8.001437,"id":"a69x6om0obr6","geo_precision":"street","address":"1400 Seneca Av","state":"OH","juris":"PD"},"type":"Feature","geometry":{"type":"Point","coordinates":[-83.198464,41.109322]}},{"properties":{"officer":"LMK","city":"Tiffin","zip":"44883","date":{"end_time":"2008/08/23 23:02:49 -0400","original":"8/23/2008 11:02:48 PM","granularity":"sec","time":"2008/08/23 23:02:48 -0400"},"geo_score":0.756,"unit":"61","disposition":"230","cfs":19,"call#":8.008964,"id":"a69x6oz91rvc","geo_precision":"range","address":"143 First Av","state":"OH","juris":"PD"},"type":"Feature","geometry":{"type":"Point","coordinates":[-83.182034,41.127895]}},{"properties":{"officer":"SGN","city":"Tiffin","zip":"44883","date":{"end_time":"2008/10/01 11:00:05 -0400","original":"10/1/2008 11:00:04 AM","granularity":"sec","time":"2008/10/01 11:00:04 -0400"},"geo_score":0.902,"unit":"62","disposition":"100","cfs":19,"call#":8.010685,"id":"a69x6oqvzxrv","geo_precision":"range","address":"149 Ella St","state":"OH","juris":"PD"},"type":"Feature","geometry":{"type":"Point","coordinates":[-83.186117,41.104078]}},{"properties":{"officer":"MAM","city":"Tiffin","zip":"44883","date":{"end_time":"2008/12/11 20:14:51 -0500","original":"12/11/2008 8:14:50 PM","granularity":"sec","time":"2008/12/11 20:14:50 -0500"},"geo_score":0.902,"unit":"58","disposition":"200","cfs":19,"call#":8.013099,"id":"a69x6p09w3xd","geo_precision":"range","address":"151 Elmer St","state":"OH","juris":"PD"},"type":"Feature","geometry":{"type":"Point","coordinates":[-83.193722,41.117661]}},{"properties":{"officer":"DGH","city":"Tiffin","zip":"44883","date":{"end_time":"2008/12/11 14:19:35 -0500","original":"12/11/2008 2:19:34 PM","granularity":"sec","time":"2008/12/11 14:19:34 -0500"},"geo_score":0.902,"unit":"59","disposition":"100","cfs":19,"call#":8.013088,"id":"a69x6ood562d","geo_precision":"range","address":"151 Elmer St","state":"OH","juris":"PD"},"type":"Feature","geometry":{"type":"Point","coordinates":[-83.193722,41.117661]}},{"properties":{"officer":"EDA","city":"Tiffin","zip":"44883","date":{"end_time":"2008/05/25 20:29:54 -0400","original":"5/25/2008 8:29:53 PM","granularity":"sec","time":"2008/05/25 20:29:53 -0400"},"geo_score":0.902,"unit":"60","disposition":"200","cfs":19,"call#":8.005349,"id":"a69x6ozlemxr","geo_precision":"range","address":"151 Elmer St","state":"OH","juris":"PD"},"type":"Feature","geometry":{"type":"Point","coordinates":[-83.193722,41.117661]}},{"properties":{"officer":"JPF","city":"Tiffin","zip":"44883","date":{"end_time":"2008/04/08 18:11:56 -0400","original":"4/8/2008 6:11:55 PM","granularity":"sec","time":"2008/04/08 18:11:55 -0400"},"geo_score":0.902,"unit":"58","disposition":"100","cfs":19,"call#":8.003514,"id":"a69x6oou1kte","geo_precision":"range","address":"160 S Monroe St","state":"OH","juris":"PD"},"type":"Feature","geometry":{"type":"Point","coordinates":[-83.177788,41.111974]}},{"properties":{"officer":"EDA","city":"Tiffin","zip":"44883","date":{"end_time":"2008/04/14 20:43:37 -0400","original":"4/14/2008 8:43:36 PM","granularity":"sec","time":"2008/04/14 20:43:36 -0400"},"geo_score":0.902,"unit":"60","disposition":"100","cfs":19,"call#":8.003748,"id":"a69x6om8tt3k","geo_precision":"range","address":"161 Greenfield St","state":"OH","juris":"PD"},"type":"Feature","geometry":{"type":"Point","coordinates":[-83.165191,41.114826]}},{"properties":{"officer":"JMW","city":"Tiffin","zip":"44883","date":{"end_time":"2008/10/24 10:26:57 -0400","original":"10/24/2008 10:26:56 AM","granularity":"sec","time":"2008/10/24 10:26:56 -0400"},"geo_score":0.902,"unit":"60","disposition":"200","cfs":19,"call#":8.011508,"id":"a69x6ou666a0","geo_precision":"range","address":"168 Westwood Dr","state":"OH","juris":"PD"},"type":"Feature","geometry":{"type":"Point","coordinates":[-83.211281,41.11534]}},{"properties":{"officer":"EDA","city":"Tiffin","zip":"44883","date":{"end_time":"2008/04/04 17:25:56 -0400","original":"4/4/2008 5:25:55 PM","granularity":"sec","time":"2008/04/04 17:25:55 -0400"},"geo_score":0.902,"unit":"60","disposition":"200","cfs":19,"call#":8.00336,"id":"a69x6ou8lnhq","geo_precision":"range","address":"168 Westwood Dr","state":"OH","juris":"PD"},"type":"Feature","geometry":{"type":"Point","coordinates":[-83.211281,41.11534]}},{"properties":{"officer":"JAD","city":"Tiffin","zip":"44883","date":{"end_time":"2008/12/27 03:11:51 -0500","original":"12/27/2008 3:11:50 AM","granularity":"sec","time":"2008/12/27 03:11:50 -0500"},"geo_score":0.902,"unit":"56","disposition":"100","cfs":19,"call#":8.013559,"id":"a69x6os2z443","geo_precision":"range","address":"1714 W Market St","state":"OH","juris":"PD"},"type":"Feature","geometry":{"type":"Point","coordinates":[-83.204289,41.11169]}},{"properties":{"officer":"GTM","city":"Tiffin","zip":"44883","date":{"end_time":"2008/12/12 16:10:21 -0500","original":"12/12/2008 4:10:20 PM","granularity":"sec","time":"2008/12/12 16:10:20 -0500"},"geo_score":0.902,"unit":"58","disposition":"100","cfs":19,"call#":8.013125,"id":"a69x6otrss21","geo_precision":"range","address":"1714 W Market St","state":"OH","juris":"PD"},"type":"Feature","geometry":{"type":"Point","coordinates":[-83.204289,41.11169]}},{"properties":{"officer":"SWK","city":"Tiffin","zip":"44883","date":{"end_time":"2008/12/04 00:51:08 -0500","original":"12/4/2008 12:51:07 AM","granularity":"sec","time":"2008/12/04 00:51:07 -0500"},"geo_score":0.902,"unit":"61","disposition":"400","cfs":19,"call#":8.012839,"id":"a69x6ov6a6fh","geo_precision":"range","address":"1714 W Market St","state":"OH","juris":"PD"},"type":"Feature","geometry":{"type":"Point","coordinates":[-83.204289,41.11169]}},{"properties":{"officer":"SMM","city":"Tiffin","zip":"44883","date":{"end_time":"2008/11/27 04:05:14 -0500","original":"11/27/2008 4:05:13 AM","granularity":"sec","time":"2008/11/27 04:05:13 -0500"},"geo_score":0.902,"unit":"59","disposition":"400","cfs":19,"call#":8.012647,"id":"a69x6onxtuni","geo_precision":"range","address":"1714 W Market St","state":"OH","juris":"PD"},"type":"Feature","geometry":{"type":"Point","coordinates":[-83.204289,41.11169]}},{"properties":{"officer":"JAD","city":"Tiffin","zip":"44883","date":{"end_time":"2008/09/12 06:00:16 -0400","original":"9/12/2008 6:00:15 AM","granularity":"sec","time":"2008/09/12 06:00:15 -0400"},"geo_score":0.902,"unit":"56","disposition":"100","cfs":19,"call#":8.00982,"id":"a69x6ose3hrh","geo_precision":"range","address":"1714 W Market St","state":"OH","juris":"PD"},"type":"Feature","geometry":{"type":"Point","coordinates":[-83.204289,41.11169]}},{"properties":{"officer":"JSC","city":"Tiffin","zip":"44883","date":{"end_time":"2008/06/20 02:03:00 -0400","original":"6/20/2008 2:02:00 AM","granularity":"min","time":"2008/06/20 02:02:00 -0400"},"geo_score":0.902,"unit":"60","disposition":"100","cfs":19,"call#":8.006321,"id":"a69x6olsyj3j","geo_precision":"range","address":"1714 W Market St","state":"OH","juris":"PD"},"type":"Feature","geometry":{"type":"Point","coordinates":[-83.204289,41.11169]}},{"properties":{"officer":"REB","city":"Tiffin","zip":"44883","date":{"end_time":"2008/04/07 10:32:09 -0400","original":"4/7/2008 10:32:08 AM","granularity":"sec","time":"2008/04/07 10:32:08 -0400"},"geo_score":0.902,"unit":"63","disposition":"200","cfs":19,"call#":8.003478,"id":"a69x6onqhzmo","geo_precision":"range","address":"1726 W Market St","state":"OH","juris":"PD"},"type":"Feature","geometry":{"type":"Point","coordinates":[-83.204341,41.111678]}},{"properties":{"officer":"REB","city":"Tiffin","zip":"44883","date":{"end_time":"2008/06/02 12:58:27 -0400","original":"6/2/2008 12:58:26 PM","granularity":"sec","time":"2008/06/02 12:58:26 -0400"},"geo_score":0.902,"unit":"63","disposition":"100","cfs":19,"call#":8.005639,"id":"a69x6osti2po","geo_precision":"range","address":"175 S Monroe St","state":"OH","juris":"PD"},"type":"Feature","geometry":{"type":"Point","coordinates":[-83.177748,41.11164]}},{"properties":{"officer":"RJO","city":"Tiffin","zip":"44883","date":{"end_time":"2008/02/19 14:46:57 -0500","original":"2/19/2008 2:46:56 PM","granularity":"sec","time":"2008/02/19 14:46:56 -0500"},"geo_score":0.902,"unit":"60","disposition":"100","cfs":19,"call#":8.001762,"id":"a69x6omvai1p","geo_precision":"range","address":"175 S Monroe St","state":"OH","juris":"PD"},"type":"Feature","geometry":{"type":"Point","coordinates":[-83.177748,41.11164]}},{"properties":{"officer":"EDA","city":"Tiffin","zip":"44883","date":{"end_time":"2008/06/09 19:53:38 -0400","original":"6/9/2008 7:53:37 PM","granularity":"sec","time":"2008/06/09 19:53:37 -0400"},"geo_score":0.756,"unit":"60","disposition":"100","cfs":19,"call#":8.005942,"id":"a69x6on2hkdi","geo_precision":"range","address":"176 First Av","state":"OH","juris":"PD"},"type":"Feature","geometry":{"type":"Point","coordinates":[-83.183453,41.127883]}},{"properties":{"officer":"JPF","city":"Tiffin","zip":"44883","date":{"end_time":"2008/08/22 19:06:59 -0400","original":"8/22/2008 7:06:58 PM","granularity":"sec","time":"2008/08/22 19:06:58 -0400"},"geo_score":0.902,"unit":"57","disposition":"100","cfs":19,"call#":8.008896,"id":"a69x6p1kkhmu","geo_precision":"range","address":"1760 W Market St","state":"OH","juris":"PD"},"type":"Feature","geometry":{"type":"Point","coordinates":[-83.204488,41.111644]}},{"properties":{"officer":"BAR","city":"Tiffin","zip":"44883","date":{"end_time":"2008/07/03 10:43:18 -0400","original":"7/3/2008 10:43:17 AM","granularity":"sec","time":"2008/07/03 10:43:17 -0400"},"geo_score":0.902,"unit":"62","disposition":"100","cfs":19,"call#":8.006841,"id":"a69x6oz5tjtp","geo_precision":"range","address":"1760 W Market St","state":"OH","juris":"PD"},"type":"Feature","geometry":{"type":"Point","coordinates":[-83.204488,41.111644]}},{"properties":{"officer":"BAR","city":"Tiffin","zip":"44883","date":{"end_time":"2008/06/21 14:04:53 -0400","original":"6/21/2008 2:04:52 PM","granularity":"sec","time":"2008/06/21 14:04:52 -0400"},"geo_score":0.902,"unit":"57","disposition":"200","cfs":19,"call#":8.00639,"id":"a69x6old4x4d","geo_precision":"range","address":"177 Wall St","state":"OH","juris":"PD"},"type":"Feature","geometry":{"type":"Point","coordinates":[-83.188388,41.11954]}},{"properties":{"officer":"SGN","city":"Tiffin","zip":"44883","date":{"end_time":"2008/11/04 11:46:26 -0500","original":"11/4/2008 11:46:25 AM","granularity":"sec","time":"2008/11/04 11:46:25 -0500"},"geo_score":0.585,"unit":"62","disposition":"100","cfs":19,"call#":8.011923,"id":"a69x6ouqiysb","geo_precision":"zip","address":"18/224","state":"OH","juris":"PD"},"type":"Feature","geometry":{"type":"Point","coordinates":[-83.225755,41.214776]}},{"properties":{"officer":"SGN","city":"Tiffin","zip":"44883","date":{"end_time":"2008/09/16 11:05:31 -0400","original":"9/16/2008 11:05:30 AM","granularity":"sec","time":"2008/09/16 11:05:30 -0400"},"geo_score":0.585,"unit":"62","disposition":"100","cfs":19,"call#":8.010036,"id":"a69x6onhqc69","geo_precision":"zip","address":"18/224","state":"OH","juris":"PD"},"type":"Feature","geometry":{"type":"Point","coordinates":[-83.225755,41.214776]}},{"properties":{"officer":"SGN","city":"Tiffin","zip":"44883","date":{"end_time":"2008/08/05 08:26:02 -0400","original":"8/5/2008 8:26:01 AM","granularity":"sec","time":"2008/08/05 08:26:01 -0400"},"geo_score":0.585,"unit":"62","disposition":"100","cfs":19,"call#":8.008185,"id":"a69x6ol3iuts","geo_precision":"zip","address":"18/224","state":"OH","juris":"PD"},"type":"Feature","geometry":{"type":"Point","coordinates":[-83.225755,41.214776]}},{"properties":{"officer":"SGN","city":"Tiffin","zip":"44883","date":{"end_time":"2008/08/01 15:38:18 -0400","original":"8/1/2008 3:38:17 PM","granularity":"sec","time":"2008/08/01 15:38:17 -0400"},"geo_score":0.585,"unit":"62","disposition":"100","cfs":19,"call#":8.008033,"id":"a69x6ony62qf","geo_precision":"zip","address":"18/224","state":"OH","juris":"PD"},"type":"Feature","geometry":{"type":"Point","coordinates":[-83.225755,41.214776]}},{"properties":{"officer":"JPF","city":"Tiffin","zip":"44883","date":{"end_time":"2008/06/30 21:16:20 -0400","original":"6/30/2008 9:16:19 PM","granularity":"sec","time":"2008/06/30 21:16:19 -0400"},"geo_score":0.585,"unit":"57","disposition":"100","cfs":19,"call#":8.006756,"id":"a69x6ouza0lv","geo_precision":"zip","address":"18/224","state":"OH","juris":"PD"},"type":"Feature","geometry":{"type":"Point","coordinates":[-83.225755,41.214776]}},{"properties":{"officer":"JPF","city":"Tiffin","zip":"44883","date":{"end_time":"2008/06/11 14:39:57 -0400","original":"6/11/2008 2:39:56 PM","granularity":"sec","time":"2008/06/11 14:39:56 -0400"},"geo_score":0.585,"unit":"947","disposition":"200","cfs":19,"call#":8.006011,"id":"a69x6otk0efm","geo_precision":"zip","address":"18/224","state":"OH","juris":"PD"},"type":"Feature","geometry":{"type":"Point","coordinates":[-83.225755,41.214776]}},{"properties":{"officer":"SWK","city":"Tiffin","zip":"44883","date":{"end_time":"2008/02/28 19:45:29 -0500","original":"2/28/2008 7:45:28 PM","granularity":"sec","time":"2008/02/28 19:45:28 -0500"},"geo_score":0.585,"unit":"61","disposition":"100","cfs":19,"call#":8.002084,"id":"a69x6ol8rn23","geo_precision":"zip","address":"18/224","state":"OH","juris":"PD"},"type":"Feature","geometry":{"type":"Point","coordinates":[-83.225755,41.214776]}},{"properties":{"officer":"SGN","city":"Tiffin","zip":"44883","date":{"end_time":"2008/02/21 16:20:05 -0500","original":"2/21/2008 4:20:04 PM","granularity":"sec","time":"2008/02/21 16:20:04 -0500"},"geo_score":0.585,"unit":"63","disposition":"100","cfs":19,"call#":8.00183,"id":"a69x6olz67xl","geo_precision":"zip","address":"18/224","state":"OH","juris":"PD"},"type":"Feature","geometry":{"type":"Point","coordinates":[-83.225755,41.214776]}},{"properties":{"officer":"GTM","city":"Tiffin","zip":"44883","date":{"end_time":"2008/01/29 21:26:33 -0500","original":"1/29/2008 9:26:32 PM","granularity":"sec","time":"2008/01/29 21:26:32 -0500"},"geo_score":0.902,"unit":"58","disposition":"100","cfs":19,"call#":8.001025,"id":"a69x6ovcih61","geo_precision":"range","address":"180 Summit St","state":"OH","juris":"PD"},"type":"Feature","geometry":{"type":"Point","coordinates":[-83.16021,41.110279]}},{"properties":{"officer":"PJD","city":"Tiffin","zip":"44883","date":{"end_time":"2008/06/04 22:28:24 -0400","original":"6/4/2008 10:28:23 PM","granularity":"sec","time":"2008/06/04 22:28:23 -0400"},"geo_score":0.429,"unit":"60","disposition":"100","cfs":19,"call#":8.005729,"id":"a69x6p187xos","geo_precision":"street","address":"182 E Market St, O","state":"OH","juris":"PD"},"type":"Feature","geometry":{"type":"Point","coordinates":[-83.181592,41.114111]}},{"properties":{"officer":"BRB","city":"Tiffin","zip":"44883","date":{"end_time":"2008/12/10 21:41:42 -0500","original":"12/10/2008 9:41:41 PM","granularity":"sec","time":"2008/12/10 21:41:41 -0500"},"geo_score":0.429,"unit":"59","disposition":"100","cfs":19,"call#":8.013067,"id":"a69x6om08ruk","geo_precision":"street","address":"184 E Market St, O","state":"OH","juris":"PD"},"type":"Feature","geometry":{"type":"Point","coordinates":[-83.181592,41.114111]}},{"properties":{"officer":"DES","city":"Tiffin","zip":"44883","date":{"end_time":"2008/09/03 17:31:27 -0400","original":"9/3/2008 5:31:26 PM","granularity":"sec","time":"2008/09/03 17:31:26 -0400"},"geo_score":0.429,"unit":"57","disposition":"100","cfs":19,"call#":8.009433,"id":"a69x6ow6zam0","geo_precision":"street","address":"184 E Market St, O","state":"OH","juris":"PD"},"type":"Feature","geometry":{"type":"Point","coordinates":[-83.181592,41.114111]}},{"properties":{"officer":"JPF","city":"Tiffin","zip":"44883","date":{"end_time":"2008/06/09 20:22:55 -0400","original":"6/9/2008 8:22:54 PM","granularity":"sec","time":"2008/06/09 20:22:54 -0400"},"geo_score":0.429,"unit":"57","disposition":"100","cfs":19,"call#":8.005944,"id":"a69x6oxrp2gy","geo_precision":"street","address":"184 E Market St, O","state":"OH","juris":"PD"},"type":"Feature","geometry":{"type":"Point","coordinates":[-83.181592,41.114111]}},{"properties":{"officer":"SWK","city":"Tiffin","zip":"44883","date":{"end_time":"2008/09/01 19:56:11 -0400","original":"9/1/2008 7:56:10 PM","granularity":"sec","time":"2008/09/01 19:56:10 -0400"},"geo_score":0.902,"unit":"61","disposition":"200","cfs":19,"call#":8.009371,"id":"a69x6oskg779","geo_precision":"range","address":"191 E Market St","state":"OH","juris":"PD"},"type":"Feature","geometry":{"type":"Point","coordinates":[-83.173515,41.114903]}},{"properties":{"officer":"BRB","city":"Tiffin","zip":"44883","date":{"end_time":"2008/01/03 06:07:59 -0500","original":"1/3/2008 6:07:58 AM","granularity":"sec","time":"2008/01/03 06:07:58 -0500"},"geo_score":0.902,"unit":"58","disposition":"200","cfs":19,"call#":8.000074,"id":"a69x6osjb8vp","geo_precision":"range","address":"191 E Market St","state":"OH","juris":"PD"},"type":"Feature","geometry":{"type":"Point","coordinates":[-83.173515,41.114903]}},{"properties":{"officer":"SWK","city":"Tiffin","zip":"44883","date":{"end_time":"2008/06/04 19:41:12 -0400","original":"6/4/2008 7:41:11 PM","granularity":"sec","time":"2008/06/04 19:41:11 -0400"},"geo_score":0.902,"unit":"61","disposition":"100","cfs":19,"call#":8.00572,"id":"a69x6oqo9lpq","geo_precision":"range","address":"1972 W Market St","state":"OH","juris":"PD"},"type":"Feature","geometry":{"type":"Point","coordinates":[-83.209424,41.110779]}},{"properties":{"officer":"SGN","city":"Tiffin","zip":"44883","date":{"end_time":"2008/09/24 09:36:58 -0400","original":"9/24/2008 9:36:57 AM","granularity":"sec","time":"2008/09/24 09:36:57 -0400"},"geo_score":0.902,"unit":"62","disposition":"100","cfs":19,"call#":8.010382,"id":"a69x6opfkjvr","geo_precision":"range","address":"20 Glenn St","state":"OH","juris":"PD"},"type":"Feature","geometry":{"type":"Point","coordinates":[-83.174188,41.102179]}},{"properties":{"officer":"MAM","city":"Tiffin","zip":"44883","date":{"end_time":"2008/10/24 20:35:22 -0400","original":"10/24/2008 8:35:21 PM","granularity":"sec","time":"2008/10/24 20:35:21 -0400"},"geo_score":0.902,"unit":"58","disposition":"220","cfs":19,"call#":8.011532,"id":"a69x6owbmc4x","geo_precision":"range","address":"200 S Sandusky St","state":"OH","juris":"PD"},"type":"Feature","geometry":{"type":"Point","coordinates":[-83.185994,41.114943]}},{"properties":{"officer":"SMM","city":"Tiffin","zip":"44883","date":{"end_time":"2008/10/15 22:20:08 -0400","original":"10/15/2008 10:20:07 PM","granularity":"sec","time":"2008/10/15 22:20:07 -0400"},"geo_score":0.902,"unit":"63","disposition":"100","cfs":19,"call#":8.011212,"id":"a69x6p1fmf12","geo_precision":"range","address":"205 S Sandusky St","state":"OH","juris":"PD"},"type":"Feature","geometry":{"type":"Point","coordinates":[-83.186167,41.114614]}},{"properties":{"officer":"JPF","city":"Tiffin","zip":"44883","date":{"end_time":"2008/03/16 19:49:33 -0400","original":"3/16/2008 7:49:32 PM","granularity":"sec","time":"2008/03/16 19:49:32 -0400"},"geo_score":0.902,"unit":"59","disposition":"200","cfs":19,"call#":8.002669,"id":"a69x6ozllx0f","geo_precision":"range","address":"2060 W Market St","state":"OH","juris":"PD"},"type":"Feature","geometry":{"type":"Point","coordinates":[-83.211517,41.110427]}},{"properties":{"officer":"JPF","city":"Tiffin","zip":"44883","date":{"end_time":"2008/10/11 17:48:25 -0400","original":"10/11/2008 5:48:24 PM","granularity":"sec","time":"2008/10/11 17:48:24 -0400"},"geo_score":0.756,"unit":"57","disposition":"100","cfs":19,"call#":8.011051,"id":"a69x6orc8p60","geo_precision":"range","address":"210 Second Av","state":"OH","juris":"PD"},"type":"Feature","geometry":{"type":"Point","coordinates":[-83.183715,41.128731]}},{"properties":{"officer":"GTM","city":"Tiffin","zip":"44883","date":{"end_time":"2008/02/06 06:04:27 -0500","original":"2/6/2008 6:04:26 AM","granularity":"sec","time":"2008/02/06 06:04:26 -0500"},"geo_score":0.902,"unit":"60","disposition":"100","cfs":19,"call#":8.001282,"id":"a69x6olehqf4","geo_precision":"range","address":"219 S Sandusky St","state":"OH","juris":"PD"},"type":"Feature","geometry":{"type":"Point","coordinates":[-83.186341,41.114285]}},{"properties":{"officer":"FWS","city":"Tiffin","zip":"44883","date":{"end_time":"2008/09/19 08:47:22 -0400","original":"9/19/2008 8:47:21 AM","granularity":"sec","time":"2008/09/19 08:47:21 -0400"},"geo_score":0.585,"unit":"59","disposition":"100","cfs":19,"call#":8.010163,"id":"a69x6on3y711","geo_precision":"zip","address":"224/18","state":"OH","juris":"PD"},"type":"Feature","geometry":{"type":"Point","coordinates":[-83.225755,41.214776]}},{"properties":{"officer":"RAG","city":"Tiffin","zip":"44883","date":{"end_time":"2008/07/24 15:00:55 -0400","original":"7/24/2008 3:00:54 PM","granularity":"sec","time":"2008/07/24 15:00:54 -0400"},"geo_score":0.585,"unit":"58","disposition":"100","cfs":19,"call#":8.007707,"id":"a69x6oq6g2uf","geo_precision":"zip","address":"224/18","state":"OH","juris":"PD"},"type":"Feature","geometry":{"type":"Point","coordinates":[-83.225755,41.214776]}},{"properties":{"officer":"DES","city":"Tiffin","zip":"44883","date":{"end_time":"2008/03/04 17:48:18 -0500","original":"3/4/2008 5:48:17 PM","granularity":"sec","time":"2008/03/04 17:48:17 -0500"},"geo_score":0.585,"unit":"63","disposition":"100","cfs":19,"call#":8.002261,"id":"a69x6orv6r5z","geo_precision":"zip","address":"224/18","state":"OH","juris":"PD"},"type":"Feature","geometry":{"type":"Point","coordinates":[-83.225755,41.214776]}},{"properties":{"officer":"LMK","city":"Tiffin","zip":"44883","date":{"end_time":"2008/01/25 09:13:23 -0500","original":"1/25/2008 9:13:22 AM","granularity":"sec","time":"2008/01/25 09:13:22 -0500"},"geo_score":0.902,"unit":"58","disposition":"200","cfs":19,"call#":8.000859,"id":"a69x6omrizxr","geo_precision":"range","address":"225 Mohawk St","state":"OH","juris":"PD"},"type":"Feature","geometry":{"type":"Point","coordinates":[-83.177951,41.09761]}},{"properties":{"officer":"BRB","city":"Tiffin","zip":"44883","date":{"end_time":"2008/02/19 05:02:04 -0500","original":"2/19/2008 5:02:03 AM","granularity":"sec","time":"2008/02/19 05:02:03 -0500"},"geo_score":0.902,"unit":"59","disposition":"100","cfs":19,"call#":8.001749,"id":"a69x6ooavpod","geo_precision":"range","address":"23 Gail Ln","state":"OH","juris":"PD"},"type":"Feature","geometry":{"type":"Point","coordinates":[-83.193789,41.102759]}},{"properties":{"officer":"RLT","city":"Tiffin","zip":"44883","date":{"end_time":"2008/07/28 11:46:00 -0400","original":"7/28/2008 11:45:00 AM","granularity":"min","time":"2008/07/28 11:45:00 -0400"},"geo_score":0.902,"unit":"58","disposition":"220","cfs":19,"call#":8.007866,"id":"a69x6ousmf9k","geo_precision":"range","address":"23 W Perry St","state":"OH","juris":"PD"},"type":"Feature","geometry":{"type":"Point","coordinates":[-83.180973,41.11543]}},{"properties":{"officer":"SWK","city":"Tiffin","zip":"44883","date":{"end_time":"2008/10/14 18:59:20 -0400","original":"10/14/2008 6:59:19 PM","granularity":"sec","time":"2008/10/14 18:59:19 -0400"},"geo_score":0.902,"unit":"61","disposition":"100","cfs":19,"call#":8.011164,"id":"a69x6op8oniq","geo_precision":"range","address":"234 S Sandusky St","state":"OH","juris":"PD"},"type":"Feature","geometry":{"type":"Point","coordinates":[-83.186483,41.114016]}},{"properties":{"officer":"JPF","city":"Tiffin","zip":"44883","date":{"end_time":"2008/03/22 19:16:32 -0400","original":"3/22/2008 7:16:31 PM","granularity":"sec","time":"2008/03/22 19:16:31 -0400"},"geo_score":0.715,"unit":"57","disposition":"100","cfs":19,"call#":8.002849,"id":"a69x6owf82tv","geo_precision":"street","address":"235 Front St","state":"OH","juris":"PD"},"type":"Feature","geometry":{"type":"Point","coordinates":[-83.184546,41.111453]}},{"properties":{"officer":"JAD","city":"Tiffin","zip":"44883","date":{"end_time":"2008/05/11 04:49:02 -0400","original":"5/11/2008 4:49:01 AM","granularity":"sec","time":"2008/05/11 04:49:01 -0400"},"geo_score":0.902,"unit":"56","disposition":"100","cfs":19,"call#":8.004839,"id":"a69x6ovfsa0j","geo_precision":"range","address":"235 Walker St","state":"OH","juris":"PD"},"type":"Feature","geometry":{"type":"Point","coordinates":[-83.16498,41.111354]}},{"properties":{"officer":"EDA","city":"Tiffin","zip":"44883","date":{"end_time":"2008/03/08 16:53:58 -0500","original":"3/8/2008 4:53:57 PM","granularity":"sec","time":"2008/03/08 16:53:57 -0500"},"geo_score":0.805,"unit":"58","disposition":"100","cfs":19,"call#":8.002392,"id":"a69x6oxmvhme","geo_precision":"street","address":"243 Hillcrest Dr","state":"OH","juris":"PD"},"type":"Feature","geometry":{"type":"Point","coordinates":[-83.193422,41.108662]}},{"properties":{"officer":"JSC","city":"Tiffin","zip":"44883","date":{"end_time":"2008/06/28 02:26:00 -0400","original":"6/28/2008 2:25:00 AM","granularity":"min","time":"2008/06/28 02:25:00 -0400"},"geo_score":0.902,"unit":"59","disposition":"100","cfs":19,"call#":8.006634,"id":"a69x6oywc2e8","geo_precision":"range","address":"247 S Sandusky St","state":"OH","juris":"PD"},"type":"Feature","geometry":{"type":"Point","coordinates":[-83.186688,41.113627]}},{"properties":{"officer":"SWK","city":"Tiffin","zip":"44883","date":{"end_time":"2008/02/27 18:40:53 -0500","original":"2/27/2008 6:40:52 PM","granularity":"sec","time":"2008/02/27 18:40:52 -0500"},"geo_score":0.857,"unit":"61","disposition":"100","cfs":19,"call#":8.002058,"id":"a69x6oyhiu2y","geo_precision":"range","address":"25 Shaffer Pk Dr","state":"OH","juris":"PD"},"type":"Feature","geometry":{"type":"Point","coordinates":[-83.216098,41.10971]}},{"properties":{"officer":"SGN","city":"Tiffin","zip":"44883","date":{"end_time":"2008/05/14 15:36:50 -0400","original":"5/14/2008 3:36:49 PM","granularity":"sec","time":"2008/05/14 15:36:49 -0400"},"geo_score":0.902,"unit":"62","disposition":"100","cfs":19,"call#":8.004926,"id":"a69x6ozbpx4z","geo_precision":"range","address":"255 N Washington St","state":"OH","juris":"PD"},"type":"Feature","geometry":{"type":"Point","coordinates":[-83.178157,41.12475]}},{"properties":{"officer":"JPF","city":"Tiffin","zip":"44883","date":{"end_time":"2008/04/20 17:42:45 -0400","original":"4/20/2008 5:42:44 PM","granularity":"sec","time":"2008/04/20 17:42:44 -0400"},"geo_score":0.756,"unit":"57","disposition":"100","cfs":19,"call#":8.004,"id":"a69x6oy8kjr3","geo_precision":"range","address":"255 Second Av","state":"OH","juris":"PD"},"type":"Feature","geometry":{"type":"Point","coordinates":[-83.185276,41.128714]}},{"properties":{"officer":"RLT","city":"Tiffin","zip":"44883","date":{"end_time":"2008/10/28 11:16:43 -0400","original":"10/28/2008 11:16:42 AM","granularity":"sec","time":"2008/10/28 11:16:42 -0400"},"geo_score":0.902,"unit":"58","disposition":"100","cfs":19,"call#":8.011649,"id":"a69x6oqm3yqo","geo_precision":"range","address":"2562 W Market St","state":"OH","juris":"PD"},"type":"Feature","geometry":{"type":"Point","coordinates":[-83.219677,41.109031]}},{"properties":{"officer":"AMR","city":"Tiffin","zip":"44883","date":{"end_time":"2008/12/15 18:40:17 -0500","original":"12/15/2008 6:40:16 PM","granularity":"sec","time":"2008/12/15 18:40:16 -0500"},"geo_score":0.902,"unit":"63","disposition":"100","cfs":19,"call#":8.013242,"id":"a69x6oncbpl1","geo_precision":"range","address":"265 N Washington St","state":"OH","juris":"PD"},"type":"Feature","geometry":{"type":"Point","coordinates":[-83.178186,41.124992]}},{"properties":{"officer":"EDA","city":"Tiffin","zip":"44883","date":{"end_time":"2008/11/30 03:19:59 -0500","original":"11/30/2008 3:19:58 AM","granularity":"sec","time":"2008/11/30 03:19:58 -0500"},"geo_score":0.902,"unit":"57","disposition":"100","cfs":19,"call#":8.012732,"id":"a69x6p1au3zk","geo_precision":"range","address":"265 N Washington St","state":"OH","juris":"PD"},"type":"Feature","geometry":{"type":"Point","coordinates":[-83.178186,41.124992]}},{"properties":{"officer":"BRB","city":"Tiffin","zip":"44883","date":{"end_time":"2008/04/24 01:15:46 -0400","original":"4/24/2008 1:15:45 AM","granularity":"sec","time":"2008/04/24 01:15:45 -0400"},"geo_score":0.902,"unit":"58","disposition":"200","cfs":19,"call#":8.004111,"id":"a69x6oqurudz","geo_precision":"range","address":"265 N Washington St","state":"OH","juris":"PD"},"type":"Feature","geometry":{"type":"Point","coordinates":[-83.178186,41.124992]}},{"properties":{"officer":"MEM","city":"Tiffin","zip":"44883","date":{"end_time":"2008/01/26 03:01:44 -0500","original":"1/26/2008 3:01:43 AM","granularity":"sec","time":"2008/01/26 03:01:43 -0500"},"geo_score":0.902,"unit":"60","disposition":"100","cfs":19,"call#":8.000892,"id":"a69x6ouj0y6r","geo_precision":"range","address":"265 N Washington St","state":"OH","juris":"PD"},"type":"Feature","geometry":{"type":"Point","coordinates":[-83.178186,41.124992]}},{"properties":{"officer":"JSC","city":"Tiffin","zip":"44883","date":{"end_time":"2008/12/10 00:09:09 -0500","original":"12/10/2008 12:09:08 AM","granularity":"sec","time":"2008/12/10 00:09:08 -0500"},"geo_score":0.902,"unit":"59","disposition":"200","cfs":19,"call#":8.013045,"id":"a69x6orzd6ff","geo_precision":"range","address":"266 S Washington St","state":"OH","juris":"PD"},"type":"Feature","geometry":{"type":"Point","coordinates":[-83.175874,41.11022]}},{"properties":{"officer":"JPF","city":"Tiffin","zip":"44883","date":{"end_time":"2008/03/17 17:40:05 -0400","original":"3/17/2008 5:40:04 PM","granularity":"sec","time":"2008/03/17 17:40:04 -0400"},"geo_score":0.902,"unit":"58","disposition":"100","cfs":19,"call#":8.002688,"id":"a69x6p0xb9l2","geo_precision":"range","address":"266 S Washington St","state":"OH","juris":"PD"},"type":"Feature","geometry":{"type":"Point","coordinates":[-83.175874,41.11022]}},{"properties":{"officer":"JAD","city":"Tiffin","zip":"44883","date":{"end_time":"2008/11/13 23:12:34 -0500","original":"11/13/2008 11:12:33 PM","granularity":"sec","time":"2008/11/13 23:12:33 -0500"},"geo_score":0.902,"unit":"56","disposition":"100","cfs":19,"call#":8.012235,"id":"a69x6on33zru","geo_precision":"range","address":"271 S Sandusky St","state":"OH","juris":"PD"},"type":"Feature","geometry":{"type":"Point","coordinates":[-83.18747,41.112579]}},{"properties":{"officer":"JPF","city":"Tiffin","zip":"44883","date":{"end_time":"2008/10/18 02:21:08 -0400","original":"10/18/2008 2:21:07 AM","granularity":"sec","time":"2008/10/18 02:21:07 -0400"},"geo_score":0.902,"unit":"59","disposition":"100","cfs":19,"call#":8.011301,"id":"a69x6otp61h5","geo_precision":"range","address":"272 N Sandusky St","state":"OH","juris":"PD"},"type":"Feature","geometry":{"type":"Point","coordinates":[-83.178238,41.126053]}},{"properties":{"officer":"GTM","city":"Tiffin","zip":"44883","date":{"end_time":"2008/06/12 02:35:54 -0400","original":"6/12/2008 2:35:53 AM","granularity":"sec","time":"2008/06/12 02:35:53 -0400"},"geo_score":0.902,"unit":"60","disposition":"400","cfs":19,"call#":8.006028,"id":"a69x6ox5zqu3","geo_precision":"range","address":"272 N Sandusky St","state":"OH","juris":"PD"},"type":"Feature","geometry":{"type":"Point","coordinates":[-83.178238,41.126053]}},{"properties":{"officer":"BRB","city":"Tiffin","zip":"44883","date":{"end_time":"2008/05/19 23:45:35 -0400","original":"5/19/2008 11:45:34 PM","granularity":"sec","time":"2008/05/19 23:45:34 -0400"},"geo_score":0.902,"unit":"58","disposition":"100","cfs":19,"call#":8.005138,"id":"a69x6p03624m","geo_precision":"range","address":"272 N Sandusky St","state":"OH","juris":"PD"},"type":"Feature","geometry":{"type":"Point","coordinates":[-83.178238,41.126053]}},{"properties":{"officer":"BAR","city":"Tiffin","zip":"44883","date":{"end_time":"2008/05/11 00:35:05 -0400","original":"5/11/2008 12:35:04 AM","granularity":"sec","time":"2008/05/11 00:35:04 -0400"},"geo_score":0.902,"unit":"58","disposition":"100","cfs":19,"call#":8.004828,"id":"a69x6oqg3iet","geo_precision":"range","address":"272 N Sandusky St","state":"OH","juris":"PD"},"type":"Feature","geometry":{"type":"Point","coordinates":[-83.178238,41.126053]}},{"properties":{"officer":"RLT","city":"Tiffin","zip":"44883","date":{"end_time":"2008/08/16 12:14:56 -0400","original":"8/16/2008 12:14:55 PM","granularity":"sec","time":"2008/08/16 12:14:55 -0400"},"geo_score":0.873,"unit":"57","disposition":"200","cfs":19,"call#":8.008634,"id":"a69x6oxes267","geo_precision":"range","address":"273 Clinton Av","state":"OH","juris":"PD"},"type":"Feature","geometry":{"type":"Point","coordinates":[-83.167407,41.12346]}},{"properties":{"officer":"JSC","city":"Tiffin","zip":"44883","date":{"end_time":"2008/12/06 18:29:06 -0500","original":"12/6/2008 6:29:05 PM","granularity":"sec","time":"2008/12/06 18:29:05 -0500"},"geo_score":0.582,"unit":"59","disposition":"100","cfs":19,"call#":8.012942,"id":"a69x6ora07d7","geo_precision":"street","address":"2801 W Sr 18","state":"OH","juris":"PD"},"type":"Feature","geometry":{"type":"Point","coordinates":[-83.278292,41.108823]}},{"properties":{"officer":"MAM","city":"Tiffin","zip":"44883","date":{"end_time":"2008/09/05 22:32:09 -0400","original":"9/5/2008 10:32:08 PM","granularity":"sec","time":"2008/09/05 22:32:08 -0400"},"geo_score":0.582,"unit":"58","disposition":"100","cfs":19,"call#":8.009522,"id":"a69x6olcb88l","geo_precision":"street","address":"2801 W Sr 18","state":"OH","juris":"PD"},"type":"Feature","geometry":{"type":"Point","coordinates":[-83.278292,41.108823]}},{"properties":{"officer":"JPF","city":"Tiffin","zip":"44883","date":{"end_time":"2008/07/18 17:07:52 -0400","original":"7/18/2008 5:07:51 PM","granularity":"sec","time":"2008/07/18 17:07:51 -0400"},"geo_score":0.582,"unit":"57","disposition":"400","cfs":19,"call#":8.007492,"id":"a69x6oupzdin","geo_precision":"street","address":"2801 W Sr 18","state":"OH","juris":"PD"},"type":"Feature","geometry":{"type":"Point","coordinates":[-83.278292,41.108823]}},{"properties":{"officer":null,"city":"Tiffin","zip":"44883","date":{"end_time":"2008/06/22 13:28:56 -0400","original":"6/22/2008 1:28:55 PM","granularity":"sec","time":"2008/06/22 13:28:55 -0400"},"geo_score":0.582,"unit":null,"disposition":"100","cfs":19,"call#":8.006423,"id":"a69x6oyp0phk","geo_precision":"street","address":"2801 W Sr 18","state":"OH","juris":"PD"},"type":"Feature","geometry":{"type":"Point","coordinates":[-83.278292,41.108823]}},{"properties":{"officer":"SWK","city":"Tiffin","zip":"44883","date":{"end_time":"2008/05/12 18:33:20 -0400","original":"5/12/2008 6:33:19 PM","granularity":"sec","time":"2008/05/12 18:33:19 -0400"},"geo_score":0.582,"unit":"61","disposition":"100","cfs":19,"call#":8.004875,"id":"a69x6oyzbhbm","geo_precision":"street","address":"2801 W Sr 18","state":"OH","juris":"PD"},"type":"Feature","geometry":{"type":"Point","coordinates":[-83.278292,41.108823]}},{"properties":{"officer":"SGN","city":"Tiffin","zip":"44883","date":{"end_time":"2008/05/02 10:29:16 -0400","original":"5/2/2008 10:29:15 AM","granularity":"sec","time":"2008/05/02 10:29:15 -0400"},"geo_score":0.582,"unit":"62","disposition":"100","cfs":19,"call#":8.004471,"id":"a69x6omlahkw","geo_precision":"street","address":"2801 W Sr 18","state":"OH","juris":"PD"},"type":"Feature","geometry":{"type":"Point","coordinates":[-83.278292,41.108823]}},{"properties":{"officer":"SWK","city":"Tiffin","zip":"44883","date":{"end_time":"2008/01/21 18:42:06 -0500","original":"1/21/2008 6:42:05 PM","granularity":"sec","time":"2008/01/21 18:42:05 -0500"},"geo_score":0.582,"unit":"57","disposition":"100","cfs":19,"call#":8.000747,"id":"a69x6opkaeay","geo_precision":"street","address":"2801 W Sr 18","state":"OH","juris":"PD"},"type":"Feature","geometry":{"type":"Point","coordinates":[-83.278292,41.108823]}},{"properties":{"officer":"SGN","city":"Tiffin","zip":"44883","date":{"end_time":"2008/01/22 13:47:41 -0500","original":"1/22/2008 1:47:40 PM","granularity":"sec","time":"2008/01/22 13:47:40 -0500"},"geo_score":0.902,"unit":"63","disposition":"200","cfs":19,"call#":8.00077,"id":"a69x6olrdas0","geo_precision":"range","address":"281 W Perry St","state":"OH","juris":"PD"},"type":"Feature","geometry":{"type":"Point","coordinates":[-83.190269,41.114925]}},{"properties":{"officer":"SGN","city":"Tiffin","zip":"44883","date":{"end_time":"2008/08/06 15:49:22 -0400","original":"8/6/2008 3:49:21 PM","granularity":"sec","time":"2008/08/06 15:49:21 -0400"},"geo_score":0.902,"unit":"62","disposition":"100","cfs":19,"call#":8.008243,"id":"a69x6oz78uyk","geo_precision":"range","address":"284 N Washington St","state":"OH","juris":"PD"},"type":"Feature","geometry":{"type":"Point","coordinates":[-83.178246,41.125507]}},{"properties":{"officer":"JSC","city":"Tiffin","zip":"44883","date":{"end_time":"2008/05/23 17:39:43 -0400","original":"5/23/2008 5:39:42 PM","granularity":"sec","time":"2008/05/23 17:39:42 -0400"},"geo_score":0.78,"unit":"63","disposition":"200","cfs":19,"call#":8.005269,"id":"a69x6onjj1v3","geo_precision":"range","address":"288 S Sandusky St","state":"OH","juris":"PD"},"type":"Feature","geometry":{"type":"Point","coordinates":[-83.187975,41.112093]}},{"properties":{"officer":"MAM","city":"Tiffin","zip":"44883","date":{"end_time":"2008/02/27 18:56:28 -0500","original":"2/27/2008 6:56:27 PM","granularity":"sec","time":"2008/02/27 18:56:27 -0500"},"geo_score":0.837,"unit":"58","disposition":"100","cfs":19,"call#":8.00206,"id":"a69x6ovlkd1d","geo_precision":"range","address":"29 Frost Py","state":"OH","juris":"PD"},"type":"Feature","geometry":{"type":"Point","coordinates":[-83.180804,41.115068]}},{"properties":{"officer":"BAR","city":"Tiffin","zip":"44883","date":{"end_time":"2008/11/21 23:24:50 -0500","original":"11/21/2008 11:24:49 PM","granularity":"sec","time":"2008/11/21 23:24:49 -0500"},"geo_score":0.582,"unit":"62","disposition":"100","cfs":19,"call#":8.012489,"id":"a69x6oqaug6x","geo_precision":"street","address":"2915 W Sr 18","state":"OH","juris":"PD"},"type":"Feature","geometry":{"type":"Point","coordinates":[-83.278292,41.108823]}},{"properties":{"officer":"BAR","city":"Tiffin","zip":"44883","date":{"end_time":"2008/11/08 22:22:18 -0500","original":"11/8/2008 10:22:17 PM","granularity":"sec","time":"2008/11/08 22:22:17 -0500"},"geo_score":0.582,"unit":"63","disposition":"100","cfs":19,"call#":8.012078,"id":"a69x6opk5pcp","geo_precision":"street","address":"2915 W Sr 18","state":"OH","juris":"PD"},"type":"Feature","geometry":{"type":"Point","coordinates":[-83.278292,41.108823]}},{"properties":{"officer":"JAD","city":"Tiffin","zip":"44883","date":{"end_time":"2008/04/06 21:35:51 -0400","original":"4/6/2008 9:35:50 PM","granularity":"sec","time":"2008/04/06 21:35:50 -0400"},"geo_score":0.582,"unit":"56","disposition":"200","cfs":19,"call#":8.003469,"id":"a69x6ozbiesb","geo_precision":"street","address":"2915 W Sr 18","state":"OH","juris":"PD"},"type":"Feature","geometry":{"type":"Point","coordinates":[-83.278292,41.108823]}},{"properties":{"officer":"RJO","city":"Tiffin","zip":"44883","date":{"end_time":"2008/04/20 16:38:16 -0400","original":"4/20/2008 4:38:15 PM","granularity":"sec","time":"2008/04/20 16:38:15 -0400"},"geo_score":0.902,"unit":"57","disposition":"100","cfs":19,"call#":8.003997,"id":"a69x6ozc5l52","geo_precision":"range","address":"295 Vine St","state":"OH","juris":"PD"},"type":"Feature","geometry":{"type":"Point","coordinates":[-83.182752,41.132866]}},{"properties":{"officer":"EDA","city":"Tiffin","zip":"44883","date":{"end_time":"2008/04/12 22:58:38 -0400","original":"4/12/2008 10:58:37 PM","granularity":"sec","time":"2008/04/12 22:58:37 -0400"},"geo_score":0.902,"unit":"60","disposition":"100","cfs":19,"call#":8.003683,"id":"a69x6oqsdz1k","geo_precision":"range","address":"295 Vine St","state":"OH","juris":"PD"},"type":"Feature","geometry":{"type":"Point","coordinates":[-83.182752,41.132866]}},{"properties":{"officer":"SMM","city":"Tiffin","zip":"44883","date":{"end_time":"2008/07/09 15:18:07 -0400","original":"7/9/2008 3:18:06 PM","granularity":"sec","time":"2008/07/09 15:18:06 -0400"},"geo_score":0.902,"unit":"58","disposition":"100","cfs":19,"call#":8.007114,"id":"a69x6om2ope4","geo_precision":"range","address":"3 Hudson St","state":"OH","juris":"PD"},"type":"Feature","geometry":{"type":"Point","coordinates":[-83.179091,41.120065]}},{"properties":{"officer":"REB","city":"Tiffin","zip":"44883","date":{"end_time":"2008/03/08 13:11:12 -0500","original":"3/8/2008 1:11:11 PM","granularity":"sec","time":"2008/03/08 13:11:11 -0500"},"geo_score":0.902,"unit":"63","disposition":"100","cfs":19,"call#":8.002389,"id":"a69x6ov0fovc","geo_precision":"range","address":"300 Hedges St","state":"OH","juris":"PD"},"type":"Feature","geometry":{"type":"Point","coordinates":[-83.167611,41.10878]}},{"properties":{"officer":"GTM","city":"Tiffin","zip":"44883","date":{"end_time":"2008/08/29 09:35:02 -0400","original":"8/29/2008 9:35:01 AM","granularity":"sec","time":"2008/08/29 09:35:01 -0400"},"geo_score":0.902,"unit":"61","disposition":"210","cfs":19,"call#":8.009191,"id":"a69x6or2oxps","geo_precision":"range","address":"300 S Monroe St","state":"OH","juris":"PD"},"type":"Feature","geometry":{"type":"Point","coordinates":[-83.177173,41.107991]}},{"properties":{"officer":"SMM","city":"Tiffin","zip":"44883","date":{"end_time":"2008/05/23 08:54:18 -0400","original":"5/23/2008 8:54:17 AM","granularity":"sec","time":"2008/05/23 08:54:17 -0400"},"geo_score":0.902,"unit":"58","disposition":"200","cfs":19,"call#":8.005253,"id":"a69x6oxmk8sg","geo_precision":"range","address":"300 S Monroe St","state":"OH","juris":"PD"},"type":"Feature","geometry":{"type":"Point","coordinates":[-83.177173,41.107991]}},{"properties":{"officer":"DGH","city":"Tiffin","zip":"44883","date":{"end_time":"2008/01/08 09:08:47 -0500","original":"1/8/2008 9:08:46 AM","granularity":"sec","time":"2008/01/08 09:08:46 -0500"},"geo_score":0.902,"unit":"59","disposition":"200","cfs":19,"call#":8.000268,"id":"a69x6op3koz9","geo_precision":"range","address":"300 S Monroe St","state":"OH","juris":"PD"},"type":"Feature","geometry":{"type":"Point","coordinates":[-83.177173,41.107991]}},{"properties":{"officer":"FWS","city":"Tiffin","zip":"44883","date":{"end_time":"2008/05/03 14:19:17 -0400","original":"5/3/2008 2:19:16 PM","granularity":"sec","time":"2008/05/03 14:19:16 -0400"},"geo_score":0.861,"unit":"59","disposition":"220","cfs":19,"call#":8.004524,"id":"a69x6oo2n67v","geo_precision":"range","address":"310 Ohio Av","state":"OH","juris":"PD"},"type":"Feature","geometry":{"type":"Point","coordinates":[-83.163373,41.126917]}},{"properties":{"officer":"REB","city":"Tiffin","zip":"44883","date":{"end_time":"2008/04/19 11:52:49 -0400","original":"4/19/2008 11:52:48 AM","granularity":"sec","time":"2008/04/19 11:52:48 -0400"},"geo_score":0.902,"unit":"63","disposition":"200","cfs":19,"call#":8.003948,"id":"a69x6owbbohe","geo_precision":"range","address":"315 W Market St","state":"OH","juris":"PD"},"type":"Feature","geometry":{"type":"Point","coordinates":[-83.191142,41.113162]}},{"properties":{"officer":"EDA","city":"Tiffin","zip":"44883","date":{"end_time":"2008/04/05 21:47:55 -0400","original":"4/5/2008 9:47:54 PM","granularity":"sec","time":"2008/04/05 21:47:54 -0400"},"geo_score":0.902,"unit":"60","disposition":"100","cfs":19,"call#":8.003425,"id":"a69x6ozx5ujx","geo_precision":"range","address":"315 W Market St","state":"OH","juris":"PD"},"type":"Feature","geometry":{"type":"Point","coordinates":[-83.191142,41.113162]}},{"properties":{"officer":"SGN","city":"Tiffin","zip":"44883","date":{"end_time":"2008/10/07 18:27:07 -0400","original":"10/7/2008 6:27:06 PM","granularity":"sec","time":"2008/10/07 18:27:06 -0400"},"geo_score":0.902,"unit":"62","disposition":"100","cfs":19,"call#":8.01091,"id":"a69x6onlayfm","geo_precision":"range","address":"321 E Perry St","state":"OH","juris":"PD"},"type":"Feature","geometry":{"type":"Point","coordinates":[-83.167735,41.116985]}},{"properties":{"officer":"FWS","city":"Tiffin","zip":"44883","date":{"end_time":"2008/04/18 14:29:22 -0400","original":"4/18/2008 2:29:21 PM","granularity":"sec","time":"2008/04/18 14:29:21 -0400"},"geo_score":0.902,"unit":"59","disposition":"400","cfs":19,"call#":8.003896,"id":"a69x6orkgjws","geo_precision":"range","address":"321 E Perry St","state":"OH","juris":"PD"},"type":"Feature","geometry":{"type":"Point","coordinates":[-83.167735,41.116985]}},{"properties":{"officer":"RJO","city":"Tiffin","zip":"44883","date":{"end_time":"2008/01/28 09:13:44 -0500","original":"1/28/2008 9:13:43 AM","granularity":"sec","time":"2008/01/28 09:13:43 -0500"},"geo_score":0.902,"unit":"60","disposition":"210","cfs":19,"call#":8.000955,"id":"a69x6ot3xg0x","geo_precision":"range","address":"35 Glenn St","state":"OH","juris":"PD"},"type":"Feature","geometry":{"type":"Point","coordinates":[-83.173678,41.102265]}},{"properties":{"officer":"RLT","city":"Tiffin","zip":"44883","date":{"end_time":"2008/08/17 16:09:27 -0400","original":"8/17/2008 4:09:26 PM","granularity":"sec","time":"2008/08/17 16:09:26 -0400"},"geo_score":0.902,"unit":"57","disposition":"100","cfs":19,"call#":8.008689,"id":"a69x6oldpmpy","geo_precision":"range","address":"35 W Perry St","state":"OH","juris":"PD"},"type":"Feature","geometry":{"type":"Point","coordinates":[-83.181409,41.115373]}},{"properties":{"officer":"RJO","city":"Tiffin","zip":"44883","date":{"end_time":"2008/02/26 08:35:36 -0500","original":"2/26/2008 8:35:35 AM","granularity":"sec","time":"2008/02/26 08:35:35 -0500"},"geo_score":0.902,"unit":"58","disposition":"200","cfs":19,"call#":8.002006,"id":"a69x6omjkkbp","geo_precision":"range","address":"37 Fostoria St","state":"OH","juris":"PD"},"type":"Feature","geometry":{"type":"Point","coordinates":[-83.196953,41.114719]}},{"properties":{"officer":"JMW","city":"Tiffin","zip":"44883","date":{"end_time":"2008/12/12 11:20:34 -0500","original":"12/12/2008 11:20:33 AM","granularity":"sec","time":"2008/12/12 11:20:33 -0500"},"geo_score":0.902,"unit":"60","disposition":"100","cfs":19,"call#":8.013116,"id":"a69x6ozj4jxc","geo_precision":"range","address":"373 N Washington St","state":"OH","juris":"PD"},"type":"Feature","geometry":{"type":"Point","coordinates":[-83.178625,41.128335]}},{"properties":{"officer":"MAM","city":"Tiffin","zip":"44883","date":{"end_time":"2008/06/01 00:42:51 -0400","original":"6/1/2008 12:42:50 AM","granularity":"sec","time":"2008/06/01 00:42:50 -0400"},"geo_score":0.902,"unit":"58","disposition":"400","cfs":19,"call#":8.005587,"id":"a69x6ow4bqdk","geo_precision":"range","address":"378 W Market St","state":"OH","juris":"PD"},"type":"Feature","geometry":{"type":"Point","coordinates":[-83.193458,41.112966]}},{"properties":{"officer":"RJO","city":"Tiffin","zip":"44883","date":{"end_time":"2008/09/29 11:06:20 -0400","original":"9/29/2008 11:06:19 AM","granularity":"sec","time":"2008/09/29 11:06:19 -0400"},"geo_score":0.902,"unit":"57","disposition":"100","cfs":19,"call#":8.010607,"id":"a69x6opht6lb","geo_precision":"range","address":"40 Jackson St","state":"OH","juris":"PD"},"type":"Feature","geometry":{"type":"Point","coordinates":[-83.187695,41.114569]}},{"properties":{"officer":"FWS","city":"Tiffin","zip":"44883","date":{"end_time":"2008/02/21 15:43:35 -0500","original":"2/21/2008 3:43:34 PM","granularity":"sec","time":"2008/02/21 15:43:34 -0500"},"geo_score":0.902,"unit":"60","disposition":"200","cfs":19,"call#":8.001827,"id":"a69x6ozoypnt","geo_precision":"range","address":"41 Noble St","state":"OH","juris":"PD"},"type":"Feature","geometry":{"type":"Point","coordinates":[-83.174777,41.122717]}},{"properties":{"officer":"JSC","city":"Tiffin","zip":"44883","date":{"end_time":"2008/06/27 23:07:26 -0400","original":"6/27/2008 11:07:25 PM","granularity":"sec","time":"2008/06/27 23:07:25 -0400"},"geo_score":0.87,"unit":"59","disposition":"200","cfs":19,"call#":8.006618,"id":"a69x6owmgihx","geo_precision":"range","address":"43 Greeley St","state":"OH","juris":"PD"},"type":"Feature","geometry":{"type":"Point","coordinates":[-83.163632,41.116893]}},{"properties":{"officer":"JAD","city":"Tiffin","zip":"44883","date":{"end_time":"2008/02/17 00:37:34 -0500","original":"2/17/2008 12:37:33 AM","granularity":"sec","time":"2008/02/17 00:37:33 -0500"},"geo_score":0.902,"unit":"56","disposition":"100","cfs":19,"call#":8.001682,"id":"a69x6oummeo8","geo_precision":"range","address":"45 S Washington St","state":"OH","juris":"PD"},"type":"Feature","geometry":{"type":"Point","coordinates":[-83.176858,41.116307]}},{"properties":{"officer":"RJO","city":"Tiffin","zip":"44883","date":{"end_time":"2008/05/27 16:17:48 -0400","original":"5/27/2008 4:17:47 PM","granularity":"sec","time":"2008/05/27 16:17:47 -0400"},"geo_score":0.902,"unit":"57","disposition":"200","cfs":19,"call#":8.005409,"id":"a69x6oz6pe0f","geo_precision":"range","address":"45 Sycamore St","state":"OH","juris":"PD"},"type":"Feature","geometry":{"type":"Point","coordinates":[-83.176443,41.1086]}},{"properties":{"officer":"RJO","city":"Tiffin","zip":"44883","date":{"end_time":"2008/12/09 15:46:05 -0500","original":"12/9/2008 3:46:04 PM","granularity":"sec","time":"2008/12/09 15:46:04 -0500"},"geo_score":0.902,"unit":"57","disposition":"100","cfs":19,"call#":8.013031,"id":"a69x6or1uxju","geo_precision":"range","address":"458 W Market St","state":"OH","juris":"PD"},"type":"Feature","geometry":{"type":"Point","coordinates":[-83.196314,41.112689]}},{"properties":{"officer":"FWS","city":"Tiffin","zip":"44883","date":{"end_time":"2008/03/14 11:08:28 -0400","original":"3/14/2008 11:08:27 AM","granularity":"sec","time":"2008/03/14 11:08:27 -0400"},"geo_score":0.902,"unit":"59","disposition":"200","cfs":19,"call#":8.002562,"id":"a69x6om4g51e","geo_precision":"range","address":"465 W Perry St","state":"OH","juris":"PD"},"type":"Feature","geometry":{"type":"Point","coordinates":[-83.196925,41.113941]}},{"properties":{"officer":"GTM","city":"Tiffin","zip":"44883","date":{"end_time":"2008/09/24 13:09:09 -0400","original":"9/24/2008 1:09:08 PM","granularity":"sec","time":"2008/09/24 13:09:08 -0400"},"geo_score":0.902,"unit":"61","disposition":"100","cfs":19,"call#":8.010395,"id":"a69x6oxh7qzg","geo_precision":"range","address":"479 E Market St","state":"OH","juris":"PD"},"type":"Feature","geometry":{"type":"Point","coordinates":[-83.16444,41.119577]}},{"properties":{"officer":"EDA","city":"Tiffin","zip":"44883","date":{"end_time":"2008/08/24 00:22:17 -0400","original":"8/24/2008 12:22:16 AM","granularity":"sec","time":"2008/08/24 00:22:16 -0400"},"geo_score":0.902,"unit":"60","disposition":"230","cfs":19,"call#":8.008967,"id":"a69x6owo6og0","geo_precision":"range","address":"48 Main St","state":"OH","juris":"PD"},"type":"Feature","geometry":{"type":"Point","coordinates":[-83.172632,41.111619]}},{"properties":{"officer":"LMK","city":"Tiffin","zip":"44883","date":{"end_time":"2008/08/24 21:28:17 -0400","original":"8/24/2008 9:28:16 PM","granularity":"sec","time":"2008/08/24 21:28:16 -0400"},"geo_score":0.902,"unit":"58","disposition":"100","cfs":19,"call#":8.009002,"id":"a69x6oxdpw8h","geo_precision":"range","address":"485 W Market St","state":"OH","juris":"PD"},"type":"Feature","geometry":{"type":"Point","coordinates":[-83.197064,41.112593]}},{"properties":{"officer":"MEM","city":"Tiffin","zip":"44883","date":{"end_time":"2008/03/14 03:13:31 -0400","original":"3/14/2008 3:13:30 AM","granularity":"sec","time":"2008/03/14 03:13:30 -0400"},"geo_score":0.902,"unit":"59","disposition":"200","cfs":19,"call#":8.002556,"id":"a69x6oxn1td6","geo_precision":"range","address":"485 W Market St","state":"OH","juris":"PD"},"type":"Feature","geometry":{"type":"Point","coordinates":[-83.197064,41.112593]}},{"properties":{"officer":"SMM","city":"Tiffin","zip":"44883","date":{"end_time":"2008/05/10 12:17:22 -0400","original":"5/10/2008 12:17:21 PM","granularity":"sec","time":"2008/05/10 12:17:21 -0400"},"geo_score":0.902,"unit":"58","disposition":"100","cfs":19,"call#":8.0048,"id":"a69x6ouko1sg","geo_precision":"range","address":"49 Boehler St","state":"OH","juris":"PD"},"type":"Feature","geometry":{"type":"Point","coordinates":[-83.188434,41.117289]}},{"properties":{"officer":"FWS","city":"Tiffin","zip":"44883","date":{"end_time":"2008/08/09 15:11:00 -0400","original":"8/9/2008 3:10:59 PM","granularity":"sec","time":"2008/08/09 15:10:59 -0400"},"geo_score":0.902,"unit":"57","disposition":"100","cfs":19,"call#":8.008365,"id":"a69x6p0aht36","geo_precision":"range","address":"491 Coe St","state":"OH","juris":"PD"},"type":"Feature","geometry":{"type":"Point","coordinates":[-83.160385,41.102667]}},{"properties":{"officer":"JMW","city":"Tiffin","zip":"44883","date":{"end_time":"2008/07/14 14:59:22 -0400","original":"7/14/2008 2:59:21 PM","granularity":"sec","time":"2008/07/14 14:59:21 -0400"},"geo_score":0.902,"unit":"60","disposition":"100","cfs":19,"call#":8.00732,"id":"a69x6ouzb3t5","geo_precision":"range","address":"491 Coe St","state":"OH","juris":"PD"},"type":"Feature","geometry":{"type":"Point","coordinates":[-83.160385,41.102667]}},{"properties":{"officer":"GTM","city":"Tiffin","zip":"44883","date":{"end_time":"2008/07/04 22:50:00 -0400","original":"7/4/2008 10:49:00 PM","granularity":"min","time":"2008/07/04 22:49:00 -0400"},"geo_score":0.902,"unit":"61","disposition":"100","cfs":19,"call#":8.006911,"id":"a69x6or0irfi","geo_precision":"range","address":"491 Coe St","state":"OH","juris":"PD"},"type":"Feature","geometry":{"type":"Point","coordinates":[-83.160385,41.102667]}},{"properties":{"officer":"BRB","city":"Tiffin","zip":"44883","date":{"end_time":"2008/06/04 22:16:05 -0400","original":"6/4/2008 10:16:04 PM","granularity":"sec","time":"2008/06/04 22:16:04 -0400"},"geo_score":0.902,"unit":"58","disposition":"200","cfs":19,"call#":8.005728,"id":"a69x6oromyro","geo_precision":"range","address":"491 Coe St","state":"OH","juris":"PD"},"type":"Feature","geometry":{"type":"Point","coordinates":[-83.160385,41.102667]}},{"properties":{"officer":"JMW","city":"Tiffin","zip":"44883","date":{"end_time":"2008/10/17 16:56:23 -0400","original":"10/17/2008 4:56:22 PM","granularity":"sec","time":"2008/10/17 16:56:22 -0400"},"geo_score":0.902,"unit":"60","disposition":"100","cfs":19,"call#":8.011277,"id":"a69x6ovcpcnb","geo_precision":"range","address":"5 E Perry St","state":"OH","juris":"PD"},"type":"Feature","geometry":{"type":"Point","coordinates":[-83.179206,41.115604]}},{"properties":{"officer":"SGN","city":"Tiffin","zip":"44883","date":{"end_time":"2008/08/26 07:43:08 -0400","original":"8/26/2008 7:43:07 AM","granularity":"sec","time":"2008/08/26 07:43:07 -0400"},"geo_score":0.902,"unit":"62","disposition":"100","cfs":19,"call#":8.009051,"id":"a69x6ox3mrzb","geo_precision":"range","address":"5 E Perry St","state":"OH","juris":"PD"},"type":"Feature","geometry":{"type":"Point","coordinates":[-83.179206,41.115604]}},{"properties":{"officer":"JMW","city":"Tiffin","zip":"44883","date":{"end_time":"2008/09/13 08:23:25 -0400","original":"9/13/2008 8:23:24 AM","granularity":"sec","time":"2008/09/13 08:23:24 -0400"},"geo_score":0.902,"unit":"62","disposition":"100","cfs":19,"call#":8.009872,"id":"a69x6ol986bm","geo_precision":"range","address":"50 N Washington St","state":"OH","juris":"PD"},"type":"Feature","geometry":{"type":"Point","coordinates":[-83.177244,41.118979]}},{"properties":{"officer":"GTM","city":"Tiffin","zip":"44883","date":{"end_time":"2008/09/05 15:11:25 -0400","original":"9/5/2008 3:11:24 PM","granularity":"sec","time":"2008/09/05 15:11:24 -0400"},"geo_score":0.902,"unit":"61","disposition":"100","cfs":19,"call#":8.009506,"id":"a69x6ot8ae0x","geo_precision":"range","address":"50 N Washington St","state":"OH","juris":"PD"},"type":"Feature","geometry":{"type":"Point","coordinates":[-83.177244,41.118979]}},{"properties":{"officer":"FWS","city":"Tiffin","zip":"44883","date":{"end_time":"2008/09/05 13:23:51 -0400","original":"9/5/2008 1:23:50 PM","granularity":"sec","time":"2008/09/05 13:23:50 -0400"},"geo_score":0.902,"unit":"57","disposition":"100","cfs":19,"call#":8.009503,"id":"a69x6owqw2r4","geo_precision":"range","address":"50 N Washington St","state":"OH","juris":"PD"},"type":"Feature","geometry":{"type":"Point","coordinates":[-83.177244,41.118979]}},{"properties":{"officer":"SGN","city":"Tiffin","zip":"44883","date":{"end_time":"2008/04/17 12:02:59 -0400","original":"4/17/2008 12:02:58 PM","granularity":"sec","time":"2008/04/17 12:02:58 -0400"},"geo_score":0.902,"unit":"62","disposition":"100","cfs":19,"call#":8.003843,"id":"a69x6ornhcdp","geo_precision":"range","address":"50 N Washington St","state":"OH","juris":"PD"},"type":"Feature","geometry":{"type":"Point","coordinates":[-83.177244,41.118979]}},{"properties":{"officer":null,"city":"Tiffin","zip":"44883","date":{"end_time":"2008/01/09 07:33:04 -0500","original":"1/9/2008 7:33:03 AM","granularity":"sec","time":"2008/01/09 07:33:03 -0500"},"geo_score":0.902,"unit":null,"disposition":"CAN","cfs":19,"call#":8.000297,"id":"a69x6oxsqv58","geo_precision":"range","address":"50 N Washington St","state":"OH","juris":"PD"},"type":"Feature","geometry":{"type":"Point","coordinates":[-83.177244,41.118979]}},{"properties":{"officer":"BAR","city":"Tiffin","zip":"44883","date":{"end_time":"2008/05/29 12:09:24 -0400","original":"5/29/2008 12:09:23 PM","granularity":"sec","time":"2008/05/29 12:09:23 -0400"},"geo_score":0.902,"unit":"57","disposition":"100","cfs":19,"call#":8.005475,"id":"a69x6onwzkob","geo_precision":"range","address":"51 Ella St","state":"OH","juris":"PD"},"type":"Feature","geometry":{"type":"Point","coordinates":[-83.181627,41.104333]}},{"properties":{"officer":"DGH","city":"Tiffin","zip":"44883","date":{"end_time":"2008/06/16 15:40:50 -0400","original":"6/16/2008 3:40:49 PM","granularity":"sec","time":"2008/06/16 15:40:49 -0400"},"geo_score":0.902,"unit":"59","disposition":"100","cfs":19,"call#":8.006207,"id":"a69x6p0fv085","geo_precision":"range","address":"530 W Market St","state":"OH","juris":"PD"},"type":"Feature","geometry":{"type":"Point","coordinates":[-83.198244,41.112443]}},{"properties":{"officer":"BAR","city":"Tiffin","zip":"44883","date":{"end_time":"2008/12/22 21:03:50 -0500","original":"12/22/2008 9:03:49 PM","granularity":"sec","time":"2008/12/22 21:03:49 -0500"},"geo_score":0.902,"unit":"57","disposition":"100","cfs":19,"call#":8.013436,"id":"a69x6ouee2in","geo_precision":"range","address":"535 W Market St","state":"OH","juris":"PD"},"type":"Feature","geometry":{"type":"Point","coordinates":[-83.199035,41.112429]}},{"properties":{"officer":"JPF","city":"Tiffin","zip":"44883","date":{"end_time":"2008/11/01 00:49:45 -0400","original":"11/1/2008 12:49:44 AM","granularity":"sec","time":"2008/11/01 00:49:44 -0400"},"geo_score":0.902,"unit":"57","disposition":"100","cfs":19,"call#":8.011786,"id":"a69x6otj4agr","geo_precision":"range","address":"535 W Market St","state":"OH","juris":"PD"},"type":"Feature","geometry":{"type":"Point","coordinates":[-83.199035,41.112429]}},{"properties":{"officer":"JPF","city":"Tiffin","zip":"44883","date":{"end_time":"2008/02/11 22:56:06 -0500","original":"2/11/2008 10:56:05 PM","granularity":"sec","time":"2008/02/11 22:56:05 -0500"},"geo_score":0.902,"unit":"58","disposition":"100","cfs":19,"call#":8.001492,"id":"a69x6p16igzp","geo_precision":"range","address":"535 W Market St","state":"OH","juris":"PD"},"type":"Feature","geometry":{"type":"Point","coordinates":[-83.199035,41.112429]}},{"properties":{"officer":"EDA","city":"Tiffin","zip":"44883","date":{"end_time":"2008/06/15 22:26:13 -0400","original":"6/15/2008 10:26:12 PM","granularity":"sec","time":"2008/06/15 22:26:12 -0400"},"geo_score":0.902,"unit":"60","disposition":"100","cfs":19,"call#":8.006188,"id":"a69x6or1iz90","geo_precision":"range","address":"55 Apple St","state":"OH","juris":"PD"},"type":"Feature","geometry":{"type":"Point","coordinates":[-83.181228,41.124811]}},{"properties":{"officer":"SGN","city":"Tiffin","zip":"44883","date":{"end_time":"2008/12/17 15:15:59 -0500","original":"12/17/2008 3:15:58 PM","granularity":"sec","time":"2008/12/17 15:15:58 -0500"},"geo_score":0.902,"unit":"62","disposition":"100","cfs":19,"call#":8.013287,"id":"a69x6ox89fah","geo_precision":"range","address":"550 W Market St","state":"OH","juris":"PD"},"type":"Feature","geometry":{"type":"Point","coordinates":[-83.19939,41.112384]}},{"properties":{"officer":"PJD","city":"Tiffin","zip":"44883","date":{"end_time":"2008/07/23 22:44:06 -0400","original":"7/23/2008 10:44:05 PM","granularity":"sec","time":"2008/07/23 22:44:05 -0400"},"geo_score":0.902,"unit":"60","disposition":"100","cfs":19,"call#":8.007691,"id":"a69x6oz53xje","geo_precision":"range","address":"556 Hedges St","state":"OH","juris":"PD"},"type":"Feature","geometry":{"type":"Point","coordinates":[-83.174495,41.104325]}},{"properties":{"officer":"JSC","city":"Tiffin","zip":"44883","date":{"end_time":"2008/12/29 17:49:40 -0500","original":"12/29/2008 5:49:39 PM","granularity":"sec","time":"2008/12/29 17:49:39 -0500"},"geo_score":0.902,"unit":"59","disposition":"100","cfs":19,"call#":8.013627,"id":"a69x6oqz4byg","geo_precision":"range","address":"580 Miami St","state":"OH","juris":"PD"},"type":"Feature","geometry":{"type":"Point","coordinates":[-83.201877,41.116849]}},{"properties":{"officer":"BAR","city":"Tiffin","zip":"44883","date":{"end_time":"2008/08/10 22:28:16 -0400","original":"8/10/2008 10:28:15 PM","granularity":"sec","time":"2008/08/10 22:28:15 -0400"},"geo_score":0.756,"unit":"58","disposition":"100","cfs":19,"call#":8.00841,"id":"a69x6oshrgcu","geo_precision":"range","address":"60 Second Av","state":"OH","juris":"PD"},"type":"Feature","geometry":{"type":"Point","coordinates":[-83.178637,41.1288]}},{"properties":{"officer":"SWK","city":"Tiffin","zip":"44883","date":{"end_time":"2008/08/05 19:49:29 -0400","original":"8/5/2008 7:49:28 PM","granularity":"sec","time":"2008/08/05 19:49:28 -0400"},"geo_score":0.902,"unit":"61","disposition":"100","cfs":19,"call#":8.008214,"id":"a69x6om3var0","geo_precision":"range","address":"614 W Market St","state":"OH","juris":"PD"},"type":"Feature","geometry":{"type":"Point","coordinates":[-83.201342,41.112207]}},{"properties":{"officer":"SGN","city":"Tiffin","zip":"44883","date":{"end_time":"2008/07/30 15:15:27 -0400","original":"7/30/2008 3:15:26 PM","granularity":"sec","time":"2008/07/30 15:15:26 -0400"},"geo_score":0.902,"unit":"62","disposition":"100","cfs":19,"call#":8.007945,"id":"a69x6ozwoe70","geo_precision":"range","address":"643 Miami St","state":"OH","juris":"PD"},"type":"Feature","geometry":{"type":"Point","coordinates":[-83.202196,41.116745]}},{"properties":{"officer":"JSC","city":"Tiffin","zip":"44883","date":{"end_time":"2008/05/16 20:21:56 -0400","original":"5/16/2008 8:21:55 PM","granularity":"sec","time":"2008/05/16 20:21:55 -0400"},"geo_score":0.902,"unit":"63","disposition":"200","cfs":19,"call#":8.005006,"id":"a69x6oqvbdyc","geo_precision":"range","address":"68 Longfellow Dr","state":"OH","juris":"PD"},"type":"Feature","geometry":{"type":"Point","coordinates":[-83.193914,41.102072]}},{"properties":{"officer":"MAM","city":"Tiffin","zip":"44883","date":{"end_time":"2008/09/06 19:36:50 -0400","original":"9/6/2008 7:36:49 PM","granularity":"sec","time":"2008/09/06 19:36:49 -0400"},"geo_score":0.902,"unit":"58","disposition":"100","cfs":19,"call#":8.009574,"id":"a69x6ostg1fk","geo_precision":"range","address":"68 Riverside Dr","state":"OH","juris":"PD"},"type":"Feature","geometry":{"type":"Point","coordinates":[-83.175127,41.11816]}},{"properties":{"officer":"SGN","city":"Tiffin","zip":"44883","date":{"end_time":"2008/08/26 09:35:34 -0400","original":"8/26/2008 9:35:33 AM","granularity":"sec","time":"2008/08/26 09:35:33 -0400"},"geo_score":0.902,"unit":"62","disposition":"100","cfs":19,"call#":8.009057,"id":"a69x6ooubfn5","geo_precision":"range","address":"686 S Sandusky St","state":"OH","juris":"PD"},"type":"Feature","geometry":{"type":"Point","coordinates":[-83.195347,41.103548]}},{"properties":{"officer":"JSC","city":"Tiffin","zip":"44883","date":{"end_time":"2008/09/08 19:02:31 -0400","original":"9/8/2008 7:02:30 PM","granularity":"sec","time":"2008/09/08 19:02:30 -0400"},"geo_score":0.429,"unit":"58","disposition":"100","cfs":19,"call#":8.009663,"id":"a69x6op4ne4e","geo_precision":"street","address":"686 S Sandusky St, O","state":"OH","juris":"PD"},"type":"Feature","geometry":{"type":"Point","coordinates":[-83.183613,41.118373]}},{"properties":{"officer":"BAR","city":"Tiffin","zip":"44883","date":{"end_time":"2008/12/07 01:27:55 -0500","original":"12/7/2008 1:27:54 AM","granularity":"sec","time":"2008/12/07 01:27:54 -0500"},"geo_score":0.902,"unit":"63","disposition":"120","cfs":19,"call#":8.012959,"id":"a69x6owvomo3","geo_precision":"range","address":"71 E Market St","state":"OH","juris":"PD"},"type":"Feature","geometry":{"type":"Point","coordinates":[-83.177644,41.114498]}},{"properties":{"officer":"MEM","city":"Tiffin","zip":"44883","date":{"end_time":"2008/11/13 21:33:00 -0500","original":"11/13/2008 9:32:00 PM","granularity":"min","time":"2008/11/13 21:32:00 -0500"},"geo_score":0.902,"unit":"62","disposition":"100","cfs":19,"call#":8.012232,"id":"a69x6omo71w2","geo_precision":"range","address":"71 E Market St","state":"OH","juris":"PD"},"type":"Feature","geometry":{"type":"Point","coordinates":[-83.177644,41.114498]}},{"properties":{"officer":"RJO","city":"Tiffin","zip":"44883","date":{"end_time":"2008/02/26 12:20:53 -0500","original":"2/26/2008 12:20:52 PM","granularity":"sec","time":"2008/02/26 12:20:52 -0500"},"geo_score":0.78,"unit":"58","disposition":"100","cfs":19,"call#":8.002012,"id":"a69x6onr06uh","geo_precision":"range","address":"710 W Market St","state":"OH","juris":"PD"},"type":"Feature","geometry":{"type":"Point","coordinates":[-83.204941,41.111603]}},{"properties":{"officer":"DGH","city":"Tiffin","zip":"44883","date":{"end_time":"2008/12/17 15:18:50 -0500","original":"12/17/2008 3:18:49 PM","granularity":"sec","time":"2008/12/17 15:18:49 -0500"},"geo_score":0.78,"unit":"59","disposition":"100","cfs":19,"call#":8.013288,"id":"a69x6oq4o1jm","geo_precision":"range","address":"720 W Market St","state":"OH","juris":"PD"},"type":"Feature","geometry":{"type":"Point","coordinates":[-83.204949,41.111602]}},{"properties":{"officer":"BAR","city":"Tiffin","zip":"44883","date":{"end_time":"2008/08/15 22:23:17 -0400","original":"8/15/2008 10:23:16 PM","granularity":"sec","time":"2008/08/15 22:23:16 -0400"},"geo_score":0.78,"unit":"63","disposition":"100","cfs":19,"call#":8.008602,"id":"a69x6olgud3x","geo_precision":"street","address":"730 W Market St","state":"OH","juris":"PD"},"type":"Feature","geometry":{"type":"Point","coordinates":[-83.204956,41.1116]}},{"properties":{"officer":"JPF","city":"Tiffin","zip":"44883","date":{"end_time":"2008/09/18 18:02:27 -0400","original":"9/18/2008 6:02:26 PM","granularity":"sec","time":"2008/09/18 18:02:26 -0400"},"geo_score":0.902,"unit":"57","disposition":"100","cfs":19,"call#":8.010136,"id":"a69x6oqyi6nn","geo_precision":"range","address":"75 N Sandusky St","state":"OH","juris":"PD"},"type":"Feature","geometry":{"type":"Point","coordinates":[-83.18132,41.12172]}},{"properties":{"officer":"SWK","city":"Tiffin","zip":"44883","date":{"end_time":"2008/03/11 18:11:16 -0400","original":"3/11/2008 6:11:15 PM","granularity":"sec","time":"2008/03/11 18:11:15 -0400"},"geo_score":0.902,"unit":"61","disposition":"200","cfs":19,"call#":8.002483,"id":"a69x6oy0wq04","geo_precision":"range","address":"76 St Clair St","state":"OH","juris":"PD"},"type":"Feature","geometry":{"type":"Point","coordinates":[-83.181208,41.111808]}},{"properties":{"officer":"SWK","city":"Tiffin","zip":"44883","date":{"end_time":"2008/11/21 14:56:08 -0500","original":"11/21/2008 2:56:07 PM","granularity":"sec","time":"2008/11/21 14:56:07 -0500"},"geo_score":0.78,"unit":"61","disposition":"100","cfs":19,"call#":8.012474,"id":"a69x6orhvudw","geo_precision":"range","address":"760 W Market St","state":"OH","juris":"PD"},"type":"Feature","geometry":{"type":"Point","coordinates":[-83.207473,41.111161]}},{"properties":{"officer":"REB","city":"Tiffin","zip":"44883","date":{"end_time":"2008/04/01 15:48:32 -0400","original":"4/1/2008 3:48:31 PM","granularity":"sec","time":"2008/04/01 15:48:31 -0400"},"geo_score":0.78,"unit":"60","disposition":"100","cfs":19,"call#":8.003262,"id":"a69x6om2fylz","geo_precision":"range","address":"760 W Market St","state":"OH","juris":"PD"},"type":"Feature","geometry":{"type":"Point","coordinates":[-83.207473,41.111161]}},{"properties":{"officer":"JSC","city":"Tiffin","zip":"44883","date":{"end_time":"2008/02/03 01:01:13 -0500","original":"2/3/2008 1:01:12 AM","granularity":"sec","time":"2008/02/03 01:01:12 -0500"},"geo_score":0.78,"unit":"59","disposition":"100","cfs":19,"call#":8.001176,"id":"a69x6or27ng5","geo_precision":"range","address":"760 W Market St","state":"OH","juris":"PD"},"type":"Feature","geometry":{"type":"Point","coordinates":[-83.207473,41.111161]}},{"properties":{"officer":"JPF","city":"Tiffin","zip":"44883","date":{"end_time":"2008/08/08 20:55:04 -0400","original":"8/8/2008 8:55:03 PM","granularity":"sec","time":"2008/08/08 20:55:03 -0400"},"geo_score":0.902,"unit":"57","disposition":"100","cfs":19,"call#":8.008326,"id":"a69x6oxr9lw8","geo_precision":"range","address":"777 S Washington St","state":"OH","juris":"PD"},"type":"Feature","geometry":{"type":"Point","coordinates":[-83.174751,41.096243]}},{"properties":{"officer":"JPF","city":"Tiffin","zip":"44883","date":{"end_time":"2008/08/23 20:20:11 -0400","original":"8/23/2008 8:20:10 PM","granularity":"sec","time":"2008/08/23 20:20:10 -0400"},"geo_score":0.78,"unit":"57","disposition":"100","cfs":19,"call#":8.008955,"id":"a69x6otz1pqm","geo_precision":"range","address":"806 W Market St","state":"OH","juris":"PD"},"type":"Feature","geometry":{"type":"Point","coordinates":[-83.207509,41.111153]}},{"properties":{"officer":"EDA","city":"Tiffin","zip":"44883","date":{"end_time":"2008/12/07 01:04:02 -0500","original":"12/7/2008 1:04:01 AM","granularity":"sec","time":"2008/12/07 01:04:01 -0500"},"geo_score":0.902,"unit":"57","disposition":"100","cfs":19,"call#":8.012956,"id":"a69x6p08z6a2","geo_precision":"range","address":"84 N Washington St","state":"OH","juris":"PD"},"type":"Feature","geometry":{"type":"Point","coordinates":[-83.177423,41.120102]}},{"properties":{"officer":"MAM","city":"Tiffin","zip":"44883","date":{"end_time":"2008/03/29 01:25:55 -0400","original":"3/29/2008 1:25:54 AM","granularity":"sec","time":"2008/03/29 01:25:54 -0400"},"geo_score":0.902,"unit":"58","disposition":"200","cfs":19,"call#":8.003108,"id":"a69x6orcu2oi","geo_precision":"range","address":"84 N Washington St","state":"OH","juris":"PD"},"type":"Feature","geometry":{"type":"Point","coordinates":[-83.177423,41.120102]}},{"properties":{"officer":"EDA","city":"Tiffin","zip":"44883","date":{"end_time":"2008/07/12 18:00:43 -0400","original":"7/12/2008 6:00:42 PM","granularity":"sec","time":"2008/07/12 18:00:42 -0400"},"geo_score":0.902,"unit":"60","disposition":"100","cfs":19,"call#":8.007246,"id":"a69x6omitczc","geo_precision":"range","address":"90 Center St","state":"OH","juris":"PD"},"type":"Feature","geometry":{"type":"Point","coordinates":[-83.182819,41.11275]}},{"properties":{"officer":"JAD","city":"Tiffin","zip":"44883","date":{"end_time":"2008/12/07 01:19:14 -0500","original":"12/7/2008 1:19:13 AM","granularity":"sec","time":"2008/12/07 01:19:13 -0500"},"geo_score":0.902,"unit":"56","disposition":"120","cfs":19,"call#":8.012958,"id":"a69x6p0wtvly","geo_precision":"range","address":"92 Madison St","state":"OH","juris":"PD"},"type":"Feature","geometry":{"type":"Point","coordinates":[-83.176333,41.113386]}},{"properties":{"officer":"RLT","city":"Tiffin","zip":"44883","date":{"end_time":"2008/11/25 10:24:30 -0500","original":"11/25/2008 10:24:29 AM","granularity":"sec","time":"2008/11/25 10:24:29 -0500"},"geo_score":0.857,"unit":"61","disposition":"200","cfs":19,"call#":8.012589,"id":"a69x6oxfi2f2","geo_precision":"street","address":"Beechwood Dr/Rosewood Dr","state":"OH","juris":"PD"},"type":"Feature","geometry":{"type":"Point","coordinates":[-83.203049,41.114998]}},{"properties":{"officer":"SMM","city":"Tiffin","zip":"44883","date":{"end_time":"2008/05/15 15:20:05 -0400","original":"5/15/2008 3:20:04 PM","granularity":"sec","time":"2008/05/15 15:20:04 -0400"},"geo_score":0.506,"unit":"58","disposition":"100","cfs":19,"call#":8.004955,"id":"a69x6ox1ky4z","geo_precision":"street","address":"Charlotte St/Dead End","state":"OH","juris":"PD"},"type":"Feature","geometry":{"type":"Point","coordinates":[-83.177533,41.110403]}},{"properties":{"officer":"SWK","city":"Tiffin","zip":"44883","date":{"end_time":"2008/08/21 17:22:09 -0400","original":"8/21/2008 5:22:08 PM","granularity":"sec","time":"2008/08/21 17:22:08 -0400"},"geo_score":0.643,"unit":"61","disposition":"100","cfs":19,"call#":8.00884,"id":"a69x6ow3yxb1","geo_precision":"street","address":"Charlotte St/First St","state":"OH","juris":"PD"},"type":"Feature","geometry":{"type":"Point","coordinates":[-83.180681,41.127913]}},{"properties":{"officer":"GTM","city":"Tiffin","zip":"44883","date":{"end_time":"2008/09/17 12:37:33 -0400","original":"9/17/2008 12:37:32 PM","granularity":"sec","time":"2008/09/17 12:37:32 -0400"},"geo_score":0.857,"unit":"61","disposition":"100","cfs":19,"call#":8.010081,"id":"a69x6ouiv2xi","geo_precision":"street","address":"Charlotte St/S Washington St","state":"OH","juris":"PD"},"type":"Feature","geometry":{"type":"Point","coordinates":[-83.177533,41.110403]}},{"properties":{"officer":"MAM","city":"Tiffin","zip":"44883","date":{"end_time":"2008/07/11 19:27:52 -0400","original":"7/11/2008 7:27:51 PM","granularity":"sec","time":"2008/07/11 19:27:51 -0400"},"geo_score":0.857,"unit":"58","disposition":"100","cfs":19,"call#":8.007206,"id":"a69x6omun1vc","geo_precision":"street","address":"Circular St/Coe St","state":"OH","juris":"PD"},"type":"Feature","geometry":{"type":"Point","coordinates":[-83.174672,41.108987]}},{"properties":{"officer":"RJO","city":"Tiffin","zip":"44883","date":{"end_time":"2008/04/16 12:18:23 -0400","original":"4/16/2008 12:18:22 PM","granularity":"sec","time":"2008/04/16 12:18:22 -0400"},"geo_score":0.857,"unit":"57","disposition":"100","cfs":19,"call#":8.003806,"id":"a69x6osxtnub","geo_precision":"street","address":"Circular St/E Perry St","state":"OH","juris":"PD"},"type":"Feature","geometry":{"type":"Point","coordinates":[-83.178368,41.11568]}},{"properties":{"officer":"EDA","city":"Tiffin","zip":"44883","date":{"end_time":"2008/03/03 19:04:22 -0500","original":"3/3/2008 7:04:21 PM","granularity":"sec","time":"2008/03/03 19:04:21 -0500"},"geo_score":0.857,"unit":"60","disposition":"100","cfs":19,"call#":8.002232,"id":"a69x6orbf9ln","geo_precision":"street","address":"Circular St/Main St","state":"OH","juris":"PD"},"type":"Feature","geometry":{"type":"Point","coordinates":[-83.17504,41.11141]}},{"properties":{"officer":"DES","city":"Tiffin","zip":"44883","date":{"end_time":"2008/04/05 00:24:07 -0400","original":"4/5/2008 12:24:06 AM","granularity":"sec","time":"2008/04/05 00:24:06 -0400"},"geo_score":0.857,"unit":"63","disposition":"220","cfs":19,"call#":8.003368,"id":"a69x6ow51jeu","geo_precision":"street","address":"Clay St/S Sandusky St","state":"OH","juris":"PD"},"type":"Feature","geometry":{"type":"Point","coordinates":[-83.1824,41.116381]}},{"properties":{"officer":"SGN","city":"Tiffin","zip":"44883","date":{"end_time":"2008/04/17 16:19:40 -0400","original":"4/17/2008 4:19:39 PM","granularity":"sec","time":"2008/04/17 16:19:39 -0400"},"geo_score":0.814,"unit":"62","disposition":"100","cfs":19,"call#":8.003852,"id":"a69x6p18ke45","geo_precision":"street","address":"Clinton Av/E Perry St","state":"OH","juris":"PD"},"type":"Feature","geometry":{"type":"Point","coordinates":[-83.1709,41.116357]}},{"properties":{"officer":"SMM","city":"Tiffin","zip":"44883","date":{"end_time":"2008/03/01 06:54:31 -0500","original":"3/1/2008 6:54:30 AM","granularity":"sec","time":"2008/03/01 06:54:30 -0500"},"geo_score":0.857,"unit":"58","disposition":"100","cfs":19,"call#":8.002132,"id":"a69x6p0mmtr7","geo_precision":"street","address":"Clinton Av/Hunter St","state":"OH","juris":"PD"},"type":"Feature","geometry":{"type":"Point","coordinates":[-83.168179,41.119032]}},{"properties":{"officer":"SGN","city":"Tiffin","zip":"44883","date":{"end_time":"2008/01/11 07:32:00 -0500","original":"1/11/2008 7:31:59 AM","granularity":"sec","time":"2008/01/11 07:31:59 -0500"},"geo_score":0.857,"unit":"63","disposition":"100","cfs":19,"call#":8.000368,"id":"a69x6oz0gu69","geo_precision":"street","address":"Coe St/S Washington St","state":"OH","juris":"PD"},"type":"Feature","geometry":{"type":"Point","coordinates":[-83.174672,41.108987]}},{"properties":{"officer":"SWK","city":"Tiffin","zip":"44883","date":{"end_time":"2008/04/30 22:17:48 -0400","original":"4/30/2008 10:17:47 PM","granularity":"sec","time":"2008/04/30 22:17:47 -0400"},"geo_score":0.857,"unit":"61","disposition":"100","cfs":19,"call#":8.004408,"id":"a69x6oole5z1","geo_precision":"street","address":"E Davis St/N Sandusky St","state":"OH","juris":"PD"},"type":"Feature","geometry":{"type":"Point","coordinates":[-83.17674,41.1259]}},{"properties":{"officer":null,"city":"Tiffin","zip":"44883","date":{"end_time":"2008/04/15 07:47:21 -0400","original":"4/15/2008 7:47:20 AM","granularity":"sec","time":"2008/04/15 07:47:20 -0400"},"geo_score":0.857,"unit":null,"disposition":"CAN","cfs":19,"call#":8.003752,"id":"a69x6out29yg","geo_precision":"street","address":"E Davis St/N Sandusky St","state":"OH","juris":"PD"},"type":"Feature","geometry":{"type":"Point","coordinates":[-83.17674,41.1259]}},{"properties":{"officer":"JSC","city":"Tiffin","zip":"44883","date":{"end_time":"2008/11/01 19:05:15 -0400","original":"11/1/2008 7:05:14 PM","granularity":"sec","time":"2008/11/01 19:05:14 -0400"},"geo_score":0.857,"unit":"59","disposition":"100","cfs":19,"call#":8.011818,"id":"a69x6oswjrg8","geo_precision":"street","address":"E Market St/City Limits","state":"OH","juris":"PD"},"type":"Feature","geometry":{"type":"Point","coordinates":[-83.179559,41.114309]}},{"properties":{"officer":"DES","city":"Tiffin","zip":"44883","date":{"end_time":"2008/07/02 17:03:32 -0400","original":"7/2/2008 5:03:31 PM","granularity":"sec","time":"2008/07/02 17:03:31 -0400"},"geo_score":0.857,"unit":"62","disposition":"100","cfs":19,"call#":8.006823,"id":"a69x6omanfbp","geo_precision":"street","address":"E Market St/City Limits","state":"OH","juris":"PD"},"type":"Feature","geometry":{"type":"Point","coordinates":[-83.179559,41.114309]}},{"properties":{"officer":"GTM","city":"Tiffin","zip":"44883","date":{"end_time":"2008/12/19 14:19:00 -0500","original":"12/19/2008 2:18:00 PM","granularity":"min","time":"2008/12/19 14:18:00 -0500"},"geo_score":0.857,"unit":"58","disposition":"400","cfs":19,"call#":8.013348,"id":"a69x6oukbagh","geo_precision":"street","address":"E Market St/E Perry St","state":"OH","juris":"PD"},"type":"Feature","geometry":{"type":"Point","coordinates":[-83.178368,41.11568]}},{"properties":{"officer":"FWS","city":"Tiffin","zip":"44883","date":{"end_time":"2008/10/09 13:49:03 -0400","original":"10/9/2008 1:49:02 PM","granularity":"sec","time":"2008/10/09 13:49:02 -0400"},"geo_score":0.857,"unit":"57","disposition":"100","cfs":19,"call#":8.010962,"id":"a69x6onkbb19","geo_precision":"street","address":"E Market St/Greenfield St","state":"OH","juris":"PD"},"type":"Feature","geometry":{"type":"Point","coordinates":[-83.179559,41.114309]}},{"properties":{"officer":"EDA","city":"Tiffin","zip":"44883","date":{"end_time":"2008/09/20 21:28:38 -0400","original":"9/20/2008 9:28:37 PM","granularity":"sec","time":"2008/09/20 21:28:37 -0400"},"geo_score":0.857,"unit":"60","disposition":"100","cfs":19,"call#":8.010248,"id":"a69x6omzfpo6","geo_precision":"street","address":"E Market St/Jefferson St","state":"OH","juris":"PD"},"type":"Feature","geometry":{"type":"Point","coordinates":[-83.179559,41.114309]}},{"properties":{"officer":"GTM","city":"Tiffin","zip":"44883","date":{"end_time":"2008/08/06 07:54:23 -0400","original":"8/6/2008 7:54:22 AM","granularity":"sec","time":"2008/08/06 07:54:22 -0400"},"geo_score":0.857,"unit":"58","disposition":"100","cfs":19,"call#":8.008225,"id":"a69x6p0jy9nc","geo_precision":"street","address":"E Market St/Jefferson St","state":"OH","juris":"PD"},"type":"Feature","geometry":{"type":"Point","coordinates":[-83.179559,41.114309]}},{"properties":{"officer":"JPF","city":"Tiffin","zip":"44883","date":{"end_time":"2008/03/22 17:14:49 -0400","original":"3/22/2008 5:14:48 PM","granularity":"sec","time":"2008/03/22 17:14:48 -0400"},"geo_score":0.857,"unit":"57","disposition":"100","cfs":19,"call#":8.002844,"id":"a69x6p0dykp5","geo_precision":"street","address":"E Market St/Jefferson St","state":"OH","juris":"PD"},"type":"Feature","geometry":{"type":"Point","coordinates":[-83.179559,41.114309]}},{"properties":{"officer":"JAD","city":"Tiffin","zip":"44883","date":{"end_time":"2008/08/31 23:09:40 -0400","original":"8/31/2008 11:09:39 PM","granularity":"sec","time":"2008/08/31 23:09:39 -0400"},"geo_score":0.857,"unit":"56","disposition":"100","cfs":19,"call#":8.009342,"id":"a69x6oqgie6q","geo_precision":"street","address":"E Market St/S Monroe St","state":"OH","juris":"PD"},"type":"Feature","geometry":{"type":"Point","coordinates":[-83.179559,41.114309]}},{"properties":{"officer":"RAG","city":"Tiffin","zip":"44883","date":{"end_time":"2008/08/26 08:42:34 -0400","original":"8/26/2008 8:42:33 AM","granularity":"sec","time":"2008/08/26 08:42:33 -0400"},"geo_score":0.857,"unit":"116","disposition":"100","cfs":19,"call#":8.009054,"id":"a69x6oy5lepb","geo_precision":"street","address":"E Market St/S Monroe St","state":"OH","juris":"PD"},"type":"Feature","geometry":{"type":"Point","coordinates":[-83.179559,41.114309]}},{"properties":{"officer":"SWK","city":"Tiffin","zip":"44883","date":{"end_time":"2008/04/28 17:53:31 -0400","original":"4/28/2008 5:53:30 PM","granularity":"sec","time":"2008/04/28 17:53:30 -0400"},"geo_score":0.857,"unit":"61","disposition":"100","cfs":19,"call#":8.004335,"id":"a69x6onjws41","geo_precision":"street","address":"E Market St/S Monroe St","state":"OH","juris":"PD"},"type":"Feature","geometry":{"type":"Point","coordinates":[-83.179559,41.114309]}},{"properties":{"officer":"DES","city":"Tiffin","zip":"44883","date":{"end_time":"2008/02/29 18:25:06 -0500","original":"2/29/2008 6:25:05 PM","granularity":"sec","time":"2008/02/29 18:25:05 -0500"},"geo_score":0.857,"unit":"63","disposition":"100","cfs":19,"call#":8.002111,"id":"a69x6oq2j8la","geo_precision":"street","address":"E Market St/S Monroe St","state":"OH","juris":"PD"},"type":"Feature","geometry":{"type":"Point","coordinates":[-83.179559,41.114309]}},{"properties":{"officer":"JAD","city":"Tiffin","zip":"44883","date":{"end_time":"2008/02/09 06:37:29 -0500","original":"2/9/2008 6:37:28 AM","granularity":"sec","time":"2008/02/09 06:37:28 -0500"},"geo_score":0.857,"unit":"56","disposition":"100","cfs":19,"call#":8.001391,"id":"a69x6osj4xim","geo_precision":"street","address":"E Market St/S Monroe St","state":"OH","juris":"PD"},"type":"Feature","geometry":{"type":"Point","coordinates":[-83.179559,41.114309]}},{"properties":{"officer":null,"city":"Tiffin","zip":"44883","date":{"end_time":"2008/12/17 09:19:11 -0500","original":"12/17/2008 9:19:10 AM","granularity":"sec","time":"2008/12/17 09:19:10 -0500"},"geo_score":0.857,"unit":null,"disposition":"CAN","cfs":19,"call#":8.013277,"id":"a69x6onbykm5","geo_precision":"street","address":"E Market St/S Washington St","state":"OH","juris":"PD"},"type":"Feature","geometry":{"type":"Point","coordinates":[-83.179559,41.114309]}},{"properties":{"officer":"JPF","city":"Tiffin","zip":"44883","date":{"end_time":"2008/10/03 17:06:11 -0400","original":"10/3/2008 5:06:10 PM","granularity":"sec","time":"2008/10/03 17:06:10 -0400"},"geo_score":0.857,"unit":"57","disposition":"100","cfs":19,"call#":8.010764,"id":"a69x6ow5up3q","geo_precision":"street","address":"E Market St/S Washington St","state":"OH","juris":"PD"},"type":"Feature","geometry":{"type":"Point","coordinates":[-83.179559,41.114309]}},{"properties":{"officer":"EDA","city":"Tiffin","zip":"44883","date":{"end_time":"2008/01/11 17:47:00 -0500","original":"1/11/2008 5:46:00 PM","granularity":"min","time":"2008/01/11 17:46:00 -0500"},"geo_score":0.857,"unit":"60","disposition":"100","cfs":19,"call#":8.00039,"id":"a69x6olhgxup","geo_precision":"street","address":"E Market St/S Washington St","state":"OH","juris":"PD"},"type":"Feature","geometry":{"type":"Point","coordinates":[-83.179559,41.114309]}},{"properties":{"officer":"MAM","city":"Tiffin","zip":"44883","date":{"end_time":"2008/01/10 19:32:41 -0500","original":"1/10/2008 7:32:40 PM","granularity":"sec","time":"2008/01/10 19:32:40 -0500"},"geo_score":0.857,"unit":"58","disposition":"220","cfs":19,"call#":8.000353,"id":"a69x6opsd4ts","geo_precision":"street","address":"E Market St/S Washington St","state":"OH","juris":"PD"},"type":"Feature","geometry":{"type":"Point","coordinates":[-83.179559,41.114309]}},{"properties":{"officer":"SGN","city":"Tiffin","zip":"44883","date":{"end_time":"2008/02/08 08:37:55 -0500","original":"2/8/2008 8:37:54 AM","granularity":"sec","time":"2008/02/08 08:37:54 -0500"},"geo_score":0.857,"unit":"63","disposition":"100","cfs":19,"call#":8.001347,"id":"a69x6p0nj22v","geo_precision":"street","address":"E Perry St/City Limits","state":"OH","juris":"PD"},"type":"Feature","geometry":{"type":"Point","coordinates":[-83.178368,41.11568]}},{"properties":{"officer":"SGN","city":"Tiffin","zip":"44883","date":{"end_time":"2008/01/23 14:28:38 -0500","original":"1/23/2008 2:28:37 PM","granularity":"sec","time":"2008/01/23 14:28:37 -0500"},"geo_score":0.857,"unit":"63","disposition":"100","cfs":19,"call#":8.000793,"id":"a69x6oww0w1c","geo_precision":"street","address":"E Perry St/E Market St","state":"OH","juris":"PD"},"type":"Feature","geometry":{"type":"Point","coordinates":[-83.178368,41.11568]}},{"properties":{"officer":"JMW","city":"Tiffin","zip":"44883","date":{"end_time":"2008/04/13 14:47:24 -0400","original":"4/13/2008 2:47:23 PM","granularity":"sec","time":"2008/04/13 14:47:23 -0400"},"geo_score":0.857,"unit":"60","disposition":"100","cfs":19,"call#":8.003712,"id":"a69x6oxfdsty","geo_precision":"street","address":"E Perry St/Jefferson St","state":"OH","juris":"PD"},"type":"Feature","geometry":{"type":"Point","coordinates":[-83.178368,41.11568]}},{"properties":{"officer":"RJO","city":"Tiffin","zip":"44883","date":{"end_time":"2008/01/16 07:00:46 -0500","original":"1/16/2008 7:00:45 AM","granularity":"sec","time":"2008/01/16 07:00:45 -0500"},"geo_score":0.857,"unit":"60","disposition":"100","cfs":19,"call#":8.00056,"id":"a69x6oytmpmj","geo_precision":"street","address":"E Perry St/Penn St","state":"OH","juris":"PD"},"type":"Feature","geometry":{"type":"Point","coordinates":[-83.1647,41.116892]}},{"properties":{"officer":"JMW","city":"Tiffin","zip":"44883","date":{"end_time":"2008/06/07 10:17:00 -0400","original":"6/7/2008 10:16:00 AM","granularity":"min","time":"2008/06/07 10:16:00 -0400"},"geo_score":0.857,"unit":"60","disposition":"100","cfs":19,"call#":8.005823,"id":"a69x6oq77bwl","geo_precision":"street","address":"E Perry St/S Monroe St","state":"OH","juris":"PD"},"type":"Feature","geometry":{"type":"Point","coordinates":[-83.178368,41.11568]}},{"properties":{"officer":"JPF","city":"Tiffin","zip":"44883","date":{"end_time":"2008/08/09 02:43:30 -0400","original":"8/9/2008 2:43:29 AM","granularity":"sec","time":"2008/08/09 02:43:29 -0400"},"geo_score":0.857,"unit":"57","disposition":"100","cfs":19,"call#":8.008341,"id":"a69x6ovekczk","geo_precision":"street","address":"E Perry St/S Washington St","state":"OH","juris":"PD"},"type":"Feature","geometry":{"type":"Point","coordinates":[-83.178368,41.11568]}},{"properties":{"officer":"JPF","city":"Tiffin","zip":"44883","date":{"end_time":"2008/05/03 17:49:57 -0400","original":"5/3/2008 5:49:56 PM","granularity":"sec","time":"2008/05/03 17:49:56 -0400"},"geo_score":0.857,"unit":"57","disposition":"100","cfs":19,"call#":8.004535,"id":"a69x6ovo35rp","geo_precision":"street","address":"Ella St/S Sandusky St","state":"OH","juris":"PD"},"type":"Feature","geometry":{"type":"Point","coordinates":[-83.184968,41.104152]}},{"properties":{"officer":"SGN","city":"Tiffin","zip":"44883","date":{"end_time":"2008/10/17 15:10:23 -0400","original":"10/17/2008 3:10:22 PM","granularity":"sec","time":"2008/10/17 15:10:22 -0400"},"geo_score":0.643,"unit":"62","disposition":"100","cfs":19,"call#":8.011273,"id":"a69x6ox1aeta","geo_precision":"street","address":"First Av/Warren Av","state":"OH","juris":"PD"},"type":"Feature","geometry":{"type":"Point","coordinates":[-83.180681,41.127913]}},{"properties":{"officer":"RLT","city":"Tiffin","zip":"44883","date":{"end_time":"2008/06/14 21:29:28 -0400","original":"6/14/2008 9:29:27 PM","granularity":"sec","time":"2008/06/14 21:29:27 -0400"},"geo_score":0.643,"unit":"63","disposition":"100","cfs":19,"call#":8.006147,"id":"a69x6opoxh39","geo_precision":"street","address":"First Av/Warren Av","state":"OH","juris":"PD"},"type":"Feature","geometry":{"type":"Point","coordinates":[-83.180681,41.127913]}},{"properties":{"officer":"AMR","city":"Tiffin","zip":"44883","date":{"end_time":"2008/06/04 01:14:47 -0400","original":"6/4/2008 1:14:46 AM","granularity":"sec","time":"2008/06/04 01:14:46 -0400"},"geo_score":0.762,"unit":"63","disposition":"100","cfs":19,"call#":8.005685,"id":"a69x6os95qxw","geo_precision":"street","address":"Frost Py/W Market St","state":"OH","juris":"PD"},"type":"Feature","geometry":{"type":"Point","coordinates":[-83.180549,41.115641]}},{"properties":{"officer":"MEM","city":"Tiffin","zip":"44883","date":{"end_time":"2008/10/26 03:22:39 -0400","original":"10/26/2008 3:22:38 AM","granularity":"sec","time":"2008/10/26 03:22:38 -0400"},"geo_score":0.5,"unit":"62","disposition":"100","cfs":19,"call#":8.011585,"id":"a69x6ovfbrtg","geo_precision":"street","address":"Greenfield St/City Limits","state":"OH","juris":"PD"},"type":"Feature","geometry":{"type":"Point","coordinates":[-83.166371,41.115296]}},{"properties":{"officer":"JAD","city":"Tiffin","zip":"44883","date":{"end_time":"2008/11/23 04:14:46 -0500","original":"11/23/2008 4:14:45 AM","granularity":"sec","time":"2008/11/23 04:14:45 -0500"},"geo_score":0.857,"unit":"56","disposition":"100","cfs":19,"call#":8.012547,"id":"a69x6oztn32g","geo_precision":"street","address":"Greenfield St/E Market St","state":"OH","juris":"PD"},"type":"Feature","geometry":{"type":"Point","coordinates":[-83.179559,41.114309]}},{"properties":{"officer":"EDA","city":"Tiffin","zip":"44883","date":{"end_time":"2008/12/05 22:35:23 -0500","original":"12/5/2008 10:35:22 PM","granularity":"sec","time":"2008/12/05 22:35:22 -0500"},"geo_score":0.857,"unit":"57","disposition":"100","cfs":19,"call#":8.012906,"id":"a69x6ot20qam","geo_precision":"street","address":"Greenfield St/Prospect St","state":"OH","juris":"PD"},"type":"Feature","geometry":{"type":"Point","coordinates":[-83.161998,41.112539]}},{"properties":{"officer":"BRB","city":"Tiffin","zip":"44883","date":{"end_time":"2008/10/03 03:44:25 -0400","original":"10/3/2008 3:44:24 AM","granularity":"sec","time":"2008/10/03 03:44:24 -0400"},"geo_score":0.857,"unit":"58","disposition":"100","cfs":19,"call#":8.010747,"id":"a69x6p0qgwm1","geo_precision":"street","address":"Hall St/Wall St","state":"OH","juris":"PD"},"type":"Feature","geometry":{"type":"Point","coordinates":[-83.179229,41.121269]}},{"properties":{"officer":"DGH","city":"Tiffin","zip":"44883","date":{"end_time":"2008/08/04 13:23:06 -0400","original":"8/4/2008 1:23:05 PM","granularity":"sec","time":"2008/08/04 13:23:05 -0400"},"geo_score":0.814,"unit":"59","disposition":"100","cfs":19,"call#":8.008147,"id":"a69x6oumaj9d","geo_precision":"street","address":"Hopewell Av/Lindsay Av","state":"OH","juris":"PD"},"type":"Feature","geometry":{"type":"Point","coordinates":[-83.198988,41.111017]}},{"properties":{"officer":"RJO","city":"Tiffin","zip":"44883","date":{"end_time":"2008/10/01 12:48:19 -0400","original":"10/1/2008 12:48:18 PM","granularity":"sec","time":"2008/10/01 12:48:18 -0400"},"geo_score":0.818,"unit":"57","disposition":"100","cfs":19,"call#":8.010687,"id":"a69x6oo3lziq","geo_precision":"street","address":"Hopewell Av/W Market St","state":"OH","juris":"PD"},"type":"Feature","geometry":{"type":"Point","coordinates":[-83.198988,41.111017]}},{"properties":{"officer":"GTM","city":"Tiffin","zip":"44883","date":{"end_time":"2008/09/11 16:40:22 -0400","original":"9/11/2008 4:40:21 PM","granularity":"sec","time":"2008/09/11 16:40:21 -0400"},"geo_score":0.857,"unit":"61","disposition":"100","cfs":19,"call#":8.009789,"id":"a69x6oloa7h9","geo_precision":"street","address":"Jackson St/W Market St","state":"OH","juris":"PD"},"type":"Feature","geometry":{"type":"Point","coordinates":[-83.188463,41.113439]}},{"properties":{"officer":"BAR","city":"Tiffin","zip":"44883","date":{"end_time":"2008/11/01 02:52:02 -0400","original":"11/1/2008 2:52:01 AM","granularity":"sec","time":"2008/11/01 02:52:01 -0400"},"geo_score":0.857,"unit":"63","disposition":"400","cfs":19,"call#":8.011797,"id":"a69x6oymxapz","geo_precision":"street","address":"Jefferson St/Tiffin St","state":"OH","juris":"PD"},"type":"Feature","geometry":{"type":"Point","coordinates":[-83.275897,41.132222]}},{"properties":{"officer":"JPF","city":"Tiffin","zip":"44883","date":{"end_time":"2008/02/02 19:22:23 -0500","original":"2/2/2008 7:22:22 PM","granularity":"sec","time":"2008/02/02 19:22:22 -0500"},"geo_score":0.857,"unit":"62","disposition":"100","cfs":19,"call#":8.001154,"id":"a69x6opzc6ve","geo_precision":"street","address":"Jefferson St/Tiffin St","state":"OH","juris":"PD"},"type":"Feature","geometry":{"type":"Point","coordinates":[-83.275897,41.132222]}},{"properties":{"officer":"BRB","city":"Tiffin","zip":"44883","date":{"end_time":"2008/12/10 22:01:28 -0500","original":"12/10/2008 10:01:27 PM","granularity":"sec","time":"2008/12/10 22:01:27 -0500"},"geo_score":0.857,"unit":"59","disposition":"100","cfs":19,"call#":8.013068,"id":"a69x6opx3d82","geo_precision":"street","address":"Longfellow Dr/Ella St","state":"OH","juris":"PD"},"type":"Feature","geometry":{"type":"Point","coordinates":[-83.184968,41.104152]}},{"properties":{"officer":"PJD","city":"Tiffin","zip":"44883","date":{"end_time":"2008/04/23 02:12:46 -0400","original":"4/23/2008 2:12:45 AM","granularity":"sec","time":"2008/04/23 02:12:45 -0400"},"geo_score":0.857,"unit":"62","disposition":"100","cfs":19,"call#":8.004082,"id":"a69x6oxihdkg","geo_precision":"street","address":"Longfellow Dr/Gary Ln","state":"OH","juris":"PD"},"type":"Feature","geometry":{"type":"Point","coordinates":[-83.197419,41.099703]}},{"properties":{"officer":"MAM","city":"Tiffin","zip":"44883","date":{"end_time":"2008/10/11 18:49:13 -0400","original":"10/11/2008 6:49:12 PM","granularity":"sec","time":"2008/10/11 18:49:12 -0400"},"geo_score":0.857,"unit":"58","disposition":"220","cfs":19,"call#":8.011057,"id":"a69x6oy77pe0","geo_precision":"street","address":"Madison St/S Washington St","state":"OH","juris":"PD"},"type":"Feature","geometry":{"type":"Point","coordinates":[-83.177984,41.113223]}},{"properties":{"officer":"JAD","city":"Tiffin","zip":"44883","date":{"end_time":"2008/08/17 20:57:57 -0400","original":"8/17/2008 8:57:56 PM","granularity":"sec","time":"2008/08/17 20:57:56 -0400"},"geo_score":0.857,"unit":"56","disposition":"100","cfs":19,"call#":8.008696,"id":"a69x6or9rfxi","geo_precision":"street","address":"Madison St/S Washington St","state":"OH","juris":"PD"},"type":"Feature","geometry":{"type":"Point","coordinates":[-83.177984,41.113223]}},{"properties":{"officer":"JAD","city":"Tiffin","zip":"44883","date":{"end_time":"2008/06/01 21:21:23 -0400","original":"6/1/2008 9:21:22 PM","granularity":"sec","time":"2008/06/01 21:21:22 -0400"},"geo_score":0.857,"unit":"56","disposition":"100","cfs":19,"call#":8.005617,"id":"a69x6oy3ckwa","geo_precision":"street","address":"Main St/Jefferson St","state":"OH","juris":"PD"},"type":"Feature","geometry":{"type":"Point","coordinates":[-83.17504,41.11141]}},{"properties":{"officer":"REB","city":"Tiffin","zip":"44883","date":{"end_time":"2008/04/15 13:43:51 -0400","original":"4/15/2008 1:43:50 PM","granularity":"sec","time":"2008/04/15 13:43:50 -0400"},"geo_score":0.857,"unit":"58","disposition":"100","cfs":19,"call#":8.003769,"id":"a69x6p1hiqor","geo_precision":"street","address":"Melmore St/Circular St","state":"OH","juris":"PD"},"type":"Feature","geometry":{"type":"Point","coordinates":[-83.173301,41.107198]}},{"properties":{"officer":"JMW","city":"Tiffin","zip":"44883","date":{"end_time":"2008/12/15 14:15:07 -0500","original":"12/15/2008 2:15:06 PM","granularity":"sec","time":"2008/12/15 14:15:06 -0500"},"geo_score":0.857,"unit":"60","disposition":"100","cfs":19,"call#":8.013229,"id":"a69x6or7uysu","geo_precision":"street","address":"Melmore St/City Limits","state":"OH","juris":"PD"},"type":"Feature","geometry":{"type":"Point","coordinates":[-83.173301,41.107198]}},{"properties":{"officer":"LMK","city":"Tiffin","zip":"44883","date":{"end_time":"2008/04/26 21:35:48 -0400","original":"4/26/2008 9:35:47 PM","granularity":"sec","time":"2008/04/26 21:35:47 -0400"},"geo_score":0.857,"unit":"61","disposition":"100","cfs":19,"call#":8.004249,"id":"a69x6or0x17a","geo_precision":"street","address":"Melmore St/City Limits","state":"OH","juris":"PD"},"type":"Feature","geometry":{"type":"Point","coordinates":[-83.173301,41.107198]}},{"properties":{"officer":"SWK","city":"Tiffin","zip":"44883","date":{"end_time":"2008/03/25 16:36:42 -0400","original":"3/25/2008 4:36:41 PM","granularity":"sec","time":"2008/03/25 16:36:41 -0400"},"geo_score":0.857,"unit":"61","disposition":"220","cfs":19,"call#":8.002964,"id":"a69x6ow9rxn3","geo_precision":"street","address":"Melmore St/City Limits","state":"OH","juris":"PD"},"type":"Feature","geometry":{"type":"Point","coordinates":[-83.173301,41.107198]}},{"properties":{"officer":"JMW","city":"Tiffin","zip":"44883","date":{"end_time":"2008/02/04 15:00:47 -0500","original":"2/4/2008 3:00:46 PM","granularity":"sec","time":"2008/02/04 15:00:46 -0500"},"geo_score":0.857,"unit":"58","disposition":"100","cfs":19,"call#":8.001221,"id":"a69x6ozu7sbv","geo_precision":"street","address":"Melmore St/City Limits","state":"OH","juris":"PD"},"type":"Feature","geometry":{"type":"Point","coordinates":[-83.173301,41.107198]}},{"properties":{"officer":"SWK","city":"Tiffin","zip":"44883","date":{"end_time":"2008/12/09 15:13:18 -0500","original":"12/9/2008 3:13:17 PM","granularity":"sec","time":"2008/12/09 15:13:17 -0500"},"geo_score":0.857,"unit":"61","disposition":"100","cfs":19,"call#":8.013029,"id":"a69x6p1jx5i7","geo_precision":"street","address":"Melmore St/Glenn St","state":"OH","juris":"PD"},"type":"Feature","geometry":{"type":"Point","coordinates":[-83.173774,41.102264]}},{"properties":{"officer":"JPF","city":"Tiffin","zip":"44883","date":{"end_time":"2008/12/06 18:58:42 -0500","original":"12/6/2008 6:58:41 PM","granularity":"sec","time":"2008/12/06 18:58:41 -0500"},"geo_score":0.857,"unit":"58","disposition":"100","cfs":19,"call#":8.012944,"id":"a69x6ov6eioi","geo_precision":"street","address":"Melmore St/St Francis Av","state":"OH","juris":"PD"},"type":"Feature","geometry":{"type":"Point","coordinates":[-83.173301,41.107198]}},{"properties":{"officer":"DES","city":"Tiffin","zip":"44883","date":{"end_time":"2008/03/27 01:16:35 -0400","original":"3/27/2008 1:16:34 AM","granularity":"sec","time":"2008/03/27 01:16:34 -0400"},"geo_score":0.857,"unit":"60","disposition":"100","cfs":19,"call#":8.003012,"id":"a69x6ot5uks1","geo_precision":"street","address":"Miami St/City Limits","state":"OH","juris":"PD"},"type":"Feature","geometry":{"type":"Point","coordinates":[-83.181876,41.117677]}},{"properties":{"officer":"JPF","city":"Tiffin","zip":"44883","date":{"end_time":"2008/03/30 19:01:28 -0400","original":"3/30/2008 7:01:27 PM","granularity":"sec","time":"2008/03/30 19:01:27 -0400"},"geo_score":0.857,"unit":"59","disposition":"100","cfs":19,"call#":8.003203,"id":"a69x6oxw4ahq","geo_precision":"street","address":"Miami St/Nelson St","state":"OH","juris":"PD"},"type":"Feature","geometry":{"type":"Point","coordinates":[-83.181876,41.117677]}},{"properties":{"officer":"SMM","city":"Tiffin","zip":"44883","date":{"end_time":"2008/03/05 13:33:05 -0500","original":"3/5/2008 1:33:04 PM","granularity":"sec","time":"2008/03/05 13:33:04 -0500"},"geo_score":0.857,"unit":"60","disposition":"100","cfs":19,"call#":8.002274,"id":"a69x6ov1e91f","geo_precision":"street","address":"Miami St/Scott St","state":"OH","juris":"PD"},"type":"Feature","geometry":{"type":"Point","coordinates":[-83.181876,41.117677]}},{"properties":{"officer":null,"city":"Tiffin","zip":"44883","date":{"end_time":"2008/06/04 13:13:09 -0400","original":"6/4/2008 1:13:08 PM","granularity":"sec","time":"2008/06/04 13:13:08 -0400"},"geo_score":0.857,"unit":null,"disposition":"100","cfs":19,"call#":8.005703,"id":"a69x6opl8ufx","geo_precision":"street","address":"Miami St/Wall St","state":"OH","juris":"PD"},"type":"Feature","geometry":{"type":"Point","coordinates":[-83.187545,41.120733]}},{"properties":{"officer":"JSC","city":"Tiffin","zip":"44883","date":{"end_time":"2008/01/01 03:33:22 -0500","original":"1/1/2008 3:33:21 AM","granularity":"sec","time":"2008/01/01 03:33:21 -0500"},"geo_score":0.857,"unit":"58","disposition":"100","cfs":19,"call#":8.000018,"id":"a69x6ovv0dnd","geo_precision":"street","address":"Minerva St/Harrison St","state":"OH","juris":"PD"},"type":"Feature","geometry":{"type":"Point","coordinates":[-83.175874,41.120489]}},{"properties":{"officer":"RLT","city":"Tiffin","zip":"44883","date":{"end_time":"2008/03/22 04:53:25 -0400","original":"3/22/2008 4:53:24 AM","granularity":"sec","time":"2008/03/22 04:53:24 -0400"},"geo_score":0.857,"unit":"57","disposition":"100","cfs":19,"call#":8.00283,"id":"a69x6otopyvt","geo_precision":"street","address":"Mohawk St/Circular St","state":"OH","juris":"PD"},"type":"Feature","geometry":{"type":"Point","coordinates":[-83.178062,41.103556]}},{"properties":{"officer":"DGH","city":"Tiffin","zip":"44883","date":{"end_time":"2008/08/13 14:05:27 -0400","original":"8/13/2008 2:05:26 PM","granularity":"sec","time":"2008/08/13 14:05:26 -0400"},"geo_score":0.75,"unit":"57","disposition":"100","cfs":19,"call#":8.008513,"id":"a69x6otosvcy","geo_precision":"street","address":"N River Rd/City Limits","state":"OH","juris":"PD"},"type":"Feature","geometry":{"type":"Point","coordinates":[-83.163911,41.131177]}},{"properties":{"officer":"REB","city":"Tiffin","zip":"44883","date":{"end_time":"2008/06/17 09:49:06 -0400","original":"6/17/2008 9:49:05 AM","granularity":"sec","time":"2008/06/17 09:49:05 -0400"},"geo_score":0.857,"unit":"63","disposition":"220","cfs":19,"call#":8.006229,"id":"a69x6omk3jal","geo_precision":"street","address":"N Sandusky St/Apple St","state":"OH","juris":"PD"},"type":"Feature","geometry":{"type":"Point","coordinates":[-83.180989,41.12482]}},{"properties":{"officer":"GTM","city":"Tiffin","zip":"44883","date":{"end_time":"2008/08/15 16:14:07 -0400","original":"8/15/2008 4:14:06 PM","granularity":"sec","time":"2008/08/15 16:14:06 -0400"},"geo_score":0.468,"unit":"58","disposition":"100","cfs":19,"call#":8.008592,"id":"a69x6owbh5g0","geo_precision":"street","address":"N Sandusky St/City Limits","state":"OH","juris":"PD"},"type":"Feature","geometry":{"type":"Point","coordinates":[-83.183613,41.118373]}},{"properties":{"officer":"BRB","city":"Tiffin","zip":"44883","date":{"end_time":"2008/08/01 01:53:19 -0400","original":"8/1/2008 1:53:18 AM","granularity":"sec","time":"2008/08/01 01:53:18 -0400"},"geo_score":0.468,"unit":"58","disposition":"100","cfs":19,"call#":8.008015,"id":"a69x6oyb2blz","geo_precision":"street","address":"N Sandusky St/City Limits","state":"OH","juris":"PD"},"type":"Feature","geometry":{"type":"Point","coordinates":[-83.183613,41.118373]}},{"properties":{"officer":"DGH","city":"Tiffin","zip":"44883","date":{"end_time":"2008/07/24 06:38:00 -0400","original":"7/24/2008 6:37:59 AM","granularity":"sec","time":"2008/07/24 06:37:59 -0400"},"geo_score":0.468,"unit":"59","disposition":"100","cfs":19,"call#":8.007696,"id":"a69x6op0z4q0","geo_precision":"street","address":"N Sandusky St/City Limits","state":"OH","juris":"PD"},"type":"Feature","geometry":{"type":"Point","coordinates":[-83.183613,41.118373]}},{"properties":{"officer":"JSC","city":"Tiffin","zip":"44883","date":{"end_time":"2008/06/28 19:45:59 -0400","original":"6/28/2008 7:45:58 PM","granularity":"sec","time":"2008/06/28 19:45:58 -0400"},"geo_score":0.468,"unit":"59","disposition":"400","cfs":19,"call#":8.006662,"id":"a69x6oq8oadp","geo_precision":"street","address":"N Sandusky St/City Limits","state":"OH","juris":"PD"},"type":"Feature","geometry":{"type":"Point","coordinates":[-83.183613,41.118373]}},{"properties":{"officer":"GTM","city":"Tiffin","zip":"44883","date":{"end_time":"2008/06/10 22:35:06 -0400","original":"6/10/2008 10:35:05 PM","granularity":"sec","time":"2008/06/10 22:35:05 -0400"},"geo_score":0.468,"unit":"59","disposition":"100","cfs":19,"call#":8.005989,"id":"a69x6ouwfu68","geo_precision":"street","address":"N Sandusky St/City Limits","state":"OH","juris":"PD"},"type":"Feature","geometry":{"type":"Point","coordinates":[-83.183613,41.118373]}},{"properties":{"officer":"EDA","city":"Tiffin","zip":"44883","date":{"end_time":"2008/05/23 22:16:13 -0400","original":"5/23/2008 10:16:12 PM","granularity":"sec","time":"2008/05/23 22:16:12 -0400"},"geo_score":0.468,"unit":"60","disposition":"100","cfs":19,"call#":8.005281,"id":"a69x6ommyic9","geo_precision":"street","address":"N Sandusky St/City Limits","state":"OH","juris":"PD"},"type":"Feature","geometry":{"type":"Point","coordinates":[-83.183613,41.118373]}},{"properties":{"officer":"JMW","city":"Tiffin","zip":"44883","date":{"end_time":"2008/05/16 09:35:16 -0400","original":"5/16/2008 9:35:15 AM","granularity":"sec","time":"2008/05/16 09:35:15 -0400"},"geo_score":0.468,"unit":"60","disposition":"100","cfs":19,"call#":8.004983,"id":"a69x6oykydf8","geo_precision":"street","address":"N Sandusky St/City Limits","state":"OH","juris":"PD"},"type":"Feature","geometry":{"type":"Point","coordinates":[-83.183613,41.118373]}},{"properties":{"officer":"LMK","city":"Tiffin","zip":"44883","date":{"end_time":"2008/04/09 06:38:43 -0400","original":"4/9/2008 6:38:42 AM","granularity":"sec","time":"2008/04/09 06:38:42 -0400"},"geo_score":0.468,"unit":"62","disposition":"200","cfs":19,"call#":8.003525,"id":"a69x6oqd5tmn","geo_precision":"street","address":"N Sandusky St/City Limits","state":"OH","juris":"PD"},"type":"Feature","geometry":{"type":"Point","coordinates":[-83.183613,41.118373]}},{"properties":{"officer":"MAM","city":"Tiffin","zip":"44883","date":{"end_time":"2008/03/28 18:23:56 -0400","original":"3/28/2008 6:23:55 PM","granularity":"sec","time":"2008/03/28 18:23:55 -0400"},"geo_score":0.468,"unit":"58","disposition":"100","cfs":19,"call#":8.003086,"id":"a69x6om3s9sf","geo_precision":"street","address":"N Sandusky St/City Limits","state":"OH","juris":"PD"},"type":"Feature","geometry":{"type":"Point","coordinates":[-83.183613,41.118373]}},{"properties":{"officer":"SMM","city":"Tiffin","zip":"44883","date":{"end_time":"2008/03/26 11:30:11 -0400","original":"3/26/2008 11:30:10 AM","granularity":"sec","time":"2008/03/26 11:30:10 -0400"},"geo_score":0.468,"unit":"58","disposition":"100","cfs":19,"call#":8.002985,"id":"a69x6ol71q4s","geo_precision":"street","address":"N Sandusky St/City Limits","state":"OH","juris":"PD"},"type":"Feature","geometry":{"type":"Point","coordinates":[-83.183613,41.118373]}},{"properties":{"officer":"EDA","city":"Tiffin","zip":"44883","date":{"end_time":"2008/03/10 18:28:30 -0400","original":"3/10/2008 6:28:29 PM","granularity":"sec","time":"2008/03/10 18:28:29 -0400"},"geo_score":0.468,"unit":"60","disposition":"100","cfs":19,"call#":8.002446,"id":"a69x6optlozx","geo_precision":"street","address":"N Sandusky St/City Limits","state":"OH","juris":"PD"},"type":"Feature","geometry":{"type":"Point","coordinates":[-83.183613,41.118373]}},{"properties":{"officer":"DGH","city":"Tiffin","zip":"44883","date":{"end_time":"2008/03/06 07:48:59 -0500","original":"3/6/2008 7:48:58 AM","granularity":"sec","time":"2008/03/06 07:48:58 -0500"},"geo_score":0.468,"unit":"59","disposition":"100","cfs":19,"call#":8.002297,"id":"a69x6ort0nm7","geo_precision":"street","address":"N Sandusky St/City Limits","state":"OH","juris":"PD"},"type":"Feature","geometry":{"type":"Point","coordinates":[-83.183613,41.118373]}},{"properties":{"officer":"MEM","city":"Tiffin","zip":"44883","date":{"end_time":"2008/03/06 03:29:51 -0500","original":"3/6/2008 3:29:50 AM","granularity":"sec","time":"2008/03/06 03:29:50 -0500"},"geo_score":0.468,"unit":"59","disposition":"200","cfs":19,"call#":8.002291,"id":"a69x6p0sryx0","geo_precision":"street","address":"N Sandusky St/City Limits","state":"OH","juris":"PD"},"type":"Feature","geometry":{"type":"Point","coordinates":[-83.183613,41.118373]}},{"properties":{"officer":"DES","city":"Tiffin","zip":"44883","date":{"end_time":"2008/02/27 20:18:48 -0500","original":"2/27/2008 8:18:47 PM","granularity":"sec","time":"2008/02/27 20:18:47 -0500"},"geo_score":0.468,"unit":"63","disposition":"100","cfs":19,"call#":8.002061,"id":"a69x6ooa9msn","geo_precision":"street","address":"N Sandusky St/City Limits","state":"OH","juris":"PD"},"type":"Feature","geometry":{"type":"Point","coordinates":[-83.183613,41.118373]}},{"properties":{"officer":"EDA","city":"Tiffin","zip":"44883","date":{"end_time":"2008/03/22 21:33:20 -0400","original":"3/22/2008 9:33:19 PM","granularity":"sec","time":"2008/03/22 21:33:19 -0400"},"geo_score":0.857,"unit":"63","disposition":"100","cfs":19,"call#":8.002852,"id":"a69x6os22w3n","geo_precision":"street","address":"N Sandusky St/Hall St","state":"OH","juris":"PD"},"type":"Feature","geometry":{"type":"Point","coordinates":[-83.179229,41.121269]}},{"properties":{"officer":"MEM","city":"Tiffin","zip":"44883","date":{"end_time":"2008/07/10 22:32:57 -0400","original":"7/10/2008 10:32:56 PM","granularity":"sec","time":"2008/07/10 22:32:56 -0400"},"geo_score":0.857,"unit":"62","disposition":"200","cfs":19,"call#":8.007163,"id":"a69x6p04hrtt","geo_precision":"street","address":"N Sandusky St/Huss St","state":"OH","juris":"PD"},"type":"Feature","geometry":{"type":"Point","coordinates":[-83.166843,41.131124]}},{"properties":{"officer":"BAR","city":"Tiffin","zip":"44883","date":{"end_time":"2008/06/20 12:31:09 -0400","original":"6/20/2008 12:31:08 PM","granularity":"sec","time":"2008/06/20 12:31:08 -0400"},"geo_score":0.857,"unit":"57","disposition":"100","cfs":19,"call#":8.006341,"id":"a69x6oogahnj","geo_precision":"street","address":"N Sandusky St/N Washington St","state":"OH","juris":"PD"},"type":"Feature","geometry":{"type":"Point","coordinates":[-83.182448,41.120039]}},{"properties":{"officer":"SMM","city":"Tiffin","zip":"44883","date":{"end_time":"2008/03/05 07:43:47 -0500","original":"3/5/2008 7:43:46 AM","granularity":"sec","time":"2008/03/05 07:43:46 -0500"},"geo_score":0.643,"unit":"58","disposition":"100","cfs":19,"call#":8.002268,"id":"a69x6os0nzy8","geo_precision":"street","address":"N Sandusky St/Second Av","state":"OH","juris":"PD"},"type":"Feature","geometry":{"type":"Point","coordinates":[-83.176527,41.128367]}},{"properties":{"officer":"JPF","city":"Tiffin","zip":"44883","date":{"end_time":"2008/03/08 17:29:40 -0500","original":"3/8/2008 5:29:39 PM","granularity":"sec","time":"2008/03/08 17:29:39 -0500"},"geo_score":0.857,"unit":"947","disposition":"100","cfs":19,"call#":8.002393,"id":"a69x6owkkjde","geo_precision":"street","address":"N Sandusky St/Tomb St","state":"OH","juris":"PD"},"type":"Feature","geometry":{"type":"Point","coordinates":[-83.173897,41.128746]}},{"properties":{"officer":"PJD","city":"Tiffin","zip":"44883","date":{"end_time":"2008/10/22 22:45:49 -0400","original":"10/22/2008 10:45:48 PM","granularity":"sec","time":"2008/10/22 22:45:48 -0400"},"geo_score":0.857,"unit":"63","disposition":"100","cfs":19,"call#":8.011458,"id":"a69x6ow4zknv","geo_precision":"street","address":"N Sandusky St/W Davis St","state":"OH","juris":"PD"},"type":"Feature","geometry":{"type":"Point","coordinates":[-83.181046,41.126017]}},{"properties":{"officer":"JPF","city":"Tiffin","zip":"44883","date":{"end_time":"2008/02/26 17:05:10 -0500","original":"2/26/2008 5:05:09 PM","granularity":"sec","time":"2008/02/26 17:05:09 -0500"},"geo_score":0.857,"unit":"59","disposition":"100","cfs":19,"call#":8.002019,"id":"a69x6orjyi5g","geo_precision":"street","address":"N Washington St/N Sandusky St","state":"OH","juris":"PD"},"type":"Feature","geometry":{"type":"Point","coordinates":[-83.182448,41.120039]}},{"properties":{"officer":"GTM","city":"Tiffin","zip":"44883","date":{"end_time":"2008/10/16 14:55:15 -0400","original":"10/16/2008 2:55:14 PM","granularity":"sec","time":"2008/10/16 14:55:14 -0400"},"geo_score":0.643,"unit":"58","disposition":"100","cfs":19,"call#":8.01123,"id":"a69x6owiunbv","geo_precision":"street","address":"N Washington St/Second Av","state":"OH","juris":"PD"},"type":"Feature","geometry":{"type":"Point","coordinates":[-83.176527,41.128367]}},{"properties":{"officer":"SGN","city":"Tiffin","zip":"44883","date":{"end_time":"2008/05/06 13:57:21 -0400","original":"5/6/2008 1:57:20 PM","granularity":"sec","time":"2008/05/06 13:57:20 -0400"},"geo_score":0.857,"unit":"58","disposition":"100","cfs":19,"call#":8.00465,"id":"a69x6oy99wwc","geo_precision":"street","address":"N Washington St/W Davis St","state":"OH","juris":"PD"},"type":"Feature","geometry":{"type":"Point","coordinates":[-83.181046,41.126017]}},{"properties":{"officer":"RJO","city":"Tiffin","zip":"44883","date":{"end_time":"2008/01/29 14:15:30 -0500","original":"1/29/2008 2:15:29 PM","granularity":"sec","time":"2008/01/29 14:15:29 -0500"},"geo_score":0.857,"unit":"59","disposition":"100","cfs":19,"call#":8.001009,"id":"a69x6oy9zvpt","geo_precision":"street","address":"Nelson St/Miami St","state":"OH","juris":"PD"},"type":"Feature","geometry":{"type":"Point","coordinates":[-83.181876,41.117677]}},{"properties":{"officer":"FWS","city":"Tiffin","zip":"44883","date":{"end_time":"2008/10/24 14:39:38 -0400","original":"10/24/2008 2:39:37 PM","granularity":"sec","time":"2008/10/24 14:39:37 -0400"},"geo_score":0.857,"unit":"57","disposition":"100","cfs":19,"call#":8.011522,"id":"a69x6p1irpuh","geo_precision":"street","address":"Nelson St/W Perry St","state":"OH","juris":"PD"},"type":"Feature","geometry":{"type":"Point","coordinates":[-83.19626,41.112696]}},{"properties":{"officer":"SGN","city":"Tiffin","zip":"44883","date":{"end_time":"2008/02/07 12:50:41 -0500","original":"2/7/2008 12:50:40 PM","granularity":"sec","time":"2008/02/07 12:50:40 -0500"},"geo_score":0.686,"unit":"63","disposition":"100","cfs":19,"call#":8.001323,"id":"a69x6ookdxa3","geo_precision":"street","address":"Russell St/Second St","state":"OH","juris":"PD"},"type":"Feature","geometry":{"type":"Point","coordinates":[-83.18164,41.108319]}},{"properties":{"officer":"MAM","city":"Tiffin","zip":"44883","date":{"end_time":"2008/02/17 02:35:00 -0500","original":"2/17/2008 2:34:00 AM","granularity":"min","time":"2008/02/17 02:34:00 -0500"},"geo_score":0.857,"unit":"58","disposition":"200","cfs":19,"call#":8.001691,"id":"a69x6owvbcce","geo_precision":"street","address":"S Sandusky St/Benner St","state":"OH","juris":"PD"},"type":"Feature","geometry":{"type":"Point","coordinates":[-83.178861,41.118824]}},{"properties":{"officer":"GTM","city":"Tiffin","zip":"44883","date":{"end_time":"2008/10/10 13:22:06 -0400","original":"10/10/2008 1:22:05 PM","granularity":"sec","time":"2008/10/10 13:22:05 -0400"},"geo_score":0.468,"unit":"58","disposition":"100","cfs":19,"call#":8.011008,"id":"a69x6ouvquuo","geo_precision":"street","address":"S Sandusky St/City Limits","state":"OH","juris":"PD"},"type":"Feature","geometry":{"type":"Point","coordinates":[-83.183613,41.118373]}},{"properties":{"officer":"FWS","city":"Tiffin","zip":"44883","date":{"end_time":"2008/08/08 16:06:24 -0400","original":"8/8/2008 4:06:23 PM","granularity":"sec","time":"2008/08/08 16:06:23 -0400"},"geo_score":0.468,"unit":"59","disposition":"100","cfs":19,"call#":8.008315,"id":"a69x6ozm0pzn","geo_precision":"street","address":"S Sandusky St/City Limits","state":"OH","juris":"PD"},"type":"Feature","geometry":{"type":"Point","coordinates":[-83.183613,41.118373]}},{"properties":{"officer":"SMM","city":"Tiffin","zip":"44883","date":{"end_time":"2008/08/01 23:46:47 -0400","original":"8/1/2008 11:46:46 PM","granularity":"sec","time":"2008/08/01 23:46:46 -0400"},"geo_score":0.468,"unit":"58","disposition":"100","cfs":19,"call#":8.008057,"id":"a69x6oykkk82","geo_precision":"street","address":"S Sandusky St/City Limits","state":"OH","juris":"PD"},"type":"Feature","geometry":{"type":"Point","coordinates":[-83.183613,41.118373]}},{"properties":{"officer":"JAD","city":"Tiffin","zip":"44883","date":{"end_time":"2008/07/26 22:06:23 -0400","original":"7/26/2008 10:06:22 PM","granularity":"sec","time":"2008/07/26 22:06:22 -0400"},"geo_score":0.468,"unit":"56","disposition":"100","cfs":19,"call#":8.007807,"id":"a69x6osyeuy7","geo_precision":"street","address":"S Sandusky St/City Limits","state":"OH","juris":"PD"},"type":"Feature","geometry":{"type":"Point","coordinates":[-83.183613,41.118373]}},{"properties":{"officer":"JMW","city":"Tiffin","zip":"44883","date":{"end_time":"2008/05/30 11:36:41 -0400","original":"5/30/2008 11:36:40 AM","granularity":"sec","time":"2008/05/30 11:36:40 -0400"},"geo_score":0.468,"unit":"60","disposition":"100","cfs":19,"call#":8.00551,"id":"a69x6on25z49","geo_precision":"street","address":"S Sandusky St/City Limits","state":"OH","juris":"PD"},"type":"Feature","geometry":{"type":"Point","coordinates":[-83.183613,41.118373]}},{"properties":{"officer":"BAR","city":"Tiffin","zip":"44883","date":{"end_time":"2008/05/21 19:29:44 -0400","original":"5/21/2008 7:29:43 PM","granularity":"sec","time":"2008/05/21 19:29:43 -0400"},"geo_score":0.468,"unit":"58","disposition":"100","cfs":19,"call#":8.005186,"id":"a69x6otxtaqd","geo_precision":"street","address":"S Sandusky St/City Limits","state":"OH","juris":"PD"},"type":"Feature","geometry":{"type":"Point","coordinates":[-83.183613,41.118373]}},{"properties":{"officer":"SGN","city":"Tiffin","zip":"44883","date":{"end_time":"2008/04/25 15:41:31 -0400","original":"4/25/2008 3:41:30 PM","granularity":"sec","time":"2008/04/25 15:41:30 -0400"},"geo_score":0.468,"unit":"62","disposition":"100","cfs":19,"call#":8.004173,"id":"a69x6p0u0upy","geo_precision":"street","address":"S Sandusky St/City Limits","state":"OH","juris":"PD"},"type":"Feature","geometry":{"type":"Point","coordinates":[-83.183613,41.118373]}},{"properties":{"officer":"BRB","city":"Tiffin","zip":"44883","date":{"end_time":"2008/05/02 02:53:13 -0400","original":"5/2/2008 2:53:12 AM","granularity":"sec","time":"2008/05/02 02:53:12 -0400"},"geo_score":0.857,"unit":"59","disposition":"100","cfs":19,"call#":8.004463,"id":"a69x6p0g6pyr","geo_precision":"street","address":"S Sandusky St/Clay St","state":"OH","juris":"PD"},"type":"Feature","geometry":{"type":"Point","coordinates":[-83.1824,41.116381]}},{"properties":{"officer":"JPF","city":"Tiffin","zip":"44883","date":{"end_time":"2008/10/25 19:04:59 -0400","original":"10/25/2008 7:04:58 PM","granularity":"sec","time":"2008/10/25 19:04:58 -0400"},"geo_score":0.857,"unit":"57","disposition":"100","cfs":19,"call#":8.011563,"id":"a69x6ou813uk","geo_precision":"street","address":"S Sandusky St/Ella St","state":"OH","juris":"PD"},"type":"Feature","geometry":{"type":"Point","coordinates":[-83.184968,41.104152]}},{"properties":{"officer":"SGN","city":"Tiffin","zip":"44883","date":{"end_time":"2008/01/25 15:59:26 -0500","original":"1/25/2008 3:59:25 PM","granularity":"sec","time":"2008/01/25 15:59:25 -0500"},"geo_score":0.814,"unit":"63","disposition":"100","cfs":19,"call#":8.000873,"id":"a69x6ozdcv1z","geo_precision":"street","address":"S Sandusky St/Leitner Av","state":"OH","juris":"PD"},"type":"Feature","geometry":{"type":"Point","coordinates":[-83.187918,41.112179]}},{"properties":{"officer":null,"city":"Tiffin","zip":"44883","date":{"end_time":"2008/10/15 09:10:11 -0400","original":"10/15/2008 9:10:10 AM","granularity":"sec","time":"2008/10/15 09:10:10 -0400"},"geo_score":0.696,"unit":null,"disposition":"CAN","cfs":19,"call#":8.011183,"id":"a69x6os5sorm","geo_precision":"street","address":"S Sandusky St/S River Rd","state":"OH","juris":"PD"},"type":"Feature","geometry":{"type":"Point","coordinates":[-83.163911,41.131177]}},{"properties":{"officer":"JSC","city":"Tiffin","zip":"44883","date":{"end_time":"2008/08/19 18:06:18 -0400","original":"8/19/2008 6:06:17 PM","granularity":"sec","time":"2008/08/19 18:06:17 -0400"},"geo_score":0.857,"unit":"57","disposition":"100","cfs":19,"call#":8.008764,"id":"a69x6oxsnoqr","geo_precision":"street","address":"S Sandusky St/W Perry St","state":"OH","juris":"PD"},"type":"Feature","geometry":{"type":"Point","coordinates":[-83.183601,41.115173]}},{"properties":{"officer":"BLF","city":"Tiffin","zip":"44883","date":{"end_time":"2008/06/10 13:23:13 -0400","original":"6/10/2008 1:23:12 PM","granularity":"sec","time":"2008/06/10 13:23:12 -0400"},"geo_score":0.857,"unit":"FS1","disposition":"100","cfs":19,"call#":8.005967,"id":"a69x6oojw2m2","geo_precision":"street","address":"S Sandusky St/W Perry St","state":"OH","juris":"PD"},"type":"Feature","geometry":{"type":"Point","coordinates":[-83.183601,41.115173]}},{"properties":{"officer":"JAD","city":"Tiffin","zip":"44883","date":{"end_time":"2008/10/04 22:22:36 -0400","original":"10/4/2008 10:22:35 PM","granularity":"sec","time":"2008/10/04 22:22:35 -0400"},"geo_score":0.527,"unit":"56","disposition":"400","cfs":19,"call#":8.010814,"id":"a69x6p0a9kgz","geo_precision":"street","address":"S Washington St/City Limits","state":"OH","juris":"PD"},"type":"Feature","geometry":{"type":"Point","coordinates":[-83.177111,41.118089]}},{"properties":{"officer":"MAM","city":"Tiffin","zip":"44883","date":{"end_time":"2008/08/21 19:43:54 -0400","original":"8/21/2008 7:43:53 PM","granularity":"sec","time":"2008/08/21 19:43:53 -0400"},"geo_score":0.527,"unit":"58","disposition":"100","cfs":19,"call#":8.008845,"id":"a69x6ori0wdp","geo_precision":"street","address":"S Washington St/City Limits","state":"OH","juris":"PD"},"type":"Feature","geometry":{"type":"Point","coordinates":[-83.177111,41.118089]}},{"properties":{"officer":"SWK","city":"Tiffin","zip":"44883","date":{"end_time":"2008/08/12 21:10:37 -0400","original":"8/12/2008 9:10:36 PM","granularity":"sec","time":"2008/08/12 21:10:36 -0400"},"geo_score":0.527,"unit":"61","disposition":"100","cfs":19,"call#":8.008489,"id":"a69x6omgfq57","geo_precision":"street","address":"S Washington St/City Limits","state":"OH","juris":"PD"},"type":"Feature","geometry":{"type":"Point","coordinates":[-83.177111,41.118089]}},{"properties":{"officer":"GTM","city":"Tiffin","zip":"44883","date":{"end_time":"2008/07/26 10:03:35 -0400","original":"7/26/2008 10:03:34 AM","granularity":"sec","time":"2008/07/26 10:03:34 -0400"},"geo_score":0.527,"unit":"58","disposition":"100","cfs":19,"call#":8.007793,"id":"a69x6otba4dc","geo_precision":"street","address":"S Washington St/City Limits","state":"OH","juris":"PD"},"type":"Feature","geometry":{"type":"Point","coordinates":[-83.177111,41.118089]}},{"properties":{"officer":"RJO","city":"Tiffin","zip":"44883","date":{"end_time":"2008/05/26 16:14:12 -0400","original":"5/26/2008 4:14:11 PM","granularity":"sec","time":"2008/05/26 16:14:11 -0400"},"geo_score":0.527,"unit":"57","disposition":"100","cfs":19,"call#":8.005377,"id":"a69x6owv8apj","geo_precision":"street","address":"S Washington St/City Limits","state":"OH","juris":"PD"},"type":"Feature","geometry":{"type":"Point","coordinates":[-83.177111,41.118089]}},{"properties":{"officer":"SMM","city":"Tiffin","zip":"44883","date":{"end_time":"2008/05/10 16:33:51 -0400","original":"5/10/2008 4:33:50 PM","granularity":"sec","time":"2008/05/10 16:33:50 -0400"},"geo_score":0.527,"unit":"58","disposition":"100","cfs":19,"call#":8.004808,"id":"a69x6ozmjhaq","geo_precision":"street","address":"S Washington St/City Limits","state":"OH","juris":"PD"},"type":"Feature","geometry":{"type":"Point","coordinates":[-83.177111,41.118089]}},{"properties":{"officer":"JPF","city":"Tiffin","zip":"44883","date":{"end_time":"2008/05/03 21:35:54 -0400","original":"5/3/2008 9:35:53 PM","granularity":"sec","time":"2008/05/03 21:35:53 -0400"},"geo_score":0.527,"unit":"57","disposition":"220","cfs":19,"call#":8.004544,"id":"a69x6oly26ae","geo_precision":"street","address":"S Washington St/City Limits","state":"OH","juris":"PD"},"type":"Feature","geometry":{"type":"Point","coordinates":[-83.177111,41.118089]}},{"properties":{"officer":"FWS","city":"Tiffin","zip":"44883","date":{"end_time":"2008/06/01 13:59:40 -0400","original":"6/1/2008 1:59:39 PM","granularity":"sec","time":"2008/06/01 13:59:39 -0400"},"geo_score":0.857,"unit":"59","disposition":"200","cfs":19,"call#":8.005607,"id":"a69x6omirx4b","geo_precision":"street","address":"S Washington St/Crestview Dr","state":"OH","juris":"PD"},"type":"Feature","geometry":{"type":"Point","coordinates":[-83.179847,41.093033]}},{"properties":{"officer":"MEM","city":"Tiffin","zip":"44883","date":{"end_time":"2008/02/06 21:21:44 -0500","original":"2/6/2008 9:21:43 PM","granularity":"sec","time":"2008/02/06 21:21:43 -0500"},"geo_score":0.857,"unit":"59","disposition":"200","cfs":19,"call#":8.001307,"id":"a69x6otzn7h9","geo_precision":"street","address":"S Washington St/E Market St","state":"OH","juris":"PD"},"type":"Feature","geometry":{"type":"Point","coordinates":[-83.179559,41.114309]}},{"properties":{"officer":"JMW","city":"Tiffin","zip":"44883","date":{"end_time":"2008/11/15 17:49:25 -0500","original":"11/15/2008 5:49:24 PM","granularity":"sec","time":"2008/11/15 17:49:24 -0500"},"geo_score":0.857,"unit":"62","disposition":"100","cfs":19,"call#":8.01231,"id":"a69x6p00cert","geo_precision":"street","address":"S Washington St/Gibson St","state":"OH","juris":"PD"},"type":"Feature","geometry":{"type":"Point","coordinates":[-83.176966,41.099472]}},{"properties":{"officer":"MAM","city":"Tiffin","zip":"44883","date":{"end_time":"2008/04/03 17:49:03 -0400","original":"4/3/2008 5:49:02 PM","granularity":"sec","time":"2008/04/03 17:49:02 -0400"},"geo_score":0.857,"unit":"58","disposition":"200","cfs":19,"call#":8.003323,"id":"a69x6om0i4oi","geo_precision":"street","address":"S Washington St/Madison St","state":"OH","juris":"PD"},"type":"Feature","geometry":{"type":"Point","coordinates":[-83.177984,41.113223]}},{"properties":{"officer":"FWS","city":"Tiffin","zip":"44883","date":{"end_time":"2008/07/11 12:51:08 -0400","original":"7/11/2008 12:51:07 PM","granularity":"sec","time":"2008/07/11 12:51:07 -0400"},"geo_score":0.857,"unit":"62","disposition":"100","cfs":19,"call#":8.007188,"id":"a69x6os4hdea","geo_precision":"street","address":"S Washington St/Main St","state":"OH","juris":"PD"},"type":"Feature","geometry":{"type":"Point","coordinates":[-83.17504,41.11141]}},{"properties":{"officer":"RLT","city":"Tiffin","zip":"44883","date":{"end_time":"2008/12/09 14:39:29 -0500","original":"12/9/2008 2:39:28 PM","granularity":"sec","time":"2008/12/09 14:39:28 -0500"},"geo_score":0.857,"unit":"58","disposition":"100","cfs":19,"call#":8.013027,"id":"a69x6ow8uaph","geo_precision":"street","address":"S Washington St/Riverside Dr","state":"OH","juris":"PD"},"type":"Feature","geometry":{"type":"Point","coordinates":[-83.175456,41.117806]}},{"properties":{"officer":"SGN","city":"Tiffin","zip":"44883","date":{"end_time":"2008/11/11 13:39:00 -0500","original":"11/11/2008 1:38:00 PM","granularity":"min","time":"2008/11/11 13:38:00 -0500"},"geo_score":0.857,"unit":"62","disposition":"100","cfs":19,"call#":8.012164,"id":"a69x6ot7v5dk","geo_precision":"street","address":"S Washington St/Riverside Dr","state":"OH","juris":"PD"},"type":"Feature","geometry":{"type":"Point","coordinates":[-83.175456,41.117806]}},{"properties":{"officer":"JPF","city":"Tiffin","zip":"44883","date":{"end_time":"2008/09/07 18:06:55 -0400","original":"9/7/2008 6:06:54 PM","granularity":"sec","time":"2008/09/07 18:06:54 -0400"},"geo_score":0.857,"unit":"57","disposition":"100","cfs":19,"call#":8.009616,"id":"a69x6omyz312","geo_precision":"street","address":"Scott St/Wentz St","state":"OH","juris":"PD"},"type":"Feature","geometry":{"type":"Point","coordinates":[-83.189151,41.116116]}},{"properties":{"officer":"BAR","city":"Tiffin","zip":"44883","date":{"end_time":"2008/10/12 22:26:46 -0400","original":"10/12/2008 10:26:45 PM","granularity":"sec","time":"2008/10/12 22:26:45 -0400"},"geo_score":0.643,"unit":"63","disposition":"100","cfs":19,"call#":8.011099,"id":"a69x6opdd8o1","geo_precision":"street","address":"Second Av/N Sandusky St","state":"OH","juris":"PD"},"type":"Feature","geometry":{"type":"Point","coordinates":[-83.176527,41.128367]}},{"properties":{"officer":"SWK","city":"Tiffin","zip":"44883","date":{"end_time":"2008/02/26 18:08:47 -0500","original":"2/26/2008 6:08:46 PM","granularity":"sec","time":"2008/02/26 18:08:46 -0500"},"geo_score":0.643,"unit":"61","disposition":"100","cfs":19,"call#":8.002021,"id":"a69x6p0mnuzu","geo_precision":"street","address":"Second Av/N Sandusky St","state":"OH","juris":"PD"},"type":"Feature","geometry":{"type":"Point","coordinates":[-83.176527,41.128367]}},{"properties":{"officer":"AMR","city":"Tiffin","zip":"44883","date":{"end_time":"2008/01/29 16:05:08 -0500","original":"1/29/2008 4:05:07 PM","granularity":"sec","time":"2008/01/29 16:05:07 -0500"},"geo_score":0.643,"unit":"60","disposition":"200","cfs":19,"call#":8.001011,"id":"a69x6oool25l","geo_precision":"street","address":"Second Av/N Sandusky St","state":"OH","juris":"PD"},"type":"Feature","geometry":{"type":"Point","coordinates":[-83.176527,41.128367]}},{"properties":{"officer":"JSC","city":"Tiffin","zip":"44883","date":{"end_time":"2008/04/10 20:17:26 -0400","original":"4/10/2008 8:17:25 PM","granularity":"sec","time":"2008/04/10 20:17:25 -0400"},"geo_score":0.643,"unit":"62","disposition":"200","cfs":19,"call#":8.003578,"id":"a69x6oywsdvk","geo_precision":"street","address":"Second Av/Wall St","state":"OH","juris":"PD"},"type":"Feature","geometry":{"type":"Point","coordinates":[-83.176527,41.128367]}},{"properties":{"officer":"DES","city":"Tiffin","zip":"44883","date":{"end_time":"2008/12/04 17:07:48 -0500","original":"12/4/2008 5:07:47 PM","granularity":"sec","time":"2008/12/04 17:07:47 -0500"},"geo_score":0.857,"unit":"58","disposition":"100","cfs":19,"call#":8.012867,"id":"a69x6ooo5zgs","geo_precision":"street","address":"Shaffer Pk Dr/W Market St","state":"OH","juris":"PD"},"type":"Feature","geometry":{"type":"Point","coordinates":[-83.181592,41.114111]}},{"properties":{"officer":"DGH","city":"Tiffin","zip":"44883","date":{"end_time":"2008/08/12 14:20:33 -0400","original":"8/12/2008 2:20:32 PM","granularity":"sec","time":"2008/08/12 14:20:32 -0400"},"geo_score":0.643,"unit":"57","disposition":"200","cfs":19,"call#":8.008474,"id":"a69x6orrq8bn","geo_precision":"street","address":"Shawhan Av/Seventh Av","state":"OH","juris":"PD"},"type":"Feature","geometry":{"type":"Point","coordinates":[-83.180779,41.133061]}},{"properties":{"officer":"DES","city":"Tiffin","zip":"44883","date":{"end_time":"2008/08/15 18:52:10 -0400","original":"8/15/2008 6:52:09 PM","granularity":"sec","time":"2008/08/15 18:52:09 -0400"},"geo_score":0.857,"unit":"62","disposition":"100","cfs":19,"call#":8.008598,"id":"a69x6ou2u996","geo_precision":"street","address":"St Clair St/W Market St","state":"OH","juris":"PD"},"type":"Feature","geometry":{"type":"Point","coordinates":[-83.181355,41.112736]}},{"properties":{"officer":null,"city":"Tiffin","zip":"44883","date":{"end_time":"2008/07/31 07:51:47 -0400","original":"7/31/2008 7:51:46 AM","granularity":"sec","time":"2008/07/31 07:51:46 -0400"},"geo_score":0.495,"unit":null,"disposition":"100","cfs":19,"call#":8.007971,"id":"a69x6omkikad","geo_precision":"street","address":"St Francis Av/S Washington St","state":"OH","juris":"PD"},"type":"Feature","geometry":{"type":"Point","coordinates":[-83.176664,41.115231]}},{"properties":{"officer":"SGN","city":"Tiffin","zip":"44883","date":{"end_time":"2008/05/01 11:38:47 -0400","original":"5/1/2008 11:38:46 AM","granularity":"sec","time":"2008/05/01 11:38:46 -0400"},"geo_score":0.857,"unit":"62","disposition":"100","cfs":19,"call#":8.004428,"id":"a69x6orvm9ld","geo_precision":"street","address":"Summit St/Hancock St","state":"OH","juris":"PD"},"type":"Feature","geometry":{"type":"Point","coordinates":[-83.160288,41.111731]}},{"properties":{"officer":"RJO","city":"Tiffin","zip":"44883","date":{"end_time":"2008/11/04 11:13:25 -0500","original":"11/4/2008 11:13:24 AM","granularity":"sec","time":"2008/11/04 11:13:24 -0500"},"geo_score":0.857,"unit":"57","disposition":"200","cfs":19,"call#":8.011922,"id":"a69x6omkludi","geo_precision":"street","address":"Sunny Ln/Sycamore St","state":"OH","juris":"PD"},"type":"Feature","geometry":{"type":"Point","coordinates":[-83.185817,41.098099]}},{"properties":{"officer":"JMW","city":"Tiffin","zip":"44883","date":{"end_time":"2008/11/03 10:14:09 -0500","original":"11/3/2008 10:14:08 AM","granularity":"sec","time":"2008/11/03 10:14:08 -0500"},"geo_score":0.857,"unit":"62","disposition":"200","cfs":19,"call#":8.011891,"id":"a69x6osqh3q6","geo_precision":"street","address":"Sunny Ln/Sycamore St","state":"OH","juris":"PD"},"type":"Feature","geometry":{"type":"Point","coordinates":[-83.185817,41.098099]}},{"properties":{"officer":"JMW","city":"Tiffin","zip":"44883","date":{"end_time":"2008/08/11 11:21:22 -0400","original":"8/11/2008 11:21:21 AM","granularity":"sec","time":"2008/08/11 11:21:21 -0400"},"geo_score":0.857,"unit":"60","disposition":"200","cfs":19,"call#":8.008427,"id":"a69x6ox9iu29","geo_precision":"street","address":"Sunny Ln/Sycamore St","state":"OH","juris":"PD"},"type":"Feature","geometry":{"type":"Point","coordinates":[-83.185817,41.098099]}},{"properties":{"officer":"SGN","city":"Tiffin","zip":"44883","date":{"end_time":"2008/05/16 10:02:56 -0400","original":"5/16/2008 10:02:55 AM","granularity":"sec","time":"2008/05/16 10:02:55 -0400"},"geo_score":0.857,"unit":"62","disposition":"200","cfs":19,"call#":8.004984,"id":"a69x6or7pm1h","geo_precision":"street","address":"Sunny Ln/Sycamore St","state":"OH","juris":"PD"},"type":"Feature","geometry":{"type":"Point","coordinates":[-83.185817,41.098099]}},{"properties":{"officer":"JPF","city":"Tiffin","zip":"44883","date":{"end_time":"2008/01/21 16:19:19 -0500","original":"1/21/2008 4:19:18 PM","granularity":"sec","time":"2008/01/21 16:19:18 -0500"},"geo_score":0.857,"unit":"62","disposition":"100","cfs":19,"call#":8.000741,"id":"a69x6omqh9h8","geo_precision":"street","address":"Sycamore St/Ella St","state":"OH","juris":"PD"},"type":"Feature","geometry":{"type":"Point","coordinates":[-83.184968,41.104152]}},{"properties":{"officer":"JSC","city":"Tiffin","zip":"44883","date":{"end_time":"2008/10/28 15:28:00 -0400","original":"10/28/2008 3:27:00 PM","granularity":"min","time":"2008/10/28 15:27:00 -0400"},"geo_score":0.857,"unit":"59","disposition":"200","cfs":19,"call#":8.011665,"id":"a69x6onfoahc","geo_precision":"street","address":"Sycamore St/Sunny Ln","state":"OH","juris":"PD"},"type":"Feature","geometry":{"type":"Point","coordinates":[-83.185817,41.098099]}},{"properties":{"officer":"RLT","city":"Tiffin","zip":"44883","date":{"end_time":"2008/01/27 05:06:40 -0500","original":"1/27/2008 5:06:39 AM","granularity":"sec","time":"2008/01/27 05:06:39 -0500"},"geo_score":0.686,"unit":"60","disposition":"100","cfs":19,"call#":8.000931,"id":"a69x6oor402r","geo_precision":"street","address":"Third St/Union St","state":"OH","juris":"PD"},"type":"Feature","geometry":{"type":"Point","coordinates":[-83.18403,41.108114]}},{"properties":{"officer":"SGN","city":"Tiffin","zip":"44883","date":{"end_time":"2008/09/17 15:42:18 -0400","original":"9/17/2008 3:42:17 PM","granularity":"sec","time":"2008/09/17 15:42:17 -0400"},"geo_score":0.643,"unit":"62","disposition":"100","cfs":19,"call#":8.010088,"id":"a69x6omf1afc","geo_precision":"street","address":"Vine St/Seventh Av","state":"OH","juris":"PD"},"type":"Feature","geometry":{"type":"Point","coordinates":[-83.180779,41.133061]}},{"properties":{"officer":"DES","city":"Tiffin","zip":"44883","date":{"end_time":"2008/02/07 22:05:13 -0500","original":"2/7/2008 10:05:12 PM","granularity":"sec","time":"2008/02/07 22:05:12 -0500"},"geo_score":0.857,"unit":"63","disposition":"100","cfs":19,"call#":8.001334,"id":"a69x6oomfkti","geo_precision":"street","address":"W Market St/Benner St","state":"OH","juris":"PD"},"type":"Feature","geometry":{"type":"Point","coordinates":[-83.178861,41.118824]}},{"properties":{"officer":"BAR","city":"Tiffin","zip":"44883","date":{"end_time":"2008/06/06 13:50:25 -0400","original":"6/6/2008 1:50:24 PM","granularity":"sec","time":"2008/06/06 13:50:24 -0400"},"geo_score":0.857,"unit":"57","disposition":"200","cfs":19,"call#":8.005782,"id":"a69x6opfwajx","geo_precision":"street","address":"W Market St/Caldwell Av","state":"OH","juris":"PD"},"type":"Feature","geometry":{"type":"Point","coordinates":[-83.181592,41.114111]}},{"properties":{"officer":null,"city":"Tiffin","zip":"44883","date":{"end_time":"2008/10/12 20:39:25 -0400","original":"10/12/2008 8:39:24 PM","granularity":"sec","time":"2008/10/12 20:39:24 -0400"},"geo_score":0.857,"unit":null,"disposition":"CAN","cfs":19,"call#":8.011096,"id":"a69x6omgsvbq","geo_precision":"street","address":"W Market St/City Limits","state":"OH","juris":"PD"},"type":"Feature","geometry":{"type":"Point","coordinates":[-83.181592,41.114111]}},{"properties":{"officer":"JSC","city":"Tiffin","zip":"44883","date":{"end_time":"2008/09/28 20:11:17 -0400","original":"9/28/2008 8:11:16 PM","granularity":"sec","time":"2008/09/28 20:11:16 -0400"},"geo_score":0.857,"unit":"59","disposition":"210","cfs":19,"call#":8.010581,"id":"a69x6oqcup1e","geo_precision":"street","address":"W Market St/City Limits","state":"OH","juris":"PD"},"type":"Feature","geometry":{"type":"Point","coordinates":[-83.181592,41.114111]}},{"properties":{"officer":"LMK","city":"Tiffin","zip":"44883","date":{"end_time":"2008/07/08 23:27:22 -0400","original":"7/8/2008 11:27:21 PM","granularity":"sec","time":"2008/07/08 23:27:21 -0400"},"geo_score":0.857,"unit":"62","disposition":"100","cfs":19,"call#":8.007092,"id":"a69x6ozxtfah","geo_precision":"street","address":"W Market St/City Limits","state":"OH","juris":"PD"},"type":"Feature","geometry":{"type":"Point","coordinates":[-83.181592,41.114111]}},{"properties":{"officer":"JAD","city":"Tiffin","zip":"44883","date":{"end_time":"2008/05/25 04:42:07 -0400","original":"5/25/2008 4:42:06 AM","granularity":"sec","time":"2008/05/25 04:42:06 -0400"},"geo_score":0.857,"unit":"56","disposition":"400","cfs":19,"call#":8.005333,"id":"a69x6p0kbteb","geo_precision":"street","address":"W Market St/City Limits","state":"OH","juris":"PD"},"type":"Feature","geometry":{"type":"Point","coordinates":[-83.181592,41.114111]}},{"properties":{"officer":"RJO","city":"Tiffin","zip":"44883","date":{"end_time":"2008/03/03 08:12:35 -0500","original":"3/3/2008 8:12:34 AM","granularity":"sec","time":"2008/03/03 08:12:34 -0500"},"geo_score":0.857,"unit":"60","disposition":"100","cfs":19,"call#":8.002211,"id":"a69x6oog8ro2","geo_precision":"street","address":"W Market St/City Limits","state":"OH","juris":"PD"},"type":"Feature","geometry":{"type":"Point","coordinates":[-83.181592,41.114111]}},{"properties":{"officer":"JPF","city":"Tiffin","zip":"44883","date":{"end_time":"2008/02/09 21:12:25 -0500","original":"2/9/2008 9:12:24 PM","granularity":"sec","time":"2008/02/09 21:12:24 -0500"},"geo_score":0.857,"unit":"62","disposition":"100","cfs":19,"call#":8.001417,"id":"a69x6olbwnut","geo_precision":"street","address":"W Market St/City Limits","state":"OH","juris":"PD"},"type":"Feature","geometry":{"type":"Point","coordinates":[-83.181592,41.114111]}},{"properties":{"officer":"JPF","city":"Tiffin","zip":"44883","date":{"end_time":"2008/02/09 18:11:56 -0500","original":"2/9/2008 6:11:55 PM","granularity":"sec","time":"2008/02/09 18:11:55 -0500"},"geo_score":0.857,"unit":"62","disposition":"100","cfs":19,"call#":8.00141,"id":"a69x6olnwytj","geo_precision":"street","address":"W Market St/City Limits","state":"OH","juris":"PD"},"type":"Feature","geometry":{"type":"Point","coordinates":[-83.181592,41.114111]}},{"properties":{"officer":"MAM","city":"Tiffin","zip":"44883","date":{"end_time":"2008/01/17 18:45:21 -0500","original":"1/17/2008 6:45:20 PM","granularity":"sec","time":"2008/01/17 18:45:20 -0500"},"geo_score":0.857,"unit":"58","disposition":"210","cfs":19,"call#":8.00061,"id":"a69x6ottorbf","geo_precision":"street","address":"W Market St/City Limits","state":"OH","juris":"PD"},"type":"Feature","geometry":{"type":"Point","coordinates":[-83.181592,41.114111]}},{"properties":{"officer":"JPF","city":"Tiffin","zip":"44883","date":{"end_time":"2008/01/07 17:51:57 -0500","original":"1/7/2008 5:51:56 PM","granularity":"sec","time":"2008/01/07 17:51:56 -0500"},"geo_score":0.857,"unit":"62","disposition":"220","cfs":19,"call#":8.000255,"id":"a69x6owuz8zo","geo_precision":"street","address":"W Market St/City Limits","state":"OH","juris":"PD"},"type":"Feature","geometry":{"type":"Point","coordinates":[-83.181592,41.114111]}},{"properties":{"officer":"BAR","city":"Tiffin","zip":"44883","date":{"end_time":"2008/12/28 21:20:20 -0500","original":"12/28/2008 9:20:19 PM","granularity":"sec","time":"2008/12/28 21:20:19 -0500"},"geo_score":0.857,"unit":"63","disposition":"100","cfs":19,"call#":8.013605,"id":"a69x6olbxi7r","geo_precision":"street","address":"W Market St/Hopewell Av","state":"OH","juris":"PD"},"type":"Feature","geometry":{"type":"Point","coordinates":[-83.181592,41.114111]}},{"properties":{"officer":"SMM","city":"Tiffin","zip":"44883","date":{"end_time":"2008/03/20 15:23:53 -0400","original":"3/20/2008 3:23:52 PM","granularity":"sec","time":"2008/03/20 15:23:52 -0400"},"geo_score":0.771,"unit":"58","disposition":"100","cfs":19,"call#":8.002763,"id":"a69x6oy80g7x","geo_precision":"street","address":"W Market St/Morgan Av","state":"OH","juris":"PD"},"type":"Feature","geometry":{"type":"Point","coordinates":[-83.207472,41.109885]}},{"properties":{"officer":"RLT","city":"Tiffin","zip":"44883","date":{"end_time":"2008/09/09 09:23:14 -0400","original":"9/9/2008 9:23:13 AM","granularity":"sec","time":"2008/09/09 09:23:13 -0400"},"geo_score":0.857,"unit":"58","disposition":"100","cfs":19,"call#":8.009685,"id":"a69x6omwyhu2","geo_precision":"street","address":"W Market St/Oakwood Dr","state":"OH","juris":"PD"},"type":"Feature","geometry":{"type":"Point","coordinates":[-83.206178,41.111388]}},{"properties":{"officer":"FWS","city":"Tiffin","zip":"44883","date":{"end_time":"2008/04/18 16:18:22 -0400","original":"4/18/2008 4:18:21 PM","granularity":"sec","time":"2008/04/18 16:18:21 -0400"},"geo_score":0.857,"unit":"59","disposition":"100","cfs":19,"call#":8.003901,"id":"a69x6p0k5po0","geo_precision":"street","address":"W Market St/Oil St","state":"OH","juris":"PD"},"type":"Feature","geometry":{"type":"Point","coordinates":[-83.190237,41.112809]}},{"properties":{"officer":"RLT","city":"Tiffin","zip":"44883","date":{"end_time":"2008/10/25 11:31:06 -0400","original":"10/25/2008 11:31:05 AM","granularity":"sec","time":"2008/10/25 11:31:05 -0400"},"geo_score":0.857,"unit":"58","disposition":"100","cfs":19,"call#":8.011552,"id":"a69x6oo9o4tn","geo_precision":"street","address":"W Market St/S Sandusky St","state":"OH","juris":"PD"},"type":"Feature","geometry":{"type":"Point","coordinates":[-83.181592,41.114111]}},{"properties":{"officer":"SGN","city":"Tiffin","zip":"44883","date":{"end_time":"2008/07/30 13:23:07 -0400","original":"7/30/2008 1:23:06 PM","granularity":"sec","time":"2008/07/30 13:23:06 -0400"},"geo_score":0.857,"unit":"62","disposition":"100","cfs":19,"call#":8.007937,"id":"a69x6oxh1zd9","geo_precision":"street","address":"W Market St/S Sandusky St","state":"OH","juris":"PD"},"type":"Feature","geometry":{"type":"Point","coordinates":[-83.181592,41.114111]}},{"properties":{"officer":"JPF","city":"Tiffin","zip":"44883","date":{"end_time":"2008/02/18 18:03:57 -0500","original":"2/18/2008 6:03:56 PM","granularity":"sec","time":"2008/02/18 18:03:56 -0500"},"geo_score":0.857,"unit":"62","disposition":"100","cfs":19,"call#":8.001734,"id":"a69x6olzfu7v","geo_precision":"street","address":"W Market St/S Sandusky St","state":"OH","juris":"PD"},"type":"Feature","geometry":{"type":"Point","coordinates":[-83.181592,41.114111]}},{"properties":{"officer":"MAM","city":"Tiffin","zip":"44883","date":{"end_time":"2008/08/21 18:34:50 -0400","original":"8/21/2008 6:34:49 PM","granularity":"sec","time":"2008/08/21 18:34:49 -0400"},"geo_score":0.857,"unit":"58","disposition":"100","cfs":19,"call#":8.008842,"id":"a69x6p04mfye","geo_precision":"street","address":"W Market St/Teakwood Dr","state":"OH","juris":"PD"},"type":"Feature","geometry":{"type":"Point","coordinates":[-83.181592,41.114111]}},{"properties":{"officer":"JPF","city":"Tiffin","zip":"44883","date":{"end_time":"2008/03/01 21:02:14 -0500","original":"3/1/2008 9:02:13 PM","granularity":"sec","time":"2008/03/01 21:02:13 -0500"},"geo_score":0.857,"unit":"59","disposition":"220","cfs":19,"call#":8.002155,"id":"a69x6oxhylq6","geo_precision":"street","address":"W Market St/Teakwood Dr","state":"OH","juris":"PD"},"type":"Feature","geometry":{"type":"Point","coordinates":[-83.181592,41.114111]}},{"properties":{"officer":"JAD","city":"Tiffin","zip":"44883","date":{"end_time":"2008/11/22 04:26:14 -0500","original":"11/22/2008 4:26:13 AM","granularity":"sec","time":"2008/11/22 04:26:13 -0500"},"geo_score":0.857,"unit":"56","disposition":"100","cfs":19,"call#":8.012506,"id":"a69x6ouewmqe","geo_precision":"street","address":"W Market St/Wentz St","state":"OH","juris":"PD"},"type":"Feature","geometry":{"type":"Point","coordinates":[-83.189546,41.117008]}},{"properties":{"officer":"SGN","city":"Tiffin","zip":"44883","date":{"end_time":"2008/11/05 08:55:45 -0500","original":"11/5/2008 8:55:44 AM","granularity":"sec","time":"2008/11/05 08:55:44 -0500"},"geo_score":0.857,"unit":"62","disposition":"100","cfs":19,"call#":8.011944,"id":"a69x6oqlzu5w","geo_precision":"street","address":"W Market St/Wentz St","state":"OH","juris":"PD"},"type":"Feature","geometry":{"type":"Point","coordinates":[-83.189546,41.117008]}},{"properties":{"officer":"RLT","city":"Tiffin","zip":"44883","date":{"end_time":"2008/07/22 08:46:52 -0400","original":"7/22/2008 8:46:51 AM","granularity":"sec","time":"2008/07/22 08:46:51 -0400"},"geo_score":0.857,"unit":"58","disposition":"100","cfs":19,"call#":8.007636,"id":"a69x6orxj2b4","geo_precision":"street","address":"W Market St/Wentz St","state":"OH","juris":"PD"},"type":"Feature","geometry":{"type":"Point","coordinates":[-83.189546,41.117008]}},{"properties":{"officer":"SGN","city":"Tiffin","zip":"44883","date":{"end_time":"2008/01/16 09:21:30 -0500","original":"1/16/2008 9:21:29 AM","granularity":"sec","time":"2008/01/16 09:21:29 -0500"},"geo_score":0.857,"unit":"63","disposition":"100","cfs":19,"call#":8.000563,"id":"a69x6ov9tams","geo_precision":"street","address":"W Market St/Wentz St","state":"OH","juris":"PD"},"type":"Feature","geometry":{"type":"Point","coordinates":[-83.189546,41.117008]}},{"properties":{"officer":"DES","city":"Tiffin","zip":"44883","date":{"end_time":"2008/01/09 01:06:46 -0500","original":"1/9/2008 1:06:45 AM","granularity":"sec","time":"2008/01/09 01:06:45 -0500"},"geo_score":0.857,"unit":"58","disposition":"100","cfs":19,"call#":8.000291,"id":"a69x6ox6u25p","geo_precision":"street","address":"W Perry St/Melissa St","state":"OH","juris":"PD"},"type":"Feature","geometry":{"type":"Point","coordinates":[-83.183601,41.115173]}},{"properties":{"officer":"MEM","city":"Tiffin","zip":"44883","date":{"end_time":"2008/06/08 01:13:12 -0400","original":"6/8/2008 1:13:11 AM","granularity":"sec","time":"2008/06/08 01:13:11 -0400"},"geo_score":0.857,"unit":"62","disposition":"400","cfs":19,"call#":8.005861,"id":"a69x6omkmivd","geo_precision":"street","address":"W Perry St/S Sandusky St","state":"OH","juris":"PD"},"type":"Feature","geometry":{"type":"Point","coordinates":[-83.183601,41.115173]}},{"properties":{"officer":"DGH","city":"Tiffin","zip":"44883","date":{"end_time":"2008/01/02 12:16:00 -0500","original":"1/2/2008 12:15:00 PM","granularity":"min","time":"2008/01/02 12:15:00 -0500"},"geo_score":0.857,"unit":"59","disposition":"100","cfs":19,"call#":8.000051,"id":"a69x6oz860jk","geo_precision":"street","address":"W Perry St/Scott St","state":"OH","juris":"PD"},"type":"Feature","geometry":{"type":"Point","coordinates":[-83.189151,41.116116]}},{"properties":{"officer":"JSC","city":"Tiffin","zip":"44883","date":{"end_time":"2008/01/11 19:22:21 -0500","original":"1/11/2008 7:22:20 PM","granularity":"sec","time":"2008/01/11 19:22:20 -0500"},"geo_score":0.857,"unit":"62","disposition":"220","cfs":19,"call#":8.000395,"id":"a69x6ou4e10y","geo_precision":"street","address":"W Perry St/Wentz St","state":"OH","juris":"PD"},"type":"Feature","geometry":{"type":"Point","coordinates":[-83.189546,41.117008]}},{"properties":{"officer":"DES","city":"Tiffin","zip":"44883","date":{"end_time":"2008/05/22 18:55:03 -0400","original":"5/22/2008 6:55:02 PM","granularity":"sec","time":"2008/05/22 18:55:02 -0400"},"geo_score":0.857,"unit":"62","disposition":"100","cfs":19,"call#":8.005226,"id":"a69x6orjtszw","geo_precision":"street","address":"Wall St/Wentz St","state":"OH","juris":"PD"},"type":"Feature","geometry":{"type":"Point","coordinates":[-83.187545,41.120733]}},{"properties":{"officer":"AMR","city":"Tiffin","zip":"44883","date":{"end_time":"2008/05/07 17:44:09 -0400","original":"5/7/2008 5:44:08 PM","granularity":"sec","time":"2008/05/07 17:44:08 -0400"},"geo_score":0.857,"unit":"63","disposition":"100","cfs":19,"call#":8.004697,"id":"a69x6ot89zv8","geo_precision":"street","address":"Webster St/Water St","state":"OH","juris":"PD"},"type":"Feature","geometry":{"type":"Point","coordinates":[-83.174315,41.120732]}},{"properties":{"officer":"RJO","city":"Tiffin","zip":"44883","date":{"end_time":"2008/01/02 08:07:49 -0500","original":"1/2/2008 8:07:48 AM","granularity":"sec","time":"2008/01/02 08:07:48 -0500"},"geo_score":0.857,"unit":"60","disposition":"100","cfs":19,"call#":8.00004,"id":"a69x6osod7kz","geo_precision":"street","address":"Wentz St/Fostoria St","state":"OH","juris":"PD"},"type":"Feature","geometry":{"type":"Point","coordinates":[-83.189546,41.117008]}},{"properties":{"officer":"JPF","city":"Tiffin","zip":"44883","date":{"end_time":"2008/06/30 16:19:22 -0400","original":"6/30/2008 4:19:21 PM","granularity":"sec","time":"2008/06/30 16:19:21 -0400"},"geo_score":0.857,"unit":"947","disposition":"200","cfs":19,"call#":8.006744,"id":"a69x6oqglxj7","geo_precision":"street","address":"Westwood Dr/Miami St","state":"OH","juris":"PD"},"type":"Feature","geometry":{"type":"Point","coordinates":[-83.181876,41.117677]}}],"is_temporal":true,"author":{"url":"","metadata":"","contact_name":"","contact_address":"","source":"","contact_phone":""},"source":"","pagination":{"sort":null,"start":0,"total":348,"limit":1000000},"state":"complete","tags":"","published":"2014-08-14T15:38:30-04:00","id":220669}