{"type":"FeatureCollection","data_type":"Dataset","url_type":null,"permissions":[{"permissions":{"download":true,"view":true},"group_id":"everyone"}],"classification":null,"title":"check forg counterfeit 2009","count":72,"stream_id":220621,"contributor":{"url":"http://geocommons.com/users/42302","name":"hillproject"},"data_attributes":null,"calculation_params":null,"icon_link":null,"link":"http://geocommons.com/overlays/220621.json","extent":[-83.4356,41.0975,-83.162,41.1524],"geometry_types":["point"],"unique_name":null,"name":"check forg counterfeit 2009","feature_count":72,"description":"","next_feature":null,"is_raster":false,"short_classification":"Y","stats":{"date":{"max":"2009/12/16 15:09:00 -0500","mean":"2009/05/25 14:49:40 -0400","variance":65516064288946.5,"stdev":8094199.42236083,"min":"2009/01/07 00:40:00 -0500","median":"2009/05/29 16:52:00 -0400"},"unit":{"max":879,"mean":95.7042253521127,"variance":27540.9826961771,"stdev":165.954760992799,"min":56,"median":59},"cfs":{"max":8,"mean":8.0,"variance":0.0,"stdev":0.0,"min":8,"median":8},"call#":{"max":9.012049,"mean":9.00500791666667,"variance":1.08313859366196e-05,"stdev":0.00329110709892881,"min":9.000195,"median":9.005065}},"features":[{"properties":{"officer":"MMC","city":"Tiffin","zip":"44883","date":{"end_time":"2009/12/16 15:10:00 -0500","original":"12/16/2009 15:09","granularity":"min","time":"2009/12/16 15:09:00 -0500"},"geo_score":0.902,"unit":107,"disposition":"200","cfs":8,"call#":9.012049,"id":"a62tajc377zd","geo_precision":"range","address":"51 E Market St","state":"OH","juris":"PD"},"type":"Feature","geometry":{"type":"Point","coordinates":[-83.17813,41.114436]}},{"properties":{"officer":"JPF","city":"Tiffin","zip":"44883","date":{"end_time":"2009/12/14 12:54:00 -0500","original":"12/14/2009 12:53","granularity":"min","time":"2009/12/14 12:53:00 -0500"},"geo_score":0.902,"unit":59,"disposition":"200","cfs":8,"call#":9.011981,"id":"a62taj7wiv79","geo_precision":"range","address":"484 W Market St","state":"OH","juris":"PD"},"type":"Feature","geometry":{"type":"Point","coordinates":[-83.197011,41.1126]}},{"properties":{"officer":"JPF","city":"Tiffin","zip":"44883","date":{"end_time":"2009/12/08 13:32:00 -0500","original":"12/8/2009 13:31","granularity":"min","time":"2009/12/08 13:31:00 -0500"},"geo_score":0.408,"unit":59,"disposition":"200","cfs":8,"call#":9.011821,"id":"a62taj62yzy0","geo_precision":"street","address":"190 St Francis Av","state":"OH","juris":"PD"},"type":"Feature","geometry":{"type":"Point","coordinates":[-83.435561,41.152397]}},{"properties":{"officer":"DGH","city":"Tiffin","zip":"44883","date":{"end_time":"2009/11/04 14:40:00 -0500","original":"11/4/2009 14:39","granularity":"min","time":"2009/11/04 14:39:00 -0500"},"geo_score":0.756,"unit":63,"disposition":"200","cfs":8,"call#":9.010809,"id":"a62tajdk63xt","geo_precision":"range","address":"265 Sixth Av","state":"OH","juris":"PD"},"type":"Feature","geometry":{"type":"Point","coordinates":[-83.183327,41.132178]}},{"properties":{"officer":"MAM","city":"Tiffin","zip":"44883","date":{"end_time":"2009/10/21 11:52:00 -0400","original":"10/21/2009 11:51","granularity":"min","time":"2009/10/21 11:51:00 -0400"},"geo_score":0.902,"unit":58,"disposition":"200","cfs":8,"call#":9.010347,"id":"a62taj0m60mr","geo_precision":"range","address":"51 E Market St","state":"OH","juris":"PD"},"type":"Feature","geometry":{"type":"Point","coordinates":[-83.17813,41.114436]}},{"properties":{"officer":"JSC","city":"Tiffin","zip":"44883","date":{"end_time":"2009/09/29 19:24:00 -0400","original":"9/29/2009 19:23","granularity":"min","time":"2009/09/29 19:23:00 -0400"},"geo_score":0.902,"unit":59,"disposition":"200","cfs":8,"call#":9.009606,"id":"a62taj14xmzh","geo_precision":"range","address":"306 Water St","state":"OH","juris":"PD"},"type":"Feature","geometry":{"type":"Point","coordinates":[-83.174239,41.120946]}},{"properties":{"officer":"RJO","city":"Tiffin","zip":"44883","date":{"end_time":"2009/09/25 11:31:00 -0400","original":"9/25/2009 11:30","granularity":"min","time":"2009/09/25 11:30:00 -0400"},"geo_score":0.902,"unit":61,"disposition":"200","cfs":8,"call#":9.009439,"id":"a62taj8ovb4u","geo_precision":"range","address":"596 W Market St","state":"OH","juris":"PD"},"type":"Feature","geometry":{"type":"Point","coordinates":[-83.201321,41.11221]}},{"properties":{"officer":"REB","city":"Tiffin","zip":"44883","date":{"end_time":"2009/09/21 12:00:00 -0400","original":"9/21/2009 11:59","granularity":"min","time":"2009/09/21 11:59:00 -0400"},"geo_score":0.902,"unit":61,"disposition":"200","cfs":8,"call#":9.009314,"id":"a62tajavk93o","geo_precision":"range","address":"664 W Market St","state":"OH","juris":"PD"},"type":"Feature","geometry":{"type":"Point","coordinates":[-83.203414,41.111842]}},{"properties":{"officer":"SGN","city":"Tiffin","zip":"44883","date":{"end_time":"2009/09/04 13:10:00 -0400","original":"9/4/2009 13:09","granularity":"min","time":"2009/09/04 13:09:00 -0400"},"geo_score":0.902,"unit":63,"disposition":"200","cfs":8,"call#":9.008704,"id":"a62tajapvpnc","geo_precision":"range","address":"311 Noble St","state":"OH","juris":"PD"},"type":"Feature","geometry":{"type":"Point","coordinates":[-83.183724,41.123879]}},{"properties":{"officer":"RJO","city":"Tiffin","zip":"44883","date":{"end_time":"2009/09/02 10:55:00 -0400","original":"9/2/2009 10:54","granularity":"min","time":"2009/09/02 10:54:00 -0400"},"geo_score":0.78,"unit":57,"disposition":"400","cfs":8,"call#":9.008615,"id":"a62taizitc1o","geo_precision":"range","address":"806 W Market St","state":"OH","juris":"PD"},"type":"Feature","geometry":{"type":"Point","coordinates":[-83.207509,41.111153]}},{"properties":{"officer":"RJO","city":"Tiffin","zip":"44883","date":{"end_time":"2009/08/31 08:01:00 -0400","original":"8/31/2009 8:00","granularity":"min","time":"2009/08/31 08:00:00 -0400"},"geo_score":0.78,"unit":57,"disposition":"400","cfs":8,"call#":9.008544,"id":"a62tajav4bgs","geo_precision":"range","address":"790 W Market St","state":"OH","juris":"PD"},"type":"Feature","geometry":{"type":"Point","coordinates":[-83.207496,41.111156]}},{"properties":{"officer":"DGH","city":"Tiffin","zip":"44883","date":{"end_time":"2009/08/26 16:35:00 -0400","original":"8/26/2009 16:34","granularity":"min","time":"2009/08/26 16:34:00 -0400"},"geo_score":0.902,"unit":63,"disposition":"200","cfs":8,"call#":9.008346,"id":"a62taj4ueq0t","geo_precision":"range","address":"51 E Market St","state":"OH","juris":"PD"},"type":"Feature","geometry":{"type":"Point","coordinates":[-83.17813,41.114436]}},{"properties":{"officer":"DGH","city":"Tiffin","zip":"44883","date":{"end_time":"2009/08/24 14:06:00 -0400","original":"8/24/2009 14:05","granularity":"min","time":"2009/08/24 14:05:00 -0400"},"geo_score":0.902,"unit":63,"disposition":"200","cfs":8,"call#":9.008278,"id":"a62taj1pkw4r","geo_precision":"range","address":"51 E Market St","state":"OH","juris":"PD"},"type":"Feature","geometry":{"type":"Point","coordinates":[-83.17813,41.114436]}},{"properties":{"officer":"SGN","city":"Tiffin","zip":"44883","date":{"end_time":"2009/08/19 11:11:00 -0400","original":"8/19/2009 11:10","granularity":"min","time":"2009/08/19 11:10:00 -0400"},"geo_score":0.902,"unit":63,"disposition":"200","cfs":8,"call#":9.008055,"id":"a62taiysfqnx","geo_precision":"range","address":"2437 W Market St","state":"OH","juris":"PD"},"type":"Feature","geometry":{"type":"Point","coordinates":[-83.217484,41.109436]}},{"properties":{"officer":"JSC","city":"Tiffin","zip":"44883","date":{"end_time":"2009/08/19 10:12:00 -0400","original":"8/19/2009 10:11","granularity":"min","time":"2009/08/19 10:11:00 -0400"},"geo_score":0.902,"unit":57,"disposition":"200","cfs":8,"call#":9.008054,"id":"a62taj74817b","geo_precision":"range","address":"227 S Washington St","state":"OH","juris":"PD"},"type":"Feature","geometry":{"type":"Point","coordinates":[-83.176002,41.111094]}},{"properties":{"officer":"MAM","city":"Tiffin","zip":"44883","date":{"end_time":"2009/08/15 12:35:00 -0400","original":"8/15/2009 12:34","granularity":"min","time":"2009/08/15 12:34:00 -0400"},"geo_score":0.902,"unit":58,"disposition":"200","cfs":8,"call#":9.007939,"id":"a62tajckhyy7","geo_precision":"range","address":"34 Morningside Dr","state":"OH","juris":"PD"},"type":"Feature","geometry":{"type":"Point","coordinates":[-83.190564,41.103001]}},{"properties":{"officer":"JPF","city":"Tiffin","zip":"44883","date":{"end_time":"2009/08/14 14:12:00 -0400","original":"8/14/2009 14:11","granularity":"min","time":"2009/08/14 14:11:00 -0400"},"geo_score":0.902,"unit":59,"disposition":"200","cfs":8,"call#":9.007899,"id":"a62taj85ihwk","geo_precision":"range","address":"48 E Market St","state":"OH","juris":"PD"},"type":"Feature","geometry":{"type":"Point","coordinates":[-83.178179,41.11443]}},{"properties":{"officer":"LMK","city":"Tiffin","zip":"44883","date":{"end_time":"2009/08/10 20:49:00 -0400","original":"8/10/2009 20:48","granularity":"min","time":"2009/08/10 20:48:00 -0400"},"geo_score":0.902,"unit":63,"disposition":"200","cfs":8,"call#":9.007779,"id":"a62tajcgnm00","geo_precision":"range","address":"118 Mohawk St","state":"OH","juris":"PD"},"type":"Feature","geometry":{"type":"Point","coordinates":[-83.177877,41.101774]}},{"properties":{"officer":"RLT","city":"Tiffin","zip":"44883","date":{"end_time":"2009/08/05 10:51:00 -0400","original":"8/5/2009 10:50","granularity":"min","time":"2009/08/05 10:50:00 -0400"},"geo_score":0.873,"unit":58,"disposition":"200","cfs":8,"call#":9.007606,"id":"a62taiy6q807","geo_precision":"range","address":"180 Lindsay Av","state":"OH","juris":"PD"},"type":"Feature","geometry":{"type":"Point","coordinates":[-83.196843,41.111049]}},{"properties":{"officer":"JPF","city":"Tiffin","zip":"44883","date":{"end_time":"2009/07/31 13:47:00 -0400","original":"7/31/2009 13:46","granularity":"min","time":"2009/07/31 13:46:00 -0400"},"geo_score":0.854,"unit":59,"disposition":"200","cfs":8,"call#":9.007417,"id":"a62taj90ksnn","geo_precision":"range","address":"23 Elm Av","state":"OH","juris":"PD"},"type":"Feature","geometry":{"type":"Point","coordinates":[-83.168057,41.119969]}},{"properties":{"officer":"REB","city":"Tiffin","zip":"44883","date":{"end_time":"2009/07/28 15:56:00 -0400","original":"7/28/2009 15:55","granularity":"min","time":"2009/07/28 15:55:00 -0400"},"geo_score":0.902,"unit":58,"disposition":"200","cfs":8,"call#":9.007308,"id":"a62tajajd1bm","geo_precision":"range","address":"51 E Market St","state":"OH","juris":"PD"},"type":"Feature","geometry":{"type":"Point","coordinates":[-83.17813,41.114436]}},{"properties":{"officer":"SGN","city":"Tiffin","zip":"44883","date":{"end_time":"2009/07/28 09:19:00 -0400","original":"7/28/2009 9:18","granularity":"min","time":"2009/07/28 09:18:00 -0400"},"geo_score":0.902,"unit":62,"disposition":"100","cfs":8,"call#":9.007297,"id":"a62taj6hxsle","geo_precision":"range","address":"72 Autumn Ln","state":"OH","juris":"PD"},"type":"Feature","geometry":{"type":"Point","coordinates":[-83.182451,41.098213]}},{"properties":{"officer":"JSC","city":"Tiffin","zip":"44883","date":{"end_time":"2009/07/24 14:33:00 -0400","original":"7/24/2009 14:32","granularity":"min","time":"2009/07/24 14:32:00 -0400"},"geo_score":0.902,"unit":57,"disposition":"200","cfs":8,"call#":9.007159,"id":"a62tajc0p6aq","geo_precision":"range","address":"652 N Sandusky St","state":"OH","juris":"PD"},"type":"Feature","geometry":{"type":"Point","coordinates":[-83.17143,41.135568]}},{"properties":{"officer":"DES","city":"Tiffin","zip":"44883","date":{"end_time":"2009/07/23 15:37:00 -0400","original":"7/23/2009 15:36","granularity":"min","time":"2009/07/23 15:36:00 -0400"},"geo_score":0.902,"unit":60,"disposition":"200","cfs":8,"call#":9.00712,"id":"a62taj7gh0f8","geo_precision":"range","address":"51 E Market St","state":"OH","juris":"PD"},"type":"Feature","geometry":{"type":"Point","coordinates":[-83.17813,41.114436]}},{"properties":{"officer":"FAI","city":"Tiffin","zip":"44883","date":{"end_time":"2009/07/17 12:40:00 -0400","original":"7/17/2009 12:39","granularity":"min","time":"2009/07/17 12:39:00 -0400"},"geo_score":0.902,"unit":120,"disposition":"200","cfs":8,"call#":9.006874,"id":"a62taj4npmdj","geo_precision":"range","address":"491 W Perry St","state":"OH","juris":"PD"},"type":"Feature","geometry":{"type":"Point","coordinates":[-83.197748,41.113795]}},{"properties":{"officer":null,"city":"Tiffin","zip":"44883","date":{"end_time":"2009/07/15 09:26:00 -0400","original":"7/15/2009 9:25","granularity":"min","time":"2009/07/15 09:25:00 -0400"},"geo_score":0.857,"unit":null,"disposition":"CAN","cfs":8,"call#":9.00678,"id":"a62taj3socd8","geo_precision":"range","address":"25 Shaffer Pk Dr","state":"OH","juris":"PD"},"type":"Feature","geometry":{"type":"Point","coordinates":[-83.216098,41.10971]}},{"properties":{"officer":"RJO","city":"Tiffin","zip":"44883","date":{"end_time":"2009/06/29 15:06:00 -0400","original":"6/29/2009 15:05","granularity":"min","time":"2009/06/29 15:05:00 -0400"},"geo_score":0.902,"unit":57,"disposition":"200","cfs":8,"call#":9.006189,"id":"a62taj2e4tch","geo_precision":"range","address":"315 W Market St","state":"OH","juris":"PD"},"type":"Feature","geometry":{"type":"Point","coordinates":[-83.191142,41.113162]}},{"properties":{"officer":"SMM","city":"Tiffin","zip":"44883","date":{"end_time":"2009/06/25 17:09:00 -0400","original":"6/25/2009 17:08","granularity":"min","time":"2009/06/25 17:08:00 -0400"},"geo_score":0.873,"unit":58,"disposition":"200","cfs":8,"call#":9.006016,"id":"a62taj14qeli","geo_precision":"range","address":"14 Clinton Av","state":"OH","juris":"PD"},"type":"Feature","geometry":{"type":"Point","coordinates":[-83.170936,41.116866]}},{"properties":{"officer":"SGN","city":"Tiffin","zip":"44883","date":{"end_time":"2009/06/19 12:32:00 -0400","original":"6/19/2009 12:31","granularity":"min","time":"2009/06/19 12:31:00 -0400"},"geo_score":0.902,"unit":62,"disposition":"200","cfs":8,"call#":9.005798,"id":"a62taj7wffwq","geo_precision":"range","address":"80 E Market St","state":"OH","juris":"PD"},"type":"Feature","geometry":{"type":"Point","coordinates":[-83.177401,41.114529]}},{"properties":{"officer":"SGN","city":"Tiffin","zip":"44883","date":{"end_time":"2009/06/18 14:18:00 -0400","original":"6/18/2009 14:17","granularity":"min","time":"2009/06/18 14:17:00 -0400"},"geo_score":0.902,"unit":62,"disposition":"200","cfs":8,"call#":9.005747,"id":"a62taj156a1i","geo_precision":"range","address":"122 Ashwood Rd","state":"OH","juris":"PD"},"type":"Feature","geometry":{"type":"Point","coordinates":[-83.201561,41.116952]}},{"properties":{"officer":"REB","city":"Tiffin","zip":"44883","date":{"end_time":"2009/06/16 12:01:00 -0400","original":"6/16/2009 12:00","granularity":"min","time":"2009/06/16 12:00:00 -0400"},"geo_score":0.902,"unit":58,"disposition":"200","cfs":8,"call#":9.005652,"id":"a62taj22x38h","geo_precision":"range","address":"128 S Sandusky St","state":"OH","juris":"PD"},"type":"Feature","geometry":{"type":"Point","coordinates":[-83.184775,41.116544]}},{"properties":{"officer":"MAM","city":"Tiffin","zip":"44883","date":{"end_time":"2009/06/05 10:15:00 -0400","original":"6/5/2009 10:14","granularity":"min","time":"2009/06/05 10:14:00 -0400"},"geo_score":0.902,"unit":58,"disposition":"100","cfs":8,"call#":9.00526,"id":"a62tajcfoegy","geo_precision":"range","address":"67 Bryden Rd","state":"OH","juris":"PD"},"type":"Feature","geometry":{"type":"Point","coordinates":[-83.163186,41.099564]}},{"properties":{"officer":"REB","city":"Tiffin","zip":"44883","date":{"end_time":"2009/06/02 13:05:00 -0400","original":"6/2/2009 13:04","granularity":"min","time":"2009/06/02 13:04:00 -0400"},"geo_score":0.902,"unit":61,"disposition":"200","cfs":8,"call#":9.005187,"id":"a62taj9yagyt","geo_precision":"range","address":"1530 W Market St","state":"OH","juris":"PD"},"type":"Feature","geometry":{"type":"Point","coordinates":[-83.202505,41.111985]}},{"properties":{"officer":"REB","city":"Tiffin","zip":"44883","date":{"end_time":"2009/06/02 08:37:00 -0400","original":"6/2/2009 8:36","granularity":"min","time":"2009/06/02 08:36:00 -0400"},"geo_score":0.902,"unit":61,"disposition":"200","cfs":8,"call#":9.005169,"id":"a62taiyavj5e","geo_precision":"range","address":"1550 W Market St","state":"OH","juris":"PD"},"type":"Feature","geometry":{"type":"Point","coordinates":[-83.202528,41.11198]}},{"properties":{"officer":"RJO","city":"Tiffin","zip":"44883","date":{"end_time":"2009/06/01 11:22:00 -0400","original":"6/1/2009 11:21","granularity":"min","time":"2009/06/01 11:21:00 -0400"},"geo_score":0.902,"unit":58,"disposition":"200","cfs":8,"call#":9.005148,"id":"a62tajcvgb0p","geo_precision":"range","address":"388 E Perry St","state":"OH","juris":"PD"},"type":"Feature","geometry":{"type":"Point","coordinates":[-83.165273,41.117573]}},{"properties":{"officer":"EDA","city":"Tiffin","zip":"44883","date":{"end_time":"2009/05/29 16:53:00 -0400","original":"5/29/2009 16:52","granularity":"min","time":"2009/05/29 16:52:00 -0400"},"geo_score":0.902,"unit":59,"disposition":"100","cfs":8,"call#":9.005065,"id":"a62taj48dnll","geo_precision":"range","address":"111 Melmore St","state":"OH","juris":"PD"},"type":"Feature","geometry":{"type":"Point","coordinates":[-83.173132,41.106978]}},{"properties":{"officer":"SGN","city":"Tiffin","zip":"44883","date":{"end_time":"2009/05/27 10:35:00 -0400","original":"5/27/2009 10:34","granularity":"min","time":"2009/05/27 10:34:00 -0400"},"geo_score":0.582,"unit":62,"disposition":"200","cfs":8,"call#":9.004989,"id":"a62taj7unt0q","geo_precision":"street","address":"2801 W Sr 18","state":"OH","juris":"PD"},"type":"Feature","geometry":{"type":"Point","coordinates":[-83.278292,41.108823]}},{"properties":{"officer":"JAD","city":"Tiffin","zip":"44883","date":{"end_time":"2009/05/21 22:38:00 -0400","original":"5/21/2009 22:37","granularity":"min","time":"2009/05/21 22:37:00 -0400"},"geo_score":0.902,"unit":56,"disposition":"200","cfs":8,"call#":9.004798,"id":"a62taizctk6g","geo_precision":"range","address":"51 E Market St","state":"OH","juris":"PD"},"type":"Feature","geometry":{"type":"Point","coordinates":[-83.17813,41.114436]}},{"properties":{"officer":"REB","city":"Tiffin","zip":"44883","date":{"end_time":"2009/05/18 12:11:00 -0400","original":"5/18/2009 12:10","granularity":"min","time":"2009/05/18 12:10:00 -0400"},"geo_score":0.902,"unit":62,"disposition":"200","cfs":8,"call#":9.004657,"id":"a62tajanhoju","geo_precision":"range","address":"200 S Sandusky St","state":"OH","juris":"PD"},"type":"Feature","geometry":{"type":"Point","coordinates":[-83.185994,41.114943]}},{"properties":{"officer":"REB","city":"Tiffin","zip":"44883","date":{"end_time":"2009/05/17 10:54:00 -0400","original":"5/17/2009 10:53","granularity":"min","time":"2009/05/17 10:53:00 -0400"},"geo_score":0.902,"unit":62,"disposition":"200","cfs":8,"call#":9.004634,"id":"a62tajb7r59j","geo_precision":"range","address":"247 S Sandusky St","state":"OH","juris":"PD"},"type":"Feature","geometry":{"type":"Point","coordinates":[-83.186688,41.113627]}},{"properties":{"officer":"LMK","city":"Tiffin","zip":"44883","date":{"end_time":"2009/05/16 22:47:00 -0400","original":"5/16/2009 22:46","granularity":"min","time":"2009/05/16 22:46:00 -0400"},"geo_score":0.902,"unit":62,"disposition":"200","cfs":8,"call#":9.004616,"id":"a62taj8rnon9","geo_precision":"range","address":"205 S Sandusky St","state":"OH","juris":"PD"},"type":"Feature","geometry":{"type":"Point","coordinates":[-83.186167,41.114614]}},{"properties":{"officer":"JPF","city":"Tiffin","zip":"44883","date":{"end_time":"2009/05/14 09:22:00 -0400","original":"5/14/2009 9:21","granularity":"min","time":"2009/05/14 09:21:00 -0400"},"geo_score":0.902,"unit":59,"disposition":"200","cfs":8,"call#":9.004541,"id":"a62taiy0mbch","geo_precision":"range","address":"2355 W Market St","state":"OH","juris":"PD"},"type":"Feature","geometry":{"type":"Point","coordinates":[-83.215757,41.10971]}},{"properties":{"officer":"JPF","city":"Tiffin","zip":"44883","date":{"end_time":"2009/04/23 15:47:00 -0400","original":"4/23/2009 15:46","granularity":"min","time":"2009/04/23 15:46:00 -0400"},"geo_score":0.902,"unit":59,"disposition":"200","cfs":8,"call#":9.003868,"id":"a62tajbc70wk","geo_precision":"range","address":"91 N Washington St","state":"OH","juris":"PD"},"type":"Feature","geometry":{"type":"Point","coordinates":[-83.177472,41.120343]}},{"properties":{"officer":"RJO","city":"Tiffin","zip":"44883","date":{"end_time":"2009/04/14 08:16:00 -0400","original":"4/14/2009 8:15","granularity":"min","time":"2009/04/14 08:15:00 -0400"},"geo_score":0.857,"unit":57,"disposition":"200","cfs":8,"call#":9.003543,"id":"a62taiysicgx","geo_precision":"range","address":"25 Shaffer Pk Dr","state":"OH","juris":"PD"},"type":"Feature","geometry":{"type":"Point","coordinates":[-83.216098,41.10971]}},{"properties":{"officer":"RJO","city":"Tiffin","zip":"44883","date":{"end_time":"2009/04/08 14:24:00 -0400","original":"4/8/2009 14:23","granularity":"min","time":"2009/04/08 14:23:00 -0400"},"geo_score":0.902,"unit":57,"disposition":"200","cfs":8,"call#":9.003336,"id":"a62taj00l9lr","geo_precision":"range","address":"224 Melmore St","state":"OH","juris":"PD"},"type":"Feature","geometry":{"type":"Point","coordinates":[-83.170665,41.104446]}},{"properties":{"officer":"SWK","city":"Tiffin","zip":"44883","date":{"end_time":"2009/03/30 17:05:00 -0400","original":"3/30/2009 17:04","granularity":"min","time":"2009/03/30 17:04:00 -0400"},"geo_score":0.902,"unit":61,"disposition":"200","cfs":8,"call#":9.003016,"id":"a62tajccri1j","geo_precision":"range","address":"31 Goodsell St","state":"OH","juris":"PD"},"type":"Feature","geometry":{"type":"Point","coordinates":[-83.166149,41.11045]}},{"properties":{"officer":"JPF","city":"Tiffin","zip":"44883","date":{"end_time":"2009/03/26 10:05:00 -0400","original":"3/26/2009 10:04","granularity":"min","time":"2009/03/26 10:04:00 -0400"},"geo_score":0.902,"unit":59,"disposition":"200","cfs":8,"call#":9.0028,"id":"a62taj5u5hjk","geo_precision":"range","address":"64 Main St","state":"OH","juris":"PD"},"type":"Feature","geometry":{"type":"Point","coordinates":[-83.172138,41.111677]}},{"properties":{"officer":"JSC","city":"Tiffin","zip":"44883","date":{"end_time":"2009/03/24 16:43:00 -0400","original":"3/24/2009 16:42","granularity":"min","time":"2009/03/24 16:42:00 -0400"},"geo_score":0.708,"unit":59,"disposition":"200","cfs":8,"call#":9.00276,"id":"a62tajaomq98","geo_precision":"street","address":"843 N Water St,301","state":"OH","juris":"PD"},"type":"Feature","geometry":{"type":"Point","coordinates":[-83.166843,41.131124]}},{"properties":{"officer":"RJO","city":"Tiffin","zip":"44883","date":{"end_time":"2009/03/24 14:52:00 -0400","original":"3/24/2009 14:51","granularity":"min","time":"2009/03/24 14:51:00 -0400"},"geo_score":0.78,"unit":57,"disposition":"200","cfs":8,"call#":9.002758,"id":"a62tajaj0kjj","geo_precision":"range","address":"806 W Market St","state":"OH","juris":"PD"},"type":"Feature","geometry":{"type":"Point","coordinates":[-83.207509,41.111153]}},{"properties":{"officer":"JMW","city":"Tiffin","zip":"44883","date":{"end_time":"2009/03/23 14:48:00 -0400","original":"3/23/2009 14:47","granularity":"min","time":"2009/03/23 14:47:00 -0400"},"geo_score":0.53,"unit":58,"disposition":"200","cfs":8,"call#":9.002733,"id":"a62tajci5ns8","geo_precision":"street","address":"175 St Francis Av","state":"OH","juris":"PD"},"type":"Feature","geometry":{"type":"Point","coordinates":[-83.435561,41.152397]}},{"properties":{"officer":"LMK","city":"Tiffin","zip":"44883","date":{"end_time":"2009/03/21 22:42:00 -0400","original":"3/21/2009 22:41","granularity":"min","time":"2009/03/21 22:41:00 -0400"},"geo_score":0.902,"unit":59,"disposition":"200","cfs":8,"call#":9.002677,"id":"a62taj4ud69o","geo_precision":"range","address":"321 E Perry St","state":"OH","juris":"PD"},"type":"Feature","geometry":{"type":"Point","coordinates":[-83.167735,41.116985]}},{"properties":{"officer":"EDA","city":"Tiffin","zip":"44883","date":{"end_time":"2009/03/06 21:03:00 -0500","original":"3/6/2009 21:02","granularity":"min","time":"2009/03/06 21:02:00 -0500"},"geo_score":0.902,"unit":60,"disposition":"200","cfs":8,"call#":9.002169,"id":"a62tajbr2ehx","geo_precision":"range","address":"111 Melmore St","state":"OH","juris":"PD"},"type":"Feature","geometry":{"type":"Point","coordinates":[-83.173132,41.106978]}},{"properties":{"officer":"DES","city":"Tiffin","zip":"44883","date":{"end_time":"2009/02/24 07:58:00 -0500","original":"2/24/2009 7:57","granularity":"min","time":"2009/02/24 07:57:00 -0500"},"geo_score":0.902,"unit":61,"disposition":"200","cfs":8,"call#":9.001857,"id":"a62taj44m5go","geo_precision":"range","address":"634 W Market St","state":"OH","juris":"PD"},"type":"Feature","geometry":{"type":"Point","coordinates":[-83.201366,41.112204]}},{"properties":{"officer":"DES","city":"Tiffin","zip":"44883","date":{"end_time":"2009/02/23 07:32:00 -0500","original":"2/23/2009 7:31","granularity":"min","time":"2009/02/23 07:31:00 -0500"},"geo_score":0.902,"unit":62,"disposition":"200","cfs":8,"call#":9.001834,"id":"a62tajbxx1ja","geo_precision":"range","address":"135 Lincoln Rd","state":"OH","juris":"PD"},"type":"Feature","geometry":{"type":"Point","coordinates":[-83.16196,41.101189]}},{"properties":{"officer":"FWS","city":"Tiffin","zip":"44883","date":{"end_time":"2009/02/20 18:11:00 -0500","original":"2/20/2009 18:10","granularity":"min","time":"2009/02/20 18:10:00 -0500"},"geo_score":0.902,"unit":57,"disposition":"200","cfs":8,"call#":9.001743,"id":"a62tajcamgrl","geo_precision":"range","address":"70Y E Market St","state":"OH","juris":"PD"},"type":"Feature","geometry":{"type":"Point","coordinates":[-83.177644,41.114498]}},{"properties":{"officer":"SMM","city":"Tiffin","zip":"44883","date":{"end_time":"2009/02/20 17:20:00 -0500","original":"2/20/2009 17:19","granularity":"min","time":"2009/02/20 17:19:00 -0500"},"geo_score":0.902,"unit":58,"disposition":"200","cfs":8,"call#":9.001742,"id":"a62tajddagug","geo_precision":"range","address":"126 S Washington St","state":"OH","juris":"PD"},"type":"Feature","geometry":{"type":"Point","coordinates":[-83.176503,41.114043]}},{"properties":{"officer":"SGN","city":"Tiffin","zip":"44883","date":{"end_time":"2009/02/19 13:41:00 -0500","original":"2/19/2009 13:40","granularity":"min","time":"2009/02/19 13:40:00 -0500"},"geo_score":0.902,"unit":62,"disposition":"200","cfs":8,"call#":9.001711,"id":"a62taj1534hj","geo_precision":"range","address":"535 W Market St","state":"OH","juris":"PD"},"type":"Feature","geometry":{"type":"Point","coordinates":[-83.199035,41.112429]}},{"properties":{"officer":null,"city":"Tiffin","zip":"44883","date":{"end_time":"2009/02/18 08:40:00 -0500","original":"2/18/2009 8:39","granularity":"min","time":"2009/02/18 08:39:00 -0500"},"geo_score":0.902,"unit":879,"disposition":"700","cfs":8,"call#":9.001701,"id":"a62taiz4zpww","geo_precision":"range","address":"254 E Market St","state":"OH","juris":"PD"},"type":"Feature","geometry":{"type":"Point","coordinates":[-83.170961,41.115227]}},{"properties":{"officer":null,"city":"Tiffin","zip":"44883","date":{"end_time":"2009/02/18 08:31:00 -0500","original":"2/18/2009 8:30","granularity":"min","time":"2009/02/18 08:30:00 -0500"},"geo_score":0.902,"unit":879,"disposition":"700","cfs":8,"call#":9.001699,"id":"a62taiygqm8g","geo_precision":"range","address":"254 E Market St","state":"OH","juris":"PD"},"type":"Feature","geometry":{"type":"Point","coordinates":[-83.170961,41.115227]}},{"properties":{"officer":null,"city":"Tiffin","zip":"44883","date":{"end_time":"2009/02/18 08:23:00 -0500","original":"2/18/2009 8:22","granularity":"min","time":"2009/02/18 08:22:00 -0500"},"geo_score":0.902,"unit":879,"disposition":"700","cfs":8,"call#":9.001698,"id":"a62taj5hjpri","geo_precision":"range","address":"254 E Market St","state":"OH","juris":"PD"},"type":"Feature","geometry":{"type":"Point","coordinates":[-83.170961,41.115227]}},{"properties":{"officer":"DGH","city":"Tiffin","zip":"44883","date":{"end_time":"2009/02/17 10:02:00 -0500","original":"2/17/2009 10:01","granularity":"min","time":"2009/02/17 10:01:00 -0500"},"geo_score":0.582,"unit":59,"disposition":"200","cfs":8,"call#":9.001636,"id":"a62tajbch6kf","geo_precision":"street","address":"2801 W Sr 18","state":"OH","juris":"PD"},"type":"Feature","geometry":{"type":"Point","coordinates":[-83.278292,41.108823]}},{"properties":{"officer":"EDA","city":"Tiffin","zip":"44883","date":{"end_time":"2009/02/12 17:18:00 -0500","original":"2/12/2009 17:17","granularity":"min","time":"2009/02/12 17:17:00 -0500"},"geo_score":0.902,"unit":60,"disposition":"200","cfs":8,"call#":9.001483,"id":"a62taj7gby08","geo_precision":"range","address":"72 Adams St","state":"OH","juris":"PD"},"type":"Feature","geometry":{"type":"Point","coordinates":[-83.180557,41.1187]}},{"properties":{"officer":"DGH","city":"Tiffin","zip":"44883","date":{"end_time":"2009/02/11 08:41:00 -0500","original":"2/11/2009 8:40","granularity":"min","time":"2009/02/11 08:40:00 -0500"},"geo_score":0.902,"unit":59,"disposition":"200","cfs":8,"call#":9.001411,"id":"a62taj6r00gc","geo_precision":"range","address":"272 N Sandusky St","state":"OH","juris":"PD"},"type":"Feature","geometry":{"type":"Point","coordinates":[-83.178238,41.126053]}},{"properties":{"officer":"RJO","city":"Tiffin","zip":"44883","date":{"end_time":"2009/01/19 16:08:00 -0500","original":"1/19/2009 16:07","granularity":"min","time":"2009/01/19 16:07:00 -0500"},"geo_score":0.902,"unit":62,"disposition":"200","cfs":8,"call#":9.000613,"id":"a62taiya9j23","geo_precision":"range","address":"35 Sunny Ln","state":"OH","juris":"PD"},"type":"Feature","geometry":{"type":"Point","coordinates":[-83.182963,41.097533]}},{"properties":{"officer":"MEM","city":"Tiffin","zip":"44883","date":{"end_time":"2009/01/16 19:34:00 -0500","original":"1/16/2009 19:33","granularity":"min","time":"2009/01/16 19:33:00 -0500"},"geo_score":0.902,"unit":62,"disposition":"400","cfs":8,"call#":9.000521,"id":"a62tajcrr36k","geo_precision":"range","address":"300 S Washington St","state":"OH","juris":"PD"},"type":"Feature","geometry":{"type":"Point","coordinates":[-83.175743,41.109463]}},{"properties":{"officer":"SMM","city":"Tiffin","zip":"44883","date":{"end_time":"2009/01/16 17:38:00 -0500","original":"1/16/2009 17:37","granularity":"min","time":"2009/01/16 17:37:00 -0500"},"geo_score":0.902,"unit":59,"disposition":"200","cfs":8,"call#":9.000514,"id":"a62taj1yeau2","geo_precision":"range","address":"275X Jefferson St","state":"OH","juris":"PD"},"type":"Feature","geometry":{"type":"Point","coordinates":[-83.17424,41.110185]}},{"properties":{"officer":"MAM","city":"Tiffin","zip":"44883","date":{"end_time":"2009/01/15 09:40:00 -0500","original":"1/15/2009 9:39","granularity":"min","time":"2009/01/15 09:39:00 -0500"},"geo_score":0.756,"unit":58,"disposition":"200","cfs":8,"call#":9.000458,"id":"a62taj8qok3r","geo_precision":"range","address":"210 Second Av","state":"OH","juris":"PD"},"type":"Feature","geometry":{"type":"Point","coordinates":[-83.183715,41.128731]}},{"properties":{"officer":"PJD","city":"Tiffin","zip":"44883","date":{"end_time":"2009/01/12 23:08:00 -0500","original":"1/12/2009 23:07","granularity":"min","time":"2009/01/12 23:07:00 -0500"},"geo_score":0.902,"unit":61,"disposition":"200","cfs":8,"call#":9.000388,"id":"a62taj1p6n5i","geo_precision":"range","address":"92 Madison St","state":"OH","juris":"PD"},"type":"Feature","geometry":{"type":"Point","coordinates":[-83.176333,41.113386]}},{"properties":{"officer":"JMW","city":"Tiffin","zip":"44883","date":{"end_time":"2009/01/12 14:08:00 -0500","original":"1/12/2009 14:07","granularity":"min","time":"2009/01/12 14:07:00 -0500"},"geo_score":0.902,"unit":60,"disposition":"200","cfs":8,"call#":9.000378,"id":"a62taj2nuxxy","geo_precision":"range","address":"17 Oil St","state":"OH","juris":"PD"},"type":"Feature","geometry":{"type":"Point","coordinates":[-83.190597,41.114427]}},{"properties":{"officer":"RJO","city":"Tiffin","zip":"44883","date":{"end_time":"2009/01/12 09:14:00 -0500","original":"1/12/2009 9:13","granularity":"min","time":"2009/01/12 09:13:00 -0500"},"geo_score":0.902,"unit":57,"disposition":"200","cfs":8,"call#":9.000369,"id":"a62taj70eumu","geo_precision":"range","address":"91 N Washington St","state":"OH","juris":"PD"},"type":"Feature","geometry":{"type":"Point","coordinates":[-83.177472,41.120343]}},{"properties":{"officer":"RJO","city":"Tiffin","zip":"44883","date":{"end_time":"2009/01/11 14:52:00 -0500","original":"1/11/2009 14:51","granularity":"min","time":"2009/01/11 14:51:00 -0500"},"geo_score":0.78,"unit":57,"disposition":"200","cfs":8,"call#":9.000353,"id":"a62taj73sgny","geo_precision":"range","address":"806 W Market St","state":"OH","juris":"PD"},"type":"Feature","geometry":{"type":"Point","coordinates":[-83.207509,41.111153]}},{"properties":{"officer":"LMK","city":"Tiffin","zip":"44883","date":{"end_time":"2009/01/07 00:41:00 -0500","original":"1/7/2009 0:40","granularity":"min","time":"2009/01/07 00:40:00 -0500"},"geo_score":0.902,"unit":57,"disposition":"100","cfs":8,"call#":9.000195,"id":"a62taj1r2ku3","geo_precision":"range","address":"75 Melmore St","state":"OH","juris":"PD"},"type":"Feature","geometry":{"type":"Point","coordinates":[-83.173839,41.107724]}}],"is_temporal":true,"author":{"url":"","metadata":"","contact_name":"","contact_address":"","source":"","contact_phone":""},"source":"","pagination":{"sort":null,"start":0,"total":72,"limit":1000000},"state":"complete","tags":"","published":"2014-08-14T15:34:53-04:00","id":220621}