{"type":"FeatureCollection","data_type":"Dataset","url_type":null,"permissions":[{"permissions":{"download":true,"view":true},"group_id":"everyone"}],"classification":null,"title":"auto theft 2008","count":16,"stream_id":220691,"contributor":{"url":"http://geocommons.com/users/42302","name":"hillproject"},"data_attributes":null,"calculation_params":null,"icon_link":null,"link":"http://geocommons.com/overlays/220691.json","extent":[-83.1868,41.1089,-83.1634,41.1279],"geometry_types":["point"],"unique_name":null,"name":"auto theft 2008","feature_count":16,"description":"","next_feature":null,"is_raster":false,"short_classification":"Y","stats":{"date":{"max":"2008/12/19 23:16:19 -0500","mean":"2008/07/09 22:10:08 -0400","variance":84297507724052.4,"stdev":9181367.42125335,"min":"2008/01/10 01:37:44 -0500","median":"2008/07/28 11:54:29 -0400"},"unit":{"max":63,"mean":60.5625,"variance":2.6625,"stdev":1.63171688720807,"min":58,"median":60},"disposition":{"max":400,"mean":218.75,"variance":5625.0,"stdev":75.0,"min":100,"median":200},"cfs":{"max":7,"mean":7.0,"variance":0.0,"stdev":0.0,"min":7,"median":7},"call#":{"max":8.013358,"mean":8.00717525,"variance":1.6751743133334e-05,"stdev":0.00409288933802687,"min":8.000319,"median":8.007867}},"features":[{"properties":{"officer":"REB","city":"Tiffin","zip":"44883","date":{"end_time":"2008/04/05 09:42:54 -0400","original":"4/5/2008 9:42:53 AM","granularity":"sec","time":"2008/04/05 09:42:53 -0400"},"geo_score":0.805,"unit":63,"disposition":400,"cfs":7,"call#":8.003388,"id":"a64sthmac4ie","geo_precision":"street","address":"106X Benner St","state":"OH","juris":"PD"},"type":"Feature","geometry":{"type":"Point","coordinates":[-83.180297,41.118474]}},{"properties":{"officer":"BRB","city":"Tiffin","zip":"44883","date":{"end_time":"2008/01/10 01:37:45 -0500","original":"1/10/2008 1:37:44 AM","granularity":"sec","time":"2008/01/10 01:37:44 -0500"},"geo_score":0.902,"unit":58,"disposition":200,"cfs":7,"call#":8.000319,"id":"a64sthfo2m4u","geo_precision":"range","address":"12X Schonhardt St","state":"OH","juris":"PD"},"type":"Feature","geometry":{"type":"Point","coordinates":[-83.172959,41.112852]}},{"properties":{"officer":"MEM","city":"Tiffin","zip":"44883","date":{"end_time":"2008/04/27 03:59:38 -0400","original":"4/27/2008 3:59:37 AM","granularity":"sec","time":"2008/04/27 03:59:37 -0400"},"geo_score":0.902,"unit":59,"disposition":200,"cfs":7,"call#":8.004281,"id":"a64sthb2ewa8","geo_precision":"range","address":"14X Miami St","state":"OH","juris":"PD"},"type":"Feature","geometry":{"type":"Point","coordinates":[-83.179803,41.116905]}},{"properties":{"officer":"DES","city":"Tiffin","zip":"44883","date":{"end_time":"2008/05/30 18:39:22 -0400","original":"5/30/2008 6:39:21 PM","granularity":"sec","time":"2008/05/30 18:39:21 -0400"},"geo_score":0.902,"unit":62,"disposition":200,"cfs":7,"call#":8.005532,"id":"a64sthld5hwj","geo_precision":"range","address":"163 S Sandusky St","state":"OH","juris":"PD"},"type":"Feature","geometry":{"type":"Point","coordinates":[-83.185265,41.115605]}},{"properties":{"officer":"BRB","city":"Tiffin","zip":"44883","date":{"end_time":"2008/08/22 02:03:31 -0400","original":"8/22/2008 2:03:30 AM","granularity":"sec","time":"2008/08/22 02:03:30 -0400"},"geo_score":0.902,"unit":58,"disposition":200,"cfs":7,"call#":8.008867,"id":"a64sthnhsf9f","geo_precision":"range","address":"18 Noble St","state":"OH","juris":"PD"},"type":"Feature","geometry":{"type":"Point","coordinates":[-83.173439,41.122836]}},{"properties":{"officer":"JMW","city":"Tiffin","zip":"44883","date":{"end_time":"2008/07/28 11:54:30 -0400","original":"7/28/2008 11:54:29 AM","granularity":"sec","time":"2008/07/28 11:54:29 -0400"},"geo_score":0.854,"unit":60,"disposition":200,"cfs":7,"call#":8.007867,"id":"a64sthhuh78c","geo_precision":"range","address":"205 Elm Av","state":"OH","juris":"PD"},"type":"Feature","geometry":{"type":"Point","coordinates":[-83.163359,41.123433]}},{"properties":{"officer":"SWK","city":"Tiffin","zip":"44883","date":{"end_time":"2008/01/16 20:03:22 -0500","original":"1/16/2008 8:03:21 PM","granularity":"sec","time":"2008/01/16 20:03:21 -0500"},"geo_score":0.902,"unit":61,"disposition":200,"cfs":7,"call#":8.000578,"id":"a64sthmaalpg","geo_precision":"range","address":"212 E Perry St","state":"OH","juris":"PD"},"type":"Feature","geometry":{"type":"Point","coordinates":[-83.17211,41.11626]}},{"properties":{"officer":"JMW","city":"Tiffin","zip":"44883","date":{"end_time":"2008/08/25 11:25:09 -0400","original":"8/25/2008 11:25:08 AM","granularity":"sec","time":"2008/08/25 11:25:08 -0400"},"geo_score":0.756,"unit":60,"disposition":200,"cfs":7,"call#":8.009019,"id":"a64sth8n4j6t","geo_precision":"range","address":"221 First Av","state":"OH","juris":"PD"},"type":"Feature","geometry":{"type":"Point","coordinates":[-83.184082,41.127875]}},{"properties":{"officer":"JMW","city":"Tiffin","zip":"44883","date":{"end_time":"2008/10/24 08:06:59 -0400","original":"10/24/2008 8:06:58 AM","granularity":"sec","time":"2008/10/24 08:06:58 -0400"},"geo_score":0.902,"unit":60,"disposition":200,"cfs":7,"call#":8.011505,"id":"a64sthcwau3u","geo_precision":"range","address":"246 Circular St","state":"OH","juris":"PD"},"type":"Feature","geometry":{"type":"Point","coordinates":[-83.169528,41.108948]}},{"properties":{"officer":"JMW","city":"Tiffin","zip":"44883","date":{"end_time":"2008/11/30 11:33:27 -0500","original":"11/30/2008 11:33:26 AM","granularity":"sec","time":"2008/11/30 11:33:26 -0500"},"geo_score":0.902,"unit":60,"disposition":100,"cfs":7,"call#":8.012739,"id":"a64sth7u7son","geo_precision":"range","address":"253 S Washington St","state":"OH","juris":"PD"},"type":"Feature","geometry":{"type":"Point","coordinates":[-83.175917,41.110499]}},{"properties":{"officer":"DES","city":"Tiffin","zip":"44883","date":{"end_time":"2008/06/05 20:42:17 -0400","original":"6/5/2008 8:42:16 PM","granularity":"sec","time":"2008/06/05 20:42:16 -0400"},"geo_score":0.902,"unit":63,"disposition":400,"cfs":7,"call#":8.005754,"id":"a64sth85jtw5","geo_precision":"range","address":"362 Wall St","state":"OH","juris":"PD"},"type":"Feature","geometry":{"type":"Point","coordinates":[-83.186793,41.12471]}},{"properties":{"officer":"JMW","city":"Tiffin","zip":"44883","date":{"end_time":"2008/05/19 11:46:35 -0400","original":"5/19/2008 11:46:34 AM","granularity":"sec","time":"2008/05/19 11:46:34 -0400"},"geo_score":0.902,"unit":60,"disposition":200,"cfs":7,"call#":8.005122,"id":"a64sthm5zjku","geo_precision":"range","address":"393 Water St","state":"OH","juris":"PD"},"type":"Feature","geometry":{"type":"Point","coordinates":[-83.173087,41.123471]}},{"properties":{"officer":"BAR","city":"Tiffin","zip":"44883","date":{"end_time":"2008/12/19 23:16:20 -0500","original":"12/19/2008 11:16:19 PM","granularity":"sec","time":"2008/12/19 23:16:19 -0500"},"geo_score":0.902,"unit":63,"disposition":200,"cfs":7,"call#":8.013358,"id":"a64sthbmq1t1","geo_precision":"range","address":"41 Douglas St","state":"OH","juris":"PD"},"type":"Feature","geometry":{"type":"Point","coordinates":[-83.175682,41.127641]}},{"properties":{"officer":"JMW","city":"Tiffin","zip":"44883","date":{"end_time":"2008/11/30 11:56:31 -0500","original":"11/30/2008 11:56:30 AM","granularity":"sec","time":"2008/11/30 11:56:30 -0500"},"geo_score":0.902,"unit":60,"disposition":200,"cfs":7,"call#":8.01274,"id":"a64sthj9dux3","geo_precision":"range","address":"48 Douglas St","state":"OH","juris":"PD"},"type":"Feature","geometry":{"type":"Point","coordinates":[-83.17516,41.127662]}},{"properties":{"officer":"MEM","city":"Tiffin","zip":"44883","date":{"end_time":"2008/06/01 01:59:46 -0400","original":"6/1/2008 1:59:45 AM","granularity":"sec","time":"2008/06/01 01:59:45 -0400"},"geo_score":0.902,"unit":62,"disposition":200,"cfs":7,"call#":8.00559,"id":"a64sthc4d8pb","geo_precision":"range","address":"54 S Washington St","state":"OH","juris":"PD"},"type":"Feature","geometry":{"type":"Point","coordinates":[-83.176822,41.116008]}},{"properties":{"officer":"JMW","city":"Tiffin","zip":"44883","date":{"end_time":"2008/08/04 12:54:21 -0400","original":"8/4/2008 12:54:20 PM","granularity":"sec","time":"2008/08/04 12:54:20 -0400"},"geo_score":0.902,"unit":60,"disposition":200,"cfs":7,"call#":8.008145,"id":"a64sthmhycz3","geo_precision":"range","address":"84 Liberty St","state":"OH","juris":"PD"},"type":"Feature","geometry":{"type":"Point","coordinates":[-83.172483,41.117147]}}],"is_temporal":true,"author":{"url":"","metadata":"","contact_name":"","contact_address":"","source":"","contact_phone":""},"source":"","pagination":{"sort":null,"start":0,"total":16,"limit":1000000},"state":"complete","tags":"","published":"2014-08-14T15:39:32-04:00","id":220691}