{"type":"FeatureCollection","data_type":"Dataset","url_type":null,"permissions":[{"permissions":{"download":true,"view":true},"group_id":"everyone"}],"classification":null,"title":"drugs gamb prost 2009","count":184,"stream_id":220623,"contributor":{"url":"http://geocommons.com/users/42302","name":"hillproject"},"data_attributes":null,"calculation_params":null,"icon_link":null,"link":"http://geocommons.com/overlays/220623.json","extent":[-83.2258,41.0803,-82.7187,41.4553],"geometry_types":["point"],"unique_name":null,"name":"drugs gamb prost 2009","feature_count":184,"description":"","next_feature":null,"is_raster":false,"short_classification":"Y","stats":{"date":{"max":"2009/12/29 12:06:41 -0500","mean":"2009/07/09 13:28:23 -0400","variance":69055674248171.3,"stdev":8309974.38312365,"min":"2009/01/08 09:19:22 -0500","median":"2009/07/16 11:42:55 -0400"},"unit":{"max":879,"mean":350.130434782609,"variance":49808.3872653838,"stdev":223.177927370481,"min":56,"median":485},"disposition":{"max":700,"mean":515.489130434783,"variance":58843.4752910431,"stdev":242.576741034756,"min":100,"median":700},"cfs":{"max":11,"mean":11.0,"variance":0.0,"stdev":0.0,"min":11,"median":11},"call#":{"max":10.000065,"mean":9.06067573369565,"variance":0.0510024881238139,"stdev":0.225837304544254,"min":9.000883,"median":9.007211}},"features":[{"properties":{"officer":null,"city":"Tiffin","zip":"44883","date":{"end_time":"2009/12/29 12:06:42 -0500","original":"12/29/2009 12:06:41 PM","granularity":"sec","time":"2009/12/29 12:06:41 -0500"},"geo_score":0.902,"unit":485,"disposition":700,"cfs":11,"call#":10.000065,"id":"a62t27u342n4","geo_precision":"range","address":"51 E Market St","state":"OH","juris":"PD"},"type":"Feature","geometry":{"type":"Point","coordinates":[-83.17813,41.114436]}},{"properties":{"officer":null,"city":"Tiffin","zip":"44883","date":{"end_time":"2009/12/28 12:03:35 -0500","original":"12/28/2009 12:03:34 PM","granularity":"sec","time":"2009/12/28 12:03:34 -0500"},"geo_score":0.902,"unit":485,"disposition":700,"cfs":11,"call#":10.000064,"id":"a62t27pvqpbs","geo_precision":"range","address":"51 E Market St","state":"OH","juris":"PD"},"type":"Feature","geometry":{"type":"Point","coordinates":[-83.17813,41.114436]}},{"properties":{"officer":null,"city":"Tiffin","zip":"44883","date":{"end_time":"2009/12/27 11:59:47 -0500","original":"12/27/2009 11:59:46 AM","granularity":"sec","time":"2009/12/27 11:59:46 -0500"},"geo_score":0.902,"unit":485,"disposition":700,"cfs":11,"call#":10.000063,"id":"a62t27mxefn6","geo_precision":"range","address":"51 E Market St","state":"OH","juris":"PD"},"type":"Feature","geometry":{"type":"Point","coordinates":[-83.17813,41.114436]}},{"properties":{"officer":"MEM","city":"Tiffin","zip":"44883","date":{"end_time":"2009/12/23 21:30:49 -0500","original":"12/23/2009 9:30:48 PM","granularity":"sec","time":"2009/12/23 21:30:48 -0500"},"geo_score":0.78,"unit":62,"disposition":200,"cfs":11,"call#":9.012224,"id":"a62t27fwkvux","geo_precision":"range","address":"790 W Market St","state":"OH","juris":"PD"},"type":"Feature","geometry":{"type":"Point","coordinates":[-83.207496,41.111156]}},{"properties":{"officer":null,"city":"Tiffin","zip":"44883","date":{"end_time":"2009/12/22 11:56:34 -0500","original":"12/22/2009 11:56:33 AM","granularity":"sec","time":"2009/12/22 11:56:33 -0500"},"geo_score":0.902,"unit":485,"disposition":700,"cfs":11,"call#":10.000062,"id":"a62t27imuc3z","geo_precision":"range","address":"51 E Market St","state":"OH","juris":"PD"},"type":"Feature","geometry":{"type":"Point","coordinates":[-83.17813,41.114436]}},{"properties":{"officer":null,"city":"Tiffin","zip":"44883","date":{"end_time":"2009/12/22 11:53:10 -0500","original":"12/22/2009 11:53:09 AM","granularity":"sec","time":"2009/12/22 11:53:09 -0500"},"geo_score":0.902,"unit":485,"disposition":700,"cfs":11,"call#":10.000061,"id":"a62t27ixywtu","geo_precision":"range","address":"51 E Market St","state":"OH","juris":"PD"},"type":"Feature","geometry":{"type":"Point","coordinates":[-83.17813,41.114436]}},{"properties":{"officer":null,"city":"Tiffin","zip":"44883","date":{"end_time":"2009/12/14 11:47:31 -0500","original":"12/14/2009 11:47:30 AM","granularity":"sec","time":"2009/12/14 11:47:30 -0500"},"geo_score":0.78,"unit":485,"disposition":700,"cfs":11,"call#":10.00006,"id":"a62t27jb5io2","geo_precision":"range","address":"1 Seneca County","state":"OH","juris":"PD"},"type":"Feature","geometry":{"type":"Point","coordinates":[-83.160743,41.122079]}},{"properties":{"officer":"RJO","city":"Tiffin","zip":"44883","date":{"end_time":"2009/12/09 06:51:14 -0500","original":"12/9/2009 6:51:13 AM","granularity":"sec","time":"2009/12/09 06:51:13 -0500"},"geo_score":0.902,"unit":57,"disposition":200,"cfs":11,"call#":9.011838,"id":"a62t27h9yi21","geo_precision":"range","address":"40 Short St","state":"OH","juris":"PD"},"type":"Feature","geometry":{"type":"Point","coordinates":[-83.179466,41.126622]}},{"properties":{"officer":"AMR","city":"Tiffin","zip":"44883","date":{"end_time":"2009/12/06 23:03:33 -0500","original":"12/6/2009 11:03:32 PM","granularity":"sec","time":"2009/12/06 23:03:32 -0500"},"geo_score":0.902,"unit":63,"disposition":400,"cfs":11,"call#":9.011791,"id":"a62t27i0uv3u","geo_precision":"range","address":"255 Main St","state":"OH","juris":"PD"},"type":"Feature","geometry":{"type":"Point","coordinates":[-83.164025,41.11237]}},{"properties":{"officer":"SMM","city":"Tiffin","zip":"44883","date":{"end_time":"2009/12/03 21:36:17 -0500","original":"12/3/2009 9:36:16 PM","granularity":"sec","time":"2009/12/03 21:36:16 -0500"},"geo_score":0.873,"unit":58,"disposition":200,"cfs":11,"call#":9.011687,"id":"a62t27q0tgue","geo_precision":"range","address":"7 Clinton Av","state":"OH","juris":"PD"},"type":"Feature","geometry":{"type":"Point","coordinates":[-83.17092,41.116739]}},{"properties":{"officer":"JAD","city":"Tiffin","zip":"44883","date":{"end_time":"2009/11/27 21:03:29 -0500","original":"11/27/2009 9:03:28 PM","granularity":"sec","time":"2009/11/27 21:03:28 -0500"},"geo_score":0.902,"unit":56,"disposition":200,"cfs":11,"call#":9.011513,"id":"a62t27ihx96j","geo_precision":"range","address":"377X W Perry St","state":"OH","juris":"PD"},"type":"Feature","geometry":{"type":"Point","coordinates":[-83.193841,41.114359]}},{"properties":{"officer":null,"city":"Tiffin","zip":"44883","date":{"end_time":"2009/11/25 11:35:45 -0500","original":"11/25/2009 11:35:44 AM","granularity":"sec","time":"2009/11/25 11:35:44 -0500"},"geo_score":0.902,"unit":485,"disposition":700,"cfs":11,"call#":10.000059,"id":"a62t27opyju5","geo_precision":"range","address":"51 E Market St","state":"OH","juris":"PD"},"type":"Feature","geometry":{"type":"Point","coordinates":[-83.17813,41.114436]}},{"properties":{"officer":"SMM","city":"Tiffin","zip":"44883","date":{"end_time":"2009/11/25 00:31:00 -0500","original":"11/25/2009 12:30:00 AM","granularity":"min","time":"2009/11/25 00:30:00 -0500"},"geo_score":0.902,"unit":58,"disposition":200,"cfs":11,"call#":9.011439,"id":"a62t27pgyjpa","geo_precision":"range","address":"167 Main St","state":"OH","juris":"PD"},"type":"Feature","geometry":{"type":"Point","coordinates":[-83.168532,41.111997]}},{"properties":{"officer":"RJO","city":"Tiffin","zip":"44883","date":{"end_time":"2009/11/16 13:47:34 -0500","original":"11/16/2009 1:47:33 PM","granularity":"sec","time":"2009/11/16 13:47:33 -0500"},"geo_score":0.902,"unit":57,"disposition":200,"cfs":11,"call#":9.011191,"id":"a62t27ranjx7","geo_precision":"range","address":"204 E Market St,141","state":"OH","juris":"PD"},"type":"Feature","geometry":{"type":"Point","coordinates":[-83.174711,41.114761]}},{"properties":{"officer":null,"city":"Tiffin","zip":"44883","date":{"end_time":"2009/11/15 11:26:32 -0500","original":"11/15/2009 11:26:31 AM","granularity":"sec","time":"2009/11/15 11:26:31 -0500"},"geo_score":0.902,"unit":485,"disposition":700,"cfs":11,"call#":10.000058,"id":"a62t27m8bp66","geo_precision":"range","address":"51 E Market St","state":"OH","juris":"PD"},"type":"Feature","geometry":{"type":"Point","coordinates":[-83.17813,41.114436]}},{"properties":{"officer":"JPF","city":"Tiffin","zip":"44883","date":{"end_time":"2009/11/09 09:30:20 -0500","original":"11/9/2009 9:30:19 AM","granularity":"sec","time":"2009/11/09 09:30:19 -0500"},"geo_score":0.902,"unit":58,"disposition":200,"cfs":11,"call#":9.010952,"id":"a62t27jnszu9","geo_precision":"range","address":"40 Maple St","state":"OH","juris":"PD"},"type":"Feature","geometry":{"type":"Point","coordinates":[-83.184286,41.112866]}},{"properties":{"officer":null,"city":"Tiffin","zip":"44883","date":{"end_time":"2009/11/07 11:10:25 -0500","original":"11/7/2009 11:10:24 AM","granularity":"sec","time":"2009/11/07 11:10:24 -0500"},"geo_score":0.78,"unit":485,"disposition":700,"cfs":11,"call#":10.000057,"id":"a62t27k9mnhz","geo_precision":"range","address":"1 Seneca County","state":"OH","juris":"PD"},"type":"Feature","geometry":{"type":"Point","coordinates":[-83.160743,41.122079]}},{"properties":{"officer":null,"city":"Tiffin","zip":"44883","date":{"end_time":"2009/11/06 10:53:13 -0500","original":"11/6/2009 10:53:12 AM","granularity":"sec","time":"2009/11/06 10:53:12 -0500"},"geo_score":0.78,"unit":485,"disposition":700,"cfs":11,"call#":10.000056,"id":"a62t27hspgbj","geo_precision":"range","address":"1 Seneca County","state":"OH","juris":"PD"},"type":"Feature","geometry":{"type":"Point","coordinates":[-83.160743,41.122079]}},{"properties":{"officer":null,"city":"Tiffin","zip":"44883","date":{"end_time":"2009/11/05 08:49:20 -0500","original":"11/5/2009 8:49:19 AM","granularity":"sec","time":"2009/11/05 08:49:19 -0500"},"geo_score":0.902,"unit":648,"disposition":700,"cfs":11,"call#":9.010862,"id":"a62t27roeu5n","geo_precision":"range","address":"81 Ashwood Rd","state":"OH","juris":"PD"},"type":"Feature","geometry":{"type":"Point","coordinates":[-83.201458,41.115112]}},{"properties":{"officer":"MEM","city":"Tiffin","zip":"44883","date":{"end_time":"2009/11/04 21:32:09 -0500","original":"11/4/2009 9:32:08 PM","granularity":"sec","time":"2009/11/04 21:32:08 -0500"},"geo_score":0.902,"unit":62,"disposition":100,"cfs":11,"call#":9.01082,"id":"a62t27r2pcsj","geo_precision":"range","address":"182 E Market St,211","state":"OH","juris":"PD"},"type":"Feature","geometry":{"type":"Point","coordinates":[-83.172057,41.114994]}},{"properties":{"officer":"LMK","city":"Tiffin","zip":"44883","date":{"end_time":"2009/11/03 21:35:56 -0500","original":"11/3/2009 9:35:55 PM","granularity":"sec","time":"2009/11/03 21:35:55 -0500"},"geo_score":0.902,"unit":850,"disposition":200,"cfs":11,"call#":9.010788,"id":"a62t27hq5ldr","geo_precision":"range","address":"25 E Market St","state":"OH","juris":"PD"},"type":"Feature","geometry":{"type":"Point","coordinates":[-83.179017,41.114372]}},{"properties":{"officer":"RJO","city":"Tiffin","zip":"44883","date":{"end_time":"2009/11/03 09:54:48 -0500","original":"11/3/2009 9:54:47 AM","granularity":"sec","time":"2009/11/03 09:54:47 -0500"},"geo_score":0.902,"unit":57,"disposition":200,"cfs":11,"call#":9.010768,"id":"a62t27kubkvk","geo_precision":"range","address":"156 Hall St","state":"OH","juris":"PD"},"type":"Feature","geometry":{"type":"Point","coordinates":[-83.182787,41.12274]}},{"properties":{"officer":"DES","city":"Tiffin","zip":"44883","date":{"end_time":"2009/10/30 14:29:44 -0400","original":"10/30/2009 2:29:43 PM","granularity":"sec","time":"2009/10/30 14:29:43 -0400"},"geo_score":0.902,"unit":61,"disposition":200,"cfs":11,"call#":9.010641,"id":"a62t27g7desn","geo_precision":"range","address":"81 Ashwood Rd","state":"OH","juris":"PD"},"type":"Feature","geometry":{"type":"Point","coordinates":[-83.201458,41.115112]}},{"properties":{"officer":"SGN","city":"Tiffin","zip":"44883","date":{"end_time":"2009/10/29 14:49:00 -0400","original":"10/29/2009 2:48:59 PM","granularity":"sec","time":"2009/10/29 14:48:59 -0400"},"geo_score":0.902,"unit":62,"disposition":200,"cfs":11,"call#":9.010614,"id":"a62t27epv361","geo_precision":"range","address":"145 W Perry St","state":"OH","juris":"PD"},"type":"Feature","geometry":{"type":"Point","coordinates":[-83.185219,41.114991]}},{"properties":{"officer":null,"city":"Tiffin","zip":"44883","date":{"end_time":"2009/10/28 08:55:04 -0400","original":"10/28/2009 8:55:03 AM","granularity":"sec","time":"2009/10/28 08:55:03 -0400"},"geo_score":0.78,"unit":485,"disposition":700,"cfs":11,"call#":9.011076,"id":"a62t27jxs7zp","geo_precision":"range","address":"1 Seneca County","state":"OH","juris":"PD"},"type":"Feature","geometry":{"type":"Point","coordinates":[-83.160743,41.122079]}},{"properties":{"officer":null,"city":"Tiffin","zip":"44883","date":{"end_time":"2009/10/28 08:51:41 -0400","original":"10/28/2009 8:51:40 AM","granularity":"sec","time":"2009/10/28 08:51:40 -0400"},"geo_score":0.78,"unit":485,"disposition":700,"cfs":11,"call#":9.011075,"id":"a62t27ql5goo","geo_precision":"range","address":"1 Seneca County","state":"OH","juris":"PD"},"type":"Feature","geometry":{"type":"Point","coordinates":[-83.160743,41.122079]}},{"properties":{"officer":null,"city":"Tiffin","zip":"44883","date":{"end_time":"2009/10/27 08:48:20 -0400","original":"10/27/2009 8:48:19 AM","granularity":"sec","time":"2009/10/27 08:48:19 -0400"},"geo_score":0.78,"unit":485,"disposition":700,"cfs":11,"call#":9.011074,"id":"a62t27j837ga","geo_precision":"range","address":"1 Seneca County","state":"OH","juris":"PD"},"type":"Feature","geometry":{"type":"Point","coordinates":[-83.160743,41.122079]}},{"properties":{"officer":null,"city":"Tiffin","zip":"44883","date":{"end_time":"2009/10/27 08:44:45 -0400","original":"10/27/2009 8:44:44 AM","granularity":"sec","time":"2009/10/27 08:44:44 -0400"},"geo_score":0.78,"unit":485,"disposition":700,"cfs":11,"call#":9.011073,"id":"a62t27t3640n","geo_precision":"range","address":"1 Seneca County","state":"OH","juris":"PD"},"type":"Feature","geometry":{"type":"Point","coordinates":[-83.160743,41.122079]}},{"properties":{"officer":null,"city":"Tiffin","zip":"44883","date":{"end_time":"2009/10/27 08:40:41 -0400","original":"10/27/2009 8:40:40 AM","granularity":"sec","time":"2009/10/27 08:40:40 -0400"},"geo_score":0.78,"unit":485,"disposition":700,"cfs":11,"call#":9.011072,"id":"a62t27kyvqc8","geo_precision":"range","address":"1 Seneca County","state":"OH","juris":"PD"},"type":"Feature","geometry":{"type":"Point","coordinates":[-83.160743,41.122079]}},{"properties":{"officer":null,"city":"Tiffin","zip":"44883","date":{"end_time":"2009/10/23 09:44:09 -0400","original":"10/23/2009 9:44:08 AM","granularity":"sec","time":"2009/10/23 09:44:08 -0400"},"geo_score":0.902,"unit":648,"disposition":700,"cfs":11,"call#":9.010543,"id":"a62t27iv5wyg","geo_precision":"range","address":"212 E Perry St","state":"OH","juris":"PD"},"type":"Feature","geometry":{"type":"Point","coordinates":[-83.17211,41.11626]}},{"properties":{"officer":null,"city":"Tiffin","zip":"44883","date":{"end_time":"2009/10/22 08:36:44 -0400","original":"10/22/2009 8:36:43 AM","granularity":"sec","time":"2009/10/22 08:36:43 -0400"},"geo_score":0.78,"unit":485,"disposition":700,"cfs":11,"call#":9.011071,"id":"a62t27giaiv9","geo_precision":"range","address":"1 Seneca County","state":"OH","juris":"PD"},"type":"Feature","geometry":{"type":"Point","coordinates":[-83.160743,41.122079]}},{"properties":{"officer":null,"city":"Tiffin","zip":"44883","date":{"end_time":"2009/10/22 08:32:21 -0400","original":"10/22/2009 8:32:20 AM","granularity":"sec","time":"2009/10/22 08:32:20 -0400"},"geo_score":0.78,"unit":485,"disposition":700,"cfs":11,"call#":9.01107,"id":"a62t27t128c8","geo_precision":"range","address":"1 Seneca County","state":"OH","juris":"PD"},"type":"Feature","geometry":{"type":"Point","coordinates":[-83.160743,41.122079]}},{"properties":{"officer":null,"city":"Tiffin","zip":"44883","date":{"end_time":"2009/10/20 13:40:56 -0400","original":"10/20/2009 1:40:55 PM","granularity":"sec","time":"2009/10/20 13:40:55 -0400"},"geo_score":0.78,"unit":485,"disposition":700,"cfs":11,"call#":9.010357,"id":"a62t27kq0xrw","geo_precision":"range","address":"1 Seneca County","state":"OH","juris":"PD"},"type":"Feature","geometry":{"type":"Point","coordinates":[-83.160743,41.122079]}},{"properties":{"officer":"MMC","city":"Tiffin","zip":"44883","date":{"end_time":"2009/10/14 14:36:25 -0400","original":"10/14/2009 2:36:24 PM","granularity":"sec","time":"2009/10/14 14:36:24 -0400"},"geo_score":0.902,"unit":107,"disposition":700,"cfs":11,"call#":9.010099,"id":"a62t27k72fqy","geo_precision":"range","address":"51 E Market St","state":"OH","juris":"PD"},"type":"Feature","geometry":{"type":"Point","coordinates":[-83.17813,41.114436]}},{"properties":{"officer":null,"city":"Tiffin","zip":"44883","date":{"end_time":"2009/10/13 13:37:12 -0400","original":"10/13/2009 1:37:11 PM","granularity":"sec","time":"2009/10/13 13:37:11 -0400"},"geo_score":0.902,"unit":485,"disposition":700,"cfs":11,"call#":9.010356,"id":"a62t27gw3kqd","geo_precision":"range","address":"51 E Market St","state":"OH","juris":"PD"},"type":"Feature","geometry":{"type":"Point","coordinates":[-83.17813,41.114436]}},{"properties":{"officer":null,"city":"Tiffin","zip":"44883","date":{"end_time":"2009/10/13 12:23:59 -0400","original":"10/13/2009 12:23:58 PM","granularity":"sec","time":"2009/10/13 12:23:58 -0400"},"geo_score":0.78,"unit":485,"disposition":700,"cfs":11,"call#":9.010353,"id":"a62t27usvhuv","geo_precision":"range","address":"1 Seneca County","state":"OH","juris":"PD"},"type":"Feature","geometry":{"type":"Point","coordinates":[-83.160743,41.122079]}},{"properties":{"officer":null,"city":"Tiffin","zip":"44883","date":{"end_time":"2009/10/08 12:06:55 -0400","original":"10/8/2009 12:06:54 PM","granularity":"sec","time":"2009/10/08 12:06:54 -0400"},"geo_score":0.902,"unit":485,"disposition":700,"cfs":11,"call#":9.01035,"id":"a62t27maehf1","geo_precision":"range","address":"51 E Market St","state":"OH","juris":"PD"},"type":"Feature","geometry":{"type":"Point","coordinates":[-83.17813,41.114436]}},{"properties":{"officer":null,"city":"Tiffin","zip":"44883","date":{"end_time":"2009/10/07 10:47:45 -0400","original":"10/7/2009 10:47:44 AM","granularity":"sec","time":"2009/10/07 10:47:44 -0400"},"geo_score":0.78,"unit":485,"disposition":700,"cfs":11,"call#":9.010341,"id":"a62t27shweb5","geo_precision":"range","address":"1 Seneca County","state":"OH","juris":"PD"},"type":"Feature","geometry":{"type":"Point","coordinates":[-83.160743,41.122079]}},{"properties":{"officer":null,"city":"Tiffin","zip":"44883","date":{"end_time":"2009/10/01 10:44:06 -0400","original":"10/1/2009 10:44:05 AM","granularity":"sec","time":"2009/10/01 10:44:05 -0400"},"geo_score":0.78,"unit":485,"disposition":700,"cfs":11,"call#":9.01034,"id":"a62t27syxvr6","geo_precision":"range","address":"1 Seneca County","state":"OH","juris":"PD"},"type":"Feature","geometry":{"type":"Point","coordinates":[-83.160743,41.122079]}},{"properties":{"officer":null,"city":"Tiffin","zip":"44883","date":{"end_time":"2009/10/01 10:40:04 -0400","original":"10/1/2009 10:40:03 AM","granularity":"sec","time":"2009/10/01 10:40:03 -0400"},"geo_score":0.78,"unit":485,"disposition":700,"cfs":11,"call#":9.010339,"id":"a62t27kp01hp","geo_precision":"range","address":"1 Seneca County","state":"OH","juris":"PD"},"type":"Feature","geometry":{"type":"Point","coordinates":[-83.160743,41.122079]}},{"properties":{"officer":null,"city":"Tiffin","zip":"44883","date":{"end_time":"2009/10/01 10:35:05 -0400","original":"10/1/2009 10:35:04 AM","granularity":"sec","time":"2009/10/01 10:35:04 -0400"},"geo_score":0.78,"unit":485,"disposition":700,"cfs":11,"call#":9.010338,"id":"a62t27h9izha","geo_precision":"range","address":"1 Seneca County","state":"OH","juris":"PD"},"type":"Feature","geometry":{"type":"Point","coordinates":[-83.160743,41.122079]}},{"properties":{"officer":"REB","city":"Tiffin","zip":"44883","date":{"end_time":"2009/09/29 14:28:23 -0400","original":"9/29/2009 2:28:22 PM","granularity":"sec","time":"2009/09/29 14:28:22 -0400"},"geo_score":0.902,"unit":63,"disposition":200,"cfs":11,"call#":9.009603,"id":"a62t27j7byds","geo_precision":"range","address":"39 Allen St","state":"OH","juris":"PD"},"type":"Feature","geometry":{"type":"Point","coordinates":[-83.199852,41.114584]}},{"properties":{"officer":null,"city":"Tiffin","zip":"44883","date":{"end_time":"2009/09/29 10:31:41 -0400","original":"9/29/2009 10:31:40 AM","granularity":"sec","time":"2009/09/29 10:31:40 -0400"},"geo_score":0.78,"unit":485,"disposition":700,"cfs":11,"call#":9.010337,"id":"a62t27jjh20s","geo_precision":"range","address":"1 Seneca County","state":"OH","juris":"PD"},"type":"Feature","geometry":{"type":"Point","coordinates":[-83.160743,41.122079]}},{"properties":{"officer":null,"city":"Tiffin","zip":"44883","date":{"end_time":"2009/09/29 10:28:00 -0400","original":"9/29/2009 10:27:59 AM","granularity":"sec","time":"2009/09/29 10:27:59 -0400"},"geo_score":0.78,"unit":485,"disposition":700,"cfs":11,"call#":9.010336,"id":"a62t27lr8p6r","geo_precision":"range","address":"1 Seneca County","state":"OH","juris":"PD"},"type":"Feature","geometry":{"type":"Point","coordinates":[-83.160743,41.122079]}},{"properties":{"officer":null,"city":"Tiffin","zip":"44883","date":{"end_time":"2009/09/29 10:23:38 -0400","original":"9/29/2009 10:23:37 AM","granularity":"sec","time":"2009/09/29 10:23:37 -0400"},"geo_score":0.78,"unit":485,"disposition":700,"cfs":11,"call#":9.010335,"id":"a62t27o7v21p","geo_precision":"range","address":"1 Seneca County","state":"OH","juris":"PD"},"type":"Feature","geometry":{"type":"Point","coordinates":[-83.160743,41.122079]}},{"properties":{"officer":null,"city":"Tiffin","zip":"44883","date":{"end_time":"2009/09/29 09:22:12 -0400","original":"9/29/2009 9:22:11 AM","granularity":"sec","time":"2009/09/29 09:22:11 -0400"},"geo_score":0.78,"unit":485,"disposition":700,"cfs":11,"call#":9.010331,"id":"a62t27jmddb8","geo_precision":"range","address":"1 Seneca County","state":"OH","juris":"PD"},"type":"Feature","geometry":{"type":"Point","coordinates":[-83.160743,41.122079]}},{"properties":{"officer":"JMW","city":"Tiffin","zip":"44883","date":{"end_time":"2009/09/26 00:04:31 -0400","original":"9/26/2009 12:04:30 AM","granularity":"sec","time":"2009/09/26 00:04:30 -0400"},"geo_score":0.902,"unit":57,"disposition":100,"cfs":11,"call#":9.009458,"id":"a62t27qjudai","geo_precision":"range","address":"300 S Monroe St","state":"OH","juris":"PD"},"type":"Feature","geometry":{"type":"Point","coordinates":[-83.177173,41.107991]}},{"properties":{"officer":"MEM","city":"Tiffin","zip":"44883","date":{"end_time":"2009/09/25 00:16:32 -0400","original":"9/25/2009 12:16:31 AM","granularity":"sec","time":"2009/09/25 00:16:31 -0400"},"geo_score":0.429,"unit":57,"disposition":400,"cfs":11,"call#":9.009428,"id":"a62t27swoqtm","geo_precision":"street","address":"24 Adams St,B","state":"OH","juris":"PD"},"type":"Feature","geometry":{"type":"Point","coordinates":[-83.178727,41.117967]}},{"properties":{"officer":"DGH2","city":"Tiffin","zip":"44883","date":{"end_time":"2009/09/24 09:19:21 -0400","original":"9/24/2009 9:19:20 AM","granularity":"sec","time":"2009/09/24 09:19:20 -0400"},"geo_score":0.902,"unit":282,"disposition":200,"cfs":11,"call#":9.009398,"id":"a62t27u479pe","geo_precision":"range","address":"51 E Market St","state":"OH","juris":"PD"},"type":"Feature","geometry":{"type":"Point","coordinates":[-83.17813,41.114436]}},{"properties":{"officer":"AMR","city":"Tiffin","zip":"44883","date":{"end_time":"2009/09/24 00:15:53 -0400","original":"9/24/2009 12:15:52 AM","granularity":"sec","time":"2009/09/24 00:15:52 -0400"},"geo_score":0.902,"unit":63,"disposition":400,"cfs":11,"call#":9.009389,"id":"a62t27ev8gde","geo_precision":"range","address":"55 Avery St","state":"OH","juris":"PD"},"type":"Feature","geometry":{"type":"Point","coordinates":[-83.178149,41.110468]}},{"properties":{"officer":null,"city":"Tiffin","zip":"44883","date":{"end_time":"2009/09/16 11:43:08 -0400","original":"9/16/2009 11:43:07 AM","granularity":"sec","time":"2009/09/16 11:43:07 -0400"},"geo_score":0.78,"unit":485,"disposition":700,"cfs":11,"call#":9.010093,"id":"a62t27jocjy4","geo_precision":"range","address":"1 Seneca County","state":"OH","juris":"PD"},"type":"Feature","geometry":{"type":"Point","coordinates":[-83.160743,41.122079]}},{"properties":{"officer":null,"city":"Tiffin","zip":"44883","date":{"end_time":"2009/09/16 10:51:31 -0400","original":"9/16/2009 10:51:30 AM","granularity":"sec","time":"2009/09/16 10:51:30 -0400"},"geo_score":0.902,"unit":485,"disposition":700,"cfs":11,"call#":9.009133,"id":"a62t27sceokf","geo_precision":"range","address":"51 E Market St","state":"OH","juris":"PD"},"type":"Feature","geometry":{"type":"Point","coordinates":[-83.17813,41.114436]}},{"properties":{"officer":null,"city":"Tiffin","zip":"44883","date":{"end_time":"2009/09/16 10:15:05 -0400","original":"9/16/2009 10:15:04 AM","granularity":"sec","time":"2009/09/16 10:15:04 -0400"},"geo_score":0.902,"unit":485,"disposition":700,"cfs":11,"call#":9.009132,"id":"a62t27sfrcpb","geo_precision":"range","address":"51 E Market St","state":"OH","juris":"PD"},"type":"Feature","geometry":{"type":"Point","coordinates":[-83.17813,41.114436]}},{"properties":{"officer":null,"city":"Tiffin","zip":"44883","date":{"end_time":"2009/09/16 10:04:28 -0400","original":"9/16/2009 10:04:27 AM","granularity":"sec","time":"2009/09/16 10:04:27 -0400"},"geo_score":0.902,"unit":485,"disposition":700,"cfs":11,"call#":9.009131,"id":"a62t27r8hazf","geo_precision":"range","address":"51 E Market St","state":"OH","juris":"PD"},"type":"Feature","geometry":{"type":"Point","coordinates":[-83.17813,41.114436]}},{"properties":{"officer":null,"city":"Tiffin","zip":"44883","date":{"end_time":"2009/09/16 09:54:54 -0400","original":"9/16/2009 9:54:53 AM","granularity":"sec","time":"2009/09/16 09:54:53 -0400"},"geo_score":0.902,"unit":485,"disposition":700,"cfs":11,"call#":9.00913,"id":"a62t27li5jwg","geo_precision":"range","address":"51 E Market St","state":"OH","juris":"PD"},"type":"Feature","geometry":{"type":"Point","coordinates":[-83.17813,41.114436]}},{"properties":{"officer":null,"city":"Tiffin","zip":"44883","date":{"end_time":"2009/09/16 09:34:11 -0400","original":"9/16/2009 9:34:10 AM","granularity":"sec","time":"2009/09/16 09:34:10 -0400"},"geo_score":0.902,"unit":485,"disposition":700,"cfs":11,"call#":9.009129,"id":"a62t27hmtzxw","geo_precision":"range","address":"51 E Market St","state":"OH","juris":"PD"},"type":"Feature","geometry":{"type":"Point","coordinates":[-83.17813,41.114436]}},{"properties":{"officer":null,"city":"Tiffin","zip":"44883","date":{"end_time":"2009/09/16 08:41:50 -0400","original":"9/16/2009 8:41:49 AM","granularity":"sec","time":"2009/09/16 08:41:49 -0400"},"geo_score":0.902,"unit":485,"disposition":700,"cfs":11,"call#":9.009124,"id":"a62t27myndve","geo_precision":"range","address":"51 E Market St","state":"OH","juris":"PD"},"type":"Feature","geometry":{"type":"Point","coordinates":[-83.17813,41.114436]}},{"properties":{"officer":null,"city":"Tiffin","zip":"44883","date":{"end_time":"2009/09/15 11:37:58 -0400","original":"9/15/2009 11:37:57 AM","granularity":"sec","time":"2009/09/15 11:37:57 -0400"},"geo_score":0.78,"unit":485,"disposition":700,"cfs":11,"call#":9.010092,"id":"a62t27f0u3dw","geo_precision":"range","address":"1 Seneca County","state":"OH","juris":"PD"},"type":"Feature","geometry":{"type":"Point","coordinates":[-83.160743,41.122079]}},{"properties":{"officer":null,"city":"Tiffin","zip":"44883","date":{"end_time":"2009/09/15 11:34:02 -0400","original":"9/15/2009 11:34:01 AM","granularity":"sec","time":"2009/09/15 11:34:01 -0400"},"geo_score":0.78,"unit":485,"disposition":700,"cfs":11,"call#":9.010091,"id":"a62t27q6g8c0","geo_precision":"range","address":"1 Seneca County","state":"OH","juris":"PD"},"type":"Feature","geometry":{"type":"Point","coordinates":[-83.160743,41.122079]}},{"properties":{"officer":null,"city":"Tiffin","zip":"44883","date":{"end_time":"2009/09/15 11:24:53 -0400","original":"9/15/2009 11:24:52 AM","granularity":"sec","time":"2009/09/15 11:24:52 -0400"},"geo_score":0.78,"unit":485,"disposition":700,"cfs":11,"call#":9.01009,"id":"a62t27n2vpkd","geo_precision":"range","address":"1 Seneca County","state":"OH","juris":"PD"},"type":"Feature","geometry":{"type":"Point","coordinates":[-83.160743,41.122079]}},{"properties":{"officer":null,"city":"Tiffin","zip":"44883","date":{"end_time":"2009/09/13 11:14:15 -0400","original":"9/13/2009 11:14:14 AM","granularity":"sec","time":"2009/09/13 11:14:14 -0400"},"geo_score":0.902,"unit":879,"disposition":700,"cfs":11,"call#":9.010089,"id":"a62t27rrmksz","geo_precision":"range","address":"51 E Market St","state":"OH","juris":"PD"},"type":"Feature","geometry":{"type":"Point","coordinates":[-83.17813,41.114436]}},{"properties":{"officer":null,"city":"Tiffin","zip":"44883","date":{"end_time":"2009/09/13 11:11:37 -0400","original":"9/13/2009 11:11:36 AM","granularity":"sec","time":"2009/09/13 11:11:36 -0400"},"geo_score":0.902,"unit":879,"disposition":700,"cfs":11,"call#":9.010088,"id":"a62t27hzvdto","geo_precision":"range","address":"51 E Market St","state":"OH","juris":"PD"},"type":"Feature","geometry":{"type":"Point","coordinates":[-83.17813,41.114436]}},{"properties":{"officer":"AMR","city":"Tiffin","zip":"44883","date":{"end_time":"2009/09/09 19:59:52 -0400","original":"9/9/2009 7:59:51 PM","granularity":"sec","time":"2009/09/09 19:59:51 -0400"},"geo_score":0.516,"unit":63,"disposition":400,"cfs":11,"call#":9.00888,"id":"a62t27o747ct","geo_precision":"street","address":"45 St Lawrence Dr","state":"OH","juris":"PD"},"type":"Feature","geometry":{"type":"Point","coordinates":[-82.718729,41.455282]}},{"properties":{"officer":"AMR","city":"Tiffin","zip":"44883","date":{"end_time":"2009/09/09 19:57:59 -0400","original":"9/9/2009 7:57:58 PM","granularity":"sec","time":"2009/09/09 19:57:58 -0400"},"geo_score":0.516,"unit":63,"disposition":200,"cfs":11,"call#":9.008879,"id":"a62t27ua3be0","geo_precision":"street","address":"45 St Lawrence Dr","state":"OH","juris":"PD"},"type":"Feature","geometry":{"type":"Point","coordinates":[-82.718729,41.455282]}},{"properties":{"officer":"MAM","city":"Tiffin","zip":"44883","date":{"end_time":"2009/09/09 15:48:35 -0400","original":"9/9/2009 3:48:34 PM","granularity":"sec","time":"2009/09/09 15:48:34 -0400"},"geo_score":0.721,"unit":58,"disposition":200,"cfs":11,"call#":9.008871,"id":"a62t27t9ir8a","geo_precision":"street","address":"686 S Sandusky St,4","state":"OH","juris":"PD"},"type":"Feature","geometry":{"type":"Point","coordinates":[-83.182777,41.119569]}},{"properties":{"officer":null,"city":"Tiffin","zip":"44883","date":{"end_time":"2009/09/09 11:01:31 -0400","original":"9/9/2009 11:01:30 AM","granularity":"sec","time":"2009/09/09 11:01:30 -0400"},"geo_score":0.902,"unit":485,"disposition":700,"cfs":11,"call#":9.010087,"id":"a62t27ob0bid","geo_precision":"range","address":"51 E Market St","state":"OH","juris":"PD"},"type":"Feature","geometry":{"type":"Point","coordinates":[-83.17813,41.114436]}},{"properties":{"officer":null,"city":"Tiffin","zip":"44883","date":{"end_time":"2009/09/09 10:22:52 -0400","original":"9/9/2009 10:22:51 AM","granularity":"sec","time":"2009/09/09 10:22:51 -0400"},"geo_score":0.78,"unit":485,"disposition":700,"cfs":11,"call#":9.010085,"id":"a62t27ixkadu","geo_precision":"range","address":"1 Seneca County","state":"OH","juris":"PD"},"type":"Feature","geometry":{"type":"Point","coordinates":[-83.160743,41.122079]}},{"properties":{"officer":null,"city":"Tiffin","zip":"44883","date":{"end_time":"2009/09/03 10:17:41 -0400","original":"9/3/2009 10:17:40 AM","granularity":"sec","time":"2009/09/03 10:17:40 -0400"},"geo_score":0.902,"unit":485,"disposition":700,"cfs":11,"call#":9.010084,"id":"a62t27noozlh","geo_precision":"range","address":"51 E Market St","state":"OH","juris":"PD"},"type":"Feature","geometry":{"type":"Point","coordinates":[-83.17813,41.114436]}},{"properties":{"officer":"GTM","city":"Tiffin","zip":"44883","date":{"end_time":"2009/08/29 02:56:18 -0400","original":"8/29/2009 2:56:17 AM","granularity":"sec","time":"2009/08/29 02:56:17 -0400"},"geo_score":0.805,"unit":58,"disposition":400,"cfs":11,"call#":9.008458,"id":"a62t27mo8tjt","geo_precision":"street","address":"310 E Market St","state":"OH","juris":"PD"},"type":"Feature","geometry":{"type":"Point","coordinates":[-83.168494,41.116759]}},{"properties":{"officer":null,"city":"Tiffin","zip":"44883","date":{"end_time":"2009/08/27 10:07:43 -0400","original":"8/27/2009 10:07:42 AM","granularity":"sec","time":"2009/08/27 10:07:42 -0400"},"geo_score":0.902,"unit":485,"disposition":700,"cfs":11,"call#":9.010082,"id":"a62t27rryjsi","geo_precision":"range","address":"51 E Market St","state":"OH","juris":"PD"},"type":"Feature","geometry":{"type":"Point","coordinates":[-83.17813,41.114436]}},{"properties":{"officer":null,"city":"Tiffin","zip":"44883","date":{"end_time":"2009/08/24 10:02:57 -0400","original":"8/24/2009 10:02:56 AM","granularity":"sec","time":"2009/08/24 10:02:56 -0400"},"geo_score":0.902,"unit":485,"disposition":700,"cfs":11,"call#":9.010081,"id":"a62t27mtc8b5","geo_precision":"range","address":"51 E Market St","state":"OH","juris":"PD"},"type":"Feature","geometry":{"type":"Point","coordinates":[-83.17813,41.114436]}},{"properties":{"officer":"JAD","city":"Tiffin","zip":"44883","date":{"end_time":"2009/08/20 23:45:02 -0400","original":"8/20/2009 11:45:01 PM","granularity":"sec","time":"2009/08/20 23:45:01 -0400"},"geo_score":0.902,"unit":56,"disposition":200,"cfs":11,"call#":9.008115,"id":"a62t27q0a11b","geo_precision":"range","address":"6 Rebecca St","state":"OH","juris":"PD"},"type":"Feature","geometry":{"type":"Point","coordinates":[-83.171207,41.112936]}},{"properties":{"officer":null,"city":"Tiffin","zip":"44883","date":{"end_time":"2009/08/20 09:55:30 -0400","original":"8/20/2009 9:55:29 AM","granularity":"sec","time":"2009/08/20 09:55:29 -0400"},"geo_score":0.902,"unit":485,"disposition":700,"cfs":11,"call#":9.008611,"id":"a62t27hexd88","geo_precision":"range","address":"51 E Market St","state":"OH","juris":"PD"},"type":"Feature","geometry":{"type":"Point","coordinates":[-83.17813,41.114436]}},{"properties":{"officer":null,"city":"Tiffin","zip":"44883","date":{"end_time":"2009/08/19 09:52:04 -0400","original":"8/19/2009 9:52:03 AM","granularity":"sec","time":"2009/08/19 09:52:03 -0400"},"geo_score":0.78,"unit":485,"disposition":700,"cfs":11,"call#":9.00861,"id":"a62t27i75zy7","geo_precision":"range","address":"1 Seneca County","state":"OH","juris":"PD"},"type":"Feature","geometry":{"type":"Point","coordinates":[-83.160743,41.122079]}},{"properties":{"officer":"MAM","city":"Tiffin","zip":"44883","date":{"end_time":"2009/08/14 14:15:28 -0400","original":"8/14/2009 2:15:27 PM","granularity":"sec","time":"2009/08/14 14:15:27 -0400"},"geo_score":0.902,"unit":58,"disposition":100,"cfs":11,"call#":9.007901,"id":"a62t27ma27n6","geo_precision":"range","address":"144 Minerva St","state":"OH","juris":"PD"},"type":"Feature","geometry":{"type":"Point","coordinates":[-83.176502,41.124494]}},{"properties":{"officer":"MAM","city":"Tiffin","zip":"44883","date":{"end_time":"2009/08/13 15:14:20 -0400","original":"8/13/2009 3:14:19 PM","granularity":"sec","time":"2009/08/13 15:14:19 -0400"},"geo_score":0.902,"unit":58,"disposition":400,"cfs":11,"call#":9.007864,"id":"a62t27p1en6m","geo_precision":"range","address":"51 E Market St","state":"OH","juris":"PD"},"type":"Feature","geometry":{"type":"Point","coordinates":[-83.17813,41.114436]}},{"properties":{"officer":null,"city":"Tiffin","zip":"44883","date":{"end_time":"2009/08/13 09:47:27 -0400","original":"8/13/2009 9:47:26 AM","granularity":"sec","time":"2009/08/13 09:47:26 -0400"},"geo_score":0.78,"unit":485,"disposition":700,"cfs":11,"call#":9.008609,"id":"a62t27q4041g","geo_precision":"range","address":"1 Seneca County","state":"OH","juris":"PD"},"type":"Feature","geometry":{"type":"Point","coordinates":[-83.160743,41.122079]}},{"properties":{"officer":"CWB","city":"Tiffin","zip":"44883","date":{"end_time":"2009/08/11 20:50:54 -0400","original":"8/11/2009 8:50:53 PM","granularity":"sec","time":"2009/08/11 20:50:53 -0400"},"geo_score":0.902,"unit":485,"disposition":500,"cfs":11,"call#":9.007802,"id":"a62t27rtf5dp","geo_precision":"range","address":"154 S Washington St","state":"OH","juris":"PD"},"type":"Feature","geometry":{"type":"Point","coordinates":[-83.176365,41.11326]}},{"properties":{"officer":null,"city":"Tiffin","zip":"44883","date":{"end_time":"2009/08/11 09:42:57 -0400","original":"8/11/2009 9:42:56 AM","granularity":"sec","time":"2009/08/11 09:42:56 -0400"},"geo_score":0.78,"unit":485,"disposition":700,"cfs":11,"call#":9.008608,"id":"a62t27iqztve","geo_precision":"range","address":"1 Seneca County","state":"OH","juris":"PD"},"type":"Feature","geometry":{"type":"Point","coordinates":[-83.160743,41.122079]}},{"properties":{"officer":null,"city":"Tiffin","zip":"44883","date":{"end_time":"2009/08/09 09:33:08 -0400","original":"8/9/2009 9:33:07 AM","granularity":"sec","time":"2009/08/09 09:33:07 -0400"},"geo_score":0.902,"unit":485,"disposition":700,"cfs":11,"call#":9.008606,"id":"a62t27qoihsj","geo_precision":"range","address":"51 E Market St","state":"OH","juris":"PD"},"type":"Feature","geometry":{"type":"Point","coordinates":[-83.17813,41.114436]}},{"properties":{"officer":"AMR","city":"Tiffin","zip":"44883","date":{"end_time":"2009/08/04 21:39:07 -0400","original":"8/4/2009 9:39:06 PM","granularity":"sec","time":"2009/08/04 21:39:06 -0400"},"geo_score":0.902,"unit":63,"disposition":200,"cfs":11,"call#":9.007585,"id":"a62t27nxhwmx","geo_precision":"range","address":"315 W Market St","state":"OH","juris":"PD"},"type":"Feature","geometry":{"type":"Point","coordinates":[-83.191142,41.113162]}},{"properties":{"officer":null,"city":"Tiffin","zip":"44883","date":{"end_time":"2009/07/31 12:06:10 -0400","original":"7/31/2009 12:06:09 PM","granularity":"sec","time":"2009/07/31 12:06:09 -0400"},"geo_score":0.902,"unit":485,"disposition":700,"cfs":11,"call#":9.008384,"id":"a62t27irf0rk","geo_precision":"range","address":"51 E Market St","state":"OH","juris":"PD"},"type":"Feature","geometry":{"type":"Point","coordinates":[-83.17813,41.114436]}},{"properties":{"officer":"GTM","city":"Tiffin","zip":"44883","date":{"end_time":"2009/07/28 22:48:24 -0400","original":"7/28/2009 10:48:23 PM","granularity":"sec","time":"2009/07/28 22:48:23 -0400"},"geo_score":0.902,"unit":62,"disposition":450,"cfs":11,"call#":9.007318,"id":"a62t27qijzrf","geo_precision":"range","address":"329 N Sandusky St","state":"OH","juris":"PD"},"type":"Feature","geometry":{"type":"Point","coordinates":[-83.177001,41.127754]}},{"properties":{"officer":null,"city":"Tiffin","zip":"44883","date":{"end_time":"2009/07/28 11:58:51 -0400","original":"7/28/2009 11:58:50 AM","granularity":"sec","time":"2009/07/28 11:58:50 -0400"},"geo_score":0.78,"unit":485,"disposition":700,"cfs":11,"call#":9.008383,"id":"a62t27u5u1nd","geo_precision":"range","address":"1 Seneca County","state":"OH","juris":"PD"},"type":"Feature","geometry":{"type":"Point","coordinates":[-83.160743,41.122079]}},{"properties":{"officer":"EDA","city":"Tiffin","zip":"44883","date":{"end_time":"2009/07/26 19:29:24 -0400","original":"7/26/2009 7:29:23 PM","granularity":"sec","time":"2009/07/26 19:29:23 -0400"},"geo_score":0.902,"unit":58,"disposition":400,"cfs":11,"call#":9.007254,"id":"a62t27ial1q9","geo_precision":"range","address":"26 Minerva St","state":"OH","juris":"PD"},"type":"Feature","geometry":{"type":"Point","coordinates":[-83.175981,41.121213]}},{"properties":{"officer":"MEM","city":"Tiffin","zip":"44883","date":{"end_time":"2009/07/25 20:47:39 -0400","original":"7/25/2009 8:47:38 PM","granularity":"sec","time":"2009/07/25 20:47:38 -0400"},"geo_score":0.902,"unit":62,"disposition":200,"cfs":11,"call#":9.007211,"id":"a62t27f5u2hq","geo_precision":"range","address":"53 S Monroe St","state":"OH","juris":"PD"},"type":"Feature","geometry":{"type":"Point","coordinates":[-83.178321,41.115263]}},{"properties":{"officer":null,"city":"Tiffin","zip":"44883","date":{"end_time":"2009/07/25 11:55:07 -0400","original":"7/25/2009 11:55:06 AM","granularity":"sec","time":"2009/07/25 11:55:06 -0400"},"geo_score":0.78,"unit":485,"disposition":700,"cfs":11,"call#":9.008382,"id":"a62t27rnymsv","geo_precision":"range","address":"1 Seneca County","state":"OH","juris":"PD"},"type":"Feature","geometry":{"type":"Point","coordinates":[-83.160743,41.122079]}},{"properties":{"officer":"DES","city":"Tiffin","zip":"44883","date":{"end_time":"2009/07/24 14:17:30 -0400","original":"7/24/2009 2:17:29 PM","granularity":"sec","time":"2009/07/24 14:17:29 -0400"},"geo_score":0.762,"unit":63,"disposition":100,"cfs":11,"call#":9.007157,"id":"a62t27sni26l","geo_precision":"street","address":"Frost Py/W Perry St","state":"OH","juris":"PD"},"type":"Feature","geometry":{"type":"Point","coordinates":[-83.180549,41.115641]}},{"properties":{"officer":null,"city":"Tiffin","zip":"44883","date":{"end_time":"2009/07/23 11:49:02 -0400","original":"7/23/2009 11:49:01 AM","granularity":"sec","time":"2009/07/23 11:49:01 -0400"},"geo_score":0.78,"unit":485,"disposition":700,"cfs":11,"call#":9.008381,"id":"a62t27l2b0v1","geo_precision":"range","address":"1 Seneca County","state":"OH","juris":"PD"},"type":"Feature","geometry":{"type":"Point","coordinates":[-83.160743,41.122079]}},{"properties":{"officer":"RAG","city":"Tiffin","zip":"44883","date":{"end_time":"2009/07/22 11:17:11 -0400","original":"7/22/2009 11:17:10 AM","granularity":"sec","time":"2009/07/22 11:17:10 -0400"},"geo_score":0.902,"unit":62,"disposition":100,"cfs":11,"call#":9.007092,"id":"a62t27plihg0","geo_precision":"range","address":"162 Rosa St","state":"OH","juris":"PD"},"type":"Feature","geometry":{"type":"Point","coordinates":[-83.166043,41.106439]}},{"properties":{"officer":"DGH2","city":"Tiffin","zip":"44883","date":{"end_time":"2009/07/17 00:16:00 -0400","original":"7/17/2009 12:15:00 AM","granularity":"min","time":"2009/07/17 00:15:00 -0400"},"geo_score":0.902,"unit":282,"disposition":700,"cfs":11,"call#":9.006852,"id":"a62t27f7zlka","geo_precision":"range","address":"18 Short St","state":"OH","juris":"PD"},"type":"Feature","geometry":{"type":"Point","coordinates":[-83.179457,41.126298]}},{"properties":{"officer":null,"city":"Tiffin","zip":"44883","date":{"end_time":"2009/07/16 11:42:56 -0400","original":"7/16/2009 11:42:55 AM","granularity":"sec","time":"2009/07/16 11:42:55 -0400"},"geo_score":0.78,"unit":485,"disposition":700,"cfs":11,"call#":9.00838,"id":"a62t27mp10vf","geo_precision":"range","address":"1 Seneca County","state":"OH","juris":"PD"},"type":"Feature","geometry":{"type":"Point","coordinates":[-83.160743,41.122079]}},{"properties":{"officer":"GTM","city":"Tiffin","zip":"44883","date":{"end_time":"2009/07/15 22:24:59 -0400","original":"7/15/2009 10:24:58 PM","granularity":"sec","time":"2009/07/15 22:24:58 -0400"},"geo_score":0.857,"unit":60,"disposition":100,"cfs":11,"call#":9.006808,"id":"a62t27srkgvb","geo_precision":"street","address":"Coe St/Hedges St","state":"OH","juris":"PD"},"type":"Feature","geometry":{"type":"Point","coordinates":[-83.174672,41.108987]}},{"properties":{"officer":"AMR","city":"Tiffin","zip":"44883","date":{"end_time":"2009/07/15 20:05:27 -0400","original":"7/15/2009 8:05:26 PM","granularity":"sec","time":"2009/07/15 20:05:26 -0400"},"geo_score":0.756,"unit":63,"disposition":200,"cfs":11,"call#":9.006805,"id":"a62t27kpztlx","geo_precision":"range","address":"261 First Av","state":"OH","juris":"PD"},"type":"Feature","geometry":{"type":"Point","coordinates":[-83.186075,41.127844]}},{"properties":{"officer":"JSC","city":"Tiffin","zip":"44883","date":{"end_time":"2009/07/12 19:39:11 -0400","original":"7/12/2009 7:39:10 PM","granularity":"sec","time":"2009/07/12 19:39:10 -0400"},"geo_score":0.902,"unit":57,"disposition":200,"cfs":11,"call#":9.006686,"id":"a62t27haf614","geo_precision":"range","address":"329 W Market St","state":"OH","juris":"PD"},"type":"Feature","geometry":{"type":"Point","coordinates":[-83.191758,41.113127]}},{"properties":{"officer":"MAM","city":"Tiffin","zip":"44883","date":{"end_time":"2009/07/09 15:12:02 -0400","original":"7/9/2009 3:12:01 PM","granularity":"sec","time":"2009/07/09 15:12:01 -0400"},"geo_score":0.902,"unit":57,"disposition":100,"cfs":11,"call#":9.006548,"id":"a62t27ip2r82","geo_precision":"range","address":"152 Madison St","state":"OH","juris":"PD"},"type":"Feature","geometry":{"type":"Point","coordinates":[-83.174582,41.113535]}},{"properties":{"officer":"MAM","city":"Tiffin","zip":"44883","date":{"end_time":"2009/07/08 16:17:59 -0400","original":"7/8/2009 4:17:58 PM","granularity":"sec","time":"2009/07/08 16:17:58 -0400"},"geo_score":0.902,"unit":58,"disposition":400,"cfs":11,"call#":9.006518,"id":"a62t27lq4mv0","geo_precision":"range","address":"213 S Sandusky St","state":"OH","juris":"PD"},"type":"Feature","geometry":{"type":"Point","coordinates":[-83.186267,41.114426]}},{"properties":{"officer":"DGH2","city":"Tiffin","zip":"44883","date":{"end_time":"2009/07/08 09:18:39 -0400","original":"7/8/2009 9:18:38 AM","granularity":"sec","time":"2009/07/08 09:18:38 -0400"},"geo_score":0.902,"unit":282,"disposition":200,"cfs":11,"call#":9.006502,"id":"a62t27fi9zq6","geo_precision":"range","address":"18 Short St","state":"OH","juris":"PD"},"type":"Feature","geometry":{"type":"Point","coordinates":[-83.179457,41.126298]}},{"properties":{"officer":null,"city":"Tiffin","zip":"44883","date":{"end_time":"2009/07/07 10:19:40 -0400","original":"7/7/2009 10:19:39 AM","granularity":"sec","time":"2009/07/07 10:19:39 -0400"},"geo_score":0.78,"unit":485,"disposition":700,"cfs":11,"call#":9.008375,"id":"a62t27kfsv6u","geo_precision":"range","address":"1 Seneca County","state":"OH","juris":"PD"},"type":"Feature","geometry":{"type":"Point","coordinates":[-83.160743,41.122079]}},{"properties":{"officer":"MAM","city":"Tiffin","zip":"44883","date":{"end_time":"2009/07/04 13:39:00 -0400","original":"7/4/2009 1:38:59 PM","granularity":"sec","time":"2009/07/04 13:38:59 -0400"},"geo_score":0.902,"unit":58,"disposition":400,"cfs":11,"call#":9.006362,"id":"a62t27pyuqq0","geo_precision":"range","address":"582 N Sandusky St","state":"OH","juris":"PD"},"type":"Feature","geometry":{"type":"Point","coordinates":[-83.17274,41.13363]}},{"properties":{"officer":"FWS","city":"Tiffin","zip":"44883","date":{"end_time":"2009/07/01 18:29:13 -0400","original":"7/1/2009 6:29:12 PM","granularity":"sec","time":"2009/07/01 18:29:12 -0400"},"geo_score":0.902,"unit":59,"disposition":200,"cfs":11,"call#":9.006262,"id":"a62t27jqlgr8","geo_precision":"range","address":"500 Riverside Dr","state":"OH","juris":"PD"},"type":"Feature","geometry":{"type":"Point","coordinates":[-83.166156,41.127615]}},{"properties":{"officer":"DGH2","city":"Tiffin","zip":"44883","date":{"end_time":"2009/07/01 07:19:57 -0400","original":"7/1/2009 7:19:56 AM","granularity":"sec","time":"2009/07/01 07:19:56 -0400"},"geo_score":0.78,"unit":282,"disposition":400,"cfs":11,"call#":9.006239,"id":"a62t27jue96e","geo_precision":"range","address":"1 Seneca County","state":"OH","juris":"PD"},"type":"Feature","geometry":{"type":"Point","coordinates":[-83.160743,41.122079]}},{"properties":{"officer":"DES","city":"Tiffin","zip":"44883","date":{"end_time":"2009/06/25 14:04:06 -0400","original":"6/25/2009 2:04:05 PM","granularity":"sec","time":"2009/06/25 14:04:05 -0400"},"geo_score":0.78,"unit":59,"disposition":200,"cfs":11,"call#":9.006008,"id":"a62t27mq887o","geo_precision":"range","address":"790 W Market St","state":"OH","juris":"PD"},"type":"Feature","geometry":{"type":"Point","coordinates":[-83.207496,41.111156]}},{"properties":{"officer":"SWK","city":"Tiffin","zip":"44883","date":{"end_time":"2009/06/22 23:04:35 -0400","original":"6/22/2009 11:04:34 PM","granularity":"sec","time":"2009/06/22 23:04:34 -0400"},"geo_score":0.902,"unit":57,"disposition":100,"cfs":11,"call#":9.005928,"id":"a62t27tlnbrc","geo_precision":"range","address":"283 S Monroe St","state":"OH","juris":"PD"},"type":"Feature","geometry":{"type":"Point","coordinates":[-83.177293,41.108623]}},{"properties":{"officer":"REB","city":"Tiffin","zip":"44883","date":{"end_time":"2009/06/20 09:41:41 -0400","original":"6/20/2009 9:41:40 AM","granularity":"sec","time":"2009/06/20 09:41:40 -0400"},"geo_score":0.902,"unit":62,"disposition":200,"cfs":11,"call#":9.005835,"id":"a62t27s9g5jb","geo_precision":"range","address":"259 W Market St","state":"OH","juris":"PD"},"type":"Feature","geometry":{"type":"Point","coordinates":[-83.189511,41.113333]}},{"properties":{"officer":null,"city":"Tiffin","zip":"44883","date":{"end_time":"2009/06/19 10:07:27 -0400","original":"6/19/2009 10:07:26 AM","granularity":"sec","time":"2009/06/19 10:07:26 -0400"},"geo_score":0.78,"unit":485,"disposition":700,"cfs":11,"call#":9.008374,"id":"a62t27ksrk3r","geo_precision":"range","address":"1 Seneca County","state":"OH","juris":"PD"},"type":"Feature","geometry":{"type":"Point","coordinates":[-83.160743,41.122079]}},{"properties":{"officer":null,"city":"Tiffin","zip":"44883","date":{"end_time":"2009/06/16 10:31:35 -0400","original":"6/16/2009 10:31:34 AM","granularity":"sec","time":"2009/06/16 10:31:34 -0400"},"geo_score":0.902,"unit":485,"disposition":700,"cfs":11,"call#":9.005791,"id":"a62t27q4gg9i","geo_precision":"range","address":"51 E Market St","state":"OH","juris":"PD"},"type":"Feature","geometry":{"type":"Point","coordinates":[-83.17813,41.114436]}},{"properties":{"officer":null,"city":"Tiffin","zip":"44883","date":{"end_time":"2009/06/16 10:27:13 -0400","original":"6/16/2009 10:27:12 AM","granularity":"sec","time":"2009/06/16 10:27:12 -0400"},"geo_score":0.902,"unit":485,"disposition":100,"cfs":11,"call#":9.00579,"id":"a62t27ibfheh","geo_precision":"range","address":"51 E Market St","state":"OH","juris":"PD"},"type":"Feature","geometry":{"type":"Point","coordinates":[-83.17813,41.114436]}},{"properties":{"officer":null,"city":"Tiffin","zip":"44883","date":{"end_time":"2009/06/10 10:22:17 -0400","original":"6/10/2009 10:22:16 AM","granularity":"sec","time":"2009/06/10 10:22:16 -0400"},"geo_score":0.78,"unit":485,"disposition":700,"cfs":11,"call#":9.005788,"id":"a62t27fjjmh4","geo_precision":"range","address":"1 Seneca County","state":"OH","juris":"PD"},"type":"Feature","geometry":{"type":"Point","coordinates":[-83.160743,41.122079]}},{"properties":{"officer":null,"city":"Tiffin","zip":"44883","date":{"end_time":"2009/06/10 10:18:55 -0400","original":"6/10/2009 10:18:54 AM","granularity":"sec","time":"2009/06/10 10:18:54 -0400"},"geo_score":0.78,"unit":485,"disposition":700,"cfs":11,"call#":9.005787,"id":"a62t27m7dlqt","geo_precision":"range","address":"1 Seneca County","state":"OH","juris":"PD"},"type":"Feature","geometry":{"type":"Point","coordinates":[-83.160743,41.122079]}},{"properties":{"officer":null,"city":"Tiffin","zip":"44883","date":{"end_time":"2009/06/09 10:13:47 -0400","original":"6/9/2009 10:13:46 AM","granularity":"sec","time":"2009/06/09 10:13:46 -0400"},"geo_score":0.78,"unit":485,"disposition":700,"cfs":11,"call#":9.005786,"id":"a62t27oe1zfi","geo_precision":"range","address":"1 Seneca County","state":"OH","juris":"PD"},"type":"Feature","geometry":{"type":"Point","coordinates":[-83.160743,41.122079]}},{"properties":{"officer":"RJO","city":"Tiffin","zip":"44883","date":{"end_time":"2009/06/08 13:49:20 -0400","original":"6/8/2009 1:49:19 PM","granularity":"sec","time":"2009/06/08 13:49:19 -0400"},"geo_score":0.902,"unit":57,"disposition":200,"cfs":11,"call#":9.005396,"id":"a62t27qft1t7","geo_precision":"range","address":"319 N Sandusky St","state":"OH","juris":"PD"},"type":"Feature","geometry":{"type":"Point","coordinates":[-83.177161,41.127493]}},{"properties":{"officer":"DGH2","city":"Tiffin","zip":"44883","date":{"end_time":"2009/06/08 09:19:51 -0400","original":"6/8/2009 9:19:50 AM","granularity":"sec","time":"2009/06/08 09:19:50 -0400"},"geo_score":0.902,"unit":282,"disposition":200,"cfs":11,"call#":9.005385,"id":"a62t27i9gk5g","geo_precision":"range","address":"51 E Market St","state":"OH","juris":"PD"},"type":"Feature","geometry":{"type":"Point","coordinates":[-83.17813,41.114436]}},{"properties":{"officer":null,"city":"Tiffin","zip":"44883","date":{"end_time":"2009/06/05 10:09:46 -0400","original":"6/5/2009 10:09:45 AM","granularity":"sec","time":"2009/06/05 10:09:45 -0400"},"geo_score":0.78,"unit":485,"disposition":700,"cfs":11,"call#":9.005785,"id":"a62t27q9s087","geo_precision":"range","address":"1 Seneca County","state":"OH","juris":"PD"},"type":"Feature","geometry":{"type":"Point","coordinates":[-83.160743,41.122079]}},{"properties":{"officer":null,"city":"Tiffin","zip":"44883","date":{"end_time":"2009/06/04 10:03:25 -0400","original":"6/4/2009 10:03:24 AM","granularity":"sec","time":"2009/06/04 10:03:24 -0400"},"geo_score":0.78,"unit":485,"disposition":700,"cfs":11,"call#":9.005784,"id":"a62t27sawc5f","geo_precision":"range","address":"1 Seneca County","state":"OH","juris":"PD"},"type":"Feature","geometry":{"type":"Point","coordinates":[-83.160743,41.122079]}},{"properties":{"officer":null,"city":"Tiffin","zip":"44883","date":{"end_time":"2009/06/02 09:56:53 -0400","original":"6/2/2009 9:56:52 AM","granularity":"sec","time":"2009/06/02 09:56:52 -0400"},"geo_score":0.78,"unit":485,"disposition":700,"cfs":11,"call#":9.005783,"id":"a62t27qopizf","geo_precision":"range","address":"1 Seneca County","state":"OH","juris":"PD"},"type":"Feature","geometry":{"type":"Point","coordinates":[-83.160743,41.122079]}},{"properties":{"officer":null,"city":"Tiffin","zip":"44883","date":{"end_time":"2009/05/29 12:15:54 -0400","original":"5/29/2009 12:15:53 PM","granularity":"sec","time":"2009/05/29 12:15:53 -0400"},"geo_score":0.902,"unit":485,"disposition":700,"cfs":11,"call#":9.005183,"id":"a62t27l5bs9r","geo_precision":"range","address":"51 E Market St","state":"OH","juris":"PD"},"type":"Feature","geometry":{"type":"Point","coordinates":[-83.17813,41.114436]}},{"properties":{"officer":null,"city":"Tiffin","zip":"44883","date":{"end_time":"2009/05/26 12:11:08 -0400","original":"5/26/2009 12:11:07 PM","granularity":"sec","time":"2009/05/26 12:11:07 -0400"},"geo_score":0.902,"unit":485,"disposition":700,"cfs":11,"call#":9.005182,"id":"a62t27h3ktmv","geo_precision":"range","address":"51 E Market St","state":"OH","juris":"PD"},"type":"Feature","geometry":{"type":"Point","coordinates":[-83.17813,41.114436]}},{"properties":{"officer":null,"city":"Tiffin","zip":"44883","date":{"end_time":"2009/05/21 12:07:25 -0400","original":"5/21/2009 12:07:24 PM","granularity":"sec","time":"2009/05/21 12:07:24 -0400"},"geo_score":0.78,"unit":485,"disposition":700,"cfs":11,"call#":9.005181,"id":"a62t27fyoyjw","geo_precision":"range","address":"1 Seneca County","state":"OH","juris":"PD"},"type":"Feature","geometry":{"type":"Point","coordinates":[-83.160743,41.122079]}},{"properties":{"officer":"DGH","city":"Tiffin","zip":"44883","date":{"end_time":"2009/05/20 13:01:52 -0400","original":"5/20/2009 1:01:51 PM","granularity":"sec","time":"2009/05/20 13:01:51 -0400"},"geo_score":0.902,"unit":59,"disposition":200,"cfs":11,"call#":9.004739,"id":"a62t27l8345l","geo_precision":"range","address":"41 Noble St","state":"OH","juris":"PD"},"type":"Feature","geometry":{"type":"Point","coordinates":[-83.174777,41.122717]}},{"properties":{"officer":null,"city":"Tiffin","zip":"44883","date":{"end_time":"2009/05/19 12:03:19 -0400","original":"5/19/2009 12:03:18 PM","granularity":"sec","time":"2009/05/19 12:03:18 -0400"},"geo_score":0.902,"unit":485,"disposition":700,"cfs":11,"call#":9.00518,"id":"a62t27fuzxxx","geo_precision":"range","address":"51 E Market St","state":"OH","juris":"PD"},"type":"Feature","geometry":{"type":"Point","coordinates":[-83.17813,41.114436]}},{"properties":{"officer":null,"city":"Tiffin","zip":"44883","date":{"end_time":"2009/05/19 11:58:58 -0400","original":"5/19/2009 11:58:57 AM","granularity":"sec","time":"2009/05/19 11:58:57 -0400"},"geo_score":0.902,"unit":485,"disposition":700,"cfs":11,"call#":9.005179,"id":"a62t27q8vk1s","geo_precision":"range","address":"51 E Market St","state":"OH","juris":"PD"},"type":"Feature","geometry":{"type":"Point","coordinates":[-83.17813,41.114436]}},{"properties":{"officer":null,"city":"Tiffin","zip":"44883","date":{"end_time":"2009/05/18 11:54:48 -0400","original":"5/18/2009 11:54:47 AM","granularity":"sec","time":"2009/05/18 11:54:47 -0400"},"geo_score":0.902,"unit":485,"disposition":700,"cfs":11,"call#":9.005177,"id":"a62t27h5qohb","geo_precision":"range","address":"51 E Market St","state":"OH","juris":"PD"},"type":"Feature","geometry":{"type":"Point","coordinates":[-83.17813,41.114436]}},{"properties":{"officer":"BRB","city":"Tiffin","zip":"44883","date":{"end_time":"2009/05/14 19:36:29 -0400","original":"5/14/2009 7:36:28 PM","granularity":"sec","time":"2009/05/14 19:36:28 -0400"},"geo_score":0.857,"unit":59,"disposition":100,"cfs":11,"call#":9.004561,"id":"a62t27sou74f","geo_precision":"street","address":"W Davis St/N Sandusky St","state":"OH","juris":"PD"},"type":"Feature","geometry":{"type":"Point","coordinates":[-83.181046,41.126017]}},{"properties":{"officer":null,"city":"Tiffin","zip":"44883","date":{"end_time":"2009/05/14 11:48:37 -0400","original":"5/14/2009 11:48:36 AM","granularity":"sec","time":"2009/05/14 11:48:36 -0400"},"geo_score":0.902,"unit":485,"disposition":700,"cfs":11,"call#":9.005176,"id":"a62t27fsnv5i","geo_precision":"range","address":"51 E Market St","state":"OH","juris":"PD"},"type":"Feature","geometry":{"type":"Point","coordinates":[-83.17813,41.114436]}},{"properties":{"officer":null,"city":"Tiffin","zip":"44883","date":{"end_time":"2009/05/13 11:39:00 -0400","original":"5/13/2009 11:38:00 AM","granularity":"min","time":"2009/05/13 11:38:00 -0400"},"geo_score":0.902,"unit":485,"disposition":700,"cfs":11,"call#":9.005174,"id":"a62t27uttlfy","geo_precision":"range","address":"51 E Market St","state":"OH","juris":"PD"},"type":"Feature","geometry":{"type":"Point","coordinates":[-83.17813,41.114436]}},{"properties":{"officer":null,"city":"Tiffin","zip":"44883","date":{"end_time":"2009/05/13 11:21:05 -0400","original":"5/13/2009 11:21:04 AM","granularity":"sec","time":"2009/05/13 11:21:04 -0400"},"geo_score":0.78,"unit":485,"disposition":700,"cfs":11,"call#":9.004733,"id":"a62t27nzwy1m","geo_precision":"range","address":"1 Seneca County","state":"OH","juris":"PD"},"type":"Feature","geometry":{"type":"Point","coordinates":[-83.160743,41.122079]}},{"properties":{"officer":null,"city":"Tiffin","zip":"44883","date":{"end_time":"2009/05/13 11:17:20 -0400","original":"5/13/2009 11:17:19 AM","granularity":"sec","time":"2009/05/13 11:17:19 -0400"},"geo_score":0.902,"unit":485,"disposition":700,"cfs":11,"call#":9.004732,"id":"a62t27jqtl6h","geo_precision":"range","address":"51 E Market St","state":"OH","juris":"PD"},"type":"Feature","geometry":{"type":"Point","coordinates":[-83.17813,41.114436]}},{"properties":{"officer":null,"city":"Tiffin","zip":"44883","date":{"end_time":"2009/05/13 11:07:19 -0400","original":"5/13/2009 11:07:18 AM","granularity":"sec","time":"2009/05/13 11:07:18 -0400"},"geo_score":0.902,"unit":485,"disposition":100,"cfs":11,"call#":9.005173,"id":"a62t27ldl7p6","geo_precision":"range","address":"51 E Market St","state":"OH","juris":"PD"},"type":"Feature","geometry":{"type":"Point","coordinates":[-83.17813,41.114436]}},{"properties":{"officer":null,"city":"Tiffin","zip":"44883","date":{"end_time":"2009/05/12 11:11:51 -0400","original":"5/12/2009 11:11:50 AM","granularity":"sec","time":"2009/05/12 11:11:50 -0400"},"geo_score":0.902,"unit":485,"disposition":700,"cfs":11,"call#":9.004731,"id":"a62t27knv3ej","geo_precision":"range","address":"51 E Market St","state":"OH","juris":"PD"},"type":"Feature","geometry":{"type":"Point","coordinates":[-83.17813,41.114436]}},{"properties":{"officer":null,"city":"Tiffin","zip":"44883","date":{"end_time":"2009/05/07 18:00:00 -0400","original":"5/7/2009 5:00:00 PM","granularity":"hour","time":"2009/05/07 17:00:00 -0400"},"geo_score":0.876,"unit":107,"disposition":700,"cfs":11,"call#":9.004529,"id":"a62t27rgj6uv","geo_precision":"range","address":"35 Virginia Av","state":"OH","juris":"PD"},"type":"Feature","geometry":{"type":"Point","coordinates":[-83.191749,41.115621]}},{"properties":{"officer":"BAR","city":"Tiffin","zip":"44883","date":{"end_time":"2009/05/01 17:22:48 -0400","original":"5/1/2009 5:22:47 PM","granularity":"sec","time":"2009/05/01 17:22:47 -0400"},"geo_score":0.902,"unit":63,"disposition":100,"cfs":11,"call#":9.004145,"id":"a62t27rchqwv","geo_precision":"range","address":"270 Hedges St","state":"OH","juris":"PD"},"type":"Feature","geometry":{"type":"Point","coordinates":[-83.167605,41.109454]}},{"properties":{"officer":null,"city":"Tiffin","zip":"44883","date":{"end_time":"2009/04/21 13:42:40 -0400","original":"4/21/2009 1:42:39 PM","granularity":"sec","time":"2009/04/21 13:42:39 -0400"},"geo_score":0.902,"unit":485,"disposition":700,"cfs":11,"call#":9.003862,"id":"a62t27k4ki67","geo_precision":"range","address":"51 E Market St","state":"OH","juris":"PD"},"type":"Feature","geometry":{"type":"Point","coordinates":[-83.17813,41.114436]}},{"properties":{"officer":null,"city":"Tiffin","zip":"44883","date":{"end_time":"2009/04/20 14:48:44 -0400","original":"4/20/2009 2:48:43 PM","granularity":"sec","time":"2009/04/20 14:48:43 -0400"},"geo_score":0.902,"unit":485,"disposition":700,"cfs":11,"call#":9.008867,"id":"a62t27ojozyx","geo_precision":"range","address":"51 E Market St","state":"OH","juris":"PD"},"type":"Feature","geometry":{"type":"Point","coordinates":[-83.17813,41.114436]}},{"properties":{"officer":null,"city":"Tiffin","zip":"44883","date":{"end_time":"2009/04/15 12:19:26 -0400","original":"4/15/2009 12:19:25 PM","granularity":"sec","time":"2009/04/15 12:19:25 -0400"},"geo_score":0.902,"unit":485,"disposition":700,"cfs":11,"call#":9.00386,"id":"a62t27jjg3yg","geo_precision":"range","address":"51 E Market St","state":"OH","juris":"PD"},"type":"Feature","geometry":{"type":"Point","coordinates":[-83.17813,41.114436]}},{"properties":{"officer":null,"city":"Tiffin","zip":"44883","date":{"end_time":"2009/04/14 15:00:00 -0400","original":"4/14/2009 2:00:00 PM","granularity":"hour","time":"2009/04/14 14:00:00 -0400"},"geo_score":0.902,"unit":879,"disposition":200,"cfs":11,"call#":9.00356,"id":"a62t27ijzbzi","geo_precision":"range","address":"154 S Washington St","state":"OH","juris":"PD"},"type":"Feature","geometry":{"type":"Point","coordinates":[-83.176365,41.11326]}},{"properties":{"officer":null,"city":"Tiffin","zip":"44883","date":{"end_time":"2009/04/14 10:10:59 -0400","original":"4/14/2009 10:10:58 AM","granularity":"sec","time":"2009/04/14 10:10:58 -0400"},"geo_score":0.902,"unit":107,"disposition":700,"cfs":11,"call#":9.003546,"id":"a62t27sfwsr4","geo_precision":"range","address":"51 E Market St","state":"OH","juris":"PD"},"type":"Feature","geometry":{"type":"Point","coordinates":[-83.17813,41.114436]}},{"properties":{"officer":null,"city":"Tiffin","zip":"44883","date":{"end_time":"2009/04/14 09:24:41 -0400","original":"4/14/2009 9:24:40 AM","granularity":"sec","time":"2009/04/14 09:24:40 -0400"},"geo_score":0.902,"unit":485,"disposition":700,"cfs":11,"call#":9.003618,"id":"a62t27h582fh","geo_precision":"range","address":"51 E Market St","state":"OH","juris":"PD"},"type":"Feature","geometry":{"type":"Point","coordinates":[-83.17813,41.114436]}},{"properties":{"officer":null,"city":"Tiffin","zip":"44883","date":{"end_time":"2009/04/10 09:20:22 -0400","original":"4/10/2009 9:20:21 AM","granularity":"sec","time":"2009/04/10 09:20:21 -0400"},"geo_score":0.902,"unit":485,"disposition":700,"cfs":11,"call#":9.003617,"id":"a62t27mt60c9","geo_precision":"range","address":"51 E Market St","state":"OH","juris":"PD"},"type":"Feature","geometry":{"type":"Point","coordinates":[-83.17813,41.114436]}},{"properties":{"officer":null,"city":"Tiffin","zip":"44883","date":{"end_time":"2009/04/09 09:13:50 -0400","original":"4/9/2009 9:13:49 AM","granularity":"sec","time":"2009/04/09 09:13:49 -0400"},"geo_score":0.902,"unit":485,"disposition":700,"cfs":11,"call#":9.003616,"id":"a62t27ej0t2h","geo_precision":"range","address":"51 E Market St","state":"OH","juris":"PD"},"type":"Feature","geometry":{"type":"Point","coordinates":[-83.17813,41.114436]}},{"properties":{"officer":null,"city":"Tiffin","zip":"44883","date":{"end_time":"2009/04/08 16:00:00 -0400","original":"4/8/2009 3:00:00 PM","granularity":"hour","time":"2009/04/08 15:00:00 -0400"},"geo_score":0.902,"unit":879,"disposition":200,"cfs":11,"call#":9.003345,"id":"a62t27gv7vim","geo_precision":"range","address":"154 S Washington St","state":"OH","juris":"PD"},"type":"Feature","geometry":{"type":"Point","coordinates":[-83.176365,41.11326]}},{"properties":{"officer":null,"city":"Tiffin","zip":"44883","date":{"end_time":"2009/04/07 19:02:56 -0400","original":"4/7/2009 7:02:55 PM","granularity":"sec","time":"2009/04/07 19:02:55 -0400"},"geo_score":0.902,"unit":107,"disposition":700,"cfs":11,"call#":9.003317,"id":"a62t27sbtv5u","geo_precision":"range","address":"51 E Market St","state":"OH","juris":"PD"},"type":"Feature","geometry":{"type":"Point","coordinates":[-83.17813,41.114436]}},{"properties":{"officer":null,"city":"Tiffin","zip":"44883","date":{"end_time":"2009/04/07 13:57:53 -0400","original":"4/7/2009 1:57:52 PM","granularity":"sec","time":"2009/04/07 13:57:52 -0400"},"geo_score":0.902,"unit":485,"disposition":700,"cfs":11,"call#":9.0036,"id":"a62t27gouyx2","geo_precision":"range","address":"51 E Market St","state":"OH","juris":"PD"},"type":"Feature","geometry":{"type":"Point","coordinates":[-83.17813,41.114436]}},{"properties":{"officer":null,"city":"Tiffin","zip":"44883","date":{"end_time":"2009/04/07 08:31:53 -0400","original":"4/7/2009 8:31:52 AM","granularity":"sec","time":"2009/04/07 08:31:52 -0400"},"geo_score":0.902,"unit":485,"disposition":700,"cfs":11,"call#":9.003614,"id":"a62t27t6fgfi","geo_precision":"range","address":"51 E Market St","state":"OH","juris":"PD"},"type":"Feature","geometry":{"type":"Point","coordinates":[-83.17813,41.114436]}},{"properties":{"officer":null,"city":"Tiffin","zip":"44883","date":{"end_time":"2009/03/31 19:23:22 -0400","original":"3/31/2009 7:23:21 PM","granularity":"sec","time":"2009/03/31 19:23:21 -0400"},"geo_score":0.902,"unit":107,"disposition":700,"cfs":11,"call#":9.003048,"id":"a62t27m86hjy","geo_precision":"range","address":"51 E Market St","state":"OH","juris":"PD"},"type":"Feature","geometry":{"type":"Point","coordinates":[-83.17813,41.114436]}},{"properties":{"officer":null,"city":"Tiffin","zip":"44883","date":{"end_time":"2009/03/30 13:52:08 -0400","original":"3/30/2009 1:52:07 PM","granularity":"sec","time":"2009/03/30 13:52:07 -0400"},"geo_score":0.78,"unit":485,"disposition":700,"cfs":11,"call#":9.003599,"id":"a62t27ldfd64","geo_precision":"range","address":"1 Seneca County","state":"OH","juris":"PD"},"type":"Feature","geometry":{"type":"Point","coordinates":[-83.160743,41.122079]}},{"properties":{"officer":null,"city":"Tiffin","zip":"44883","date":{"end_time":"2009/03/27 13:43:52 -0400","original":"3/27/2009 1:43:51 PM","granularity":"sec","time":"2009/03/27 13:43:51 -0400"},"geo_score":0.902,"unit":485,"disposition":700,"cfs":11,"call#":9.003598,"id":"a62t27mpqmvg","geo_precision":"range","address":"51 E Market St","state":"OH","juris":"PD"},"type":"Feature","geometry":{"type":"Point","coordinates":[-83.17813,41.114436]}},{"properties":{"officer":null,"city":"Tiffin","zip":"44883","date":{"end_time":"2009/03/27 11:48:06 -0400","original":"3/27/2009 11:48:05 AM","granularity":"sec","time":"2009/03/27 11:48:05 -0400"},"geo_score":0.902,"unit":485,"disposition":700,"cfs":11,"call#":9.003623,"id":"a62t27psut7d","geo_precision":"range","address":"51 E Market St","state":"OH","juris":"PD"},"type":"Feature","geometry":{"type":"Point","coordinates":[-83.17813,41.114436]}},{"properties":{"officer":null,"city":"Tiffin","zip":"44883","date":{"end_time":"2009/03/26 12:22:16 -0400","original":"3/26/2009 12:22:15 PM","granularity":"sec","time":"2009/03/26 12:22:15 -0400"},"geo_score":0.902,"unit":485,"disposition":700,"cfs":11,"call#":9.003593,"id":"a62t27erah3o","geo_precision":"range","address":"51 E Market St","state":"OH","juris":"PD"},"type":"Feature","geometry":{"type":"Point","coordinates":[-83.17813,41.114436]}},{"properties":{"officer":"JPF","city":"Tiffin","zip":"44883","date":{"end_time":"2009/03/26 08:15:51 -0400","original":"3/26/2009 8:15:50 AM","granularity":"sec","time":"2009/03/26 08:15:50 -0400"},"geo_score":0.902,"unit":59,"disposition":200,"cfs":11,"call#":9.002797,"id":"a62t27sroqu4","geo_precision":"range","address":"357 S Washington St","state":"OH","juris":"PD"},"type":"Feature","geometry":{"type":"Point","coordinates":[-83.175548,41.107805]}},{"properties":{"officer":"JAD","city":"Tiffin","zip":"44883","date":{"end_time":"2009/03/25 10:13:36 -0400","original":"3/25/2009 10:13:35 AM","granularity":"sec","time":"2009/03/25 10:13:35 -0400"},"geo_score":0.78,"unit":56,"disposition":100,"cfs":11,"call#":9.002779,"id":"a62t27rbd4mp","geo_precision":"range","address":"1 Seneca County","state":"OH","juris":"PD"},"type":"Feature","geometry":{"type":"Point","coordinates":[-83.160743,41.122079]}},{"properties":{"officer":"JAD","city":"Tiffin","zip":"44883","date":{"end_time":"2009/03/25 09:49:35 -0400","original":"3/25/2009 9:49:34 AM","granularity":"sec","time":"2009/03/25 09:49:34 -0400"},"geo_score":0.902,"unit":56,"disposition":100,"cfs":11,"call#":9.002777,"id":"a62t27nbe57a","geo_precision":"range","address":"300 S Monroe St","state":"OH","juris":"PD"},"type":"Feature","geometry":{"type":"Point","coordinates":[-83.177173,41.107991]}},{"properties":{"officer":"JAD","city":"Tiffin","zip":"44883","date":{"end_time":"2009/03/25 09:19:39 -0400","original":"3/25/2009 9:19:38 AM","granularity":"sec","time":"2009/03/25 09:19:38 -0400"},"geo_score":0.585,"unit":56,"disposition":100,"cfs":11,"call#":9.002774,"id":"a62t27sjhj9w","geo_precision":"zip","address":"103 Shepherd Dr","state":"OH","juris":"PD"},"type":"Feature","geometry":{"type":"Point","coordinates":[-83.225755,41.214776]}},{"properties":{"officer":null,"city":"Tiffin","zip":"44883","date":{"end_time":"2009/03/24 12:18:15 -0400","original":"3/24/2009 12:18:14 PM","granularity":"sec","time":"2009/03/24 12:18:14 -0400"},"geo_score":0.902,"unit":485,"disposition":700,"cfs":11,"call#":9.003592,"id":"a62t27uaf1ng","geo_precision":"range","address":"51 E Market St","state":"OH","juris":"PD"},"type":"Feature","geometry":{"type":"Point","coordinates":[-83.17813,41.114436]}},{"properties":{"officer":null,"city":"Tiffin","zip":"44883","date":{"end_time":"2009/03/20 12:03:37 -0400","original":"3/20/2009 12:03:36 PM","granularity":"sec","time":"2009/03/20 12:03:36 -0400"},"geo_score":0.902,"unit":485,"disposition":700,"cfs":11,"call#":9.003591,"id":"a62t27nhl5wl","geo_precision":"range","address":"51 E Market St","state":"OH","juris":"PD"},"type":"Feature","geometry":{"type":"Point","coordinates":[-83.17813,41.114436]}},{"properties":{"officer":null,"city":"Tiffin","zip":"44883","date":{"end_time":"2009/03/19 11:58:37 -0400","original":"3/19/2009 11:58:36 AM","granularity":"sec","time":"2009/03/19 11:58:36 -0400"},"geo_score":0.902,"unit":485,"disposition":700,"cfs":11,"call#":9.00359,"id":"a62t27j5ivrv","geo_precision":"range","address":"51 E Market St","state":"OH","juris":"PD"},"type":"Feature","geometry":{"type":"Point","coordinates":[-83.17813,41.114436]}},{"properties":{"officer":"RAG","city":"Tiffin","zip":"44883","date":{"end_time":"2009/03/16 15:05:18 -0400","original":"3/16/2009 3:05:17 PM","granularity":"sec","time":"2009/03/16 15:05:17 -0400"},"geo_score":0.902,"unit":63,"disposition":200,"cfs":11,"call#":9.002481,"id":"a62t27enffr6","geo_precision":"range","address":"630 W Market St","state":"OH","juris":"PD"},"type":"Feature","geometry":{"type":"Point","coordinates":[-83.201361,41.112205]}},{"properties":{"officer":null,"city":"Tiffin","zip":"44883","date":{"end_time":"2009/03/16 11:53:30 -0400","original":"3/16/2009 11:53:29 AM","granularity":"sec","time":"2009/03/16 11:53:29 -0400"},"geo_score":0.902,"unit":485,"disposition":700,"cfs":11,"call#":9.003588,"id":"a62t27rox61i","geo_precision":"range","address":"51 E Market St","state":"OH","juris":"PD"},"type":"Feature","geometry":{"type":"Point","coordinates":[-83.17813,41.114436]}},{"properties":{"officer":"JMW","city":"Tiffin","zip":"44883","date":{"end_time":"2009/03/13 15:39:36 -0400","original":"3/13/2009 3:39:35 PM","granularity":"sec","time":"2009/03/13 15:39:35 -0400"},"geo_score":0.902,"unit":60,"disposition":200,"cfs":11,"call#":9.002364,"id":"a62t27uoe8uq","geo_precision":"range","address":"184 Melmore St","state":"OH","juris":"PD"},"type":"Feature","geometry":{"type":"Point","coordinates":[-83.171628,41.10535]}},{"properties":{"officer":"MAM","city":"Tiffin","zip":"44883","date":{"end_time":"2009/03/13 13:07:21 -0400","original":"3/13/2009 1:07:20 PM","granularity":"sec","time":"2009/03/13 13:07:20 -0400"},"geo_score":0.429,"unit":58,"disposition":400,"cfs":11,"call#":9.002359,"id":"a62t27kbocub","geo_precision":"street","address":"870 W Market St, O","state":"OH","juris":"PD"},"type":"Feature","geometry":{"type":"Point","coordinates":[-83.181592,41.114111]}},{"properties":{"officer":"FWS","city":"Tiffin","zip":"44883","date":{"end_time":"2009/03/12 20:45:55 -0400","original":"3/12/2009 8:45:54 PM","granularity":"sec","time":"2009/03/12 20:45:54 -0400"},"geo_score":0.902,"unit":57,"disposition":400,"cfs":11,"call#":9.002336,"id":"a62t27sl6rpm","geo_precision":"range","address":"432 Wentz St","state":"OH","juris":"PD"},"type":"Feature","geometry":{"type":"Point","coordinates":[-83.200093,41.112743]}},{"properties":{"officer":null,"city":"Tiffin","zip":"44883","date":{"end_time":"2009/03/11 16:55:13 -0400","original":"3/11/2009 4:55:12 PM","granularity":"sec","time":"2009/03/11 16:55:12 -0400"},"geo_score":0.902,"unit":648,"disposition":700,"cfs":11,"call#":9.002305,"id":"a62t27p2m124","geo_precision":"range","address":"324 N Sandusky St","state":"OH","juris":"PD"},"type":"Feature","geometry":{"type":"Point","coordinates":[-83.177161,41.127493]}},{"properties":{"officer":null,"city":"Tiffin","zip":"44883","date":{"end_time":"2009/03/10 17:31:00 -0400","original":"3/10/2009 5:30:00 PM","granularity":"min","time":"2009/03/10 17:30:00 -0400"},"geo_score":0.902,"unit":879,"disposition":700,"cfs":11,"call#":9.002302,"id":"a62t27m476qu","geo_precision":"range","address":"51 E Market St","state":"OH","juris":"PD"},"type":"Feature","geometry":{"type":"Point","coordinates":[-83.17813,41.114436]}},{"properties":{"officer":null,"city":"Tiffin","zip":"44883","date":{"end_time":"2009/03/10 11:46:07 -0400","original":"3/10/2009 11:46:06 AM","granularity":"sec","time":"2009/03/10 11:46:06 -0400"},"geo_score":0.902,"unit":485,"disposition":700,"cfs":11,"call#":9.003586,"id":"a62t27kdtk2r","geo_precision":"range","address":"51 E Market St","state":"OH","juris":"PD"},"type":"Feature","geometry":{"type":"Point","coordinates":[-83.17813,41.114436]}},{"properties":{"officer":"DES","city":"Tiffin","zip":"44883","date":{"end_time":"2009/03/02 13:25:15 -0500","original":"3/2/2009 1:25:14 PM","granularity":"sec","time":"2009/03/02 13:25:14 -0500"},"geo_score":0.729,"unit":62,"disposition":200,"cfs":11,"call#":9.002049,"id":"a62t27r6ikiu","geo_precision":"street","address":"Melissa St/W Perry St","state":"OH","juris":"PD"},"type":"Feature","geometry":{"type":"Point","coordinates":[-83.191758,41.113127]}},{"properties":{"officer":null,"city":"Tiffin","zip":"44883","date":{"end_time":"2009/03/02 11:30:23 -0500","original":"3/2/2009 11:30:22 AM","granularity":"sec","time":"2009/03/02 11:30:22 -0500"},"geo_score":0.902,"unit":485,"disposition":700,"cfs":11,"call#":9.003585,"id":"a62t27t1t21y","geo_precision":"range","address":"51 E Market St","state":"OH","juris":"PD"},"type":"Feature","geometry":{"type":"Point","coordinates":[-83.17813,41.114436]}},{"properties":{"officer":null,"city":"Tiffin","zip":"44883","date":{"end_time":"2009/02/19 09:30:38 -0500","original":"2/19/2009 9:30:37 AM","granularity":"sec","time":"2009/02/19 09:30:37 -0500"},"geo_score":0.902,"unit":485,"disposition":700,"cfs":11,"call#":9.001945,"id":"a62t27eehw1e","geo_precision":"range","address":"51 E Market St","state":"OH","juris":"PD"},"type":"Feature","geometry":{"type":"Point","coordinates":[-83.17813,41.114436]}},{"properties":{"officer":null,"city":"Tiffin","zip":"44883","date":{"end_time":"2009/02/17 09:23:00 -0500","original":"2/17/2009 9:22:59 AM","granularity":"sec","time":"2009/02/17 09:22:59 -0500"},"geo_score":0.902,"unit":485,"disposition":700,"cfs":11,"call#":9.001944,"id":"a62t27s7iisd","geo_precision":"range","address":"51 E Market St","state":"OH","juris":"PD"},"type":"Feature","geometry":{"type":"Point","coordinates":[-83.17813,41.114436]}},{"properties":{"officer":null,"city":"Tiffin","zip":"44883","date":{"end_time":"2009/02/16 09:12:52 -0500","original":"2/16/2009 9:12:51 AM","granularity":"sec","time":"2009/02/16 09:12:51 -0500"},"geo_score":0.902,"unit":485,"disposition":700,"cfs":11,"call#":9.001942,"id":"a62t27klnmdv","geo_precision":"range","address":"51 E Market St","state":"OH","juris":"PD"},"type":"Feature","geometry":{"type":"Point","coordinates":[-83.17813,41.114436]}},{"properties":{"officer":"SGN","city":"Tiffin","zip":"44883","date":{"end_time":"2009/02/13 12:26:49 -0500","original":"2/13/2009 12:26:48 PM","granularity":"sec","time":"2009/02/13 12:26:48 -0500"},"geo_score":0.902,"unit":62,"disposition":100,"cfs":11,"call#":9.00151,"id":"a62t27pdd4ks","geo_precision":"range","address":"95 Hudson St","state":"OH","juris":"PD"},"type":"Feature","geometry":{"type":"Point","coordinates":[-83.18094,41.120111]}},{"properties":{"officer":"JMW","city":"Tiffin","zip":"44883","date":{"end_time":"2009/02/13 08:43:49 -0500","original":"2/13/2009 8:43:48 AM","granularity":"sec","time":"2009/02/13 08:43:48 -0500"},"geo_score":0.743,"unit":60,"disposition":400,"cfs":11,"call#":9.001498,"id":"a62t27gn9p6m","geo_precision":"range","address":"3040 S Sr 100","state":"OH","juris":"PD"},"type":"Feature","geometry":{"type":"Point","coordinates":[-83.153065,41.080283]}},{"properties":{"officer":null,"city":"Tiffin","zip":"44883","date":{"end_time":"2009/02/10 16:05:49 -0500","original":"2/10/2009 4:05:48 PM","granularity":"sec","time":"2009/02/10 16:05:48 -0500"},"geo_score":0.902,"unit":485,"disposition":700,"cfs":11,"call#":9.00148,"id":"a62t27fja2cx","geo_precision":"range","address":"51 E Market St","state":"OH","juris":"PD"},"type":"Feature","geometry":{"type":"Point","coordinates":[-83.17813,41.114436]}},{"properties":{"officer":"DES","city":"Tiffin","zip":"44883","date":{"end_time":"2009/02/09 08:29:47 -0500","original":"2/9/2009 8:29:46 AM","granularity":"sec","time":"2009/02/09 08:29:46 -0500"},"geo_score":0.902,"unit":62,"disposition":200,"cfs":11,"call#":9.001352,"id":"a62t27ukz1fc","geo_precision":"range","address":"122 Ann St","state":"OH","juris":"PD"},"type":"Feature","geometry":{"type":"Point","coordinates":[-83.170907,41.109969]}},{"properties":{"officer":"REB","city":"Tiffin","zip":"44883","date":{"end_time":"2009/02/06 21:15:11 -0500","original":"2/6/2009 9:15:10 PM","granularity":"sec","time":"2009/02/06 21:15:10 -0500"},"geo_score":0.902,"unit":558,"disposition":200,"cfs":11,"call#":9.001254,"id":"a62t27kvsqdp","geo_precision":"range","address":"51 E Market St","state":"OH","juris":"PD"},"type":"Feature","geometry":{"type":"Point","coordinates":[-83.17813,41.114436]}},{"properties":{"officer":"REB","city":"Tiffin","zip":"44883","date":{"end_time":"2009/02/03 22:13:37 -0500","original":"2/3/2009 10:13:36 PM","granularity":"sec","time":"2009/02/03 22:13:36 -0500"},"geo_score":0.902,"unit":558,"disposition":200,"cfs":11,"call#":9.001157,"id":"a62t27p7q92v","geo_precision":"range","address":"51 E Market St","state":"OH","juris":"PD"},"type":"Feature","geometry":{"type":"Point","coordinates":[-83.17813,41.114436]}},{"properties":{"officer":"RJO","city":"Tiffin","zip":"44883","date":{"end_time":"2009/02/03 13:42:54 -0500","original":"2/3/2009 1:42:53 PM","granularity":"sec","time":"2009/02/03 13:42:53 -0500"},"geo_score":0.902,"unit":57,"disposition":200,"cfs":11,"call#":9.001143,"id":"a62t27t4o03k","geo_precision":"range","address":"40 Jackson St","state":"OH","juris":"PD"},"type":"Feature","geometry":{"type":"Point","coordinates":[-83.187695,41.114569]}},{"properties":{"officer":"BRB","city":"Tiffin","zip":"44883","date":{"end_time":"2009/01/29 19:14:12 -0500","original":"1/29/2009 7:14:11 PM","granularity":"sec","time":"2009/01/29 19:14:11 -0500"},"geo_score":0.902,"unit":59,"disposition":200,"cfs":11,"call#":9.000984,"id":"a62t27qwmyva","geo_precision":"range","address":"40 Jackson St","state":"OH","juris":"PD"},"type":"Feature","geometry":{"type":"Point","coordinates":[-83.187695,41.114569]}},{"properties":{"officer":"DGH2","city":"Tiffin","zip":"44883","date":{"end_time":"2009/01/28 10:08:23 -0500","original":"1/28/2009 10:08:22 AM","granularity":"sec","time":"2009/01/28 10:08:22 -0500"},"geo_score":0.902,"unit":282,"disposition":200,"cfs":11,"call#":9.000934,"id":"a62t27fblfao","geo_precision":"range","address":"51 E Market St","state":"OH","juris":"PD"},"type":"Feature","geometry":{"type":"Point","coordinates":[-83.17813,41.114436]}},{"properties":{"officer":null,"city":"Tiffin","zip":"44883","date":{"end_time":"2009/01/27 08:56:30 -0500","original":"1/27/2009 8:56:29 AM","granularity":"sec","time":"2009/01/27 08:56:29 -0500"},"geo_score":0.902,"unit":485,"disposition":700,"cfs":11,"call#":9.000908,"id":"a62t27ns7kmo","geo_precision":"range","address":"51 E Market St","state":"OH","juris":"PD"},"type":"Feature","geometry":{"type":"Point","coordinates":[-83.17813,41.114436]}},{"properties":{"officer":"DES","city":"Tiffin","zip":"44883","date":{"end_time":"2009/01/26 15:05:48 -0500","original":"1/26/2009 3:05:47 PM","granularity":"sec","time":"2009/01/26 15:05:47 -0500"},"geo_score":0.902,"unit":62,"disposition":200,"cfs":11,"call#":9.000883,"id":"a62t27up624q","geo_precision":"range","address":"87 Minerva St","state":"OH","juris":"PD"},"type":"Feature","geometry":{"type":"Point","coordinates":[-83.176225,41.122748]}},{"properties":{"officer":null,"city":"Tiffin","zip":"44883","date":{"end_time":"2009/01/20 12:03:54 -0500","original":"1/20/2009 12:03:53 PM","granularity":"sec","time":"2009/01/20 12:03:53 -0500"},"geo_score":0.78,"unit":485,"disposition":700,"cfs":11,"call#":9.003624,"id":"a62t27uhrf08","geo_precision":"range","address":"1 Seneca County","state":"OH","juris":"PD"},"type":"Feature","geometry":{"type":"Point","coordinates":[-83.160743,41.122079]}},{"properties":{"officer":null,"city":"Tiffin","zip":"44883","date":{"end_time":"2009/01/11 09:31:54 -0500","original":"1/11/2009 9:31:53 AM","granularity":"sec","time":"2009/01/11 09:31:53 -0500"},"geo_score":0.902,"unit":485,"disposition":700,"cfs":11,"call#":9.000911,"id":"a62t27jilbxl","geo_precision":"range","address":"51 E Market St","state":"OH","juris":"PD"},"type":"Feature","geometry":{"type":"Point","coordinates":[-83.17813,41.114436]}},{"properties":{"officer":null,"city":"Tiffin","zip":"44883","date":{"end_time":"2009/01/08 09:26:19 -0500","original":"1/8/2009 9:26:18 AM","granularity":"sec","time":"2009/01/08 09:26:18 -0500"},"geo_score":0.902,"unit":485,"disposition":700,"cfs":11,"call#":9.00091,"id":"a62t27i18wvb","geo_precision":"range","address":"51 E Market St","state":"OH","juris":"PD"},"type":"Feature","geometry":{"type":"Point","coordinates":[-83.17813,41.114436]}},{"properties":{"officer":null,"city":"Tiffin","zip":"44883","date":{"end_time":"2009/01/08 09:19:23 -0500","original":"1/8/2009 9:19:22 AM","granularity":"sec","time":"2009/01/08 09:19:22 -0500"},"geo_score":0.78,"unit":485,"disposition":700,"cfs":11,"call#":9.000909,"id":"a62t27mcwpwx","geo_precision":"range","address":"1 Seneca County","state":"OH","juris":"PD"},"type":"Feature","geometry":{"type":"Point","coordinates":[-83.160743,41.122079]}}],"is_temporal":true,"author":{"url":"","metadata":"","contact_name":"","contact_address":"","source":"","contact_phone":""},"source":"","pagination":{"sort":null,"start":0,"total":184,"limit":1000000},"state":"complete","tags":"","published":"2014-08-14T15:35:03-04:00","id":220623}