{"type":"FeatureCollection","data_type":"Dataset","url_type":null,"permissions":[{"permissions":{"download":true,"view":true},"group_id":"everyone"}],"classification":null,"title":"James_-_Nations_-_ran_March_27th","count":12,"stream_id":220684,"contributor":{"url":"http://geocommons.com/users/39447","name":"sam.felipe"},"data_attributes":null,"calculation_params":null,"icon_link":null,"link":"http://geocommons.com/overlays/220684.json","extent":[-118.031,33.7372,-118.031,33.7372],"geometry_types":["point"],"unique_name":null,"name":"James_-_Nations_-_ran_March_27th","feature_count":12,"description":"","next_feature":null,"is_raster":false,"short_classification":"Y","stats":{"mode":{"max":12,"mean":12.0,"variance":0.0,"stdev":0.0,"min":12,"median":12}},"features":[{"properties":{"city":"Huntington Bch","name of competitor":"USA National Title","zip":"92649","column_6":null,"column_7":null,"mode":12,"geo_score":0.889,"street address":"5582 McFadden Ave","id":"a64stbgbbiwu","geo_precision":"range"},"type":"Feature","geometry":{"type":"Point","coordinates":[-118.031437,33.7372]}},{"properties":{"city":"Huntington Bch","name of competitor":"USA National Title","zip":"92649","column_6":null,"column_7":null,"mode":12,"geo_score":0.889,"street address":"5582 McFadden Ave","id":"a64stbj8a14b","geo_precision":"range"},"type":"Feature","geometry":{"type":"Point","coordinates":[-118.031437,33.7372]}},{"properties":{"city":"Huntington Bch","name of competitor":"USA National Title","zip":"92649","column_6":null,"column_7":null,"mode":12,"geo_score":0.889,"street address":"5582 McFadden Ave","id":"a64stbem94sv","geo_precision":"range"},"type":"Feature","geometry":{"type":"Point","coordinates":[-118.031437,33.7372]}},{"properties":{"city":"Huntington Bch","name of competitor":"USA National Title","zip":"92649","column_6":null,"column_7":null,"mode":12,"geo_score":0.889,"street address":"5582 McFadden Ave","id":"a64stbm5aupb","geo_precision":"range"},"type":"Feature","geometry":{"type":"Point","coordinates":[-118.031437,33.7372]}},{"properties":{"city":"Huntington Bch","name of competitor":"USA National Title","zip":"92649","column_6":null,"column_7":null,"mode":12,"geo_score":0.889,"street address":"5582 McFadden Ave","id":"a64stblvq455","geo_precision":"range"},"type":"Feature","geometry":{"type":"Point","coordinates":[-118.031437,33.7372]}},{"properties":{"city":"Huntington Bch","name of competitor":"USA National Title","zip":"92649","column_6":null,"column_7":null,"mode":12,"geo_score":0.889,"street address":"5582 McFadden Ave","id":"a64stbol7c2e","geo_precision":"range"},"type":"Feature","geometry":{"type":"Point","coordinates":[-118.031437,33.7372]}},{"properties":{"city":"Huntington Bch","name of competitor":"USA National Title","zip":"92649","column_6":null,"column_7":null,"mode":12,"geo_score":0.889,"street address":"5582 McFadden Ave","id":"a64stbcwtb5x","geo_precision":"range"},"type":"Feature","geometry":{"type":"Point","coordinates":[-118.031437,33.7372]}},{"properties":{"city":"Huntington Bch","name of competitor":"USA National Title","zip":"92649","column_6":null,"column_7":null,"mode":12,"geo_score":0.889,"street address":"5582 McFadden Ave","id":"a64stbl8wm01","geo_precision":"range"},"type":"Feature","geometry":{"type":"Point","coordinates":[-118.031437,33.7372]}},{"properties":{"city":"Huntington Bch","name of competitor":"USA National Title","zip":"92649","column_6":null,"column_7":null,"mode":12,"geo_score":0.889,"street address":"5582 McFadden Ave","id":"a64stbj2th9s","geo_precision":"range"},"type":"Feature","geometry":{"type":"Point","coordinates":[-118.031437,33.7372]}},{"properties":{"city":"Huntington Bch","name of competitor":"USA National Title","zip":"92649","column_6":null,"column_7":null,"mode":12,"geo_score":0.889,"street address":"5582 McFadden Ave","id":"a64stbe4bfbx","geo_precision":"range"},"type":"Feature","geometry":{"type":"Point","coordinates":[-118.031437,33.7372]}},{"properties":{"city":"Huntington Bch","name of competitor":"USA National Title","zip":"92649","column_6":null,"column_7":null,"mode":12,"geo_score":0.889,"street address":"5582 McFadden Ave","id":"a64stb9sry4i","geo_precision":"range"},"type":"Feature","geometry":{"type":"Point","coordinates":[-118.031437,33.7372]}},{"properties":{"city":"Huntington Bch","name of competitor":"USA National Title","zip":"92649","column_6":null,"column_7":null,"mode":12,"geo_score":0.889,"street address":"5582 McFadden Ave","id":"a64stblzrt49","geo_precision":"range"},"type":"Feature","geometry":{"type":"Point","coordinates":[-118.031437,33.7372]}}],"is_temporal":false,"author":{"url":"","metadata":null,"contact_name":null,"contact_address":null,"source":null,"contact_phone":null},"source":"","pagination":{"sort":null,"start":0,"total":12,"limit":1000000},"state":"complete","tags":"","published":"2014-08-14T15:39:26-04:00","id":220684}