{"type":"FeatureCollection","data_type":"Dataset","url_type":null,"permissions":[{"permissions":{"download":true,"view":true},"group_id":"everyone"}],"classification":null,"title":"fire arson exp 2008","count":33,"stream_id":220673,"contributor":{"url":"http://geocommons.com/users/42302","name":"hillproject"},"data_attributes":null,"calculation_params":null,"icon_link":null,"link":"http://geocommons.com/overlays/220673.json","extent":[-83.1965,41.1006,-83.157,41.1311],"geometry_types":["point"],"unique_name":null,"name":"fire arson exp 2008","feature_count":33,"description":"","next_feature":null,"is_raster":false,"short_classification":"Y","stats":{"date":{"max":"2008/12/13 20:28:29 -0500","mean":"2008/07/18 11:43:18 -0400","variance":70643313221810.8,"stdev":8404957.65734788,"min":"2008/01/09 00:40:02 -0500","median":"2008/08/09 02:55:26 -0400"},"unit":{"max":998,"mean":98.2,"variance":30534.9931034483,"stdev":174.742648210013,"min":56,"median":60},"cfs":{"max":23,"mean":23.0,"variance":0.0,"stdev":0.0,"min":23,"median":23},"call#":{"max":8.013184,"mean":8.00756406060606,"variance":1.44795654337129e-05,"stdev":0.00380520241691725,"min":8.00029,"median":8.008343}},"features":[{"properties":{"officer":"RJO","city":"Tiffin","zip":"44883","date":{"end_time":"2008/10/12 13:37:22 -0400","original":"10/12/2008 1:37:21 PM","granularity":"sec","time":"2008/10/12 13:37:21 -0400"},"geo_score":0.902,"unit":57,"disposition":"200","cfs":23,"call#":8.011082,"id":"a63heii06mgy","geo_precision":"range","address":"1 N Monroe St","state":"OH","juris":"PD"},"type":"Feature","geometry":{"type":"Point","coordinates":[-83.178648,41.117483]}},{"properties":{"officer":"MAM","city":"Tiffin","zip":"44883","date":{"end_time":"2008/12/13 20:28:30 -0500","original":"12/13/2008 8:28:29 PM","granularity":"sec","time":"2008/12/13 20:28:29 -0500"},"geo_score":0.902,"unit":58,"disposition":"100","cfs":23,"call#":8.013184,"id":"a63heifl2c30","geo_precision":"range","address":"124 Gail Ln","state":"OH","juris":"PD"},"type":"Feature","geometry":{"type":"Point","coordinates":[-83.196491,41.100565]}},{"properties":{"officer":"LMK","city":"Tiffin","zip":"44883","date":{"end_time":"2008/09/20 21:46:11 -0400","original":"9/20/2008 9:46:10 PM","granularity":"sec","time":"2008/09/20 21:46:10 -0400"},"geo_score":0.87,"unit":61,"disposition":"200","cfs":23,"call#":8.010251,"id":"a63heisvq2gc","geo_precision":"range","address":"139 Warren Av","state":"OH","juris":"PD"},"type":"Feature","geometry":{"type":"Point","coordinates":[-83.180749,41.131071]}},{"properties":{"officer":"PJD","city":"Tiffin","zip":"44883","date":{"end_time":"2008/04/01 21:53:06 -0400","original":"4/1/2008 9:53:05 PM","granularity":"sec","time":"2008/04/01 21:53:05 -0400"},"geo_score":0.727,"unit":60,"disposition":"100","cfs":23,"call#":8.003268,"id":"a63heihfqu6t","geo_precision":"range","address":"146 Railroad St","state":"OH","juris":"PD"},"type":"Feature","geometry":{"type":"Point","coordinates":[-83.169578,41.117579]}},{"properties":{"officer":null,"city":"Tiffin","zip":"44883","date":{"end_time":"2008/11/26 11:23:02 -0500","original":"11/26/2008 11:23:01 AM","granularity":"sec","time":"2008/11/26 11:23:01 -0500"},"geo_score":0.902,"unit":null,"disposition":"CAN","cfs":23,"call#":8.012621,"id":"a63heioblq7w","geo_precision":"range","address":"154 S Washington St","state":"OH","juris":"PD"},"type":"Feature","geometry":{"type":"Point","coordinates":[-83.176365,41.11326]}},{"properties":{"officer":"JSC","city":"Tiffin","zip":"44883","date":{"end_time":"2008/04/05 17:15:38 -0400","original":"4/5/2008 5:15:37 PM","granularity":"sec","time":"2008/04/05 17:15:37 -0400"},"geo_score":0.902,"unit":63,"disposition":"200","cfs":23,"call#":8.003404,"id":"a63heio0v907","geo_precision":"range","address":"155 Prospect St","state":"OH","juris":"PD"},"type":"Feature","geometry":{"type":"Point","coordinates":[-83.161627,41.110042]}},{"properties":{"officer":"MEM","city":"Tiffin","zip":"44883","date":{"end_time":"2008/08/30 03:47:13 -0400","original":"8/30/2008 3:47:12 AM","granularity":"sec","time":"2008/08/30 03:47:12 -0400"},"geo_score":0.902,"unit":57,"disposition":"100","cfs":23,"call#":8.009245,"id":"a63heiliz18m","geo_precision":"range","address":"16 Crayon St","state":"OH","juris":"PD"},"type":"Feature","geometry":{"type":"Point","coordinates":[-83.156987,41.114737]}},{"properties":{"officer":"DES","city":"Tiffin","zip":"44883","date":{"end_time":"2008/12/05 17:46:28 -0500","original":"12/5/2008 5:46:27 PM","granularity":"sec","time":"2008/12/05 17:46:27 -0500"},"geo_score":0.902,"unit":62,"disposition":"100","cfs":23,"call#":8.012892,"id":"a63heitjywrw","geo_precision":"range","address":"200 Hudson St","state":"OH","juris":"PD"},"type":"Feature","geometry":{"type":"Point","coordinates":[-83.184259,41.121629]}},{"properties":{"officer":"MAM","city":"Tiffin","zip":"44883","date":{"end_time":"2008/08/29 17:16:34 -0400","original":"8/29/2008 5:16:33 PM","granularity":"sec","time":"2008/08/29 17:16:33 -0400"},"geo_score":0.902,"unit":58,"disposition":"230","cfs":23,"call#":8.009209,"id":"a63heikelgpk","geo_precision":"range","address":"205 E Market St","state":"OH","juris":"PD"},"type":"Feature","geometry":{"type":"Point","coordinates":[-83.172198,41.114978]}},{"properties":{"officer":"EDA","city":"Tiffin","zip":"44883","date":{"end_time":"2008/07/25 21:57:49 -0400","original":"7/25/2008 9:57:48 PM","granularity":"sec","time":"2008/07/25 21:57:48 -0400"},"geo_score":0.861,"unit":60,"disposition":"230","cfs":23,"call#":8.007765,"id":"a63heimg9ysm","geo_precision":"range","address":"210 Ohio Av","state":"OH","juris":"PD"},"type":"Feature","geometry":{"type":"Point","coordinates":[-83.164363,41.12424]}},{"properties":{"officer":"DES","city":"Tiffin","zip":"44883","date":{"end_time":"2008/10/25 01:46:41 -0400","original":"10/25/2008 1:46:40 AM","granularity":"sec","time":"2008/10/25 01:46:40 -0400"},"geo_score":0.902,"unit":62,"disposition":"100","cfs":23,"call#":8.011539,"id":"a63heirxjuhu","geo_precision":"range","address":"215 Main St","state":"OH","juris":"PD"},"type":"Feature","geometry":{"type":"Point","coordinates":[-83.164184,41.112351]}},{"properties":{"officer":"RJO","city":"Tiffin","zip":"44883","date":{"end_time":"2008/10/05 13:22:02 -0400","original":"10/5/2008 1:22:01 PM","granularity":"sec","time":"2008/10/05 13:22:01 -0400"},"geo_score":0.902,"unit":57,"disposition":"100","cfs":23,"call#":8.010837,"id":"a63heil0ndmz","geo_precision":"range","address":"248 N Washington St","state":"OH","juris":"PD"},"type":"Feature","geometry":{"type":"Point","coordinates":[-83.178152,41.124708]}},{"properties":{"officer":"RJO","city":"Tiffin","zip":"44883","date":{"end_time":"2008/09/14 15:47:02 -0400","original":"9/14/2008 3:47:01 PM","granularity":"sec","time":"2008/09/14 15:47:01 -0400"},"geo_score":0.902,"unit":57,"disposition":"100","cfs":23,"call#":8.009939,"id":"a63hein5qllp","geo_precision":"range","address":"289 Hedges St","state":"OH","juris":"PD"},"type":"Feature","geometry":{"type":"Point","coordinates":[-83.167556,41.109048]}},{"properties":{"officer":"JAD","city":"Tiffin","zip":"44883","date":{"end_time":"2008/07/07 21:24:00 -0400","original":"7/7/2008 9:23:00 PM","granularity":"min","time":"2008/07/07 21:23:00 -0400"},"geo_score":0.902,"unit":56,"disposition":"230","cfs":23,"call#":8.007041,"id":"a63heifcvh5w","geo_precision":"range","address":"360 Water St","state":"OH","juris":"PD"},"type":"Feature","geometry":{"type":"Point","coordinates":[-83.173489,41.12257]}},{"properties":{"officer":"RLT","city":"Tiffin","zip":"44883","date":{"end_time":"2008/03/14 22:03:31 -0400","original":"3/14/2008 10:03:30 PM","granularity":"sec","time":"2008/03/14 22:03:30 -0400"},"geo_score":0.902,"unit":63,"disposition":"200","cfs":23,"call#":8.00259,"id":"a63heiuvzy6y","geo_precision":"range","address":"388 S Monroe St","state":"OH","juris":"PD"},"type":"Feature","geometry":{"type":"Point","coordinates":[-83.176923,41.105971]}},{"properties":{"officer":"JPF","city":"Tiffin","zip":"44883","date":{"end_time":"2008/10/23 18:12:09 -0400","original":"10/23/2008 6:12:08 PM","granularity":"sec","time":"2008/10/23 18:12:08 -0400"},"geo_score":0.902,"unit":57,"disposition":"100","cfs":23,"call#":8.011485,"id":"a63heifrti9q","geo_precision":"range","address":"40 Jackson St","state":"OH","juris":"PD"},"type":"Feature","geometry":{"type":"Point","coordinates":[-83.187695,41.114569]}},{"properties":{"officer":"SWK","city":"Tiffin","zip":"44883","date":{"end_time":"2008/06/12 20:32:54 -0400","original":"6/12/2008 8:32:53 PM","granularity":"sec","time":"2008/06/12 20:32:53 -0400"},"geo_score":0.902,"unit":61,"disposition":"200","cfs":23,"call#":8.006063,"id":"a63heiqwpm0y","geo_precision":"range","address":"457 N Sandusky St","state":"OH","juris":"PD"},"type":"Feature","geometry":{"type":"Point","coordinates":[-83.17491,41.130716]}},{"properties":{"officer":"DGH2","city":"Tiffin","zip":"44883","date":{"end_time":"2008/07/14 10:37:16 -0400","original":"7/14/2008 10:37:15 AM","granularity":"sec","time":"2008/07/14 10:37:15 -0400"},"geo_score":0.756,"unit":282,"disposition":"200","cfs":23,"call#":8.007311,"id":"a63heij501vl","geo_precision":"range","address":"458 Second Av","state":"OH","juris":"PD"},"type":"Feature","geometry":{"type":"Point","coordinates":[-83.193074,41.128682]}},{"properties":{"officer":"RJO","city":"Tiffin","zip":"44883","date":{"end_time":"2008/09/15 12:52:50 -0400","original":"9/15/2008 12:52:49 PM","granularity":"sec","time":"2008/09/15 12:52:49 -0400"},"geo_score":0.902,"unit":57,"disposition":"200","cfs":23,"call#":8.009989,"id":"a63heirzsihh","geo_precision":"range","address":"491 Coe St","state":"OH","juris":"PD"},"type":"Feature","geometry":{"type":"Point","coordinates":[-83.160385,41.102667]}},{"properties":{"officer":"SGN","city":"Tiffin","zip":"44883","date":{"end_time":"2008/08/19 11:07:05 -0400","original":"8/19/2008 11:07:04 AM","granularity":"sec","time":"2008/08/19 11:07:04 -0400"},"geo_score":0.902,"unit":62,"disposition":"100","cfs":23,"call#":8.008755,"id":"a63heigqj61z","geo_precision":"range","address":"5 E Perry St","state":"OH","juris":"PD"},"type":"Feature","geometry":{"type":"Point","coordinates":[-83.179206,41.115604]}},{"properties":{"officer":"RJO","city":"Tiffin","zip":"44883","date":{"end_time":"2008/09/28 08:27:31 -0400","original":"9/28/2008 8:27:30 AM","granularity":"sec","time":"2008/09/28 08:27:30 -0400"},"geo_score":0.861,"unit":57,"disposition":"100","cfs":23,"call#":8.010565,"id":"a63heincqvh4","geo_precision":"range","address":"55 Ohio Av","state":"OH","juris":"PD"},"type":"Feature","geometry":{"type":"Point","coordinates":[-83.169152,41.120661]}},{"properties":{"officer":null,"city":"Tiffin","zip":"44883","date":{"end_time":"2008/06/24 08:04:51 -0400","original":"6/24/2008 8:04:50 AM","granularity":"sec","time":"2008/06/24 08:04:50 -0400"},"geo_score":0.873,"unit":null,"disposition":"CAN","cfs":23,"call#":8.006475,"id":"a63heiuinr3m","geo_precision":"range","address":"58 Cottage Av","state":"OH","juris":"PD"},"type":"Feature","geometry":{"type":"Point","coordinates":[-83.193349,41.107339]}},{"properties":{"officer":"REB","city":"Tiffin","zip":"44883","date":{"end_time":"2008/02/02 12:07:50 -0500","original":"2/2/2008 12:07:49 PM","granularity":"sec","time":"2008/02/02 12:07:49 -0500"},"geo_score":0.902,"unit":63,"disposition":"200","cfs":23,"call#":8.001144,"id":"a63heitqxfs1","geo_precision":"range","address":"683 S Sandusky St","state":"OH","juris":"PD"},"type":"Feature","geometry":{"type":"Point","coordinates":[-83.195317,41.103591]}},{"properties":{"officer":null,"city":"Tiffin","zip":"44883","date":{"end_time":"2008/08/03 09:07:00 -0400","original":"8/3/2008 9:06:00 AM","granularity":"min","time":"2008/08/03 09:06:00 -0400"},"geo_score":0.476,"unit":null,"disposition":"CAN","cfs":23,"call#":8.008116,"id":"a63heij3e0ay","geo_precision":"street","address":"870 W Market St,R","state":"OH","juris":"PD"},"type":"Feature","geometry":{"type":"Point","coordinates":[-83.181592,41.114111]}},{"properties":{"officer":"MEM","city":"Tiffin","zip":"44883","date":{"end_time":"2008/08/09 02:55:27 -0400","original":"8/9/2008 2:55:26 AM","granularity":"sec","time":"2008/08/09 02:55:26 -0400"},"geo_score":0.727,"unit":62,"disposition":"100","cfs":23,"call#":8.008343,"id":"a63heiuk48qk","geo_precision":"range","address":"90 Railroad St","state":"OH","juris":"PD"},"type":"Feature","geometry":{"type":"Point","coordinates":[-83.171222,41.117921]}},{"properties":{"officer":"SMM","city":"Tiffin","zip":"44883","date":{"end_time":"2008/03/08 08:11:00 -0500","original":"3/8/2008 8:10:59 AM","granularity":"sec","time":"2008/03/08 08:10:59 -0500"},"geo_score":0.902,"unit":58,"disposition":"100","cfs":23,"call#":8.002384,"id":"a63heilczxhh","geo_precision":"range","address":"93 Greenfield St","state":"OH","juris":"PD"},"type":"Feature","geometry":{"type":"Point","coordinates":[-83.166337,41.115283]}},{"properties":{"officer":"MEM","city":"Tiffin","zip":"44883","date":{"end_time":"2008/01/13 03:54:53 -0500","original":"1/13/2008 3:54:52 AM","granularity":"sec","time":"2008/01/13 03:54:52 -0500"},"geo_score":0.857,"unit":59,"disposition":"200","cfs":23,"call#":8.000465,"id":"a63heik3yj4d","geo_precision":"street","address":"Harrison St/Water St","state":"OH","juris":"PD"},"type":"Feature","geometry":{"type":"Point","coordinates":[-83.174315,41.120732]}},{"properties":{"officer":"GTM","city":"Tiffin","zip":"44883","date":{"end_time":"2008/01/09 00:40:03 -0500","original":"1/9/2008 12:40:02 AM","granularity":"sec","time":"2008/01/09 00:40:02 -0500"},"geo_score":0.857,"unit":62,"disposition":"100","cfs":23,"call#":8.00029,"id":"a63heig8wk6d","geo_precision":"street","address":"Huss St/Water St","state":"OH","juris":"PD"},"type":"Feature","geometry":{"type":"Point","coordinates":[-83.166843,41.131124]}},{"properties":{"officer":"BAR","city":"Tiffin","zip":"44883","date":{"end_time":"2008/10/26 22:51:38 -0400","original":"10/26/2008 10:51:37 PM","granularity":"sec","time":"2008/10/26 22:51:37 -0400"},"geo_score":0.857,"unit":63,"disposition":"200","cfs":23,"call#":8.011609,"id":"a63heiok1akq","geo_precision":"street","address":"Jackson St/W Perry St","state":"OH","juris":"PD"},"type":"Feature","geometry":{"type":"Point","coordinates":[-83.188463,41.113439]}},{"properties":{"officer":"MEM","city":"Tiffin","zip":"44883","date":{"end_time":"2008/08/21 07:35:39 -0400","original":"8/21/2008 7:35:38 AM","granularity":"sec","time":"2008/08/21 07:35:38 -0400"},"geo_score":0.857,"unit":57,"disposition":"200","cfs":23,"call#":8.008814,"id":"a63heiscvvrc","geo_precision":"street","address":"Miami St/Clay St","state":"OH","juris":"PD"},"type":"Feature","geometry":{"type":"Point","coordinates":[-83.1824,41.116381]}},{"properties":{"officer":"FWS","city":"Tiffin","zip":"44883","date":{"end_time":"2008/06/01 10:28:27 -0400","original":"6/1/2008 10:28:26 AM","granularity":"sec","time":"2008/06/01 10:28:26 -0400"},"geo_score":0.857,"unit":59,"disposition":"400","cfs":23,"call#":8.005603,"id":"a63heint7z6u","geo_precision":"street","address":"N Water St/Huss St","state":"OH","juris":"PD"},"type":"Feature","geometry":{"type":"Point","coordinates":[-83.166843,41.131124]}},{"properties":{"officer":"MAM","city":"Tiffin","zip":"44883","date":{"end_time":"2008/04/05 20:25:25 -0400","original":"4/5/2008 8:25:24 PM","granularity":"sec","time":"2008/04/05 20:25:24 -0400"},"geo_score":0.857,"unit":58,"disposition":"100","cfs":23,"call#":8.003417,"id":"a63heip72zc0","geo_precision":"street","address":"Riverside Dr/Industrial Av","state":"OH","juris":"PD"},"type":"Feature","geometry":{"type":"Point","coordinates":[-83.175456,41.117806]}},{"properties":{"officer":"JAD","city":"Tiffin","zip":"44883","date":{"end_time":"2008/04/18 22:04:47 -0400","original":"4/18/2008 10:04:46 PM","granularity":"sec","time":"2008/04/18 22:04:46 -0400"},"geo_score":0.857,"unit":998,"disposition":"200","cfs":23,"call#":8.003919,"id":"a63heimm047v","geo_precision":"street","address":"Water St/Huss St","state":"OH","juris":"PD"},"type":"Feature","geometry":{"type":"Point","coordinates":[-83.166843,41.131124]}}],"is_temporal":true,"author":{"url":"","metadata":"","contact_name":"","contact_address":"","source":"","contact_phone":""},"source":"","pagination":{"sort":null,"start":0,"total":33,"limit":1000000},"state":"complete","tags":"","published":"2014-08-14T15:38:50-04:00","id":220673}