{"type":"FeatureCollection","data_type":"Dataset","url_type":null,"permissions":[{"permissions":{"download":true,"view":true},"group_id":"everyone"}],"classification":null,"title":"Bobby_-_Mort_Brokers_-_ran_March_27th","count":85,"stream_id":220753,"contributor":{"url":"http://geocommons.com/users/39447","name":"sam.felipe"},"data_attributes":null,"calculation_params":null,"icon_link":null,"link":"http://geocommons.com/overlays/220753.json","extent":[-119.865,35.1252,-117.668,37.3397],"geometry_types":["point"],"unique_name":null,"name":"Bobby_-_Mort_Brokers_-_ran_March_27th","feature_count":85,"description":"","next_feature":null,"is_raster":false,"short_classification":"Y","stats":{"column_6":{"max":1,"mean":0.482352941176471,"variance":0.25266106442577,"stdev":0.502654020600422,"min":0,"median":0}},"features":[{"properties":{"rep? (1 for yes, 0 for no)":"CA","city":"Fresno","name":"A-1 Brokers","zip":"93722","column_6":1,"geo_score":0.441,"street address":"5629 N. Figarden Dr. Ste. 112","id":"a64rvaam9h7a","geo_precision":"street"},"type":"Feature","geometry":{"type":"Point","coordinates":[-119.864632,36.817337]}},{"properties":{"rep? (1 for yes, 0 for no)":"CA","city":"Fresno","name":"Alliance Mortgage","zip":"93720","column_6":0,"geo_score":0.35,"street address":"7944 N. Maple Ave. Ste. 116","id":"a64rvabqyn33","geo_precision":"street"},"type":"Feature","geometry":{"type":"Point","coordinates":[-119.745154,36.837589]}},{"properties":{"rep? (1 for yes, 0 for no)":"CA","city":"Fresno","name":"Cherry Creek Mortgage Co Inc","zip":"93710","column_6":0,"geo_score":0.693,"street address":"1300 E Shaw Ave. Ste. 170","id":"a64rva3w1tgq","geo_precision":"range"},"type":"Feature","geometry":{"type":"Point","coordinates":[-119.787598,36.80851]}},{"properties":{"rep? (1 for yes, 0 for no)":"CA","city":"Fresno","name":"Conniff Mortgage","zip":"93711","column_6":0,"geo_score":0.462,"street address":"401 W. Fallbrook Ave.","id":"a64rva7zmmd5","geo_precision":"street"},"type":"Feature","geometry":{"type":"Point","coordinates":[-119.795865,36.849391]}},{"properties":{"rep? (1 for yes, 0 for no)":"CA","city":"Fresno","name":"Consolidated Financial","zip":"93710","column_6":0,"geo_score":0.49,"street address":"1241 E. Shaw Ave","id":"a64rvaf1gyju","geo_precision":"street"},"type":"Feature","geometry":{"type":"Point","coordinates":[-119.790429,36.8085]}},{"properties":{"rep? (1 for yes, 0 for no)":"CA","city":"Fresno","name":"Far West Properties-Financial","zip":"93710","column_6":1,"geo_score":0.5,"street address":"5100 N. 6th ST. Ste170","id":"a64rvagpit38","geo_precision":"street"},"type":"Feature","geometry":{"type":"Point","coordinates":[-119.763061,36.812243]}},{"properties":{"rep? (1 for yes, 0 for no)":"CA","city":"Fresno","name":"Fig Garden Financial","zip":"93711","column_6":1,"geo_score":0.49,"street address":"1222 W. Shaw Ave","id":"a64rvafwb4f5","geo_precision":"street"},"type":"Feature","geometry":{"type":"Point","coordinates":[-119.838385,36.808296]}},{"properties":{"rep? (1 for yes, 0 for no)":"CA","city":"Fresno","name":"Fig Garden Mortgage","zip":"93705","column_6":1,"geo_score":0.319,"street address":"1317 W. Princeton Ave.","id":"a64rvaay7cqg","geo_precision":"street"},"type":"Feature","geometry":{"type":"Point","coordinates":[-119.814223,36.775746]}},{"properties":{"rep? (1 for yes, 0 for no)":"CA","city":"Fresno","name":"Gold Leaf Mortgage","zip":"93711","column_6":1,"geo_score":0.457,"street address":"1141 W. Shaw Ave. Ste. 101","id":"a64rva7alu9d","geo_precision":"street"},"type":"Feature","geometry":{"type":"Point","coordinates":[-119.838385,36.808296]}},{"properties":{"rep? (1 for yes, 0 for no)":"CA","city":"Fresno","name":"Greatland Mortgage Corp.","zip":"93710","column_6":1,"geo_score":0.463,"street address":"5150 N. 6th ST. Ste. 175","id":"a64rvaf6jma5","geo_precision":"street"},"type":"Feature","geometry":{"type":"Point","coordinates":[-119.763219,36.808585]}},{"properties":{"rep? (1 for yes, 0 for no)":"CA","city":"Fresno","name":"Groat Mortgage CO","zip":"93711","column_6":1,"geo_score":0.464,"street address":"1443 W. Pinedale Ave.","id":"a64rvaa1tw8s","geo_precision":"street"},"type":"Feature","geometry":{"type":"Point","coordinates":[-119.812143,36.843388]}},{"properties":{"rep? (1 for yes, 0 for no)":"CA","city":"Fresno","name":"Guarantee Home Loans","zip":"93720","column_6":1,"geo_score":0.476,"street address":"7088 N. Maple","id":"a64rva2v03tc","geo_precision":"street"},"type":"Feature","geometry":{"type":"Point","coordinates":[-119.7452,36.838338]}},{"properties":{"rep? (1 for yes, 0 for no)":"CA","city":"Fresno","name":"Home Star Realty &amp; Mortgage","zip":"93726","column_6":1,"geo_score":0.476,"street address":"4045 N. Fresno St.","id":"a64rva3753fb","geo_precision":"street"},"type":"Feature","geometry":{"type":"Point","coordinates":[-119.781538,36.779679]}},{"properties":{"rep? (1 for yes, 0 for no)":"CA","city":"Fresno","name":"Infinity Homeloan","zip":"93720","column_6":0,"geo_score":0.463,"street address":"7341 N. 1st St. Ste.102","id":"a64rva97ryam","geo_precision":"street"},"type":"Feature","geometry":{"type":"Point","coordinates":[-119.773964,36.840872]}},{"properties":{"rep? (1 for yes, 0 for no)":"CA","city":"Fresno","name":"JR Home Center","zip":"93710","column_6":0,"geo_score":0.436,"street address":"5048 N. Blackstone Ave. Ste. 123","id":"a64rvaap6h5n","geo_precision":"street"},"type":"Feature","geometry":{"type":"Point","coordinates":[-119.790429,36.8085]}},{"properties":{"rep? (1 for yes, 0 for no)":"CA","city":"Fresno","name":"Merrill LYNCH Wealth MGMT","zip":"93704","column_6":0,"geo_score":0.451,"street address":"5260 N. Palm Ave. Ste. 100","id":"a64rvaevvagz","geo_precision":"street"},"type":"Feature","geometry":{"type":"Point","coordinates":[-119.808591,36.764902]}},{"properties":{"rep? (1 for yes, 0 for no)":"CA","city":"Fresno","name":"Mid Valley Financial","zip":"93711","column_6":1,"geo_score":0.339,"street address":"7644 N. Palm","id":"a64rvadpf9te","geo_precision":"street"},"type":"Feature","geometry":{"type":"Point","coordinates":[-119.808266,36.746687]}},{"properties":{"rep? (1 for yes, 0 for no)":"CA","city":"Fresno","name":"Mission Hills Mortgage Bankers","zip":"93710","column_6":1,"geo_score":0.652,"street address":"1312 E. Shaw Ave. Ste.101","id":"a64rvadyufot","geo_precision":"range"},"type":"Feature","geometry":{"type":"Point","coordinates":[-119.787981,36.808512]}},{"properties":{"rep? (1 for yes, 0 for no)":"CA","city":"Fresno","name":"O'Brien &amp; Kelly Mortgage Bankers","zip":"93710","column_6":1,"geo_score":0.652,"street address":"1625 E. Shaw Ave. Ste. 123","id":"a64rvagucugw","geo_precision":"range"},"type":"Feature","geometry":{"type":"Point","coordinates":[-119.787622,36.808511]}},{"properties":{"rep? (1 for yes, 0 for no)":"CA","city":"Fresno","name":"Pacific Line Mortgage","zip":"93711","column_6":1,"geo_score":0.444,"street address":"7600 N. Ingram Ave. Ste. 201","id":"a64rva51qj06","geo_precision":"street"},"type":"Feature","geometry":{"type":"Point","coordinates":[-119.801831,36.846081]}},{"properties":{"rep? (1 for yes, 0 for no)":"CA","city":"Fresno","name":"Precision Mortgage","zip":"93704","column_6":0,"geo_score":0.451,"street address":"5528 N. Palm Ave Ste. 115","id":"a64rvad4bekx","geo_precision":"street"},"type":"Feature","geometry":{"type":"Point","coordinates":[-119.808591,36.764902]}},{"properties":{"rep? (1 for yes, 0 for no)":"CA","city":"Fresno","name":"Premier Mortgage Inc","zip":"93711","column_6":0,"geo_score":0.447,"street address":"7030 N. Fruit Ave. Ste. 105","id":"a64rva2tpj26","geo_precision":"street"},"type":"Feature","geometry":{"type":"Point","coordinates":[-119.817429,36.807455]}},{"properties":{"rep? (1 for yes, 0 for no)":"CA","city":"Fresno","name":"Prospect Mortgage","zip":"93711","column_6":1,"geo_score":0.356,"street address":"7550 N. Palm Ave. Ste.103","id":"a64rva6w0hiy","geo_precision":"street"},"type":"Feature","geometry":{"type":"Point","coordinates":[-119.808266,36.746687]}},{"properties":{"rep? (1 for yes, 0 for no)":"CA","city":"Fresno","name":"Ron Cook Mortgage Broker","zip":"93704","column_6":1,"geo_score":0.482,"street address":"5610 N. Palm Ave","id":"a64rvahmcl83","geo_precision":"street"},"type":"Feature","geometry":{"type":"Point","coordinates":[-119.808591,36.764902]}},{"properties":{"rep? (1 for yes, 0 for no)":"CA","city":"Fresno","name":"Royal Charter Mortgage","zip":"93704","column_6":1,"geo_score":0.476,"street address":"6442 N. Maroa Ave.","id":"a64rvacw0xme","geo_precision":"street"},"type":"Feature","geometry":{"type":"Point","coordinates":[-119.799562,36.765855]}},{"properties":{"rep? (1 for yes, 0 for no)":"CA","city":"Fresno","name":"Sierra Mortgage Service","zip":"93704","column_6":1,"geo_score":0.482,"street address":"516 W. Shaw Ave","id":"a64rvae2miis","geo_precision":"street"},"type":"Feature","geometry":{"type":"Point","coordinates":[-119.792683,36.8085]}},{"properties":{"rep? (1 for yes, 0 for no)":"CA","city":"Fresno","name":"Wells Fargo Home Mortgage","zip":"93720","column_6":1,"geo_score":0.468,"street address":"1111 E. Herndon Ave. Ste 312","id":"a64rvahj1b74","geo_precision":"street"},"type":"Feature","geometry":{"type":"Point","coordinates":[-119.790226,36.837251]}},{"properties":{"rep? (1 for yes, 0 for no)":"CA","city":"Fresno","name":"Wells Fargo Home Mortgage","zip":"93720","column_6":1,"geo_score":0.5,"street address":"7255 N. 1st St.","id":"a64rvagymudp","geo_precision":"street"},"type":"Feature","geometry":{"type":"Point","coordinates":[-119.773964,36.840872]}},{"properties":{"rep? (1 for yes, 0 for no)":"CA","city":"Fresno","name":"Wells Fargo Home Mortgage","zip":"93721","column_6":1,"geo_score":0.833,"street address":"1206 Van Ness Ave","id":"a64rva6g6di2","geo_precision":"range"},"type":"Feature","geometry":{"type":"Point","coordinates":[-119.791347,36.736675]}},{"properties":{"rep? (1 for yes, 0 for no)":"CA","city":"Fresno","name":"Wells Fargo Home Mortgage","zip":"93710","column_6":1,"geo_score":0.49,"street address":"1550 E. Shaw Ave.","id":"a64rvaay0l1v","geo_precision":"street"},"type":"Feature","geometry":{"type":"Point","coordinates":[-119.790429,36.8085]}},{"properties":{"rep? (1 for yes, 0 for no)":"CA","city":"Clovis","name":"Mission Mortgage&amp;Realty","zip":"93612","column_6":1,"geo_score":0.61,"street address":"2700 Clovis Ave. Ste. 108","id":"a64rva30xno8","geo_precision":"range"},"type":"Feature","geometry":{"type":"Point","coordinates":[-119.700607,36.829102]}},{"properties":{"rep? (1 for yes, 0 for no)":"CA","city":"Kingsburg","name":"Federal Land Bank Association","zip":"93631","column_6":1,"geo_score":0.902,"street address":"1580 Ellis St.","id":"a64rvaa14jjk","geo_precision":"range"},"type":"Feature","geometry":{"type":"Point","coordinates":[-119.552097,36.517166]}},{"properties":{"rep? (1 for yes, 0 for no)":"CA","city":"Visalia","name":"Allied Home MTG Capital Corporation","zip":"93277","column_6":0,"geo_score":0.468,"street address":"1500 S. Mooney Blvd.","id":"a64rvag6f0h4","geo_precision":"street"},"type":"Feature","geometry":{"type":"Point","coordinates":[-119.31324,36.272991]}},{"properties":{"rep? (1 for yes, 0 for no)":"CA","city":"Visalia","name":"Country Club Mortgage","zip":"93291","column_6":1,"geo_score":0.36,"street address":"525 N. Hall St. #A","id":"a64rva73aivy","geo_precision":"street"},"type":"Feature","geometry":{"type":"Point","coordinates":[-119.308773,36.330427]}},{"properties":{"rep? (1 for yes, 0 for no)":"CA","city":"Visalia","name":"Kings Mortgage Service Corporate","zip":"93277","column_6":1,"geo_score":0.482,"street address":"3828 W. Caldwell Ave.","id":"a64rvaewq2ib","geo_precision":"street"},"type":"Feature","geometry":{"type":"Point","coordinates":[-119.363361,36.298155]}},{"properties":{"rep? (1 for yes, 0 for no)":"CA","city":"Visalia","name":"Mission Hills Mortgage Bankers","zip":"93277","column_6":1,"geo_score":0.471,"street address":"1810 S. Central St. #A","id":"a64rvaapgp5y","geo_precision":"street"},"type":"Feature","geometry":{"type":"Point","coordinates":[-119.311635,36.325634]}},{"properties":{"rep? (1 for yes, 0 for no)":"CA","city":"Visalia","name":"Wells Fargo Home Mortgage","zip":"93291","column_6":1,"geo_score":0.367,"street address":"206 S. Mooney Blvd.","id":"a64rvab1neos","geo_precision":"street"},"type":"Feature","geometry":{"type":"Point","coordinates":[-119.292316,36.330155]}},{"properties":{"rep? (1 for yes, 0 for no)":"CA","city":"Shaver Lake","name":"Shaver Lake Mortgage","zip":"93664","column_6":0,"geo_score":0.862,"street address":"41777 Tollhouse Rd.","id":"a64rva3pzsgm","geo_precision":"range"},"type":"Feature","geometry":{"type":"Point","coordinates":[-119.319039,37.107234]}},{"properties":{"rep? (1 for yes, 0 for no)":"CA","city":"Oakhurst","name":"Oakhurst Mortgage","zip":"93644","column_6":0,"geo_score":0.659,"street address":"40761 Highway 41","id":"a64rva4ubv4x","geo_precision":"range"},"type":"Feature","geometry":{"type":"Point","coordinates":[-119.643927,37.339692]}},{"properties":{"rep? (1 for yes, 0 for no)":"CA","city":"Oakhurst","name":"Acceptance Capital Mortgage","zip":"93644","column_6":0,"geo_score":0.469,"street address":"40315 Junstion Dr. Ste D","id":"a64rva4qxyfc","geo_precision":"street"},"type":"Feature","geometry":{"type":"Point","coordinates":[-119.484784,36.451841]}},{"properties":{"rep? (1 for yes, 0 for no)":"CA","city":"Oakhurst","name":"Royal Charter Mortgage","zip":"93644","column_6":0,"geo_score":0.659,"street address":"40142 Highway 41","id":"a64rva47z6pi","geo_precision":"range"},"type":"Feature","geometry":{"type":"Point","coordinates":[-119.653125,37.332209]}},{"properties":{"rep? (1 for yes, 0 for no)":"CA","city":"Oakhurst","name":"Yosemite Brokerage Inc.","zip":"93644","column_6":0,"geo_score":0.659,"street address":"40055 Highway 41","id":"a64rvafl970e","geo_precision":"range"},"type":"Feature","geometry":{"type":"Point","coordinates":[-119.655539,37.331106]}},{"properties":{"rep? (1 for yes, 0 for no)":"CA","city":"Oakhurst","name":"Dittion Realty &amp; Loans","zip":"93644","column_6":0,"geo_score":0.659,"street address":"40307 Highway 41","id":"a64rva8ri8na","geo_precision":"range"},"type":"Feature","geometry":{"type":"Point","coordinates":[-119.648988,37.333617]}},{"properties":{"rep? (1 for yes, 0 for no)":"CA","city":"Bakersfield","name":"Agape Mortgage","zip":"93309","column_6":0,"geo_score":0.48,"street address":"5001 California Ave. Ste. 220","id":"a64rva62romp","geo_precision":"street"},"type":"Feature","geometry":{"type":"Point","coordinates":[-119.087711,35.322359]}},{"properties":{"rep? (1 for yes, 0 for no)":"CA","city":"Bakersfield","name":"American First Mortgage","zip":"93314","column_6":0,"geo_score":0.902,"street address":"2012 Majesty Palm ST","id":"a64rvafotl8l","geo_precision":"range"},"type":"Feature","geometry":{"type":"Point","coordinates":[-119.146351,35.378113]}},{"properties":{"rep? (1 for yes, 0 for no)":"CA","city":"Bakersfield","name":"Big Valley Mortgage","zip":"93309","column_6":0,"geo_score":0.601,"street address":"5301 Truxtun Ave.","id":"a64rvadhee3h","geo_precision":"street"},"type":"Feature","geometry":{"type":"Point","coordinates":[-119.069681,35.363574]}},{"properties":{"rep? (1 for yes, 0 for no)":"CA","city":"Bakersfield","name":"Bridgeport Home Mortgage","zip":"93309","column_6":0,"geo_score":0.48,"street address":"333 Palmer Dr. Ste. 230","id":"a64rvacy8ibi","geo_precision":"street"},"type":"Feature","geometry":{"type":"Point","coordinates":[-119.087711,35.322359]}},{"properties":{"rep? (1 for yes, 0 for no)":"CA","city":"Bakersfield","name":"Buena Vista Mortgage","zip":"93311","column_6":0,"geo_score":0.429,"street address":"9100 Ming Ave. Ste 105","id":"a64rvaaoryaz","geo_precision":"street"},"type":"Feature","geometry":{"type":"Point","coordinates":[-119.12545,35.333374]}},{"properties":{"rep? (1 for yes, 0 for no)":"CA","city":"Bakersfield","name":"Castle &amp; Cooke Mortgage","zip":"93311","column_6":0,"geo_score":0.39,"street address":"10000 Stockdale Hwy. Ste.145","id":"a64rva4c7e5y","geo_precision":"street"},"type":"Feature","geometry":{"type":"Point","coordinates":[-119.092241,35.354371]}},{"properties":{"rep? (1 for yes, 0 for no)":"CA","city":"Bakersfield","name":"Equity 1 loans","zip":"93309","column_6":0,"geo_score":0.683,"street address":"5405 Stockdale Hwy. Ste. 108","id":"a64rva2eg557","geo_precision":"range"},"type":"Feature","geometry":{"type":"Point","coordinates":[-119.076661,35.355089]}},{"properties":{"rep? (1 for yes, 0 for no)":"CA","city":"Bakersfield","name":"Golden Empire Mortgage INC","zip":"93309","column_6":1,"geo_score":0.48,"street address":"1200 Discovery Dr. Ste. 300","id":"a64rva8gx3ad","geo_precision":"street"},"type":"Feature","geometry":{"type":"Point","coordinates":[-119.087711,35.322359]}},{"properties":{"rep? (1 for yes, 0 for no)":"CA","city":"Bakersfield","name":"Home Mortgage CO","zip":"93301","column_6":0,"geo_score":0.392,"street address":"1800 Westwind Dr. Ste. 405","id":"a64rva49tz7z","geo_precision":"street"},"type":"Feature","geometry":{"type":"Point","coordinates":[-119.042552,35.37386]}},{"properties":{"rep? (1 for yes, 0 for no)":"CA","city":"Bakersfield","name":"Karpe Mortgage Loans","zip":"93309","column_6":1,"geo_score":0.902,"street address":"4000 Ming Ave.","id":"a64rvafzhmt4","geo_precision":"range"},"type":"Feature","geometry":{"type":"Point","coordinates":[-119.047819,35.339544]}},{"properties":{"rep? (1 for yes, 0 for no)":"CA","city":"Bakersfield","name":"Medallion Mortage","zip":"93309","column_6":0,"geo_score":0.48,"street address":"5055 California Ave. Ste. 100","id":"a64rva943z9l","geo_precision":"street"},"type":"Feature","geometry":{"type":"Point","coordinates":[-119.087711,35.322359]}},{"properties":{"rep? (1 for yes, 0 for no)":"CA","city":"Bakersfield","name":"Merrill LYNCH Wealth MGMT","zip":"93309","column_6":0,"geo_score":0.48,"street address":"5080 California Ave. Ste. 102","id":"a64rvaaompbu","geo_precision":"street"},"type":"Feature","geometry":{"type":"Point","coordinates":[-119.087711,35.322359]}},{"properties":{"rep? (1 for yes, 0 for no)":"CA","city":"Bakersfield","name":"Platinum Home Loans","zip":"93309","column_6":1,"geo_score":0.902,"street address":"4520 California Ave.","id":"a64rvaatve5q","geo_precision":"range"},"type":"Feature","geometry":{"type":"Point","coordinates":[-119.052702,35.366119]}},{"properties":{"rep? (1 for yes, 0 for no)":"CA","city":"Bakersfield","name":"SGA Mortgage","zip":"93312","column_6":0,"geo_score":0.367,"street address":"9711 Holland St. Ste.9","id":"a64rva418erb","geo_precision":"street"},"type":"Feature","geometry":{"type":"Point","coordinates":[-119.109922,35.379684]}},{"properties":{"rep? (1 for yes, 0 for no)":"CA","city":"Bakersfield","name":"The Mortgage House","zip":"93311","column_6":1,"geo_score":0.902,"street address":"8500 Stockdale hwy.","id":"a64rvadi9wj5","geo_precision":"range"},"type":"Feature","geometry":{"type":"Point","coordinates":[-119.097458,35.354394]}},{"properties":{"rep? (1 for yes, 0 for no)":"CA","city":"Bakersfield","name":"The Mortgage House Inc.","zip":"93309","column_6":1,"geo_score":0.429,"street address":"4900 California Ave. Ste. B","id":"a64rvag6srbp","geo_precision":"street"},"type":"Feature","geometry":{"type":"Point","coordinates":[-119.04251,35.368193]}},{"properties":{"rep? (1 for yes, 0 for no)":"CA","city":"Bakersfield","name":"Westwind Mortgage","zip":"93301","column_6":0,"geo_score":0.821,"street address":"1810 Westwind Dr.","id":"a64rva8wzx3u","geo_precision":"range"},"type":"Feature","geometry":{"type":"Point","coordinates":[-119.042545,35.375628]}},{"properties":{"rep? (1 for yes, 0 for no)":"CA","city":"California City","name":"Mountain Mortgage","zip":"93505","column_6":0,"geo_score":0.902,"street address":"8046 California City Blvd.","id":"a64rva8itkzx","geo_precision":"range"},"type":"Feature","geometry":{"type":"Point","coordinates":[-117.984913,35.12581]}},{"properties":{"rep? (1 for yes, 0 for no)":"CA","city":"Delano","name":"Citizens Business Bank","zip":"93215","column_6":0,"geo_score":0.902,"street address":"1613 Inyo St.","id":"a64rva87fg49","geo_precision":"range"},"type":"Feature","geometry":{"type":"Point","coordinates":[-119.248078,35.776099]}},{"properties":{"rep? (1 for yes, 0 for no)":"CA","city":"Shafter","name":"Sequoia Pacific Lending Inc.","zip":"93263","column_6":0,"geo_score":0.545,"street address":"403 Ellie Ct.","id":"a64rvadcqska","geo_precision":"zip"},"type":"Feature","geometry":{"type":"Point","coordinates":[-119.284554,35.511347]}},{"properties":{"rep? (1 for yes, 0 for no)":"CA","city":"Taft","name":"Continental TRUST of Taft","zip":"93268","column_6":0,"geo_score":0.814,"street address":"111 Asher Ave,","id":"a64rva3pckv6","geo_precision":"range"},"type":"Feature","geometry":{"type":"Point","coordinates":[-119.459818,35.136738]}},{"properties":{"rep? (1 for yes, 0 for no)":"CA","city":"Tehachapi","name":"American Pacific Mortgage","zip":"93561","column_6":0,"geo_score":0.549,"street address":"20406 Brian Way Ste. 4A","id":"a64rva7954y1","geo_precision":"street"},"type":"Feature","geometry":{"type":"Point","coordinates":[-118.49178,35.125158]}},{"properties":{"rep? (1 for yes, 0 for no)":"CA","city":"Tehachapi","name":"Best Rate Mortgage Center","zip":"93561","column_6":0,"geo_score":0.549,"street address":"20430 Brian Way Ste. 1A","id":"a64rvagkuhb0","geo_precision":"street"},"type":"Feature","geometry":{"type":"Point","coordinates":[-118.49178,35.125158]}},{"properties":{"rep? (1 for yes, 0 for no)":"CA","city":"Exeter","name":"Absolute Lending","zip":"93221","column_6":0,"geo_score":0.463,"street address":"19648 Ave. 304","id":"a64rvahtv26h","geo_precision":"street"},"type":"Feature","geometry":{"type":"Point","coordinates":[-119.143469,36.340643]}},{"properties":{"rep? (1 for yes, 0 for no)":"CA","city":"Exeter","name":"Buyers Choice Mortgage Inc.","zip":"93221","column_6":0,"geo_score":0.339,"street address":"449 E. Maple St.","id":"a64rva9rzdei","geo_precision":"street"},"type":"Feature","geometry":{"type":"Point","coordinates":[-119.144135,36.293738]}},{"properties":{"rep? (1 for yes, 0 for no)":"CA","city":"Exeter","name":"Mission Hills Mortgage Bank","zip":"93221","column_6":0,"geo_score":0.329,"street address":"508 N. Kaweah Ave.","id":"a64rva21ft7m","geo_precision":"street"},"type":"Feature","geometry":{"type":"Point","coordinates":[-119.13598,36.299531]}},{"properties":{"rep? (1 for yes, 0 for no)":"CA","city":"Exeter","name":"Osborne Mortgage Company","zip":"93221","column_6":0,"geo_score":0.393,"street address":"125 S. F St","id":"a64rva1giqmn","geo_precision":"street"},"type":"Feature","geometry":{"type":"Point","coordinates":[-119.142806,36.297105]}},{"properties":{"rep? (1 for yes, 0 for no)":"CA","city":"Exeter","name":"PNC Mortgage","zip":"93221","column_6":0,"geo_score":0.329,"street address":"508 N. Kaweah Ave.","id":"a64rva5a46c0","geo_precision":"street"},"type":"Feature","geometry":{"type":"Point","coordinates":[-119.13598,36.299531]}},{"properties":{"rep? (1 for yes, 0 for no)":"CA","city":"Lindsay","name":"Supreme Lending","zip":"93247","column_6":0,"geo_score":0.344,"street address":"295 W. Hermosa St.","id":"a64rvaf0hkdi","geo_precision":"street"},"type":"Feature","geometry":{"type":"Point","coordinates":[-119.092607,36.204542]}},{"properties":{"rep? (1 for yes, 0 for no)":"CA","city":"Porterville","name":"Platinum Mortgage Services","zip":"93257","column_6":1,"geo_score":0.373,"street address":"16 W. Oak Ave.","id":"a64rva7whwfi","geo_precision":"street"},"type":"Feature","geometry":{"type":"Point","coordinates":[-119.016273,36.067887]}},{"properties":{"rep? (1 for yes, 0 for no)":"CA","city":"Porterville","name":"New World Mortgage","zip":"93257","column_6":1,"geo_score":0.359,"street address":"362 N. Porter Rd.","id":"a64rvaclb0l1","geo_precision":"street"},"type":"Feature","geometry":{"type":"Point","coordinates":[-119.038817,36.067752]}},{"properties":{"rep? (1 for yes, 0 for no)":"CA","city":"Porterville","name":"Country Club Mortgage","zip":"93257","column_6":1,"geo_score":0.355,"street address":"1150 W. Morton Ave. Ste. A","id":"a64rva531n36","geo_precision":"street"},"type":"Feature","geometry":{"type":"Point","coordinates":[-119.016763,36.073087]}},{"properties":{"rep? (1 for yes, 0 for no)":"CA","city":"Tulare","name":"Tulare County Mortgage Service","zip":"93274","column_6":1,"geo_score":0.417,"street address":"144 S. L St,","id":"a64rva4w1avd","geo_precision":"street"},"type":"Feature","geometry":{"type":"Point","coordinates":[-119.344838,36.208186]}},{"properties":{"rep? (1 for yes, 0 for no)":"CA","city":"Tulare","name":"All Valley Mortgage","zip":"93274","column_6":1,"geo_score":0.417,"street address":"256 N. J St.","id":"a64rvad78e96","geo_precision":"street"},"type":"Feature","geometry":{"type":"Point","coordinates":[-119.348,36.210491]}},{"properties":{"rep? (1 for yes, 0 for no)":"CA","city":"Hanford","name":"Maciel Mortgage","zip":"93230","column_6":1,"geo_score":0.375,"street address":"772 N. Douty St.","id":"a64rva8jk5vc","geo_precision":"street"},"type":"Feature","geometry":{"type":"Point","coordinates":[-119.645688,36.326609]}},{"properties":{"rep? (1 for yes, 0 for no)":"CA","city":"Hanford","name":"Federal Land Bank Association","zip":"93230","column_6":1,"geo_score":0.393,"street address":"1001 E. 3rd St.","id":"a64rvacmtjpf","geo_precision":"street"},"type":"Feature","geometry":{"type":"Point","coordinates":[-119.644719,36.322497]}},{"properties":{"rep? (1 for yes, 0 for no)":"CA","city":"Hanford","name":"Kings Mortgage Brokers","zip":"93230","column_6":1,"geo_score":0.375,"street address":"1507 N. 11th Ave.","id":"a64rva2nfkwk","geo_precision":"street"},"type":"Feature","geometry":{"type":"Point","coordinates":[-119.655021,36.324604]}},{"properties":{"rep? (1 for yes, 0 for no)":"CA","city":"Lemoore","name":"Navy Federal C.U.","zip":"93245","column_6":1,"geo_score":0.56,"street address":"855 N. Lemoore Ave. Ste. 190","id":"a64rvaf6ksn6","geo_precision":"range"},"type":"Feature","geometry":{"type":"Point","coordinates":[-119.780862,36.300665]}},{"properties":{"rep? (1 for yes, 0 for no)":"CA","city":"Ridgecrest","name":"Coldwell Banker Home Loans","zip":"93555","column_6":0,"geo_score":0.459,"street address":"710 N. China Lake Blvd.","id":"a64rvab4gxpc","geo_precision":"street"},"type":"Feature","geometry":{"type":"Point","coordinates":[-117.669975,35.623811]}},{"properties":{"rep? (1 for yes, 0 for no)":"CA","city":"Ridgecrest","name":"Guild Mortgage Company","zip":"93555","column_6":0,"geo_score":0.468,"street address":"901 N. Heritage Dr.","id":"a64rva6low9e","geo_precision":"street"},"type":"Feature","geometry":{"type":"Point","coordinates":[-117.67652,35.640802]}},{"properties":{"rep? (1 for yes, 0 for no)":"CA","city":"Ridgecrest","name":"Academy Mortgage","zip":"93555","column_6":0,"geo_score":0.471,"street address":"124 S. Gemstone St.","id":"a64rva4wdf90","geo_precision":"street"},"type":"Feature","geometry":{"type":"Point","coordinates":[-117.667774,35.620664]}},{"properties":{"rep? (1 for yes, 0 for no)":"CA","city":"Ridgecrest","name":"Shaffer Mortgage","zip":"93555","column_6":0,"geo_score":0.902,"street address":"139 Balsam St.","id":"a64rvaf497ml","geo_precision":"range"},"type":"Feature","geometry":{"type":"Point","coordinates":[-117.671173,35.623246]}}],"is_temporal":false,"author":{"url":"","metadata":null,"contact_name":null,"contact_address":null,"source":null,"contact_phone":null},"source":"","pagination":{"sort":null,"start":0,"total":85,"limit":1000000},"state":"complete","tags":"","published":"2014-08-14T15:44:35-04:00","id":220753}