{"type":"FeatureCollection","data_type":"Dataset","url_type":null,"permissions":[{"permissions":{"download":true,"view":true},"group_id":"everyone"}],"classification":null,"title":"James_-_Credit_Unions_-_ran_March_27th","count":80,"stream_id":220738,"contributor":{"url":"http://geocommons.com/users/39447","name":"sam.felipe"},"data_attributes":null,"calculation_params":null,"icon_link":null,"link":"http://geocommons.com/overlays/220738.json","extent":[-118.032,33.4888,-117.606,33.8871],"geometry_types":["point"],"unique_name":null,"name":"James_-_Credit_Unions_-_ran_March_27th","feature_count":80,"description":"","next_feature":null,"is_raster":false,"short_classification":"Y","stats":{"rep? (1 for yes, 0 for no)":{"max":0,"mean":0.0,"variance":0.0,"stdev":0.0,"min":0,"median":0}},"features":[{"properties":{"rep? (1 for yes, 0 for no)":0,"city":"Newport Beach","zip":"92663","geo_score":0.712,"street address":"455 Old Newport Blvd # 100","id":"a6q4vgdm2w9i","geo_precision":"street"},"type":"Feature","geometry":{"type":"Point","coordinates":[-117.929676,33.620104]}},{"properties":{"rep? (1 for yes, 0 for no)":0,"city":"Orange","zip":"92868","geo_score":0.78,"street address":"1010 W Chapman Ave","id":"a6q4vgb7l3t1","geo_precision":"range"},"type":"Feature","geometry":{"type":"Point","coordinates":[-117.86298,33.787872]}},{"properties":{"rep? (1 for yes, 0 for no)":0,"city":"Costa Mesa","zip":"92626","geo_score":0.471,"street address":"3333 Fairview Rd # A190","id":"a6q4vgfoxovm","geo_precision":"street"},"type":"Feature","geometry":{"type":"Point","coordinates":[-117.90778,33.66321]}},{"properties":{"rep? (1 for yes, 0 for no)":0,"city":"Irvine","zip":"92606","geo_score":0.902,"street address":"1212 Alton Pkwy","id":"a6q4vgivmkva","geo_precision":"range"},"type":"Feature","geometry":{"type":"Point","coordinates":[-117.852577,33.702709]}},{"properties":{"rep? (1 for yes, 0 for no)":0,"city":"Orange","zip":"92868","geo_score":0.78,"street address":"1918 W Chapman Ave","id":"a6q4vgdr69it","geo_precision":"range"},"type":"Feature","geometry":{"type":"Point","coordinates":[-117.872323,33.787884]}},{"properties":{"rep? (1 for yes, 0 for no)":0,"city":"Santa Ana","zip":"92705","geo_score":0.831,"street address":"666 E Dyer Rd","id":"a6q4vgbankn6","geo_precision":"range"},"type":"Feature","geometry":{"type":"Point","coordinates":[-117.857249,33.70857]}},{"properties":{"rep? (1 for yes, 0 for no)":0,"city":"Aliso Viejo","zip":"92656","geo_score":0.522,"street address":"3 Polaris Way","id":"a6q4vge2effy","geo_precision":"street"},"type":"Feature","geometry":{"type":"Point","coordinates":[-117.900191,33.622925]}},{"properties":{"rep? (1 for yes, 0 for no)":0,"city":"Anaheim","zip":"92805","geo_score":0.902,"street address":"522 E Vermont Ave","id":"a6q4vgh24cne","geo_precision":"range"},"type":"Feature","geometry":{"type":"Point","coordinates":[-117.905094,33.824292]}},{"properties":{"rep? (1 for yes, 0 for no)":0,"city":"Santa Ana","zip":"92705","geo_score":0.805,"street address":"1224 E Warner Ave","id":"a6q4vgcb6dzy","geo_precision":"range"},"type":"Feature","geometry":{"type":"Point","coordinates":[-117.85608,33.71594]}},{"properties":{"rep? (1 for yes, 0 for no)":0,"city":"Santa Ana","zip":"92704","geo_score":0.902,"street address":"1317 W Warner Ave","id":"a6q4vghk6myp","geo_precision":"range"},"type":"Feature","geometry":{"type":"Point","coordinates":[-117.88558,33.716129]}},{"properties":{"rep? (1 for yes, 0 for no)":0,"city":"Newport Beach","zip":"92660","geo_score":0.902,"street address":"4120 Birch St","id":"a6q4vgflsbzm","geo_precision":"range"},"type":"Feature","geometry":{"type":"Point","coordinates":[-117.868723,33.665801]}},{"properties":{"rep? (1 for yes, 0 for no)":0,"city":"Costa Mesa","zip":"92626","geo_score":0.902,"street address":"2701 Harbor Blvd","id":"a6q4vg9h6q6x","geo_precision":"range"},"type":"Feature","geometry":{"type":"Point","coordinates":[-117.91933,33.67042]}},{"properties":{"rep? (1 for yes, 0 for no)":0,"city":"Newport Beach","zip":"92660","geo_score":0.902,"street address":"4041 Macarthur Blvd","id":"a6q4vgf1emq6","geo_precision":"range"},"type":"Feature","geometry":{"type":"Point","coordinates":[-117.863369,33.661766]}},{"properties":{"rep? (1 for yes, 0 for no)":0,"city":"Santa Ana","zip":"92705","geo_score":0.831,"street address":"1400 S Grand Ave","id":"a6q4vgg2xn8t","geo_precision":"range"},"type":"Feature","geometry":{"type":"Point","coordinates":[-117.850456,33.729578]}},{"properties":{"rep? (1 for yes, 0 for no)":0,"city":"Newport Beach","zip":"92660","geo_score":0.902,"street address":"5020 Campus Dr","id":"a6q4vg8s6z9n","geo_precision":"range"},"type":"Feature","geometry":{"type":"Point","coordinates":[-117.857226,33.668178]}},{"properties":{"rep? (1 for yes, 0 for no)":0,"city":"Lake Forest","zip":"92630","geo_score":0.824,"street address":"23021 Lake Center Dr","id":"a6q4vggfizna","geo_precision":"range"},"type":"Feature","geometry":{"type":"Point","coordinates":[-117.717416,33.628237]}},{"properties":{"rep? (1 for yes, 0 for no)":0,"city":"Tustin","zip":"92780","geo_score":0.902,"street address":"14511 Franklin Ave","id":"a6q4vgns40ix","geo_precision":"range"},"type":"Feature","geometry":{"type":"Point","coordinates":[-117.807096,33.717157]}},{"properties":{"rep? (1 for yes, 0 for no)":0,"city":"Laguna Niguel","zip":"92677","geo_score":0.298,"street address":"24000 Avila Rd # U120","id":"a6q4vgbl3148","geo_precision":"street"},"type":"Feature","geometry":{"type":"Point","coordinates":[-117.711364,33.563097]}},{"properties":{"rep? (1 for yes, 0 for no)":0,"city":"Westminster","zip":"92683","geo_score":0.497,"street address":"16468 Beach Blvd","id":"a6q4vg8s51yu","geo_precision":"street"},"type":"Feature","geometry":{"type":"Point","coordinates":[-117.9892,33.7302]}},{"properties":{"rep? (1 for yes, 0 for no)":0,"city":"Fountain Valley","zip":"92708","geo_score":0.514,"street address":"18122 Brookhurst St Ste A - B","id":"a6q4vglbgnpw","geo_precision":"street"},"type":"Feature","geometry":{"type":"Point","coordinates":[-117.96906,33.70538]}},{"properties":{"rep? (1 for yes, 0 for no)":0,"city":"Tustin","zip":"92780","geo_score":0.805,"street address":"504 E 1st St","id":"a6q4vgnv6ha2","geo_precision":"range"},"type":"Feature","geometry":{"type":"Point","coordinates":[-117.818708,33.74567]}},{"properties":{"rep? (1 for yes, 0 for no)":0,"city":"Fountain Valley","zip":"92708","geo_score":0.902,"street address":"10200 Slater Ave","id":"a6q4vgkhz53j","geo_precision":"range"},"type":"Feature","geometry":{"type":"Point","coordinates":[-117.950675,33.709025]}},{"properties":{"rep? (1 for yes, 0 for no)":0,"city":"Garden Grove","zip":"92840","geo_score":0.902,"street address":"11390 Stanford Ave","id":"a6q4vga83tmr","geo_precision":"range"},"type":"Feature","geometry":{"type":"Point","coordinates":[-117.933942,33.777871]}},{"properties":{"rep? (1 for yes, 0 for no)":0,"city":"Garden Grove","zip":"92844","geo_score":0.902,"street address":"8821 Garden Grove Blvd","id":"a6q4vgms0nv7","geo_precision":"range"},"type":"Feature","geometry":{"type":"Point","coordinates":[-117.978857,33.773887]}},{"properties":{"rep? (1 for yes, 0 for no)":0,"city":"Anaheim","zip":"92806","geo_score":0.78,"street address":"1475 S State College Blvd","id":"a6q4vgluzuq7","geo_precision":"range"},"type":"Feature","geometry":{"type":"Point","coordinates":[-117.889231,33.811513]}},{"properties":{"rep? (1 for yes, 0 for no)":0,"city":"Fountain Valley","zip":"92708","geo_score":0.902,"street address":"17860 Newhope St","id":"a6q4vggmvqqb","geo_precision":"range"},"type":"Feature","geometry":{"type":"Point","coordinates":[-117.934043,33.704662]}},{"properties":{"rep? (1 for yes, 0 for no)":0,"city":"Westminster","zip":"92683","geo_score":0.814,"street address":"540 Westminster MALL","id":"a6q4vgouhnzx","geo_precision":"range"},"type":"Feature","geometry":{"type":"Point","coordinates":[-118.014515,33.748915]}},{"properties":{"rep? (1 for yes, 0 for no)":0,"city":"Newport Beach","zip":"92660","geo_score":0.902,"street address":"1401 Quail St","id":"a6q4vgekfbku","geo_precision":"range"},"type":"Feature","geometry":{"type":"Point","coordinates":[-117.867144,33.659926]}},{"properties":{"rep? (1 for yes, 0 for no)":0,"city":"Santa Ana","zip":"92705","geo_score":0.5,"street address":"9547 Bolsa Av","id":"a6q4vgav7alz","geo_precision":"street"},"type":"Feature","geometry":{"type":"Point","coordinates":[-117.939669,33.74502]}},{"properties":{"rep? (1 for yes, 0 for no)":0,"city":"Westminster","zip":"92683","geo_score":0.716,"street address":"9547 Bolsa Ave Ste B","id":"a6q4vghptxr7","geo_precision":"range"},"type":"Feature","geometry":{"type":"Point","coordinates":[-117.96268,33.744887]}},{"properties":{"rep? (1 for yes, 0 for no)":0,"city":"Santa Ana","zip":"92707","geo_score":0.523,"street address":"3 MacArthur Place Suite 650","id":"a6q4vgfs1shr","geo_precision":"street"},"type":"Feature","geometry":{"type":"Point","coordinates":[-117.860811,33.698139]}},{"properties":{"rep? (1 for yes, 0 for no)":0,"city":"Irvine","zip":"92614","geo_score":0.902,"street address":"17222 Von Karman Ave","id":"a6q4vggqgnt1","geo_precision":"range"},"type":"Feature","geometry":{"type":"Point","coordinates":[-117.840526,33.691035]}},{"properties":{"rep? (1 for yes, 0 for no)":0,"city":"Santa Ana","zip":"92705","geo_score":0.538,"street address":"2030 E 4th St # 108","id":"a6q4vgkv9g55","geo_precision":"street"},"type":"Feature","geometry":{"type":"Point","coordinates":[-117.843,33.748129]}},{"properties":{"rep? (1 for yes, 0 for no)":0,"city":"Fountain Valley","zip":"92708","geo_score":0.902,"street address":"18709 Brookhurst St","id":"a6q4vggck0u8","geo_precision":"range"},"type":"Feature","geometry":{"type":"Point","coordinates":[-117.954049,33.690846]}},{"properties":{"rep? (1 for yes, 0 for no)":0,"city":"Westminster","zip":"92683","geo_score":0.814,"street address":"524 Westminster MALL","id":"a6q4vgnv6o9r","geo_precision":"range"},"type":"Feature","geometry":{"type":"Point","coordinates":[-118.014566,33.748728]}},{"properties":{"rep? (1 for yes, 0 for no)":0,"city":"Newport Beach","zip":"92660","geo_score":0.902,"street address":"870 Santa Barbara Dr","id":"a6q4vgmexd3m","geo_precision":"range"},"type":"Feature","geometry":{"type":"Point","coordinates":[-117.880289,33.62124]}},{"properties":{"rep? (1 for yes, 0 for no)":0,"city":"Newport Beach","zip":"92663","geo_score":0.429,"street address":"425 Old Newport Blvd # A","id":"a6q4vgkm3gvt","geo_precision":"street"},"type":"Feature","geometry":{"type":"Point","coordinates":[-117.928649,33.62124]}},{"properties":{"rep? (1 for yes, 0 for no)":0,"city":"Fullerton","zip":"92832","geo_score":0.902,"street address":"230 W Wilshire Ave","id":"a6q4vgleehsb","geo_precision":"range"},"type":"Feature","geometry":{"type":"Point","coordinates":[-117.927158,33.872362]}},{"properties":{"rep? (1 for yes, 0 for no)":0,"city":"Huntington Beach","zip":"92647","geo_score":0.902,"street address":"7812 Edinger Ave","id":"a6q4vg978d79","geo_precision":"range"},"type":"Feature","geometry":{"type":"Point","coordinates":[-117.992569,33.730185]}},{"properties":{"rep? (1 for yes, 0 for no)":0,"city":"Huntington Beach","zip":"92649","geo_score":0.708,"street address":"5912 Bolsa Ave","id":"a6q4vgixvhak","geo_precision":"street"},"type":"Feature","geometry":{"type":"Point","coordinates":[-118.032042,33.74435]}},{"properties":{"rep? (1 for yes, 0 for no)":0,"city":"Santa Ana","zip":"92705","geo_score":0.831,"street address":"1701 E Saint Andrew Pl","id":"a6q4vggisxpf","geo_precision":"range"},"type":"Feature","geometry":{"type":"Point","coordinates":[-117.84567,33.72264]}},{"properties":{"rep? (1 for yes, 0 for no)":0,"city":"Fountain Valley","zip":"92708","geo_score":0.902,"street address":"18651 Brookhurst St","id":"a6q4vgdsivn5","geo_precision":"range"},"type":"Feature","geometry":{"type":"Point","coordinates":[-117.954067,33.691814]}},{"properties":{"rep? (1 for yes, 0 for no)":0,"city":"Santa Ana","zip":"92701","geo_score":0.902,"street address":"856 N Ross St","id":"a6q4vgcxlnyg","geo_precision":"range"},"type":"Feature","geometry":{"type":"Point","coordinates":[-117.87251,33.752558]}},{"properties":{"rep? (1 for yes, 0 for no)":0,"city":"Anaheim","zip":"92806","geo_score":0.902,"street address":"2390 E Orangewood Ave","id":"a6q4vgjeql3p","geo_precision":"range"},"type":"Feature","geometry":{"type":"Point","coordinates":[-117.882755,33.796128]}},{"properties":{"rep? (1 for yes, 0 for no)":0,"city":"Mission Viejo","zip":"92692","geo_score":0.902,"street address":"28221 Marguerite Pkwy","id":"a6q4vgbb2x3l","geo_precision":"range"},"type":"Feature","geometry":{"type":"Point","coordinates":[-117.67084,33.552263]}},{"properties":{"rep? (1 for yes, 0 for no)":0,"city":"Newport Beach","zip":"92660","geo_score":0.902,"street address":"280 Newport Center Dr","id":"a6q4vgi8wme4","geo_precision":"range"},"type":"Feature","geometry":{"type":"Point","coordinates":[-117.8743,33.612847]}},{"properties":{"rep? (1 for yes, 0 for no)":0,"city":"Irvine","zip":"92612","geo_score":0.78,"street address":"18600 Von Karman Ave","id":"a6q4vgnh11ce","geo_precision":"range"},"type":"Feature","geometry":{"type":"Point","coordinates":[-117.854332,33.674928]}},{"properties":{"rep? (1 for yes, 0 for no)":0,"city":"Anaheim","zip":"92806","geo_score":0.815,"street address":"2190 S Towne Centre Pl Ste 100","id":"a6q4vgcbfp9a","geo_precision":"range"},"type":"Feature","geometry":{"type":"Point","coordinates":[-117.881552,33.793807]}},{"properties":{"rep? (1 for yes, 0 for no)":0,"city":"Anaheim","zip":"92806","geo_score":0.902,"street address":"2190 S Towne Centre Pl","id":"a6q4vgf4ja4u","geo_precision":"range"},"type":"Feature","geometry":{"type":"Point","coordinates":[-117.881552,33.793807]}},{"properties":{"rep? (1 for yes, 0 for no)":0,"city":"Tustin","zip":"92780","geo_score":0.902,"street address":"1631 Edinger Ave","id":"a6q4vgnvwymx","geo_precision":"range"},"type":"Feature","geometry":{"type":"Point","coordinates":[-117.824427,33.720348]}},{"properties":{"rep? (1 for yes, 0 for no)":0,"city":"Aliso Viejo","zip":"92656","geo_score":0.707,"street address":"26970 Aliso Viejo Pkwy # 150","id":"a6q4vgjj81jj","geo_precision":"street"},"type":"Feature","geometry":{"type":"Point","coordinates":[-117.72005,33.58723]}},{"properties":{"rep? (1 for yes, 0 for no)":0,"city":"Santa Ana","zip":"92705","geo_score":0.831,"street address":"431 N Tustin Ave","id":"a6q4vgfoh2h0","geo_precision":"range"},"type":"Feature","geometry":{"type":"Point","coordinates":[-117.834143,33.748525]}},{"properties":{"rep? (1 for yes, 0 for no)":0,"city":"Lake Forest","zip":"92630","geo_score":0.824,"street address":"23354 El Toro Rd","id":"a6q4vglx6flj","geo_precision":"range"},"type":"Feature","geometry":{"type":"Point","coordinates":[-117.696635,33.62359]}},{"properties":{"rep? (1 for yes, 0 for no)":0,"city":"Orange","zip":"92865","geo_score":0.902,"street address":"1700 N Tustin St","id":"a6q4vgi3zwge","geo_precision":"range"},"type":"Feature","geometry":{"type":"Point","coordinates":[-117.835856,33.815841]}},{"properties":{"rep? (1 for yes, 0 for no)":0,"city":"Laguna Niguel","zip":"92677","geo_score":0.584,"street address":"32341 Golden Lantern Ste A","id":"a6q4vgi8ux6g","geo_precision":"street"},"type":"Feature","geometry":{"type":"Point","coordinates":[-117.684982,33.529581]}},{"properties":{"rep? (1 for yes, 0 for no)":0,"city":"Santa Ana","zip":"92701","geo_score":0.88,"street address":"800 W Santa Ana Blvd","id":"a6q4vg8g5fvv","geo_precision":"range"},"type":"Feature","geometry":{"type":"Point","coordinates":[-117.86022,33.75138]}},{"properties":{"rep? (1 for yes, 0 for no)":0,"city":"Fullerton","zip":"92831","geo_score":0.902,"street address":"800 N State College Blvd","id":"a6q4vgf7w85d","geo_precision":"range"},"type":"Feature","geometry":{"type":"Point","coordinates":[-117.889638,33.877809]}},{"properties":{"rep? (1 for yes, 0 for no)":0,"city":"Santa Ana","zip":"92706","geo_score":0.476,"street address":"2115 N. Broadway","id":"a6q4vg8h73ej","geo_precision":"street"},"type":"Feature","geometry":{"type":"Point","coordinates":[-117.869696,33.755753]}},{"properties":{"rep? (1 for yes, 0 for no)":0,"city":"Irvine","zip":"92604","geo_score":0.476,"street address":"5305 Alton Pkwy # A","id":"a6q4vgjdc9h8","geo_precision":"street"},"type":"Feature","geometry":{"type":"Point","coordinates":[-117.847127,33.698962]}},{"properties":{"rep? (1 for yes, 0 for no)":0,"city":"Garden Grove","zip":"92843","geo_score":0.805,"street address":"13008 Harbor Blvd","id":"a6q4vgiwkmg1","geo_precision":"range"},"type":"Feature","geometry":{"type":"Point","coordinates":[-117.920196,33.774264]}},{"properties":{"rep? (1 for yes, 0 for no)":0,"city":"Tustin","zip":"92780","geo_score":0.708,"street address":"15442 Newport Ave","id":"a6q4vgfdqbw0","geo_precision":"street"},"type":"Feature","geometry":{"type":"Point","coordinates":[-117.832838,33.727411]}},{"properties":{"rep? (1 for yes, 0 for no)":0,"city":"Fountain Valley","zip":"92708","geo_score":0.902,"street address":"18651 Brookhurst St","id":"a6q4vga1bjkn","geo_precision":"range"},"type":"Feature","geometry":{"type":"Point","coordinates":[-117.954067,33.691814]}},{"properties":{"rep? (1 for yes, 0 for no)":0,"city":"Mission Viejo","zip":"92691","geo_score":0.545,"street address":"26440 La Alameda","id":"a6q4vggz3f5b","geo_precision":"street"},"type":"Feature","geometry":{"type":"Point","coordinates":[-117.760215,33.718353]}},{"properties":{"rep? (1 for yes, 0 for no)":0,"city":"Aliso Viejo","zip":"92656","geo_score":0.321,"street address":"26892 La Paz Rd","id":"a6q4vgce25lc","geo_precision":"street"},"type":"Feature","geometry":{"type":"Point","coordinates":[-117.81404,33.678926]}},{"properties":{"rep? (1 for yes, 0 for no)":0,"city":"Rancho Santa Margarita","zip":"92688","geo_score":0.82,"street address":"30092 Santa Margarita Pkwy","id":"a6q4vgo1y8nm","geo_precision":"range"},"type":"Feature","geometry":{"type":"Point","coordinates":[-117.605742,33.640898]}},{"properties":{"rep? (1 for yes, 0 for no)":0,"city":"San Juan Capistrano","zip":"92675","geo_score":0.902,"street address":"33122 Valle Rd","id":"a6q4vgdesqxj","geo_precision":"range"},"type":"Feature","geometry":{"type":"Point","coordinates":[-117.662961,33.488798]}},{"properties":{"rep? (1 for yes, 0 for no)":0,"city":"Placentia","zip":"92870","geo_score":0.799,"street address":"377 E Chapman Ave Ste 100","id":"a6q4vgb8k94i","geo_precision":"range"},"type":"Feature","geometry":{"type":"Point","coordinates":[-117.863312,33.871154]}},{"properties":{"rep? (1 for yes, 0 for no)":0,"city":"Costa Mesa","zip":"92627","geo_score":0.819,"street address":"450 E 17th St","id":"a6q4vgj67z9i","geo_precision":"range"},"type":"Feature","geometry":{"type":"Point","coordinates":[-117.910498,33.62957]}},{"properties":{"rep? (1 for yes, 0 for no)":0,"city":"Anaheim","zip":"92801","geo_score":0.902,"street address":"590 N Euclid St","id":"a6q4vgl9ubn1","geo_precision":"range"},"type":"Feature","geometry":{"type":"Point","coordinates":[-117.941583,33.839598]}},{"properties":{"rep? (1 for yes, 0 for no)":0,"city":"Huntington Beach","zip":"92647","geo_score":0.812,"street address":"7251 Warner Ave Ste A","id":"a6q4vgfrlopl","geo_precision":"range"},"type":"Feature","geometry":{"type":"Point","coordinates":[-118.001179,33.715514]}},{"properties":{"rep? (1 for yes, 0 for no)":0,"city":"Anaheim","zip":"92808","geo_score":0.78,"street address":"8152 E Santa Ana Canyon Rd","id":"a6q4vggf6xrf","geo_precision":"range"},"type":"Feature","geometry":{"type":"Point","coordinates":[-117.747423,33.867986]}},{"properties":{"rep? (1 for yes, 0 for no)":0,"city":"Garden Grove","zip":"92840","geo_score":0.902,"street address":"12860 Euclid St","id":"a6q4vgi24hbe","geo_precision":"range"},"type":"Feature","geometry":{"type":"Point","coordinates":[-117.937943,33.775987]}},{"properties":{"rep? (1 for yes, 0 for no)":0,"city":"Newport Beach","zip":"92660","geo_score":0.902,"street address":"180 Newport Center Dr","id":"a6q4vgl9aw49","geo_precision":"range"},"type":"Feature","geometry":{"type":"Point","coordinates":[-117.877965,33.612413]}},{"properties":{"rep? (1 for yes, 0 for no)":0,"city":"Irvine","zip":"92606","geo_score":0.902,"street address":"25 Corporate Park","id":"a6q4vgiizxze","geo_precision":"range"},"type":"Feature","geometry":{"type":"Point","coordinates":[-117.826881,33.689818]}},{"properties":{"rep? (1 for yes, 0 for no)":0,"city":"Fullerton","zip":"92831","geo_score":0.902,"street address":"800 N State College Blvd","id":"a6q4vgftgwkn","geo_precision":"range"},"type":"Feature","geometry":{"type":"Point","coordinates":[-117.889638,33.877809]}},{"properties":{"rep? (1 for yes, 0 for no)":0,"city":"Santa Ana","zip":"92701","geo_score":0.805,"street address":"1616 E 4th St","id":"a6q4vg8khs1h","geo_precision":"range"},"type":"Feature","geometry":{"type":"Point","coordinates":[-117.846405,33.748094]}},{"properties":{"rep? (1 for yes, 0 for no)":0,"city":"Yorba Linda","zip":"92887","geo_score":0.429,"street address":"5170 Twilight Canyon Rd # E","id":"a6q4vgi5sz8s","geo_precision":"street"},"type":"Feature","geometry":{"type":"Point","coordinates":[-117.73323,33.88707]}},{"properties":{"rep? (1 for yes, 0 for no)":0,"city":"Tustin","zip":"92780","geo_score":0.902,"street address":"14511 Franklin Ave","id":"a6q4vgl9t5y0","geo_precision":"range"},"type":"Feature","geometry":{"type":"Point","coordinates":[-117.807096,33.717157]}},{"properties":{"rep? (1 for yes, 0 for no)":0,"city":"Huntington Beach","zip":"92647","geo_score":0.695,"street address":"7801 Edinger Ave Ste 130","id":"a6q4vghlrqmf","geo_precision":"range"},"type":"Feature","geometry":{"type":"Point","coordinates":[-117.992958,33.730183]}},{"properties":{"rep? (1 for yes, 0 for no)":0,"city":"Newport Beach","zip":"92660","geo_score":0.64,"street address":"3 San Joaquin Plz","id":"a6q4vgkntxef","geo_precision":"street"},"type":"Feature","geometry":{"type":"Point","coordinates":[-117.822822,33.697715]}}],"is_temporal":false,"author":{"url":"","metadata":null,"contact_name":null,"contact_address":null,"source":null,"contact_phone":null},"source":"","pagination":{"sort":null,"start":0,"total":80,"limit":1000000},"state":"complete","tags":"","published":"2014-08-14T15:42:37-04:00","id":220738}