{"type":"FeatureCollection","data_type":"Dataset","url_type":null,"permissions":[{"permissions":{"download":true,"view":true},"group_id":"everyone"}],"classification":null,"title":"SJ Americas Coverage","count":42,"stream_id":22116,"contributor":{"url":"http://geocommons.com/users/10808","name":"sommelier"},"data_attributes":null,"calculation_params":null,"icon_link":null,"link":"http://geocommons.com/overlays/22116.json","extent":[-141.001,-55.7206,-12.1553,83.623],"geometry_types":[],"unique_name":null,"name":"SJ Americas Coverage","feature_count":42,"description":"","next_feature":null,"is_raster":false,"short_classification":"Y","stats":{"GMI_CNTRY":{"max":35,"mean":1.16666666666667,"variance":30.0934959349593,"stdev":5.4857539076192,"min":0,"median":0}},"features":[{"properties":{"NAME":"Antigua and Barbuda","id":"a69kpa4lvih7","REGION":"Caribbean","GMI_CNTRY":0},"type":"Feature","geometry":null},{"properties":{"NAME":"Argentina","id":"a69kpa6fn6yi","REGION":"Latin America","GMI_CNTRY":6},"type":"Feature","geometry":null},{"properties":{"NAME":"Bahamas, The","id":"a69kpacyhti6","REGION":"Caribbean","GMI_CNTRY":0},"type":"Feature","geometry":null},{"properties":{"NAME":"Barbados","id":"a69kpagfjrw3","REGION":"Caribbean","GMI_CNTRY":0},"type":"Feature","geometry":null},{"properties":{"NAME":"Belize","id":"a69kpabe44w9","REGION":"Latin America","GMI_CNTRY":0},"type":"Feature","geometry":null},{"properties":{"NAME":"Bermuda","id":"a69kpac2xtni","REGION":"North America","GMI_CNTRY":0},"type":"Feature","geometry":null},{"properties":{"NAME":"Bolivia","id":"a69kpagyuqju","REGION":"Latin America","GMI_CNTRY":0},"type":"Feature","geometry":null},{"properties":{"NAME":"Brazil","id":"a69kpaawv6jx","REGION":"Latin America","GMI_CNTRY":1},"type":"Feature","geometry":null},{"properties":{"NAME":"Canada","id":"a69kpagwic3z","REGION":"North America","GMI_CNTRY":2},"type":"Feature","geometry":null},{"properties":{"NAME":"Chile","id":"a69kpah3woc9","REGION":"Latin America","GMI_CNTRY":5},"type":"Feature","geometry":null},{"properties":{"NAME":"Colombia","id":"a69kpa93sdh4","REGION":"Latin America","GMI_CNTRY":0},"type":"Feature","geometry":null},{"properties":{"NAME":"Costa Rica","id":"a69kpajhnvka","REGION":"Latin America","GMI_CNTRY":0},"type":"Feature","geometry":null},{"properties":{"NAME":"Cuba","id":"a69kpagxhbl0","REGION":"Caribbean","GMI_CNTRY":0},"type":"Feature","geometry":null},{"properties":{"NAME":"Dominica","id":"a69kpakr2mfx","REGION":"Caribbean","GMI_CNTRY":0},"type":"Feature","geometry":null},{"properties":{"NAME":"Dominican Republic","id":"a69kpadgnx71","REGION":"Caribbean","GMI_CNTRY":0},"type":"Feature","geometry":null},{"properties":{"NAME":"Ecuador","id":"a69kpaaz3v7b","REGION":"Latin America","GMI_CNTRY":0},"type":"Feature","geometry":null},{"properties":{"NAME":"El Salvador","id":"a69kpa9xejox","REGION":"Latin America","GMI_CNTRY":0},"type":"Feature","geometry":null},{"properties":{"NAME":"Falkland Islands (Islas Malvinas)","id":"a69kpac8o36q","REGION":"Latin America","GMI_CNTRY":0},"type":"Feature","geometry":null},{"properties":{"NAME":"French Guiana","id":"a69kpa8p4nmz","REGION":"Latin America","GMI_CNTRY":0},"type":"Feature","geometry":null},{"properties":{"NAME":"Greenland","id":"a69kpa69i317","REGION":"North America","GMI_CNTRY":35},"type":"Feature","geometry":null},{"properties":{"NAME":"Grenada","id":"a69kpaaa14tk","REGION":"Caribbean","GMI_CNTRY":0},"type":"Feature","geometry":null},{"properties":{"NAME":"Guadeloupe","id":"a69kpah4gkin","REGION":"Caribbean","GMI_CNTRY":0},"type":"Feature","geometry":null},{"properties":{"NAME":"Guatemala","id":"a69kpaaduiig","REGION":"Latin America","GMI_CNTRY":0},"type":"Feature","geometry":null},{"properties":{"NAME":"Guyana","id":"a69kpaicmlfh","REGION":"Latin America","GMI_CNTRY":0},"type":"Feature","geometry":null},{"properties":{"NAME":"Haiti","id":"a69kpaal1f9d","REGION":"Caribbean","GMI_CNTRY":0},"type":"Feature","geometry":null},{"properties":{"NAME":"Honduras","id":"a69kpahtxvje","REGION":"Latin America","GMI_CNTRY":0},"type":"Feature","geometry":null},{"properties":{"NAME":"Jamaica","id":"a69kpa4vz0qv","REGION":"Caribbean","GMI_CNTRY":0},"type":"Feature","geometry":null},{"properties":{"NAME":"Martinique","id":"a69kpa7go1ze","REGION":"Caribbean","GMI_CNTRY":0},"type":"Feature","geometry":null},{"properties":{"NAME":"Mexico","id":"a69kpaevzfbs","REGION":"Latin America","GMI_CNTRY":0},"type":"Feature","geometry":null},{"properties":{"NAME":"Nicaragua","id":"a69kpae2jpmj","REGION":"Latin America","GMI_CNTRY":0},"type":"Feature","geometry":null},{"properties":{"NAME":"Panama","id":"a69kpag0vd6u","REGION":"Latin America","GMI_CNTRY":0},"type":"Feature","geometry":null},{"properties":{"NAME":"Paraguay","id":"a69kpaf0gcv3","REGION":"Latin America","GMI_CNTRY":0},"type":"Feature","geometry":null},{"properties":{"NAME":"Peru","id":"a69kpa62yfm4","REGION":"Latin America","GMI_CNTRY":0},"type":"Feature","geometry":null},{"properties":{"NAME":"Puerto Rico","id":"a69kpaahrgfi","REGION":"Caribbean","GMI_CNTRY":0},"type":"Feature","geometry":null},{"properties":{"NAME":"St. Christopher-Nevis","id":"a69kpaagw0vv","REGION":"Caribbean","GMI_CNTRY":0},"type":"Feature","geometry":null},{"properties":{"NAME":"St. Lucia","id":"a69kpa80zuj3","REGION":"Caribbean","GMI_CNTRY":0},"type":"Feature","geometry":null},{"properties":{"NAME":"St. Vincent and the Grenadines","id":"a69kpacx4hjw","REGION":"Caribbean","GMI_CNTRY":0},"type":"Feature","geometry":null},{"properties":{"NAME":"Suriname","id":"a69kpajueot7","REGION":"Latin America","GMI_CNTRY":0},"type":"Feature","geometry":null},{"properties":{"NAME":"Trinidad and Tobago","id":"a69kpafzvr2c","REGION":"Caribbean","GMI_CNTRY":0},"type":"Feature","geometry":null},{"properties":{"NAME":"Turks and Caicos Islands","id":"a69kpadpfu7x","REGION":"Caribbean","GMI_CNTRY":0},"type":"Feature","geometry":null},{"properties":{"NAME":"Uruguay","id":"a69kpaegjoa5","REGION":"Latin America","GMI_CNTRY":0},"type":"Feature","geometry":null},{"properties":{"NAME":"Venezuela","id":"a69kpag9198l","REGION":"Latin America","GMI_CNTRY":0},"type":"Feature","geometry":null}],"is_temporal":false,"author":{"url":"","metadata":"","contact_name":"","contact_address":"","source":"","contact_phone":""},"source":"","pagination":{"sort":null,"start":0,"total":42,"limit":1000000},"state":"complete","tags":"","published":"2014-08-10T14:17:38-04:00","id":22116}