{"type":"FeatureCollection","data_type":"Dataset","url_type":null,"permissions":[{"permissions":{"download":true,"view":true},"group_id":"everyone"}],"classification":null,"title":"Murder Most Foul","count":48,"stream_id":221526,"contributor":{"url":"http://geocommons.com/users/40832","name":"jbhill1"},"data_attributes":null,"calculation_params":null,"icon_link":null,"link":"http://geocommons.com/overlays/221526.json","extent":[-83.2258,41.2148,-83.2258,41.2148],"geometry_types":["point"],"unique_name":null,"name":"Murder Most Foul","feature_count":48,"description":"","next_feature":null,"is_raster":false,"short_classification":"Y","stats":{"date":{"max":"2011/12/31 10:05:28 -0500","mean":"2011/08/15 06:24:25 -0400","variance":79504900515352.4,"stdev":8916552.05308377,"min":"2011/01/05 18:23:21 -0500","median":"2011/09/05 18:31:19 -0400"},"unit":{"max":63,"mean":59.6875,"variance":3.83643617021277,"stdev":1.95868225350943,"min":56,"median":60},"disposition":{"max":400,"mean":208.333333333333,"variance":4184.39716312056,"stdev":64.6869164755947,"min":100,"median":200},"cfs":{"max":1,"mean":1.0,"variance":0.0,"stdev":0.0,"min":1,"median":1},"call#":{"max":11.013748,"mean":11.0083705208333,"variance":1.60921153612587e-05,"stdev":0.00401149789495878,"min":11.000138,"median":11.009162}},"features":[{"properties":{"officer":"RJO","city":"Tiffin","date":{"end_time":"2011/12/31 10:05:29 -0500","original":"12/31/2011 10:05:28 AM","granularity":"sec","time":"2011/12/31 10:05:28 -0500"},"geo_score":0.857,"unit":60,"disposition":400,"zip code":"44883","cfs":1,"call#":11.013748,"id":"a66ntmy6o3qy","geo_precision":"zip","state":"OH","location":"383 Greenfield St","juris":"PD"},"type":"Feature","geometry":{"type":"Point","coordinates":[-83.225755,41.214776]}},{"properties":{"officer":"BAR","city":"Tiffin","date":{"end_time":"2011/12/25 20:23:44 -0500","original":"12/25/2011 8:23:43 PM","granularity":"sec","time":"2011/12/25 20:23:43 -0500"},"geo_score":0.857,"unit":63,"disposition":200,"zip code":"44883","cfs":1,"call#":11.013578,"id":"a66ntmy959re","geo_precision":"zip","state":"OH","location":"366 Wentz St","juris":"PD"},"type":"Feature","geometry":{"type":"Point","coordinates":[-83.225755,41.214776]}},{"properties":{"officer":"JAD","city":"Tiffin","date":{"end_time":"2011/12/24 22:37:51 -0500","original":"12/24/2011 10:37:50 PM","granularity":"sec","time":"2011/12/24 22:37:50 -0500"},"geo_score":0.857,"unit":56,"disposition":200,"zip code":"44883","cfs":1,"call#":11.01356,"id":"a66ntmqdfb3d","geo_precision":"zip","state":"OH","location":"27 Coe St","juris":"PD"},"type":"Feature","geometry":{"type":"Point","coordinates":[-83.225755,41.214776]}},{"properties":{"officer":"LMK","city":"Tiffin","date":{"end_time":"2011/12/23 04:25:21 -0500","original":"12/23/2011 4:25:20 AM","granularity":"sec","time":"2011/12/23 04:25:20 -0500"},"geo_score":0.857,"unit":61,"disposition":200,"zip code":"44883","cfs":1,"call#":11.013501,"id":"a66ntmx8k09e","geo_precision":"zip","state":"OH","location":"45 St Lawrence Dr","juris":"PD"},"type":"Feature","geometry":{"type":"Point","coordinates":[-83.225755,41.214776]}},{"properties":{"officer":"RJO","city":"Tiffin","date":{"end_time":"2011/12/10 13:36:03 -0500","original":"12/10/2011 1:36:02 PM","granularity":"sec","time":"2011/12/10 13:36:02 -0500"},"geo_score":0.857,"unit":60,"disposition":200,"zip code":"44883","cfs":1,"call#":11.012987,"id":"a66ntmt6qoeh","geo_precision":"zip","state":"OH","location":"2499 W Market St","juris":"PD"},"type":"Feature","geometry":{"type":"Point","coordinates":[-83.225755,41.214776]}},{"properties":{"officer":"JPF","city":"Tiffin","date":{"end_time":"2011/12/09 22:13:08 -0500","original":"12/9/2011 10:13:07 PM","granularity":"sec","time":"2011/12/09 22:13:07 -0500"},"geo_score":0.857,"unit":59,"disposition":400,"zip code":"44883","cfs":1,"call#":11.012966,"id":"a66ntmqtqv7s","geo_precision":"zip","state":"OH","location":"270 Elm Av","juris":"PD"},"type":"Feature","geometry":{"type":"Point","coordinates":[-83.225755,41.214776]}},{"properties":{"officer":"DES","city":"Tiffin","date":{"end_time":"2011/12/09 15:07:45 -0500","original":"12/9/2011 3:07:44 PM","granularity":"sec","time":"2011/12/09 15:07:44 -0500"},"geo_score":0.857,"unit":61,"disposition":100,"zip code":"44883","cfs":1,"call#":11.012948,"id":"a66ntn0f4mz7","geo_precision":"zip","state":"OH","location":"76 Ashwood Rd","juris":"PD"},"type":"Feature","geometry":{"type":"Point","coordinates":[-83.225755,41.214776]}},{"properties":{"officer":"SGN","city":"Tiffin","date":{"end_time":"2011/12/09 13:14:38 -0500","original":"12/9/2011 1:14:37 PM","granularity":"sec","time":"2011/12/09 13:14:37 -0500"},"geo_score":0.857,"unit":59,"disposition":200,"zip code":"44883","cfs":1,"call#":11.012942,"id":"a66ntmtdlwwg","geo_precision":"zip","state":"OH","location":"2562 W Market St","juris":"PD"},"type":"Feature","geometry":{"type":"Point","coordinates":[-83.225755,41.214776]}},{"properties":{"officer":"DES","city":"Tiffin","date":{"end_time":"2011/12/09 13:05:04 -0500","original":"12/9/2011 1:05:03 PM","granularity":"sec","time":"2011/12/09 13:05:03 -0500"},"geo_score":0.857,"unit":61,"disposition":200,"zip code":"44883","cfs":1,"call#":11.012941,"id":"a66ntmrb9ad5","geo_precision":"zip","state":"OH","location":"93 Jackson St","juris":"PD"},"type":"Feature","geometry":{"type":"Point","coordinates":[-83.225755,41.214776]}},{"properties":{"officer":"MMS","city":"Tiffin","date":{"end_time":"2011/12/03 21:24:38 -0500","original":"12/3/2011 9:24:37 PM","granularity":"sec","time":"2011/12/03 21:24:37 -0500"},"geo_score":0.857,"unit":61,"disposition":200,"zip code":"44883","cfs":1,"call#":11.012745,"id":"a66ntmr17clo","geo_precision":"zip","state":"OH","location":"166 Hall St","juris":"PD"},"type":"Feature","geometry":{"type":"Point","coordinates":[-83.225755,41.214776]}},{"properties":{"officer":"SMM","city":"Tiffin","date":{"end_time":"2011/11/30 19:05:30 -0500","original":"11/30/2011 7:05:29 PM","granularity":"sec","time":"2011/11/30 19:05:29 -0500"},"geo_score":0.857,"unit":58,"disposition":200,"zip code":"44883","cfs":1,"call#":11.012628,"id":"a66ntmqs2q5l","geo_precision":"zip","state":"OH","location":"630 S Sandusky St,C","juris":"PD"},"type":"Feature","geometry":{"type":"Point","coordinates":[-83.225755,41.214776]}},{"properties":{"officer":"MEM","city":"Tiffin","date":{"end_time":"2011/11/21 19:58:06 -0500","original":"11/21/2011 7:58:05 PM","granularity":"sec","time":"2011/11/21 19:58:05 -0500"},"geo_score":0.857,"unit":58,"disposition":200,"zip code":"44883","cfs":1,"call#":11.012242,"id":"a66ntmxbsp15","geo_precision":"zip","state":"OH","location":"198 Second Av","juris":"PD"},"type":"Feature","geometry":{"type":"Point","coordinates":[-83.225755,41.214776]}},{"properties":{"officer":"RLT","city":"Tiffin","date":{"end_time":"2011/11/15 00:59:44 -0500","original":"11/15/2011 12:59:43 AM","granularity":"sec","time":"2011/11/15 00:59:43 -0500"},"geo_score":0.857,"unit":59,"disposition":400,"zip code":"44883","cfs":1,"call#":11.011976,"id":"a66ntmw01v26","geo_precision":"zip","state":"OH","location":"686 S Sandusky St,75","juris":"PD"},"type":"Feature","geometry":{"type":"Point","coordinates":[-83.225755,41.214776]}},{"properties":{"officer":"FWS","city":"Tiffin","date":{"end_time":"2011/11/01 15:21:05 -0400","original":"11/1/2011 3:21:04 PM","granularity":"sec","time":"2011/11/01 15:21:04 -0400"},"geo_score":0.857,"unit":58,"disposition":200,"zip code":"44883","cfs":1,"call#":11.011418,"id":"a66ntmoe7nax","geo_precision":"zip","state":"OH","location":"7 Beechwood Dr","juris":"PD"},"type":"Feature","geometry":{"type":"Point","coordinates":[-83.225755,41.214776]}},{"properties":{"officer":"JDW","city":"Tiffin","date":{"end_time":"2011/10/21 13:00:24 -0400","original":"10/21/2011 1:00:23 PM","granularity":"sec","time":"2011/10/21 13:00:23 -0400"},"geo_score":0.857,"unit":62,"disposition":200,"zip code":"44883","cfs":1,"call#":11.010972,"id":"a66ntms1s2xc","geo_precision":"zip","state":"OH","location":"270 Elm Av","juris":"PD"},"type":"Feature","geometry":{"type":"Point","coordinates":[-83.225755,41.214776]}},{"properties":{"officer":"MEM","city":"Tiffin","date":{"end_time":"2011/10/16 20:45:12 -0400","original":"10/16/2011 8:45:11 PM","granularity":"sec","time":"2011/10/16 20:45:11 -0400"},"geo_score":0.857,"unit":58,"disposition":200,"zip code":"44883","cfs":1,"call#":11.010836,"id":"a66ntms30jqe","geo_precision":"zip","state":"OH","location":"109 Frost Pkwy","juris":"PD"},"type":"Feature","geometry":{"type":"Point","coordinates":[-83.225755,41.214776]}},{"properties":{"officer":"JSC","city":"Tiffin","date":{"end_time":"2011/10/16 00:58:55 -0400","original":"10/16/2011 12:58:54 AM","granularity":"sec","time":"2011/10/16 00:58:54 -0400"},"geo_score":0.857,"unit":58,"disposition":200,"zip code":"44883","cfs":1,"call#":11.010811,"id":"a66ntmokzxc0","geo_precision":"zip","state":"OH","location":"24X Miami St","juris":"PD"},"type":"Feature","geometry":{"type":"Point","coordinates":[-83.225755,41.214776]}},{"properties":{"officer":"RMN","city":"Tiffin","date":{"end_time":"2011/10/07 15:28:17 -0400","original":"10/7/2011 3:28:16 PM","granularity":"sec","time":"2011/10/07 15:28:16 -0400"},"geo_score":0.857,"unit":58,"disposition":200,"zip code":"44883","cfs":1,"call#":11.010445,"id":"a66ntmvcmsjg","geo_precision":"zip","state":"OH","location":"89 Jackson St","juris":"PD"},"type":"Feature","geometry":{"type":"Point","coordinates":[-83.225755,41.214776]}},{"properties":{"officer":"REB","city":"Tiffin","date":{"end_time":"2011/10/07 14:13:17 -0400","original":"10/7/2011 2:13:16 PM","granularity":"sec","time":"2011/10/07 14:13:16 -0400"},"geo_score":0.857,"unit":62,"disposition":100,"zip code":"44883","cfs":1,"call#":11.010442,"id":"a66ntmlzy4yd","geo_precision":"zip","state":"OH","location":"105 Indian Ln","juris":"PD"},"type":"Feature","geometry":{"type":"Point","coordinates":[-83.225755,41.214776]}},{"properties":{"officer":"SGN","city":"Tiffin","date":{"end_time":"2011/10/06 13:27:32 -0400","original":"10/6/2011 1:27:31 PM","granularity":"sec","time":"2011/10/06 13:27:31 -0400"},"geo_score":0.857,"unit":59,"disposition":200,"zip code":"44883","cfs":1,"call#":11.010413,"id":"a66ntmr812a1","geo_precision":"zip","state":"OH","location":"51 E Market St","juris":"PD"},"type":"Feature","geometry":{"type":"Point","coordinates":[-83.225755,41.214776]}},{"properties":{"officer":"PJD","city":"Tiffin","date":{"end_time":"2011/09/27 03:08:44 -0400","original":"9/27/2011 3:08:43 AM","granularity":"sec","time":"2011/09/27 03:08:43 -0400"},"geo_score":0.857,"unit":61,"disposition":200,"zip code":"44883","cfs":1,"call#":11.010054,"id":"a66ntmqxyqc3","geo_precision":"zip","state":"OH","location":"51 E Market St","juris":"PD"},"type":"Feature","geometry":{"type":"Point","coordinates":[-83.225755,41.214776]}},{"properties":{"officer":"MMS","city":"Tiffin","date":{"end_time":"2011/09/25 15:38:36 -0400","original":"9/25/2011 3:38:35 PM","granularity":"sec","time":"2011/09/25 15:38:35 -0400"},"geo_score":0.857,"unit":63,"disposition":200,"zip code":"44883","cfs":1,"call#":11.009988,"id":"a66ntmnjg4df","geo_precision":"zip","state":"OH","location":"47 S Washington St,4","juris":"PD"},"type":"Feature","geometry":{"type":"Point","coordinates":[-83.225755,41.214776]}},{"properties":{"officer":"RMN","city":"Tiffin","date":{"end_time":"2011/09/19 23:40:55 -0400","original":"9/19/2011 11:40:54 PM","granularity":"sec","time":"2011/09/19 23:40:54 -0400"},"geo_score":0.857,"unit":59,"disposition":200,"zip code":"44883","cfs":1,"call#":11.009761,"id":"a66ntms1cho9","geo_precision":"zip","state":"OH","location":"287 Noble St","juris":"PD"},"type":"Feature","geometry":{"type":"Point","coordinates":[-83.225755,41.214776]}},{"properties":{"officer":"EDA","city":"Tiffin","date":{"end_time":"2011/09/05 18:31:20 -0400","original":"9/5/2011 6:31:19 PM","granularity":"sec","time":"2011/09/05 18:31:19 -0400"},"geo_score":0.857,"unit":60,"disposition":200,"zip code":"44883","cfs":1,"call#":11.009162,"id":"a66ntmw5gsgb","geo_precision":"zip","state":"OH","location":"7 W Market St,O","juris":"PD"},"type":"Feature","geometry":{"type":"Point","coordinates":[-83.225755,41.214776]}},{"properties":{"officer":"EDA","city":"Tiffin","date":{"end_time":"2011/08/20 17:11:45 -0400","original":"8/20/2011 5:11:44 PM","granularity":"sec","time":"2011/08/20 17:11:44 -0400"},"geo_score":0.857,"unit":60,"disposition":200,"zip code":"44883","cfs":1,"call#":11.008499,"id":"a66ntmpi2t9k","geo_precision":"zip","state":"OH","location":"166 Circular St","juris":"PD"},"type":"Feature","geometry":{"type":"Point","coordinates":[-83.225755,41.214776]}},{"properties":{"officer":"RMN","city":"Tiffin","date":{"end_time":"2011/08/14 19:28:13 -0400","original":"8/14/2011 7:28:12 PM","granularity":"sec","time":"2011/08/14 19:28:12 -0400"},"geo_score":0.857,"unit":57,"disposition":200,"zip code":"44883","cfs":1,"call#":11.008267,"id":"a66ntmmeo12k","geo_precision":"zip","state":"OH","location":"552X N Sandusky St","juris":"PD"},"type":"Feature","geometry":{"type":"Point","coordinates":[-83.225755,41.214776]}},{"properties":{"officer":"SMM","city":"Tiffin","date":{"end_time":"2011/08/04 22:43:48 -0400","original":"8/4/2011 10:43:47 PM","granularity":"sec","time":"2011/08/04 22:43:47 -0400"},"geo_score":0.857,"unit":58,"disposition":200,"zip code":"44883","cfs":1,"call#":11.007889,"id":"a66ntmkin0a8","geo_precision":"zip","state":"OH","location":"204 E Market St,244","juris":"PD"},"type":"Feature","geometry":{"type":"Point","coordinates":[-83.225755,41.214776]}},{"properties":{"officer":"EDA","city":"Tiffin","date":{"end_time":"2011/07/31 23:31:25 -0400","original":"7/31/2011 11:31:24 PM","granularity":"sec","time":"2011/07/31 23:31:24 -0400"},"geo_score":0.857,"unit":58,"disposition":200,"zip code":"44883","cfs":1,"call#":11.007762,"id":"a66ntmyyssry","geo_precision":"zip","state":"OH","location":"175 Second Av","juris":"PD"},"type":"Feature","geometry":{"type":"Point","coordinates":[-83.225755,41.214776]}},{"properties":{"officer":"RMN","city":"Tiffin","date":{"end_time":"2011/07/29 02:47:15 -0400","original":"7/29/2011 2:47:14 AM","granularity":"sec","time":"2011/07/29 02:47:14 -0400"},"geo_score":0.857,"unit":60,"disposition":200,"zip code":"44883","cfs":1,"call#":11.007599,"id":"a66ntmskvixi","geo_precision":"zip","state":"OH","location":"54 S Washington St","juris":"PD"},"type":"Feature","geometry":{"type":"Point","coordinates":[-83.225755,41.214776]}},{"properties":{"officer":"JSC","city":"Tiffin","date":{"end_time":"2011/07/26 19:08:50 -0400","original":"7/26/2011 7:08:49 PM","granularity":"sec","time":"2011/07/26 19:08:49 -0400"},"geo_score":0.857,"unit":58,"disposition":200,"zip code":"44883","cfs":1,"call#":11.007511,"id":"a66ntmv4hneb","geo_precision":"zip","state":"OH","location":"34 Riverlea Pk","juris":"PD"},"type":"Feature","geometry":{"type":"Point","coordinates":[-83.225755,41.214776]}},{"properties":{"officer":"RJO","city":"Tiffin","date":{"end_time":"2011/07/10 14:02:36 -0400","original":"7/10/2011 2:02:35 PM","granularity":"sec","time":"2011/07/10 14:02:35 -0400"},"geo_score":0.857,"unit":60,"disposition":200,"zip code":"44883","cfs":1,"call#":11.006904,"id":"a66ntmnb0mkf","geo_precision":"zip","state":"OH","location":"100 Douglas St","juris":"PD"},"type":"Feature","geometry":{"type":"Point","coordinates":[-83.225755,41.214776]}},{"properties":{"officer":"DES","city":"Tiffin","date":{"end_time":"2011/07/08 17:41:14 -0400","original":"7/8/2011 5:41:13 PM","granularity":"sec","time":"2011/07/08 17:41:13 -0400"},"geo_score":0.857,"unit":59,"disposition":200,"zip code":"44883","cfs":1,"call#":11.006826,"id":"a66ntmn7vak5","geo_precision":"zip","state":"OH","location":"175 Second Av","juris":"PD"},"type":"Feature","geometry":{"type":"Point","coordinates":[-83.225755,41.214776]}},{"properties":{"officer":"JAD","city":"Tiffin","date":{"end_time":"2011/06/18 21:26:40 -0400","original":"6/18/2011 9:26:39 PM","granularity":"sec","time":"2011/06/18 21:26:39 -0400"},"geo_score":0.857,"unit":56,"disposition":200,"zip code":"44883","cfs":1,"call#":11.006058,"id":"a66ntmu1atuj","geo_precision":"zip","state":"OH","location":"186 E Market St,237","juris":"PD"},"type":"Feature","geometry":{"type":"Point","coordinates":[-83.225755,41.214776]}},{"properties":{"officer":"RLT","city":"Tiffin","date":{"end_time":"2011/06/17 21:51:25 -0400","original":"6/17/2011 9:51:24 PM","granularity":"sec","time":"2011/06/17 21:51:24 -0400"},"geo_score":0.857,"unit":61,"disposition":200,"zip code":"44883","cfs":1,"call#":11.006011,"id":"a66ntmprhv3r","geo_precision":"zip","state":"OH","location":"366 Wentz St","juris":"PD"},"type":"Feature","geometry":{"type":"Point","coordinates":[-83.225755,41.214776]}},{"properties":{"officer":"GTM","city":"Tiffin","date":{"end_time":"2011/05/28 15:10:34 -0400","original":"5/28/2011 3:10:33 PM","granularity":"sec","time":"2011/05/28 15:10:33 -0400"},"geo_score":0.857,"unit":57,"disposition":100,"zip code":"44883","cfs":1,"call#":11.005223,"id":"a66ntmo1ntvr","geo_precision":"zip","state":"OH","location":"306 Water St","juris":"PD"},"type":"Feature","geometry":{"type":"Point","coordinates":[-83.225755,41.214776]}},{"properties":{"officer":"RLT","city":"Tiffin","date":{"end_time":"2011/05/20 22:17:36 -0400","original":"5/20/2011 10:17:35 PM","granularity":"sec","time":"2011/05/20 22:17:35 -0400"},"geo_score":0.857,"unit":62,"disposition":200,"zip code":"44883","cfs":1,"call#":11.004927,"id":"a66ntmwuk5vw","geo_precision":"zip","state":"OH","location":"186 E Market St,238","juris":"PD"},"type":"Feature","geometry":{"type":"Point","coordinates":[-83.225755,41.214776]}},{"properties":{"officer":"MEM","city":"Tiffin","date":{"end_time":"2011/05/20 15:37:33 -0400","original":"5/20/2011 3:37:32 PM","granularity":"sec","time":"2011/05/20 15:37:32 -0400"},"geo_score":0.857,"unit":63,"disposition":200,"zip code":"44883","cfs":1,"call#":11.004909,"id":"a66ntmp35n8m","geo_precision":"zip","state":"OH","location":"245 Beechwood Dr","juris":"PD"},"type":"Feature","geometry":{"type":"Point","coordinates":[-83.225755,41.214776]}},{"properties":{"officer":"JSC","city":"Tiffin","date":{"end_time":"2011/05/15 20:16:47 -0400","original":"5/15/2011 8:16:46 PM","granularity":"sec","time":"2011/05/15 20:16:46 -0400"},"geo_score":0.857,"unit":57,"disposition":200,"zip code":"44883","cfs":1,"call#":11.00475,"id":"a66ntmq7tfzc","geo_precision":"zip","state":"OH","location":"371 Water St","juris":"PD"},"type":"Feature","geometry":{"type":"Point","coordinates":[-83.225755,41.214776]}},{"properties":{"officer":"EDA","city":"Tiffin","date":{"end_time":"2011/05/09 21:02:28 -0400","original":"5/9/2011 9:02:27 PM","granularity":"sec","time":"2011/05/09 21:02:27 -0400"},"geo_score":0.857,"unit":60,"disposition":200,"zip code":"44883","cfs":1,"call#":11.00451,"id":"a66ntmqcc80h","geo_precision":"zip","state":"OH","location":"686 S Sandusky St,66","juris":"PD"},"type":"Feature","geometry":{"type":"Point","coordinates":[-83.225755,41.214776]}},{"properties":{"officer":"BAR","city":"Tiffin","date":{"end_time":"2011/05/07 17:00:22 -0400","original":"5/7/2011 5:00:21 PM","granularity":"sec","time":"2011/05/07 17:00:21 -0400"},"geo_score":0.857,"unit":63,"disposition":200,"zip code":"44883","cfs":1,"call#":11.004408,"id":"a66ntmnl6j9c","geo_precision":"zip","state":"OH","location":"154 S Washington St,300","juris":"PD"},"type":"Feature","geometry":{"type":"Point","coordinates":[-83.225755,41.214776]}},{"properties":{"officer":"BAR","city":"Tiffin","date":{"end_time":"2011/05/05 20:56:49 -0400","original":"5/5/2011 8:56:48 PM","granularity":"sec","time":"2011/05/05 20:56:48 -0400"},"geo_score":0.857,"unit":63,"disposition":100,"zip code":"44883","cfs":1,"call#":11.004329,"id":"a66ntn07rzzd","geo_precision":"zip","state":"OH","location":"1700 Duchess Ln","juris":"PD"},"type":"Feature","geometry":{"type":"Point","coordinates":[-83.225755,41.214776]}},{"properties":{"officer":"JDW","city":"Tiffin","date":{"end_time":"2011/04/16 22:15:31 -0400","original":"4/16/2011 10:15:30 PM","granularity":"sec","time":"2011/04/16 22:15:30 -0400"},"geo_score":0.857,"unit":61,"disposition":200,"zip code":"44883","cfs":1,"call#":11.003546,"id":"a66ntmpmvgr3","geo_precision":"zip","state":"OH","location":"367 Water St","juris":"PD"},"type":"Feature","geometry":{"type":"Point","coordinates":[-83.225755,41.214776]}},{"properties":{"officer":"JMW","city":"Tiffin","date":{"end_time":"2011/04/15 16:51:49 -0400","original":"4/15/2011 4:51:48 PM","granularity":"sec","time":"2011/04/15 16:51:48 -0400"},"geo_score":0.857,"unit":57,"disposition":200,"zip code":"44883","cfs":1,"call#":11.0035,"id":"a66ntmsax9c6","geo_precision":"zip","state":"OH","location":"23 Wentz St","juris":"PD"},"type":"Feature","geometry":{"type":"Point","coordinates":[-83.225755,41.214776]}},{"properties":{"officer":"BRB","city":"Tiffin","date":{"end_time":"2011/02/23 16:15:13 -0500","original":"2/23/2011 4:15:12 PM","granularity":"sec","time":"2011/02/23 16:15:12 -0500"},"geo_score":0.857,"unit":62,"disposition":200,"zip code":"44883","cfs":1,"call#":11.00173,"id":"a66ntmz9h27g","geo_precision":"zip","state":"OH","location":"297 N Sandusky St","juris":"PD"},"type":"Feature","geometry":{"type":"Point","coordinates":[-83.225755,41.214776]}},{"properties":{"officer":"BAR","city":"Tiffin","date":{"end_time":"2011/02/19 17:34:44 -0500","original":"2/19/2011 5:34:43 PM","granularity":"sec","time":"2011/02/19 17:34:43 -0500"},"geo_score":0.857,"unit":58,"disposition":400,"zip code":"44883","cfs":1,"call#":11.001635,"id":"a66ntmkdcvd9","geo_precision":"zip","state":"OH","location":"147 Madison St","juris":"PD"},"type":"Feature","geometry":{"type":"Point","coordinates":[-83.225755,41.214776]}},{"properties":{"officer":"RLT","city":"Tiffin","date":{"end_time":"2011/02/12 22:11:44 -0500","original":"2/12/2011 10:11:43 PM","granularity":"sec","time":"2011/02/12 22:11:43 -0500"},"geo_score":0.857,"unit":61,"disposition":200,"zip code":"44883","cfs":1,"call#":11.001416,"id":"a66ntmytxdqs","geo_precision":"zip","state":"OH","location":"190 Circular St","juris":"PD"},"type":"Feature","geometry":{"type":"Point","coordinates":[-83.225755,41.214776]}},{"properties":{"officer":"RLT","city":"Tiffin","date":{"end_time":"2011/01/14 17:14:25 -0500","original":"1/14/2011 5:14:24 PM","granularity":"sec","time":"2011/01/14 17:14:24 -0500"},"geo_score":0.857,"unit":61,"disposition":200,"zip code":"44883","cfs":1,"call#":11.000374,"id":"a66ntmzwzpeq","geo_precision":"zip","state":"OH","location":"186 Hall St","juris":"PD"},"type":"Feature","geometry":{"type":"Point","coordinates":[-83.225755,41.214776]}},{"properties":{"officer":"JPF","city":"Tiffin","date":{"end_time":"2011/01/05 18:23:22 -0500","original":"1/5/2011 6:23:21 PM","granularity":"sec","time":"2011/01/05 18:23:21 -0500"},"geo_score":0.857,"unit":59,"disposition":200,"zip code":"44883","cfs":1,"call#":11.000138,"id":"a66ntmwnat9h","geo_precision":"zip","state":"OH","location":"366 Wentz St","juris":"PD"},"type":"Feature","geometry":{"type":"Point","coordinates":[-83.225755,41.214776]}}],"is_temporal":true,"author":{"url":"","metadata":"","contact_name":"","contact_address":"","source":"","contact_phone":""},"source":"","pagination":{"sort":null,"start":0,"total":48,"limit":1000000},"state":"complete","tags":"","published":"2014-08-14T16:53:25-04:00","id":221526}