{"type":"FeatureCollection","data_type":"Dataset","url_type":null,"permissions":[{"permissions":{"download":true,"view":true},"group_id":"everyone"}],"classification":null,"title":"11ses","count":229,"stream_id":221536,"contributor":{"url":"http://geocommons.com/users/40832","name":"jbhill1"},"data_attributes":null,"calculation_params":null,"icon_link":null,"link":"http://geocommons.com/overlays/221536.json","extent":[-83.2258,41.0992,-83.1607,41.2148],"geometry_types":["point"],"unique_name":null,"name":"11ses","feature_count":229,"description":"","next_feature":null,"is_raster":false,"short_classification":"Y","stats":{"date":{"max":"2011/12/26 14:04:12 -0500","mean":"2011/07/03 00:56:47 -0400","variance":70417043368737.9,"stdev":8391486.36230423,"min":"2011/01/04 10:29:56 -0500","median":"2011/07/22 11:33:37 -0400"},"unit":{"max":558,"mean":355.618421052632,"variance":39394.6423023418,"stdev":198.480836108532,"min":56,"median":485},"cfs":{"max":11,"mean":11.0,"variance":0.0,"stdev":0.0,"min":11,"median":11},"call#":{"max":11.01366,"mean":11.0082373231441,"variance":1.69966750442429e-05,"stdev":0.00412270239578882,"min":11.000198,"median":11.008902}},"features":[{"properties":{"officer":"CWB","city":"Tffin","zip":"44883","date":{"end_time":"2011/12/26 14:04:13 -0500","original":"12/26/2011 2:04:12 PM","granularity":"sec","time":"2011/12/26 14:04:12 -0500"},"geo_score":0.78,"unit":485,"disposition":"700","cfs":11,"call#":11.01366,"id":"a62gk4jfwz5k","geo_precision":"range","address":"1 Seneca County","state":"OH","juris":"PD"},"type":"Feature","geometry":{"type":"Point","coordinates":[-83.160743,41.122079]}},{"properties":{"officer":"CWB","city":"Tffin","zip":"44883","date":{"end_time":"2011/12/23 13:59:44 -0500","original":"12/23/2011 1:59:43 PM","granularity":"sec","time":"2011/12/23 13:59:43 -0500"},"geo_score":0.902,"unit":485,"disposition":"700","cfs":11,"call#":11.013659,"id":"a62gk4flrgjd","geo_precision":"range","address":"51 E Market St","state":"OH","juris":"PD"},"type":"Feature","geometry":{"type":"Point","coordinates":[-83.17813,41.114436]}},{"properties":{"officer":"CWB","city":"Tffin","zip":"44883","date":{"end_time":"2011/12/22 13:55:52 -0500","original":"12/22/2011 1:55:51 PM","granularity":"sec","time":"2011/12/22 13:55:51 -0500"},"geo_score":0.902,"unit":485,"disposition":"700","cfs":11,"call#":11.013658,"id":"a62gk4k97rz3","geo_precision":"range","address":"51 E Market St","state":"OH","juris":"PD"},"type":"Feature","geometry":{"type":"Point","coordinates":[-83.17813,41.114436]}},{"properties":{"officer":"REB","city":"Tffin","zip":"44883","date":{"end_time":"2011/12/21 17:09:19 -0500","original":"12/21/2011 5:09:18 PM","granularity":"sec","time":"2011/12/21 17:09:18 -0500"},"geo_score":0.902,"unit":558,"disposition":"400","cfs":11,"call#":11.013463,"id":"a62gk4kianqn","geo_precision":"range","address":"66 Charlotte St","state":"OH","juris":"PD"},"type":"Feature","geometry":{"type":"Point","coordinates":[-83.178163,41.110346]}},{"properties":{"officer":"JDW","city":"Tffin","zip":"44883","date":{"end_time":"2011/12/21 13:59:09 -0500","original":"12/21/2011 1:59:08 PM","granularity":"sec","time":"2011/12/21 13:59:08 -0500"},"geo_score":0.902,"unit":60,"disposition":"100","cfs":11,"call#":11.013454,"id":"a62gk4khuom4","geo_precision":"range","address":"1 E Market St","state":"OH","juris":"PD"},"type":"Feature","geometry":{"type":"Point","coordinates":[-83.179559,41.114309]}},{"properties":{"officer":"FWS","city":"Tffin","zip":"44883","date":{"end_time":"2011/12/13 12:22:42 -0500","original":"12/13/2011 12:22:41 PM","granularity":"sec","time":"2011/12/13 12:22:41 -0500"},"geo_score":0.78,"unit":58,"disposition":"450","cfs":11,"call#":11.013131,"id":"a62gk4jdaxqm","geo_precision":"range","address":"928 W Market St","state":"OH","juris":"PD"},"type":"Feature","geometry":{"type":"Point","coordinates":[-83.207604,41.111131]}},{"properties":{"officer":"RLT","city":"Tffin","zip":"44883","date":{"end_time":"2011/12/04 01:11:22 -0500","original":"12/4/2011 1:11:21 AM","granularity":"sec","time":"2011/12/04 01:11:21 -0500"},"geo_score":0.902,"unit":62,"disposition":"200","cfs":11,"call#":11.012751,"id":"a62gk4glupgl","geo_precision":"range","address":"111 Madison St","state":"OH","juris":"PD"},"type":"Feature","geometry":{"type":"Point","coordinates":[-83.175893,41.113434]}},{"properties":{"officer":"LMK","city":"Tffin","zip":"44883","date":{"end_time":"2011/12/02 00:05:45 -0500","original":"12/2/2011 12:05:44 AM","granularity":"sec","time":"2011/12/02 00:05:44 -0500"},"geo_score":0.857,"unit":57,"disposition":"200","cfs":11,"call#":11.012669,"id":"a62gk4it2wkq","geo_precision":"street","address":"Clay St/Miami St","state":"OH","juris":"PD"},"type":"Feature","geometry":{"type":"Point","coordinates":[-83.1824,41.116381]}},{"properties":{"officer":"CWB","city":"Tffin","zip":"44883","date":{"end_time":"2011/11/23 10:39:47 -0500","original":"11/23/2011 10:39:46 AM","granularity":"sec","time":"2011/11/23 10:39:46 -0500"},"geo_score":0.78,"unit":485,"disposition":"700","cfs":11,"call#":11.012585,"id":"a62gk4engd64","geo_precision":"range","address":"1 Seneca County","state":"OH","juris":"PD"},"type":"Feature","geometry":{"type":"Point","coordinates":[-83.160743,41.122079]}},{"properties":{"officer":"CWB","city":"Tffin","zip":"44883","date":{"end_time":"2011/11/22 10:33:55 -0500","original":"11/22/2011 10:33:54 AM","granularity":"sec","time":"2011/11/22 10:33:54 -0500"},"geo_score":0.902,"unit":485,"disposition":"700","cfs":11,"call#":11.012584,"id":"a62gk4aaf37n","geo_precision":"range","address":"51 E Market St","state":"OH","juris":"PD"},"type":"Feature","geometry":{"type":"Point","coordinates":[-83.17813,41.114436]}},{"properties":{"officer":"FWS","city":"Tffin","zip":"44883","date":{"end_time":"2011/11/21 08:31:52 -0500","original":"11/21/2011 8:31:51 AM","granularity":"sec","time":"2011/11/21 08:31:51 -0500"},"geo_score":0.902,"unit":58,"disposition":"200","cfs":11,"call#":11.012218,"id":"a62gk4i081ln","geo_precision":"range","address":"43 St Clair St","state":"OH","juris":"PD"},"type":"Feature","geometry":{"type":"Point","coordinates":[-83.181469,41.113166]}},{"properties":{"officer":"BAR","city":"Tffin","zip":"44883","date":{"end_time":"2011/11/20 22:22:05 -0500","original":"11/20/2011 10:22:04 PM","granularity":"sec","time":"2011/11/20 22:22:04 -0500"},"geo_score":0.902,"unit":63,"disposition":"100","cfs":11,"call#":11.012203,"id":"a62gk48lf4zk","geo_precision":"range","address":"59 E Market St,3","state":"OH","juris":"PD"},"type":"Feature","geometry":{"type":"Point","coordinates":[-83.179514,41.114314]}},{"properties":{"officer":"REB","city":"Tffin","zip":"44883","date":{"end_time":"2011/11/17 11:00:51 -0500","original":"11/17/2011 11:00:50 AM","granularity":"sec","time":"2011/11/17 11:00:50 -0500"},"geo_score":0.78,"unit":558,"disposition":"200","cfs":11,"call#":11.012063,"id":"a62gk4cl3g6d","geo_precision":"range","address":"928 W Market St","state":"OH","juris":"PD"},"type":"Feature","geometry":{"type":"Point","coordinates":[-83.207604,41.111131]}},{"properties":{"officer":"REB","city":"Tffin","zip":"44883","date":{"end_time":"2011/11/17 09:52:00 -0500","original":"11/17/2011 9:51:00 AM","granularity":"min","time":"2011/11/17 09:51:00 -0500"},"geo_score":0.902,"unit":558,"disposition":"200","cfs":11,"call#":11.012058,"id":"a62gk4alqzg6","geo_precision":"range","address":"152 Madison St","state":"OH","juris":"PD"},"type":"Feature","geometry":{"type":"Point","coordinates":[-83.174582,41.113535]}},{"properties":{"officer":"CWB","city":"Tffin","zip":"44883","date":{"end_time":"2011/11/17 09:21:39 -0500","original":"11/17/2011 9:21:38 AM","granularity":"sec","time":"2011/11/17 09:21:38 -0500"},"geo_score":0.78,"unit":485,"disposition":"700","cfs":11,"call#":11.01258,"id":"a62gk47y81wv","geo_precision":"range","address":"1 Seneca County","state":"OH","juris":"PD"},"type":"Feature","geometry":{"type":"Point","coordinates":[-83.160743,41.122079]}},{"properties":{"officer":"REB","city":"Tffin","zip":"44883","date":{"end_time":"2011/11/17 09:19:15 -0500","original":"11/17/2011 9:19:14 AM","granularity":"sec","time":"2011/11/17 09:19:14 -0500"},"geo_score":0.585,"unit":558,"disposition":"200","cfs":11,"call#":11.012056,"id":"a62gk4ggbvyh","geo_precision":"zip","address":"103 Shepherd Dr","state":"OH","juris":"PD"},"type":"Feature","geometry":{"type":"Point","coordinates":[-83.225755,41.214776]}},{"properties":{"officer":"CWB","city":"Tffin","zip":"44883","date":{"end_time":"2011/11/17 09:17:59 -0500","original":"11/17/2011 9:17:58 AM","granularity":"sec","time":"2011/11/17 09:17:58 -0500"},"geo_score":0.78,"unit":485,"disposition":"700","cfs":11,"call#":11.012579,"id":"a62gk48joqza","geo_precision":"range","address":"1 Seneca County","state":"OH","juris":"PD"},"type":"Feature","geometry":{"type":"Point","coordinates":[-83.160743,41.122079]}},{"properties":{"officer":"REB","city":"Tffin","zip":"44883","date":{"end_time":"2011/11/17 10:00:00 -0500","original":"11/17/2011 9:00:00 AM","granularity":"hour","time":"2011/11/17 09:00:00 -0500"},"geo_score":0.902,"unit":558,"disposition":"200","cfs":11,"call#":11.012055,"id":"a62gk45t1dto","geo_precision":"range","address":"300 S Monroe St","state":"OH","juris":"PD"},"type":"Feature","geometry":{"type":"Point","coordinates":[-83.177173,41.107991]}},{"properties":{"officer":"CWB","city":"Tffin","zip":"44883","date":{"end_time":"2011/11/16 16:16:28 -0500","original":"11/16/2011 4:16:27 PM","granularity":"sec","time":"2011/11/16 16:16:27 -0500"},"geo_score":0.78,"unit":485,"disposition":"700","cfs":11,"call#":11.012549,"id":"a62gk45ha8zk","geo_precision":"range","address":"1 Seneca County","state":"OH","juris":"PD"},"type":"Feature","geometry":{"type":"Point","coordinates":[-83.160743,41.122079]}},{"properties":{"officer":"CWB","city":"Tffin","zip":"44883","date":{"end_time":"2011/11/16 16:12:46 -0500","original":"11/16/2011 4:12:45 PM","granularity":"sec","time":"2011/11/16 16:12:45 -0500"},"geo_score":0.902,"unit":485,"disposition":"700","cfs":11,"call#":11.012548,"id":"a62gk4bphq9n","geo_precision":"range","address":"51 E Market St","state":"OH","juris":"PD"},"type":"Feature","geometry":{"type":"Point","coordinates":[-83.17813,41.114436]}},{"properties":{"officer":"CWB","city":"Tffin","zip":"44883","date":{"end_time":"2011/11/14 16:09:09 -0500","original":"11/14/2011 4:09:08 PM","granularity":"sec","time":"2011/11/14 16:09:08 -0500"},"geo_score":0.78,"unit":485,"disposition":"700","cfs":11,"call#":11.012547,"id":"a62gk4een8sw","geo_precision":"range","address":"1 Seneca County","state":"OH","juris":"PD"},"type":"Feature","geometry":{"type":"Point","coordinates":[-83.160743,41.122079]}},{"properties":{"officer":"CWB","city":"Tffin","zip":"44883","date":{"end_time":"2011/11/14 16:04:15 -0500","original":"11/14/2011 4:04:14 PM","granularity":"sec","time":"2011/11/14 16:04:14 -0500"},"geo_score":0.78,"unit":485,"disposition":"700","cfs":11,"call#":11.012546,"id":"a62gk47x5izb","geo_precision":"range","address":"1 Seneca County","state":"OH","juris":"PD"},"type":"Feature","geometry":{"type":"Point","coordinates":[-83.160743,41.122079]}},{"properties":{"officer":"CWB","city":"Tffin","zip":"44883","date":{"end_time":"2011/11/09 15:51:16 -0500","original":"11/9/2011 3:51:15 PM","granularity":"sec","time":"2011/11/09 15:51:15 -0500"},"geo_score":0.902,"unit":485,"disposition":"700","cfs":11,"call#":11.012545,"id":"a62gk4c0wpyj","geo_precision":"range","address":"51 E Market St","state":"OH","juris":"PD"},"type":"Feature","geometry":{"type":"Point","coordinates":[-83.17813,41.114436]}},{"properties":{"officer":"CWB","city":"Tffin","zip":"44883","date":{"end_time":"2011/11/09 15:45:15 -0500","original":"11/9/2011 3:45:14 PM","granularity":"sec","time":"2011/11/09 15:45:14 -0500"},"geo_score":0.902,"unit":485,"disposition":"700","cfs":11,"call#":11.012543,"id":"a62gk4fb5hwn","geo_precision":"range","address":"51 E Market St","state":"OH","juris":"PD"},"type":"Feature","geometry":{"type":"Point","coordinates":[-83.17813,41.114436]}},{"properties":{"officer":"CWB","city":"Tffin","zip":"44883","date":{"end_time":"2011/11/08 15:39:55 -0500","original":"11/8/2011 3:39:54 PM","granularity":"sec","time":"2011/11/08 15:39:54 -0500"},"geo_score":0.902,"unit":485,"disposition":"700","cfs":11,"call#":11.012542,"id":"a62gk4hfexjy","geo_precision":"range","address":"51 E Market St","state":"OH","juris":"PD"},"type":"Feature","geometry":{"type":"Point","coordinates":[-83.17813,41.114436]}},{"properties":{"officer":"CWB","city":"Tffin","zip":"44883","date":{"end_time":"2011/11/07 15:34:11 -0500","original":"11/7/2011 3:34:10 PM","granularity":"sec","time":"2011/11/07 15:34:10 -0500"},"geo_score":0.78,"unit":485,"disposition":"700","cfs":11,"call#":11.01254,"id":"a62gk4i7abh9","geo_precision":"range","address":"1 Seneca County","state":"OH","juris":"PD"},"type":"Feature","geometry":{"type":"Point","coordinates":[-83.160743,41.122079]}},{"properties":{"officer":"CWB","city":"Tffin","zip":"44883","date":{"end_time":"2011/11/03 15:13:34 -0400","original":"11/3/2011 3:13:33 PM","granularity":"sec","time":"2011/11/03 15:13:33 -0400"},"geo_score":0.78,"unit":485,"disposition":"700","cfs":11,"call#":11.012538,"id":"a62gk4kk3lyi","geo_precision":"range","address":"1 Seneca County","state":"OH","juris":"PD"},"type":"Feature","geometry":{"type":"Point","coordinates":[-83.160743,41.122079]}},{"properties":{"officer":"CWB","city":"Tffin","zip":"44883","date":{"end_time":"2011/11/03 15:09:48 -0400","original":"11/3/2011 3:09:47 PM","granularity":"sec","time":"2011/11/03 15:09:47 -0400"},"geo_score":0.902,"unit":485,"disposition":"700","cfs":11,"call#":11.012537,"id":"a62gk48vud6h","geo_precision":"range","address":"51 E Market St","state":"OH","juris":"PD"},"type":"Feature","geometry":{"type":"Point","coordinates":[-83.17813,41.114436]}},{"properties":{"officer":"CWB","city":"Tffin","zip":"44883","date":{"end_time":"2011/11/02 15:05:50 -0400","original":"11/2/2011 3:05:49 PM","granularity":"sec","time":"2011/11/02 15:05:49 -0400"},"geo_score":0.902,"unit":485,"disposition":"700","cfs":11,"call#":11.012536,"id":"a62gk4dl45w1","geo_precision":"range","address":"51 E Market St","state":"OH","juris":"PD"},"type":"Feature","geometry":{"type":"Point","coordinates":[-83.17813,41.114436]}},{"properties":{"officer":"RJO","city":"Tffin","zip":"44883","date":{"end_time":"2011/10/29 14:57:24 -0400","original":"10/29/2011 2:57:23 PM","granularity":"sec","time":"2011/10/29 14:57:23 -0400"},"geo_score":0.902,"unit":57,"disposition":"200","cfs":11,"call#":11.011305,"id":"a62gk45csvf6","geo_precision":"range","address":"275 S Monroe St","state":"OH","juris":"PD"},"type":"Feature","geometry":{"type":"Point","coordinates":[-83.177324,41.1089]}},{"properties":{"officer":"RMN","city":"Tffin","zip":"44883","date":{"end_time":"2011/10/24 19:30:48 -0400","original":"10/24/2011 7:30:47 PM","granularity":"sec","time":"2011/10/24 19:30:47 -0400"},"geo_score":0.902,"unit":57,"disposition":"200","cfs":11,"call#":11.011109,"id":"a62gk4diw9iz","geo_precision":"range","address":"167 Main St","state":"OH","juris":"PD"},"type":"Feature","geometry":{"type":"Point","coordinates":[-83.168532,41.111997]}},{"properties":{"officer":"CWB","city":"Tffin","zip":"44883","date":{"end_time":"2011/10/23 15:01:57 -0400","original":"10/23/2011 3:01:56 PM","granularity":"sec","time":"2011/10/23 15:01:56 -0400"},"geo_score":0.902,"unit":485,"disposition":"700","cfs":11,"call#":11.012535,"id":"a62gk450lm5t","geo_precision":"range","address":"51 E Market St","state":"OH","juris":"PD"},"type":"Feature","geometry":{"type":"Point","coordinates":[-83.17813,41.114436]}},{"properties":{"officer":"JMW","city":"Tffin","zip":"44883","date":{"end_time":"2011/10/19 17:24:52 -0400","original":"10/19/2011 5:24:51 PM","granularity":"sec","time":"2011/10/19 17:24:51 -0400"},"geo_score":0.902,"unit":60,"disposition":"400","cfs":11,"call#":11.010917,"id":"a62gk46u4mit","geo_precision":"range","address":"530 W Market St","state":"OH","juris":"PD"},"type":"Feature","geometry":{"type":"Point","coordinates":[-83.198244,41.112443]}},{"properties":{"officer":"CWB","city":"Tffin","zip":"44883","date":{"end_time":"2011/10/19 14:54:38 -0400","original":"10/19/2011 2:54:37 PM","granularity":"sec","time":"2011/10/19 14:54:37 -0400"},"geo_score":0.902,"unit":485,"disposition":"700","cfs":11,"call#":11.012534,"id":"a62gk4h804u3","geo_precision":"range","address":"51 E Market St","state":"OH","juris":"PD"},"type":"Feature","geometry":{"type":"Point","coordinates":[-83.17813,41.114436]}},{"properties":{"officer":"BRB","city":"Tffin","zip":"44883","date":{"end_time":"2011/10/19 12:22:49 -0400","original":"10/19/2011 12:22:48 PM","granularity":"sec","time":"2011/10/19 12:22:48 -0400"},"geo_score":0.902,"unit":58,"disposition":"400","cfs":11,"call#":11.010911,"id":"a62gk4ajx5gc","geo_precision":"range","address":"255 Main St","state":"OH","juris":"PD"},"type":"Feature","geometry":{"type":"Point","coordinates":[-83.164025,41.11237]}},{"properties":{"officer":"CWB","city":"Tffin","zip":"44883","date":{"end_time":"2011/10/17 14:51:22 -0400","original":"10/17/2011 2:51:21 PM","granularity":"sec","time":"2011/10/17 14:51:21 -0400"},"geo_score":0.902,"unit":485,"disposition":"700","cfs":11,"call#":11.012533,"id":"a62gk4igalp6","geo_precision":"range","address":"51 E Market St","state":"OH","juris":"PD"},"type":"Feature","geometry":{"type":"Point","coordinates":[-83.17813,41.114436]}},{"properties":{"officer":"CWB","city":"Tffin","zip":"44883","date":{"end_time":"2011/10/17 14:39:37 -0400","original":"10/17/2011 2:39:36 PM","granularity":"sec","time":"2011/10/17 14:39:36 -0400"},"geo_score":0.902,"unit":485,"disposition":"700","cfs":11,"call#":11.012532,"id":"a62gk45k5uee","geo_precision":"range","address":"51 E Market St","state":"OH","juris":"PD"},"type":"Feature","geometry":{"type":"Point","coordinates":[-83.17813,41.114436]}},{"properties":{"officer":"CWB","city":"Tffin","zip":"44883","date":{"end_time":"2011/10/13 14:33:18 -0400","original":"10/13/2011 2:33:17 PM","granularity":"sec","time":"2011/10/13 14:33:17 -0400"},"geo_score":0.902,"unit":485,"disposition":"700","cfs":11,"call#":11.012531,"id":"a62gk48gd4yj","geo_precision":"range","address":"51 E Market St","state":"OH","juris":"PD"},"type":"Feature","geometry":{"type":"Point","coordinates":[-83.17813,41.114436]}},{"properties":{"officer":"RJO","city":"Tffin","zip":"44883","date":{"end_time":"2011/10/08 16:02:51 -0400","original":"10/8/2011 4:02:50 PM","granularity":"sec","time":"2011/10/08 16:02:50 -0400"},"geo_score":0.902,"unit":60,"disposition":"200","cfs":11,"call#":11.010493,"id":"a62gk4ei5z5x","geo_precision":"range","address":"733 W Market St","state":"OH","juris":"PD"},"type":"Feature","geometry":{"type":"Point","coordinates":[-83.20622,41.111381]}},{"properties":{"officer":"BAR","city":"Tffin","zip":"44883","date":{"end_time":"2011/09/29 17:12:08 -0400","original":"9/29/2011 5:12:07 PM","granularity":"sec","time":"2011/09/29 17:12:07 -0400"},"geo_score":0.902,"unit":63,"disposition":"200","cfs":11,"call#":11.010146,"id":"a62gk4kikeh0","geo_precision":"range","address":"147 Madison St","state":"OH","juris":"PD"},"type":"Feature","geometry":{"type":"Point","coordinates":[-83.174677,41.113524]}},{"properties":{"officer":"GTM","city":"Tffin","zip":"44883","date":{"end_time":"2011/09/27 11:14:49 -0400","original":"9/27/2011 11:14:48 AM","granularity":"sec","time":"2011/09/27 11:14:48 -0400"},"geo_score":0.78,"unit":60,"disposition":"200","cfs":11,"call#":11.010057,"id":"a62gk4fz5k27","geo_precision":"range","address":"928 W Market St","state":"OH","juris":"PD"},"type":"Feature","geometry":{"type":"Point","coordinates":[-83.207604,41.111131]}},{"properties":{"officer":"MMS","city":"Tffin","zip":"44883","date":{"end_time":"2011/09/26 16:38:26 -0400","original":"9/26/2011 4:38:25 PM","granularity":"sec","time":"2011/09/26 16:38:25 -0400"},"geo_score":0.857,"unit":63,"disposition":"100","cfs":11,"call#":11.010032,"id":"a62gk46uamg7","geo_precision":"street","address":"Minerva St/Noble St","state":"OH","juris":"PD"},"type":"Feature","geometry":{"type":"Point","coordinates":[-83.176206,41.122592]}},{"properties":{"officer":"CWB","city":"Tffin","zip":"44883","date":{"end_time":"2011/09/26 14:29:25 -0400","original":"9/26/2011 2:29:24 PM","granularity":"sec","time":"2011/09/26 14:29:24 -0400"},"geo_score":0.78,"unit":485,"disposition":"700","cfs":11,"call#":11.01253,"id":"a62gk48eziaj","geo_precision":"range","address":"1 Seneca County","state":"OH","juris":"PD"},"type":"Feature","geometry":{"type":"Point","coordinates":[-83.160743,41.122079]}},{"properties":{"officer":"CWB","city":"Tffin","zip":"44883","date":{"end_time":"2011/09/26 14:15:49 -0400","original":"9/26/2011 2:15:48 PM","granularity":"sec","time":"2011/09/26 14:15:48 -0400"},"geo_score":0.78,"unit":485,"disposition":"700","cfs":11,"call#":11.012529,"id":"a62gk47surtj","geo_precision":"range","address":"1 Seneca County","state":"OH","juris":"PD"},"type":"Feature","geometry":{"type":"Point","coordinates":[-83.160743,41.122079]}},{"properties":{"officer":"RMN","city":"Tffin","zip":"44883","date":{"end_time":"2011/09/25 23:44:08 -0400","original":"9/25/2011 11:44:07 PM","granularity":"sec","time":"2011/09/25 23:44:07 -0400"},"geo_score":0.837,"unit":60,"disposition":"100","cfs":11,"call#":11.010007,"id":"a62gk4eozg88","geo_precision":"range","address":"29 Frost Py","state":"OH","juris":"PD"},"type":"Feature","geometry":{"type":"Point","coordinates":[-83.180804,41.115068]}},{"properties":{"officer":"SGN","city":"Tffin","zip":"44883","date":{"end_time":"2011/09/23 14:40:28 -0400","original":"9/23/2011 2:40:27 PM","granularity":"sec","time":"2011/09/23 14:40:27 -0400"},"geo_score":0.902,"unit":59,"disposition":"100","cfs":11,"call#":11.009891,"id":"a62gk4hx9iu6","geo_precision":"range","address":"300 S Monroe St","state":"OH","juris":"PD"},"type":"Feature","geometry":{"type":"Point","coordinates":[-83.177173,41.107991]}},{"properties":{"officer":"SGN","city":"Tffin","zip":"44883","date":{"end_time":"2011/09/23 14:05:29 -0400","original":"9/23/2011 2:05:28 PM","granularity":"sec","time":"2011/09/23 14:05:28 -0400"},"geo_score":0.902,"unit":59,"disposition":"200","cfs":11,"call#":11.009888,"id":"a62gk4drkpjo","geo_precision":"range","address":"300 S Monroe St","state":"OH","juris":"PD"},"type":"Feature","geometry":{"type":"Point","coordinates":[-83.177173,41.107991]}},{"properties":{"officer":"CWB","city":"Tffin","zip":"44883","date":{"end_time":"2011/09/22 14:29:06 -0400","original":"9/22/2011 2:29:05 PM","granularity":"sec","time":"2011/09/22 14:29:05 -0400"},"geo_score":0.78,"unit":485,"disposition":"700","cfs":11,"call#":11.011772,"id":"a62gk4hr2kgl","geo_precision":"range","address":"1 Seneca County","state":"OH","juris":"PD"},"type":"Feature","geometry":{"type":"Point","coordinates":[-83.160743,41.122079]}},{"properties":{"officer":"CWB","city":"Tffin","zip":"44883","date":{"end_time":"2011/09/22 14:11:03 -0400","original":"9/22/2011 2:11:02 PM","granularity":"sec","time":"2011/09/22 14:11:02 -0400"},"geo_score":0.78,"unit":485,"disposition":"700","cfs":11,"call#":11.012528,"id":"a62gk4c6q9xv","geo_precision":"range","address":"1 Seneca County","state":"OH","juris":"PD"},"type":"Feature","geometry":{"type":"Point","coordinates":[-83.160743,41.122079]}},{"properties":{"officer":null,"city":"Tffin","zip":"44883","date":{"end_time":"2011/09/19 15:39:44 -0400","original":"9/19/2011 3:39:43 PM","granularity":"sec","time":"2011/09/19 15:39:43 -0400"},"geo_score":0.78,"unit":null,"disposition":"CAN","cfs":11,"call#":11.009751,"id":"a62gk4h5eqbz","geo_precision":"range","address":"928 W Market St","state":"OH","juris":"PD"},"type":"Feature","geometry":{"type":"Point","coordinates":[-83.207604,41.111131]}},{"properties":{"officer":"CWB","city":"Tffin","zip":"44883","date":{"end_time":"2011/09/19 11:21:09 -0400","original":"9/19/2011 11:21:08 AM","granularity":"sec","time":"2011/09/19 11:21:08 -0400"},"geo_score":0.902,"unit":485,"disposition":"700","cfs":11,"call#":11.010617,"id":"a62gk4cas18g","geo_precision":"range","address":"51 E Market St","state":"OH","juris":"PD"},"type":"Feature","geometry":{"type":"Point","coordinates":[-83.17813,41.114436]}},{"properties":{"officer":"CWB","city":"Tffin","zip":"44883","date":{"end_time":"2011/09/14 13:49:27 -0400","original":"9/14/2011 1:49:26 PM","granularity":"sec","time":"2011/09/14 13:49:26 -0400"},"geo_score":0.78,"unit":485,"disposition":"700","cfs":11,"call#":11.012526,"id":"a62gk4ky0t56","geo_precision":"range","address":"1 Seneca County","state":"OH","juris":"PD"},"type":"Feature","geometry":{"type":"Point","coordinates":[-83.160743,41.122079]}},{"properties":{"officer":"CWB","city":"Tffin","zip":"44883","date":{"end_time":"2011/09/14 12:29:51 -0400","original":"9/14/2011 12:29:50 PM","granularity":"sec","time":"2011/09/14 12:29:50 -0400"},"geo_score":0.78,"unit":485,"disposition":"700","cfs":11,"call#":11.011767,"id":"a62gk49xgwhy","geo_precision":"range","address":"1 Seneca County","state":"OH","juris":"PD"},"type":"Feature","geometry":{"type":"Point","coordinates":[-83.160743,41.122079]}},{"properties":{"officer":"CWB","city":"Tffin","zip":"44883","date":{"end_time":"2011/09/12 14:17:29 -0400","original":"9/12/2011 2:17:28 PM","granularity":"sec","time":"2011/09/12 14:17:28 -0400"},"geo_score":0.78,"unit":485,"disposition":"700","cfs":11,"call#":11.011769,"id":"a62gk4cs0yur","geo_precision":"range","address":"1 Seneca County","state":"OH","juris":"PD"},"type":"Feature","geometry":{"type":"Point","coordinates":[-83.160743,41.122079]}},{"properties":{"officer":"CWB","city":"Tffin","zip":"44883","date":{"end_time":"2011/09/12 13:53:23 -0400","original":"9/12/2011 1:53:22 PM","granularity":"sec","time":"2011/09/12 13:53:22 -0400"},"geo_score":0.902,"unit":485,"disposition":"700","cfs":11,"call#":11.012527,"id":"a62gk4bmxdop","geo_precision":"range","address":"51 E Market St","state":"OH","juris":"PD"},"type":"Feature","geometry":{"type":"Point","coordinates":[-83.17813,41.114436]}},{"properties":{"officer":"CWB","city":"Tffin","zip":"44883","date":{"end_time":"2011/09/12 13:45:13 -0400","original":"9/12/2011 1:45:12 PM","granularity":"sec","time":"2011/09/12 13:45:12 -0400"},"geo_score":0.902,"unit":485,"disposition":"700","cfs":11,"call#":11.012525,"id":"a62gk478j2bl","geo_precision":"range","address":"51 E Market St","state":"OH","juris":"PD"},"type":"Feature","geometry":{"type":"Point","coordinates":[-83.17813,41.114436]}},{"properties":{"officer":"CWB","city":"Tffin","zip":"44883","date":{"end_time":"2011/09/12 14:00:00 -0400","original":"9/12/2011 1:00:00 PM","granularity":"hour","time":"2011/09/12 13:00:00 -0400"},"geo_score":0.902,"unit":485,"disposition":"100","cfs":11,"call#":11.009454,"id":"a62gk4ecoaaj","geo_precision":"range","address":"457 E Market St","state":"OH","juris":"PD"},"type":"Feature","geometry":{"type":"Point","coordinates":[-83.164901,41.11929]}},{"properties":{"officer":"CWB","city":"Tffin","zip":"44883","date":{"end_time":"2011/09/12 12:25:19 -0400","original":"9/12/2011 12:25:18 PM","granularity":"sec","time":"2011/09/12 12:25:18 -0400"},"geo_score":0.902,"unit":485,"disposition":"700","cfs":11,"call#":11.01252,"id":"a62gk45wflbu","geo_precision":"range","address":"51 E Market St","state":"OH","juris":"PD"},"type":"Feature","geometry":{"type":"Point","coordinates":[-83.17813,41.114436]}},{"properties":{"officer":"CWB","city":"Tffin","zip":"44883","date":{"end_time":"2011/09/12 12:22:12 -0400","original":"9/12/2011 12:22:11 PM","granularity":"sec","time":"2011/09/12 12:22:11 -0400"},"geo_score":0.902,"unit":485,"disposition":"700","cfs":11,"call#":11.012519,"id":"a62gk4c773z5","geo_precision":"range","address":"51 E Market St","state":"OH","juris":"PD"},"type":"Feature","geometry":{"type":"Point","coordinates":[-83.17813,41.114436]}},{"properties":{"officer":"CWB","city":"Tffin","zip":"44883","date":{"end_time":"2011/09/12 12:12:14 -0400","original":"9/12/2011 12:12:13 PM","granularity":"sec","time":"2011/09/12 12:12:13 -0400"},"geo_score":0.902,"unit":485,"disposition":"700","cfs":11,"call#":11.011766,"id":"a62gk4ax0141","geo_precision":"range","address":"51 E Market St","state":"OH","juris":"PD"},"type":"Feature","geometry":{"type":"Point","coordinates":[-83.17813,41.114436]}},{"properties":{"officer":"CWB","city":"Tffin","zip":"44883","date":{"end_time":"2011/09/12 11:50:20 -0400","original":"9/12/2011 11:50:19 AM","granularity":"sec","time":"2011/09/12 11:50:19 -0400"},"geo_score":0.902,"unit":485,"disposition":"700","cfs":11,"call#":11.011765,"id":"a62gk4gx38w5","geo_precision":"range","address":"51 E Market St","state":"OH","juris":"PD"},"type":"Feature","geometry":{"type":"Point","coordinates":[-83.17813,41.114436]}},{"properties":{"officer":"RMN","city":"Tffin","zip":"44883","date":{"end_time":"2011/09/11 21:08:35 -0400","original":"9/11/2011 9:08:34 PM","granularity":"sec","time":"2011/09/11 21:08:34 -0400"},"geo_score":0.902,"unit":57,"disposition":"400","cfs":11,"call#":11.009434,"id":"a62gk4cs4ss0","geo_precision":"range","address":"93 Greenfield St","state":"OH","juris":"PD"},"type":"Feature","geometry":{"type":"Point","coordinates":[-83.166337,41.115283]}},{"properties":{"officer":"MMS","city":"Tffin","zip":"44883","date":{"end_time":"2011/09/11 00:23:33 -0400","original":"9/11/2011 12:23:32 AM","granularity":"sec","time":"2011/09/11 00:23:32 -0400"},"geo_score":0.902,"unit":59,"disposition":"400","cfs":11,"call#":11.009408,"id":"a62gk4cp56l7","geo_precision":"range","address":"100 Greenfield St","state":"OH","juris":"PD"},"type":"Feature","geometry":{"type":"Point","coordinates":[-83.166202,41.115229]}},{"properties":{"officer":"CWB","city":"Tffin","zip":"44883","date":{"end_time":"2011/09/08 12:18:40 -0400","original":"9/8/2011 12:18:39 PM","granularity":"sec","time":"2011/09/08 12:18:39 -0400"},"geo_score":0.902,"unit":485,"disposition":"700","cfs":11,"call#":11.012517,"id":"a62gk4cny5y9","geo_precision":"range","address":"51 E Market St","state":"OH","juris":"PD"},"type":"Feature","geometry":{"type":"Point","coordinates":[-83.17813,41.114436]}},{"properties":{"officer":"CWB","city":"Tffin","zip":"44883","date":{"end_time":"2011/09/08 11:39:05 -0400","original":"9/8/2011 11:39:04 AM","granularity":"sec","time":"2011/09/08 11:39:04 -0400"},"geo_score":0.78,"unit":485,"disposition":"700","cfs":11,"call#":11.011764,"id":"a62gk49odi5j","geo_precision":"range","address":"1 Seneca County","state":"OH","juris":"PD"},"type":"Feature","geometry":{"type":"Point","coordinates":[-83.160743,41.122079]}},{"properties":{"officer":"JAD","city":"Tffin","zip":"44883","date":{"end_time":"2011/09/08 08:16:11 -0400","original":"9/8/2011 8:16:10 AM","granularity":"sec","time":"2011/09/08 08:16:10 -0400"},"geo_score":0.78,"unit":56,"disposition":"100","cfs":11,"call#":11.009273,"id":"a62gk4dwqc3t","geo_precision":"range","address":"1 Seneca County","state":"OH","juris":"PD"},"type":"Feature","geometry":{"type":"Point","coordinates":[-83.160743,41.122079]}},{"properties":{"officer":"JMW","city":"Tffin","zip":"44883","date":{"end_time":"2011/09/07 18:37:32 -0400","original":"9/7/2011 6:37:31 PM","granularity":"sec","time":"2011/09/07 18:37:31 -0400"},"geo_score":0.429,"unit":63,"disposition":"200","cfs":11,"call#":11.009257,"id":"a62gk48fau41","geo_precision":"street","address":"1732 W Market St,F","state":"OH","juris":"PD"},"type":"Feature","geometry":{"type":"Point","coordinates":[-83.181592,41.114111]}},{"properties":{"officer":"CWB","city":"Tffin","zip":"44883","date":{"end_time":"2011/09/07 12:10:52 -0400","original":"9/7/2011 12:10:51 PM","granularity":"sec","time":"2011/09/07 12:10:51 -0400"},"geo_score":0.78,"unit":485,"disposition":"700","cfs":11,"call#":11.012516,"id":"a62gk4jz9zki","geo_precision":"range","address":"1 Seneca County","state":"OH","juris":"PD"},"type":"Feature","geometry":{"type":"Point","coordinates":[-83.160743,41.122079]}},{"properties":{"officer":"CWB","city":"Tffin","zip":"44883","date":{"end_time":"2011/09/07 12:07:34 -0400","original":"9/7/2011 12:07:33 PM","granularity":"sec","time":"2011/09/07 12:07:33 -0400"},"geo_score":0.78,"unit":485,"disposition":"700","cfs":11,"call#":11.012515,"id":"a62gk4dz8od5","geo_precision":"range","address":"1 Seneca County","state":"OH","juris":"PD"},"type":"Feature","geometry":{"type":"Point","coordinates":[-83.160743,41.122079]}},{"properties":{"officer":"CWB","city":"Tffin","zip":"44883","date":{"end_time":"2011/09/07 11:31:40 -0400","original":"9/7/2011 11:31:39 AM","granularity":"sec","time":"2011/09/07 11:31:39 -0400"},"geo_score":0.78,"unit":485,"disposition":"700","cfs":11,"call#":11.011763,"id":"a62gk4dqmx0k","geo_precision":"range","address":"1 Seneca County","state":"OH","juris":"PD"},"type":"Feature","geometry":{"type":"Point","coordinates":[-83.160743,41.122079]}},{"properties":{"officer":"CWB","city":"Tffin","zip":"44883","date":{"end_time":"2011/09/04 12:03:10 -0400","original":"9/4/2011 12:03:09 PM","granularity":"sec","time":"2011/09/04 12:03:09 -0400"},"geo_score":0.78,"unit":485,"disposition":"700","cfs":11,"call#":11.012514,"id":"a62gk4c119yc","geo_precision":"range","address":"1 Seneca County","state":"OH","juris":"PD"},"type":"Feature","geometry":{"type":"Point","coordinates":[-83.160743,41.122079]}},{"properties":{"officer":"CWB","city":"Tffin","zip":"44883","date":{"end_time":"2011/08/30 11:58:59 -0400","original":"8/30/2011 11:58:58 AM","granularity":"sec","time":"2011/08/30 11:58:58 -0400"},"geo_score":0.78,"unit":485,"disposition":"700","cfs":11,"call#":11.012513,"id":"a62gk49lewyc","geo_precision":"range","address":"1 Seneca County","state":"OH","juris":"PD"},"type":"Feature","geometry":{"type":"Point","coordinates":[-83.160743,41.122079]}},{"properties":{"officer":"CWB","city":"Tffin","zip":"44883","date":{"end_time":"2011/08/29 11:52:28 -0400","original":"8/29/2011 11:52:27 AM","granularity":"sec","time":"2011/08/29 11:52:27 -0400"},"geo_score":0.78,"unit":485,"disposition":"700","cfs":11,"call#":11.012512,"id":"a62gk4az6hsx","geo_precision":"range","address":"1 Seneca County","state":"OH","juris":"PD"},"type":"Feature","geometry":{"type":"Point","coordinates":[-83.160743,41.122079]}},{"properties":{"officer":"CWB","city":"Tffin","zip":"44883","date":{"end_time":"2011/08/29 11:18:10 -0400","original":"8/29/2011 11:18:09 AM","granularity":"sec","time":"2011/08/29 11:18:09 -0400"},"geo_score":0.78,"unit":485,"disposition":"700","cfs":11,"call#":11.01176,"id":"a62gk4974bqu","geo_precision":"range","address":"1 Seneca County","state":"OH","juris":"PD"},"type":"Feature","geometry":{"type":"Point","coordinates":[-83.160743,41.122079]}},{"properties":{"officer":"JPF","city":"Tffin","zip":"44883","date":{"end_time":"2011/08/25 19:42:18 -0400","original":"8/25/2011 7:42:17 PM","granularity":"sec","time":"2011/08/25 19:42:17 -0400"},"geo_score":0.756,"unit":59,"disposition":"100","cfs":11,"call#":11.008725,"id":"a62gk49u7yt8","geo_precision":"range","address":"199 Fifth Av","state":"OH","juris":"PD"},"type":"Feature","geometry":{"type":"Point","coordinates":[-83.178787,41.131372]}},{"properties":{"officer":"CWB","city":"Tffin","zip":"44883","date":{"end_time":"2011/08/25 10:38:27 -0400","original":"8/25/2011 10:38:26 AM","granularity":"sec","time":"2011/08/25 10:38:26 -0400"},"geo_score":0.78,"unit":485,"disposition":"700","cfs":11,"call#":11.011758,"id":"a62gk4d6qf29","geo_precision":"range","address":"1 Seneca County","state":"OH","juris":"PD"},"type":"Feature","geometry":{"type":"Point","coordinates":[-83.160743,41.122079]}},{"properties":{"officer":"DES","city":"Tffin","zip":"44883","date":{"end_time":"2011/08/19 11:44:07 -0400","original":"8/19/2011 11:44:06 AM","granularity":"sec","time":"2011/08/19 11:44:06 -0400"},"geo_score":0.902,"unit":61,"disposition":"200","cfs":11,"call#":11.008436,"id":"a62gk4jl22h9","geo_precision":"range","address":"117 S Washington St","state":"OH","juris":"PD"},"type":"Feature","geometry":{"type":"Point","coordinates":[-83.176538,41.114344]}},{"properties":{"officer":"LMK","city":"Tffin","zip":"44883","date":{"end_time":"2011/08/19 00:52:42 -0400","original":"8/19/2011 12:52:41 AM","granularity":"sec","time":"2011/08/19 00:52:41 -0400"},"geo_score":0.902,"unit":57,"disposition":"200","cfs":11,"call#":11.008428,"id":"a62gk4dhw1uy","geo_precision":"range","address":"172 Clay St","state":"OH","juris":"PD"},"type":"Feature","geometry":{"type":"Point","coordinates":[-83.185728,41.117724]}},{"properties":{"officer":"FWS","city":"Tffin","zip":"44883","date":{"end_time":"2011/08/18 13:52:07 -0400","original":"8/18/2011 1:52:06 PM","granularity":"sec","time":"2011/08/18 13:52:06 -0400"},"geo_score":0.902,"unit":546,"disposition":"200","cfs":11,"call#":11.008438,"id":"a62gk48je7rc","geo_precision":"range","address":"192 Hall St","state":"OH","juris":"PD"},"type":"Feature","geometry":{"type":"Point","coordinates":[-83.183715,41.123224]}},{"properties":{"officer":"CWB","city":"Tffin","zip":"44883","date":{"end_time":"2011/08/18 10:49:45 -0400","original":"8/18/2011 10:49:44 AM","granularity":"sec","time":"2011/08/18 10:49:44 -0400"},"geo_score":0.78,"unit":485,"disposition":"700","cfs":11,"call#":11.01251,"id":"a62gk4kijquv","geo_precision":"range","address":"1 Seneca County","state":"OH","juris":"PD"},"type":"Feature","geometry":{"type":"Point","coordinates":[-83.160743,41.122079]}},{"properties":{"officer":"SGN","city":"Tffin","zip":"44883","date":{"end_time":"2011/08/18 09:26:33 -0400","original":"8/18/2011 9:26:32 AM","granularity":"sec","time":"2011/08/18 09:26:32 -0400"},"geo_score":0.902,"unit":59,"disposition":"200","cfs":11,"call#":11.008396,"id":"a62gk47in8rw","geo_precision":"range","address":"366 Wentz St","state":"OH","juris":"PD"},"type":"Feature","geometry":{"type":"Point","coordinates":[-83.198801,41.11361]}},{"properties":{"officer":"CWB","city":"Tffin","zip":"44883","date":{"end_time":"2011/08/16 10:45:53 -0400","original":"8/16/2011 10:45:52 AM","granularity":"sec","time":"2011/08/16 10:45:52 -0400"},"geo_score":0.78,"unit":485,"disposition":"700","cfs":11,"call#":11.012509,"id":"a62gk4h4wilb","geo_precision":"range","address":"1 Seneca County","state":"OH","juris":"PD"},"type":"Feature","geometry":{"type":"Point","coordinates":[-83.160743,41.122079]}},{"properties":{"officer":"CWB","city":"Tffin","zip":"44883","date":{"end_time":"2011/08/16 10:41:07 -0400","original":"8/16/2011 10:41:06 AM","granularity":"sec","time":"2011/08/16 10:41:06 -0400"},"geo_score":0.78,"unit":485,"disposition":"700","cfs":11,"call#":11.012507,"id":"a62gk4csw10e","geo_precision":"range","address":"1 Seneca County","state":"OH","juris":"PD"},"type":"Feature","geometry":{"type":"Point","coordinates":[-83.160743,41.122079]}},{"properties":{"officer":"CWB","city":"Tffin","zip":"44883","date":{"end_time":"2011/08/16 10:36:33 -0400","original":"8/16/2011 10:36:32 AM","granularity":"sec","time":"2011/08/16 10:36:32 -0400"},"geo_score":0.78,"unit":485,"disposition":"700","cfs":11,"call#":11.012506,"id":"a62gk48y0oxo","geo_precision":"range","address":"1 Seneca County","state":"OH","juris":"PD"},"type":"Feature","geometry":{"type":"Point","coordinates":[-83.160743,41.122079]}},{"properties":{"officer":"EDA","city":"Tffin","zip":"44883","date":{"end_time":"2011/08/15 21:01:32 -0400","original":"8/15/2011 9:01:31 PM","granularity":"sec","time":"2011/08/15 21:01:31 -0400"},"geo_score":0.902,"unit":59,"disposition":"200","cfs":11,"call#":11.008308,"id":"a62gk49js4yu","geo_precision":"range","address":"1692 W Market St,49","state":"OH","juris":"PD"},"type":"Feature","geometry":{"type":"Point","coordinates":[-83.182023,41.114055]}},{"properties":{"officer":"RMN","city":"Tffin","zip":"44883","date":{"end_time":"2011/08/15 17:12:41 -0400","original":"8/15/2011 5:12:40 PM","granularity":"sec","time":"2011/08/15 17:12:40 -0400"},"geo_score":0.756,"unit":63,"disposition":"200","cfs":11,"call#":11.008302,"id":"a62gk4gitp43","geo_precision":"range","address":"141 Fourth Av","state":"OH","juris":"PD"},"type":"Feature","geometry":{"type":"Point","coordinates":[-83.179765,41.130496]}},{"properties":{"officer":"CWB","city":"Tffin","zip":"44883","date":{"end_time":"2011/08/15 14:40:41 -0400","original":"8/15/2011 2:40:40 PM","granularity":"sec","time":"2011/08/15 14:40:40 -0400"},"geo_score":0.78,"unit":485,"disposition":"700","cfs":11,"call#":11.011731,"id":"a62gk4996r3m","geo_precision":"range","address":"1 Seneca County","state":"OH","juris":"PD"},"type":"Feature","geometry":{"type":"Point","coordinates":[-83.160743,41.122079]}},{"properties":{"officer":"CWB","city":"Tffin","zip":"44883","date":{"end_time":"2011/08/15 14:36:08 -0400","original":"8/15/2011 2:36:07 PM","granularity":"sec","time":"2011/08/15 14:36:07 -0400"},"geo_score":0.78,"unit":485,"disposition":"700","cfs":11,"call#":11.01173,"id":"a62gk48zz6sm","geo_precision":"range","address":"1 Seneca County","state":"OH","juris":"PD"},"type":"Feature","geometry":{"type":"Point","coordinates":[-83.160743,41.122079]}},{"properties":{"officer":"CWB","city":"Tffin","zip":"44883","date":{"end_time":"2011/08/15 14:32:26 -0400","original":"8/15/2011 2:32:25 PM","granularity":"sec","time":"2011/08/15 14:32:25 -0400"},"geo_score":0.78,"unit":485,"disposition":"700","cfs":11,"call#":11.011729,"id":"a62gk4abm9z3","geo_precision":"range","address":"1 Seneca County","state":"OH","juris":"PD"},"type":"Feature","geometry":{"type":"Point","coordinates":[-83.160743,41.122079]}},{"properties":{"officer":"CWB","city":"Tffin","zip":"44883","date":{"end_time":"2011/08/15 14:27:21 -0400","original":"8/15/2011 2:27:20 PM","granularity":"sec","time":"2011/08/15 14:27:20 -0400"},"geo_score":0.78,"unit":485,"disposition":"700","cfs":11,"call#":11.011728,"id":"a62gk4gbff28","geo_precision":"range","address":"1 Seneca County","state":"OH","juris":"PD"},"type":"Feature","geometry":{"type":"Point","coordinates":[-83.160743,41.122079]}},{"properties":{"officer":"CWB","city":"Tffin","zip":"44883","date":{"end_time":"2011/08/15 11:46:21 -0400","original":"8/15/2011 11:46:20 AM","granularity":"sec","time":"2011/08/15 11:46:20 -0400"},"geo_score":0.78,"unit":485,"disposition":"700","cfs":11,"call#":11.012511,"id":"a62gk4h7hmrx","geo_precision":"range","address":"1 Seneca County","state":"OH","juris":"PD"},"type":"Feature","geometry":{"type":"Point","coordinates":[-83.160743,41.122079]}},{"properties":{"officer":"JPF","city":"Tffin","zip":"44883","date":{"end_time":"2011/08/12 19:08:06 -0400","original":"8/12/2011 7:08:05 PM","granularity":"sec","time":"2011/08/12 19:08:05 -0400"},"geo_score":0.902,"unit":59,"disposition":"200","cfs":11,"call#":11.008172,"id":"a62gk47ya0a2","geo_precision":"range","address":"1 N Washington St","state":"OH","juris":"PD"},"type":"Feature","geometry":{"type":"Point","coordinates":[-83.177111,41.118089]}},{"properties":{"officer":"CWB","city":"Tffin","zip":"44883","date":{"end_time":"2011/08/12 14:24:00 -0400","original":"8/12/2011 2:23:00 PM","granularity":"min","time":"2011/08/12 14:23:00 -0400"},"geo_score":0.902,"unit":485,"disposition":"700","cfs":11,"call#":11.011727,"id":"a62gk45ump8u","geo_precision":"range","address":"51 E Market St","state":"OH","juris":"PD"},"type":"Feature","geometry":{"type":"Point","coordinates":[-83.17813,41.114436]}},{"properties":{"officer":"CWB","city":"Tffin","zip":"44883","date":{"end_time":"2011/08/11 14:18:55 -0400","original":"8/11/2011 2:18:54 PM","granularity":"sec","time":"2011/08/11 14:18:54 -0400"},"geo_score":0.902,"unit":485,"disposition":"700","cfs":11,"call#":11.011726,"id":"a62gk49yvchf","geo_precision":"range","address":"51 E Market St","state":"OH","juris":"PD"},"type":"Feature","geometry":{"type":"Point","coordinates":[-83.17813,41.114436]}},{"properties":{"officer":"CWB","city":"Tffin","zip":"44883","date":{"end_time":"2011/08/06 14:08:23 -0400","original":"8/6/2011 2:08:22 PM","granularity":"sec","time":"2011/08/06 14:08:22 -0400"},"geo_score":0.902,"unit":485,"disposition":"700","cfs":11,"call#":11.011725,"id":"a62gk4aro0y6","geo_precision":"range","address":"51 E Market St","state":"OH","juris":"PD"},"type":"Feature","geometry":{"type":"Point","coordinates":[-83.17813,41.114436]}},{"properties":{"officer":"JDW","city":"Tffin","zip":"44883","date":{"end_time":"2011/08/05 18:16:26 -0400","original":"8/5/2011 6:16:25 PM","granularity":"sec","time":"2011/08/05 18:16:25 -0400"},"geo_score":0.902,"unit":57,"disposition":"200","cfs":11,"call#":11.007918,"id":"a62gk4ixshoc","geo_precision":"range","address":"106 N Washington St","state":"OH","juris":"PD"},"type":"Feature","geometry":{"type":"Point","coordinates":[-83.177532,41.120841]}},{"properties":{"officer":"CWB","city":"Tffin","zip":"44883","date":{"end_time":"2011/08/05 14:00:56 -0400","original":"8/5/2011 2:00:55 PM","granularity":"sec","time":"2011/08/05 14:00:55 -0400"},"geo_score":0.78,"unit":485,"disposition":"700","cfs":11,"call#":11.011723,"id":"a62gk4byg4sp","geo_precision":"range","address":"1 Seneca County","state":"OH","juris":"PD"},"type":"Feature","geometry":{"type":"Point","coordinates":[-83.160743,41.122079]}},{"properties":{"officer":"DGH2","city":"Tffin","zip":"44883","date":{"end_time":"2011/08/05 12:06:47 -0400","original":"8/5/2011 12:06:46 PM","granularity":"sec","time":"2011/08/05 12:06:46 -0400"},"geo_score":0.902,"unit":282,"disposition":"200","cfs":11,"call#":11.007905,"id":"a62gk45u2eys","geo_precision":"range","address":"51 E Market St","state":"OH","juris":"PD"},"type":"Feature","geometry":{"type":"Point","coordinates":[-83.17813,41.114436]}},{"properties":{"officer":"CWB","city":"Tffin","zip":"44883","date":{"end_time":"2011/08/04 14:04:19 -0400","original":"8/4/2011 2:04:18 PM","granularity":"sec","time":"2011/08/04 14:04:18 -0400"},"geo_score":0.902,"unit":485,"disposition":"700","cfs":11,"call#":11.011724,"id":"a62gk45sp7kb","geo_precision":"range","address":"51 E Market St","state":"OH","juris":"PD"},"type":"Feature","geometry":{"type":"Point","coordinates":[-83.17813,41.114436]}},{"properties":{"officer":"CWB","city":"Tffin","zip":"44883","date":{"end_time":"2011/08/03 11:29:49 -0400","original":"8/3/2011 11:29:48 AM","granularity":"sec","time":"2011/08/03 11:29:48 -0400"},"geo_score":0.78,"unit":485,"disposition":"700","cfs":11,"call#":11.011719,"id":"a62gk4b1bxdq","geo_precision":"range","address":"1 Seneca County","state":"OH","juris":"PD"},"type":"Feature","geometry":{"type":"Point","coordinates":[-83.160743,41.122079]}},{"properties":{"officer":"CWB","city":"Tffin","zip":"44883","date":{"end_time":"2011/08/03 11:26:24 -0400","original":"8/3/2011 11:26:23 AM","granularity":"sec","time":"2011/08/03 11:26:23 -0400"},"geo_score":0.902,"unit":485,"disposition":"700","cfs":11,"call#":11.011718,"id":"a62gk4iz0kge","geo_precision":"range","address":"51 E Market St","state":"OH","juris":"PD"},"type":"Feature","geometry":{"type":"Point","coordinates":[-83.17813,41.114436]}},{"properties":{"officer":"CWB","city":"Tffin","zip":"44883","date":{"end_time":"2011/08/02 11:19:57 -0400","original":"8/2/2011 11:19:56 AM","granularity":"sec","time":"2011/08/02 11:19:56 -0400"},"geo_score":0.78,"unit":485,"disposition":"700","cfs":11,"call#":11.011717,"id":"a62gk44q2e3k","geo_precision":"range","address":"1 Seneca County","state":"OH","juris":"PD"},"type":"Feature","geometry":{"type":"Point","coordinates":[-83.160743,41.122079]}},{"properties":{"officer":"CWB","city":"Tffin","zip":"44883","date":{"end_time":"2011/08/01 11:16:45 -0400","original":"8/1/2011 11:16:44 AM","granularity":"sec","time":"2011/08/01 11:16:44 -0400"},"geo_score":0.78,"unit":485,"disposition":"700","cfs":11,"call#":11.011716,"id":"a62gk4jmkccu","geo_precision":"range","address":"1 Seneca County","state":"OH","juris":"PD"},"type":"Feature","geometry":{"type":"Point","coordinates":[-83.160743,41.122079]}},{"properties":{"officer":"CWB","city":"Tffin","zip":"44883","date":{"end_time":"2011/07/29 11:10:47 -0400","original":"7/29/2011 11:10:46 AM","granularity":"sec","time":"2011/07/29 11:10:46 -0400"},"geo_score":0.902,"unit":485,"disposition":"700","cfs":11,"call#":11.011715,"id":"a62gk4fav3bd","geo_precision":"range","address":"51 E Market St","state":"OH","juris":"PD"},"type":"Feature","geometry":{"type":"Point","coordinates":[-83.17813,41.114436]}},{"properties":{"officer":"CWB","city":"Tffin","zip":"44883","date":{"end_time":"2011/07/29 09:18:39 -0400","original":"7/29/2011 9:18:38 AM","granularity":"sec","time":"2011/07/29 09:18:38 -0400"},"geo_score":0.902,"unit":485,"disposition":"700","cfs":11,"call#":11.010735,"id":"a62gk4bgj9co","geo_precision":"range","address":"51 E Market St","state":"OH","juris":"PD"},"type":"Feature","geometry":{"type":"Point","coordinates":[-83.17813,41.114436]}},{"properties":{"officer":"CWB","city":"Tffin","zip":"44883","date":{"end_time":"2011/07/28 16:17:30 -0400","original":"7/28/2011 4:17:29 PM","granularity":"sec","time":"2011/07/28 16:17:29 -0400"},"geo_score":0.902,"unit":485,"disposition":"700","cfs":11,"call#":11.010714,"id":"a62gk48avjhc","geo_precision":"range","address":"51 E Market St","state":"OH","juris":"PD"},"type":"Feature","geometry":{"type":"Point","coordinates":[-83.17813,41.114436]}},{"properties":{"officer":"CWB","city":"Tffin","zip":"44883","date":{"end_time":"2011/07/28 11:59:34 -0400","original":"7/28/2011 11:59:33 AM","granularity":"sec","time":"2011/07/28 11:59:33 -0400"},"geo_score":0.902,"unit":485,"disposition":"700","cfs":11,"call#":11.010626,"id":"a62gk4dpv75e","geo_precision":"range","address":"51 E Market St","state":"OH","juris":"PD"},"type":"Feature","geometry":{"type":"Point","coordinates":[-83.17813,41.114436]}},{"properties":{"officer":"CWB","city":"Tffin","zip":"44883","date":{"end_time":"2011/07/28 11:04:30 -0400","original":"7/28/2011 11:04:29 AM","granularity":"sec","time":"2011/07/28 11:04:29 -0400"},"geo_score":0.78,"unit":485,"disposition":"700","cfs":11,"call#":11.011714,"id":"a62gk46owwlg","geo_precision":"range","address":"1 Seneca County","state":"OH","juris":"PD"},"type":"Feature","geometry":{"type":"Point","coordinates":[-83.160743,41.122079]}},{"properties":{"officer":"CWB","city":"Tffin","zip":"44883","date":{"end_time":"2011/07/28 10:43:53 -0400","original":"7/28/2011 10:43:52 AM","granularity":"sec","time":"2011/07/28 10:43:52 -0400"},"geo_score":0.902,"unit":485,"disposition":"700","cfs":11,"call#":11.011712,"id":"a62gk4hdnkxu","geo_precision":"range","address":"51 E Market St","state":"OH","juris":"PD"},"type":"Feature","geometry":{"type":"Point","coordinates":[-83.17813,41.114436]}},{"properties":{"officer":"CWB","city":"Tffin","zip":"44883","date":{"end_time":"2011/07/27 11:54:50 -0400","original":"7/27/2011 11:54:49 AM","granularity":"sec","time":"2011/07/27 11:54:49 -0400"},"geo_score":0.902,"unit":485,"disposition":"700","cfs":11,"call#":11.010624,"id":"a62gk4dms54x","geo_precision":"range","address":"51 E Market St","state":"OH","juris":"PD"},"type":"Feature","geometry":{"type":"Point","coordinates":[-83.17813,41.114436]}},{"properties":{"officer":"CWB","city":"Tffin","zip":"44883","date":{"end_time":"2011/07/27 11:50:20 -0400","original":"7/27/2011 11:50:19 AM","granularity":"sec","time":"2011/07/27 11:50:19 -0400"},"geo_score":0.902,"unit":485,"disposition":"700","cfs":11,"call#":11.010623,"id":"a62gk48iw8k6","geo_precision":"range","address":"51 E Market St","state":"OH","juris":"PD"},"type":"Feature","geometry":{"type":"Point","coordinates":[-83.17813,41.114436]}},{"properties":{"officer":"CWB","city":"Tffin","zip":"44883","date":{"end_time":"2011/07/27 11:46:25 -0400","original":"7/27/2011 11:46:24 AM","granularity":"sec","time":"2011/07/27 11:46:24 -0400"},"geo_score":0.78,"unit":485,"disposition":"700","cfs":11,"call#":11.010622,"id":"a62gk4efogo7","geo_precision":"range","address":"1 Seneca County","state":"OH","juris":"PD"},"type":"Feature","geometry":{"type":"Point","coordinates":[-83.160743,41.122079]}},{"properties":{"officer":"CWB","city":"Tffin","zip":"44883","date":{"end_time":"2011/07/25 11:40:43 -0400","original":"7/25/2011 11:40:42 AM","granularity":"sec","time":"2011/07/25 11:40:42 -0400"},"geo_score":0.902,"unit":485,"disposition":"700","cfs":11,"call#":11.010621,"id":"a62gk4as1w97","geo_precision":"range","address":"51 E Market St","state":"OH","juris":"PD"},"type":"Feature","geometry":{"type":"Point","coordinates":[-83.17813,41.114436]}},{"properties":{"officer":"RMN","city":"Tffin","zip":"44883","date":{"end_time":"2011/07/24 22:05:06 -0400","original":"7/24/2011 10:05:05 PM","granularity":"sec","time":"2011/07/24 22:05:05 -0400"},"geo_score":0.902,"unit":58,"disposition":"200","cfs":11,"call#":11.007442,"id":"a62gk48qhoq7","geo_precision":"range","address":"51 E Market St","state":"OH","juris":"PD"},"type":"Feature","geometry":{"type":"Point","coordinates":[-83.17813,41.114436]}},{"properties":{"officer":"CWB","city":"Tffin","zip":"44883","date":{"end_time":"2011/07/22 11:33:38 -0400","original":"7/22/2011 11:33:37 AM","granularity":"sec","time":"2011/07/22 11:33:37 -0400"},"geo_score":0.902,"unit":485,"disposition":"700","cfs":11,"call#":11.01062,"id":"a62gk4bipth3","geo_precision":"range","address":"51 E Market St","state":"OH","juris":"PD"},"type":"Feature","geometry":{"type":"Point","coordinates":[-83.17813,41.114436]}},{"properties":{"officer":"CWB","city":"Tffin","zip":"44883","date":{"end_time":"2011/07/20 11:30:00 -0400","original":"7/20/2011 11:29:00 AM","granularity":"min","time":"2011/07/20 11:29:00 -0400"},"geo_score":0.902,"unit":485,"disposition":"700","cfs":11,"call#":11.010619,"id":"a62gk4fbumws","geo_precision":"range","address":"51 E Market St","state":"OH","juris":"PD"},"type":"Feature","geometry":{"type":"Point","coordinates":[-83.17813,41.114436]}},{"properties":{"officer":"CWB","city":"Tffin","zip":"44883","date":{"end_time":"2011/07/19 11:24:41 -0400","original":"7/19/2011 11:24:40 AM","granularity":"sec","time":"2011/07/19 11:24:40 -0400"},"geo_score":0.902,"unit":485,"disposition":"700","cfs":11,"call#":11.010618,"id":"a62gk4hjg48c","geo_precision":"range","address":"51 E Market St","state":"OH","juris":"PD"},"type":"Feature","geometry":{"type":"Point","coordinates":[-83.17813,41.114436]}},{"properties":{"officer":"CWB","city":"Tffin","zip":"44883","date":{"end_time":"2011/07/19 11:16:37 -0400","original":"7/19/2011 11:16:36 AM","granularity":"sec","time":"2011/07/19 11:16:36 -0400"},"geo_score":0.902,"unit":485,"disposition":"700","cfs":11,"call#":11.010616,"id":"a62gk4b7ps15","geo_precision":"range","address":"51 E Market St","state":"OH","juris":"PD"},"type":"Feature","geometry":{"type":"Point","coordinates":[-83.17813,41.114436]}},{"properties":{"officer":"CWB","city":"Tffin","zip":"44883","date":{"end_time":"2011/07/18 11:10:49 -0400","original":"7/18/2011 11:10:48 AM","granularity":"sec","time":"2011/07/18 11:10:48 -0400"},"geo_score":0.902,"unit":485,"disposition":"700","cfs":11,"call#":11.010615,"id":"a62gk4a3f8lv","geo_precision":"range","address":"51 E Market St","state":"OH","juris":"PD"},"type":"Feature","geometry":{"type":"Point","coordinates":[-83.17813,41.114436]}},{"properties":{"officer":"CWB","city":"Tffin","zip":"44883","date":{"end_time":"2011/07/18 11:05:45 -0400","original":"7/18/2011 11:05:44 AM","granularity":"sec","time":"2011/07/18 11:05:44 -0400"},"geo_score":0.902,"unit":485,"disposition":"700","cfs":11,"call#":11.010614,"id":"a62gk4gx5rrj","geo_precision":"range","address":"51 E Market St","state":"OH","juris":"PD"},"type":"Feature","geometry":{"type":"Point","coordinates":[-83.17813,41.114436]}},{"properties":{"officer":"CWB","city":"Tffin","zip":"44883","date":{"end_time":"2011/07/18 11:01:54 -0400","original":"7/18/2011 11:01:53 AM","granularity":"sec","time":"2011/07/18 11:01:53 -0400"},"geo_score":0.902,"unit":485,"disposition":"700","cfs":11,"call#":11.010613,"id":"a62gk4d9d9zn","geo_precision":"range","address":"51 E Market St","state":"OH","juris":"PD"},"type":"Feature","geometry":{"type":"Point","coordinates":[-83.17813,41.114436]}},{"properties":{"officer":"CWB","city":"Tffin","zip":"44883","date":{"end_time":"2011/07/14 10:56:43 -0400","original":"7/14/2011 10:56:42 AM","granularity":"sec","time":"2011/07/14 10:56:42 -0400"},"geo_score":0.902,"unit":485,"disposition":"700","cfs":11,"call#":11.010612,"id":"a62gk4fv8928","geo_precision":"range","address":"51 E Market St","state":"OH","juris":"PD"},"type":"Feature","geometry":{"type":"Point","coordinates":[-83.17813,41.114436]}},{"properties":{"officer":"CWB","city":"Tffin","zip":"44883","date":{"end_time":"2011/07/14 10:52:34 -0400","original":"7/14/2011 10:52:33 AM","granularity":"sec","time":"2011/07/14 10:52:33 -0400"},"geo_score":0.902,"unit":485,"disposition":"700","cfs":11,"call#":11.010611,"id":"a62gk4dqlscr","geo_precision":"range","address":"51 E Market St","state":"OH","juris":"PD"},"type":"Feature","geometry":{"type":"Point","coordinates":[-83.17813,41.114436]}},{"properties":{"officer":"RJO","city":"Tffin","zip":"44883","date":{"end_time":"2011/07/08 10:13:37 -0400","original":"7/8/2011 10:13:36 AM","granularity":"sec","time":"2011/07/08 10:13:36 -0400"},"geo_score":0.902,"unit":60,"disposition":"200","cfs":11,"call#":11.006812,"id":"a62gk4c2ensv","geo_precision":"range","address":"19X E Perry St","state":"OH","juris":"PD"},"type":"Feature","geometry":{"type":"Point","coordinates":[-83.178953,41.115635]}},{"properties":{"officer":"GTM","city":"Tffin","zip":"44883","date":{"end_time":"2011/07/02 08:04:49 -0400","original":"7/2/2011 8:04:48 AM","granularity":"sec","time":"2011/07/02 08:04:48 -0400"},"geo_score":0.756,"unit":59,"disposition":"100","cfs":11,"call#":11.006589,"id":"a62gk4izmu9n","geo_precision":"range","address":"134 Fifth Av","state":"OH","juris":"PD"},"type":"Feature","geometry":{"type":"Point","coordinates":[-83.17884,41.131372]}},{"properties":{"officer":"RJO","city":"Tffin","zip":"44883","date":{"end_time":"2011/06/24 12:35:13 -0400","original":"6/24/2011 12:35:12 PM","granularity":"sec","time":"2011/06/24 12:35:12 -0400"},"geo_score":0.902,"unit":58,"disposition":"200","cfs":11,"call#":11.006257,"id":"a62gk4kcvqt6","geo_precision":"range","address":"49 E Perry St","state":"OH","juris":"PD"},"type":"Feature","geometry":{"type":"Point","coordinates":[-83.178147,41.115707]}},{"properties":{"officer":"CWB","city":"Tffin","zip":"44883","date":{"end_time":"2011/06/23 10:27:20 -0400","original":"6/23/2011 10:27:19 AM","granularity":"sec","time":"2011/06/23 10:27:19 -0400"},"geo_score":0.902,"unit":485,"disposition":"700","cfs":11,"call#":11.01061,"id":"a62gk4apka3h","geo_precision":"range","address":"51 E Market St","state":"OH","juris":"PD"},"type":"Feature","geometry":{"type":"Point","coordinates":[-83.17813,41.114436]}},{"properties":{"officer":"CWB","city":"Tffin","zip":"44883","date":{"end_time":"2011/06/22 11:05:34 -0400","original":"6/22/2011 11:05:33 AM","granularity":"sec","time":"2011/06/22 11:05:33 -0400"},"geo_score":0.902,"unit":485,"disposition":"700","cfs":11,"call#":11.008903,"id":"a62gk4bcn1u9","geo_precision":"range","address":"51 E Market St","state":"OH","juris":"PD"},"type":"Feature","geometry":{"type":"Point","coordinates":[-83.17813,41.114436]}},{"properties":{"officer":"CWB","city":"Tffin","zip":"44883","date":{"end_time":"2011/06/22 11:00:46 -0400","original":"6/22/2011 11:00:45 AM","granularity":"sec","time":"2011/06/22 11:00:45 -0400"},"geo_score":0.902,"unit":485,"disposition":"700","cfs":11,"call#":11.008902,"id":"a62gk4k7bsan","geo_precision":"range","address":"51 E Market St","state":"OH","juris":"PD"},"type":"Feature","geometry":{"type":"Point","coordinates":[-83.17813,41.114436]}},{"properties":{"officer":"CWB","city":"Tffin","zip":"44883","date":{"end_time":"2011/06/22 10:24:59 -0400","original":"6/22/2011 10:24:58 AM","granularity":"sec","time":"2011/06/22 10:24:58 -0400"},"geo_score":0.902,"unit":485,"disposition":"700","cfs":11,"call#":11.008901,"id":"a62gk493iio1","geo_precision":"range","address":"51 E Market St","state":"OH","juris":"PD"},"type":"Feature","geometry":{"type":"Point","coordinates":[-83.17813,41.114436]}},{"properties":{"officer":"CWB","city":"Tffin","zip":"44883","date":{"end_time":"2011/06/20 10:14:43 -0400","original":"6/20/2011 10:14:42 AM","granularity":"sec","time":"2011/06/20 10:14:42 -0400"},"geo_score":0.902,"unit":485,"disposition":"700","cfs":11,"call#":11.0089,"id":"a62gk4eapq6b","geo_precision":"range","address":"51 E Market St","state":"OH","juris":"PD"},"type":"Feature","geometry":{"type":"Point","coordinates":[-83.17813,41.114436]}},{"properties":{"officer":"EDA","city":"Tffin","zip":"44883","date":{"end_time":"2011/06/17 19:54:00 -0400","original":"6/17/2011 7:53:59 PM","granularity":"sec","time":"2011/06/17 19:53:59 -0400"},"geo_score":0.902,"unit":58,"disposition":"200","cfs":11,"call#":11.006003,"id":"a62gk4cveqe2","geo_precision":"range","address":"40 W Market St,4","state":"OH","juris":"PD"},"type":"Feature","geometry":{"type":"Point","coordinates":[-83.180966,41.114171]}},{"properties":{"officer":"DES","city":"Tffin","zip":"44883","date":{"end_time":"2011/06/17 06:54:07 -0400","original":"6/17/2011 6:54:06 AM","granularity":"sec","time":"2011/06/17 06:54:06 -0400"},"geo_score":0.902,"unit":61,"disposition":"400","cfs":11,"call#":11.00598,"id":"a62gk4ep34ds","geo_precision":"range","address":"228 S Sandusky St","state":"OH","juris":"PD"},"type":"Feature","geometry":{"type":"Point","coordinates":[-83.186396,41.11418]}},{"properties":{"officer":"CWB","city":"Tffin","zip":"44883","date":{"end_time":"2011/06/16 10:10:46 -0400","original":"6/16/2011 10:10:45 AM","granularity":"sec","time":"2011/06/16 10:10:45 -0400"},"geo_score":0.78,"unit":485,"disposition":"700","cfs":11,"call#":11.008899,"id":"a62gk4crbtoi","geo_precision":"range","address":"1 Seneca County","state":"OH","juris":"PD"},"type":"Feature","geometry":{"type":"Point","coordinates":[-83.160743,41.122079]}},{"properties":{"officer":"CWB","city":"Tffin","zip":"44883","date":{"end_time":"2011/06/16 10:01:54 -0400","original":"6/16/2011 10:01:53 AM","granularity":"sec","time":"2011/06/16 10:01:53 -0400"},"geo_score":0.78,"unit":485,"disposition":"700","cfs":11,"call#":11.008898,"id":"a62gk4jn1eqy","geo_precision":"range","address":"1 Seneca County","state":"OH","juris":"PD"},"type":"Feature","geometry":{"type":"Point","coordinates":[-83.160743,41.122079]}},{"properties":{"officer":"CWB","city":"Tffin","zip":"44883","date":{"end_time":"2011/06/14 09:56:59 -0400","original":"6/14/2011 9:56:58 AM","granularity":"sec","time":"2011/06/14 09:56:58 -0400"},"geo_score":0.902,"unit":485,"disposition":"700","cfs":11,"call#":11.008896,"id":"a62gk4fc5wr6","geo_precision":"range","address":"51 E Market St","state":"OH","juris":"PD"},"type":"Feature","geometry":{"type":"Point","coordinates":[-83.17813,41.114436]}},{"properties":{"officer":"CWB","city":"Tffin","zip":"44883","date":{"end_time":"2011/06/14 09:52:46 -0400","original":"6/14/2011 9:52:45 AM","granularity":"sec","time":"2011/06/14 09:52:45 -0400"},"geo_score":0.902,"unit":485,"disposition":"700","cfs":11,"call#":11.008895,"id":"a62gk45okev1","geo_precision":"range","address":"51 E Market St","state":"OH","juris":"PD"},"type":"Feature","geometry":{"type":"Point","coordinates":[-83.17813,41.114436]}},{"properties":{"officer":"CWB","city":"Tffin","zip":"44883","date":{"end_time":"2011/06/14 09:48:58 -0400","original":"6/14/2011 9:48:57 AM","granularity":"sec","time":"2011/06/14 09:48:57 -0400"},"geo_score":0.78,"unit":485,"disposition":"700","cfs":11,"call#":11.008894,"id":"a62gk4bqbmkv","geo_precision":"range","address":"1 Seneca County","state":"OH","juris":"PD"},"type":"Feature","geometry":{"type":"Point","coordinates":[-83.160743,41.122079]}},{"properties":{"officer":"CWB","city":"Tffin","zip":"44883","date":{"end_time":"2011/06/13 09:45:26 -0400","original":"6/13/2011 9:45:25 AM","granularity":"sec","time":"2011/06/13 09:45:25 -0400"},"geo_score":0.78,"unit":485,"disposition":"700","cfs":11,"call#":11.008893,"id":"a62gk4b0wk2g","geo_precision":"range","address":"1 Seneca County","state":"OH","juris":"PD"},"type":"Feature","geometry":{"type":"Point","coordinates":[-83.160743,41.122079]}},{"properties":{"officer":"CWB","city":"Tffin","zip":"44883","date":{"end_time":"2011/06/13 09:40:05 -0400","original":"6/13/2011 9:40:04 AM","granularity":"sec","time":"2011/06/13 09:40:04 -0400"},"geo_score":0.78,"unit":485,"disposition":"700","cfs":11,"call#":11.008892,"id":"a62gk4ez8i3u","geo_precision":"range","address":"1 Seneca County","state":"OH","juris":"PD"},"type":"Feature","geometry":{"type":"Point","coordinates":[-83.160743,41.122079]}},{"properties":{"officer":"DES","city":"Tffin","zip":"44883","date":{"end_time":"2011/06/13 09:11:39 -0400","original":"6/13/2011 9:11:38 AM","granularity":"sec","time":"2011/06/13 09:11:38 -0400"},"geo_score":0.902,"unit":59,"disposition":"100","cfs":11,"call#":11.005847,"id":"a62gk4bjx8b8","geo_precision":"range","address":"113X E Perry St","state":"OH","juris":"PD"},"type":"Feature","geometry":{"type":"Point","coordinates":[-83.176001,41.11592]}},{"properties":{"officer":"CWB","city":"Tffin","zip":"44883","date":{"end_time":"2011/06/10 09:34:47 -0400","original":"6/10/2011 9:34:46 AM","granularity":"sec","time":"2011/06/10 09:34:46 -0400"},"geo_score":0.902,"unit":485,"disposition":"700","cfs":11,"call#":11.008891,"id":"a62gk44kypaj","geo_precision":"range","address":"51 E Market St","state":"OH","juris":"PD"},"type":"Feature","geometry":{"type":"Point","coordinates":[-83.17813,41.114436]}},{"properties":{"officer":"CWB","city":"Tffin","zip":"44883","date":{"end_time":"2011/06/08 09:29:28 -0400","original":"6/8/2011 9:29:27 AM","granularity":"sec","time":"2011/06/08 09:29:27 -0400"},"geo_score":0.78,"unit":485,"disposition":"700","cfs":11,"call#":11.00889,"id":"a62gk48dsyjb","geo_precision":"range","address":"1 Seneca County","state":"OH","juris":"PD"},"type":"Feature","geometry":{"type":"Point","coordinates":[-83.160743,41.122079]}},{"properties":{"officer":"CWB","city":"Tffin","zip":"44883","date":{"end_time":"2011/06/08 09:24:59 -0400","original":"6/8/2011 9:24:58 AM","granularity":"sec","time":"2011/06/08 09:24:58 -0400"},"geo_score":0.902,"unit":485,"disposition":"700","cfs":11,"call#":11.008889,"id":"a62gk49s8qxq","geo_precision":"range","address":"51 E Market St","state":"OH","juris":"PD"},"type":"Feature","geometry":{"type":"Point","coordinates":[-83.17813,41.114436]}},{"properties":{"officer":"CWB","city":"Tffin","zip":"44883","date":{"end_time":"2011/06/07 09:04:44 -0400","original":"6/7/2011 9:04:43 AM","granularity":"sec","time":"2011/06/07 09:04:43 -0400"},"geo_score":0.902,"unit":485,"disposition":"700","cfs":11,"call#":11.008888,"id":"a62gk4firgwa","geo_precision":"range","address":"51 E Market St","state":"OH","juris":"PD"},"type":"Feature","geometry":{"type":"Point","coordinates":[-83.17813,41.114436]}},{"properties":{"officer":"CWB","city":"Tffin","zip":"44883","date":{"end_time":"2011/06/07 08:55:41 -0400","original":"6/7/2011 8:55:40 AM","granularity":"sec","time":"2011/06/07 08:55:40 -0400"},"geo_score":0.902,"unit":485,"disposition":"700","cfs":11,"call#":11.008887,"id":"a62gk4g765ti","geo_precision":"range","address":"51 E Market St","state":"OH","juris":"PD"},"type":"Feature","geometry":{"type":"Point","coordinates":[-83.17813,41.114436]}},{"properties":{"officer":"SMM","city":"Tffin","zip":"44883","date":{"end_time":"2011/06/07 01:37:16 -0400","original":"6/7/2011 1:37:15 AM","granularity":"sec","time":"2011/06/07 01:37:15 -0400"},"geo_score":0.902,"unit":63,"disposition":"100","cfs":11,"call#":11.005598,"id":"a62gk470cste","geo_precision":"range","address":"73 Melmore St","state":"OH","juris":"PD"},"type":"Feature","geometry":{"type":"Point","coordinates":[-83.173839,41.107724]}},{"properties":{"officer":"PJD","city":"Tffin","zip":"44883","date":{"end_time":"2011/06/06 22:00:33 -0400","original":"6/6/2011 10:00:32 PM","granularity":"sec","time":"2011/06/06 22:00:32 -0400"},"geo_score":0.902,"unit":61,"disposition":"200","cfs":11,"call#":11.005593,"id":"a62gk49f8ybf","geo_precision":"range","address":"184 E Market St,226","state":"OH","juris":"PD"},"type":"Feature","geometry":{"type":"Point","coordinates":[-83.171629,41.115063]}},{"properties":{"officer":"CWB","city":"Tffin","zip":"44883","date":{"end_time":"2011/06/06 11:26:53 -0400","original":"6/6/2011 11:26:52 AM","granularity":"sec","time":"2011/06/06 11:26:52 -0400"},"geo_score":0.902,"unit":485,"disposition":"700","cfs":11,"call#":11.007209,"id":"a62gk4k2ycay","geo_precision":"range","address":"51 E Market St","state":"OH","juris":"PD"},"type":"Feature","geometry":{"type":"Point","coordinates":[-83.17813,41.114436]}},{"properties":{"officer":"JAD","city":"Tffin","zip":"44883","date":{"end_time":"2011/06/05 06:15:42 -0400","original":"6/5/2011 6:15:41 AM","granularity":"sec","time":"2011/06/05 06:15:41 -0400"},"geo_score":0.902,"unit":56,"disposition":"200","cfs":11,"call#":11.005537,"id":"a62gk4id24a7","geo_precision":"range","address":"48 E Market St","state":"OH","juris":"PD"},"type":"Feature","geometry":{"type":"Point","coordinates":[-83.178179,41.11443]}},{"properties":{"officer":"JPF","city":"Tffin","zip":"44883","date":{"end_time":"2011/06/02 21:04:08 -0400","original":"6/2/2011 9:04:07 PM","granularity":"sec","time":"2011/06/02 21:04:07 -0400"},"geo_score":0.902,"unit":61,"disposition":"100","cfs":11,"call#":11.005438,"id":"a62gk4atwmxu","geo_precision":"range","address":"130 Minerva St","state":"OH","juris":"PD"},"type":"Feature","geometry":{"type":"Point","coordinates":[-83.17642,41.124026]}},{"properties":{"officer":"BRB","city":"Tffin","zip":"44883","date":{"end_time":"2011/06/01 16:18:20 -0400","original":"6/1/2011 4:18:19 PM","granularity":"sec","time":"2011/06/01 16:18:19 -0400"},"geo_score":0.902,"unit":63,"disposition":"200","cfs":11,"call#":11.005389,"id":"a62gk4hg1vgp","geo_precision":"range","address":"264 S Washington St","state":"OH","juris":"PD"},"type":"Feature","geometry":{"type":"Point","coordinates":[-83.175881,41.110269]}},{"properties":{"officer":"CWB","city":"Tffin","zip":"44883","date":{"end_time":"2011/06/01 11:22:00 -0400","original":"6/1/2011 11:21:59 AM","granularity":"sec","time":"2011/06/01 11:21:59 -0400"},"geo_score":0.78,"unit":485,"disposition":"700","cfs":11,"call#":11.007208,"id":"a62gk4c4tydy","geo_precision":"range","address":"1 Seneca County","state":"OH","juris":"PD"},"type":"Feature","geometry":{"type":"Point","coordinates":[-83.160743,41.122079]}},{"properties":{"officer":"BRB","city":"Tffin","zip":"44883","date":{"end_time":"2011/05/30 14:28:22 -0400","original":"5/30/2011 2:28:21 PM","granularity":"sec","time":"2011/05/30 14:28:21 -0400"},"geo_score":0.902,"unit":63,"disposition":"200","cfs":11,"call#":11.005312,"id":"a62gk49vfs42","geo_precision":"range","address":"247 S Sandusky St","state":"OH","juris":"PD"},"type":"Feature","geometry":{"type":"Point","coordinates":[-83.186688,41.113627]}},{"properties":{"officer":"CWB","city":"Tffin","zip":"44883","date":{"end_time":"2011/05/19 11:19:00 -0400","original":"5/19/2011 11:18:59 AM","granularity":"sec","time":"2011/05/19 11:18:59 -0400"},"geo_score":0.902,"unit":485,"disposition":"700","cfs":11,"call#":11.007207,"id":"a62gk4hn02z3","geo_precision":"range","address":"51 E Market St","state":"OH","juris":"PD"},"type":"Feature","geometry":{"type":"Point","coordinates":[-83.17813,41.114436]}},{"properties":{"officer":"CWB","city":"Tffin","zip":"44883","date":{"end_time":"2011/05/19 11:14:52 -0400","original":"5/19/2011 11:14:51 AM","granularity":"sec","time":"2011/05/19 11:14:51 -0400"},"geo_score":0.78,"unit":485,"disposition":"700","cfs":11,"call#":11.007206,"id":"a62gk4en79jp","geo_precision":"range","address":"1 Seneca County","state":"OH","juris":"PD"},"type":"Feature","geometry":{"type":"Point","coordinates":[-83.160743,41.122079]}},{"properties":{"officer":"CWB","city":"Tffin","zip":"44883","date":{"end_time":"2011/05/17 11:12:00 -0400","original":"5/17/2011 11:11:00 AM","granularity":"min","time":"2011/05/17 11:11:00 -0400"},"geo_score":0.902,"unit":485,"disposition":"700","cfs":11,"call#":11.007205,"id":"a62gk4595kbl","geo_precision":"range","address":"51 E Market St","state":"OH","juris":"PD"},"type":"Feature","geometry":{"type":"Point","coordinates":[-83.17813,41.114436]}},{"properties":{"officer":"CWB","city":"Tffin","zip":"44883","date":{"end_time":"2011/05/17 11:08:04 -0400","original":"5/17/2011 11:08:03 AM","granularity":"sec","time":"2011/05/17 11:08:03 -0400"},"geo_score":0.78,"unit":485,"disposition":"700","cfs":11,"call#":11.007204,"id":"a62gk4ejk376","geo_precision":"range","address":"1 Seneca County","state":"OH","juris":"PD"},"type":"Feature","geometry":{"type":"Point","coordinates":[-83.160743,41.122079]}},{"properties":{"officer":"CWB","city":"Tffin","zip":"44883","date":{"end_time":"2011/05/16 11:03:14 -0400","original":"5/16/2011 11:03:13 AM","granularity":"sec","time":"2011/05/16 11:03:13 -0400"},"geo_score":0.78,"unit":485,"disposition":"700","cfs":11,"call#":11.007203,"id":"a62gk455t3ao","geo_precision":"range","address":"1 Seneca County","state":"OH","juris":"PD"},"type":"Feature","geometry":{"type":"Point","coordinates":[-83.160743,41.122079]}},{"properties":{"officer":"CWB","city":"Tffin","zip":"44883","date":{"end_time":"2011/05/10 10:59:23 -0400","original":"5/10/2011 10:59:22 AM","granularity":"sec","time":"2011/05/10 10:59:22 -0400"},"geo_score":0.902,"unit":485,"disposition":"700","cfs":11,"call#":11.007202,"id":"a62gk4gkfs1a","geo_precision":"range","address":"51 E Market St","state":"OH","juris":"PD"},"type":"Feature","geometry":{"type":"Point","coordinates":[-83.17813,41.114436]}},{"properties":{"officer":"CWB","city":"Tffin","zip":"44883","date":{"end_time":"2011/05/10 10:18:31 -0400","original":"5/10/2011 10:18:30 AM","granularity":"sec","time":"2011/05/10 10:18:30 -0400"},"geo_score":0.902,"unit":485,"disposition":"700","cfs":11,"call#":11.007201,"id":"a62gk4djj2ed","geo_precision":"range","address":"51 E Market St","state":"OH","juris":"PD"},"type":"Feature","geometry":{"type":"Point","coordinates":[-83.17813,41.114436]}},{"properties":{"officer":"BRB","city":"Tffin","zip":"44883","date":{"end_time":"2011/05/09 09:56:33 -0400","original":"5/9/2011 9:56:32 AM","granularity":"sec","time":"2011/05/09 09:56:32 -0400"},"geo_score":0.837,"unit":59,"disposition":"200","cfs":11,"call#":11.004481,"id":"a62gk4g9gvty","geo_precision":"range","address":"25 Frost Py","state":"OH","juris":"PD"},"type":"Feature","geometry":{"type":"Point","coordinates":[-83.180789,41.114944]}},{"properties":{"officer":"BRB","city":"Tffin","zip":"44883","date":{"end_time":"2011/05/04 11:27:30 -0400","original":"5/4/2011 11:27:29 AM","granularity":"sec","time":"2011/05/04 11:27:29 -0400"},"geo_score":0.902,"unit":59,"disposition":"200","cfs":11,"call#":11.004283,"id":"a62gk4e8knxh","geo_precision":"range","address":"91 Riverside Dr","state":"OH","juris":"PD"},"type":"Feature","geometry":{"type":"Point","coordinates":[-83.174582,41.118603]}},{"properties":{"officer":"CWB","city":"Tffin","zip":"44883","date":{"end_time":"2011/05/04 10:15:13 -0400","original":"5/4/2011 10:15:12 AM","granularity":"sec","time":"2011/05/04 10:15:12 -0400"},"geo_score":0.78,"unit":485,"disposition":"700","cfs":11,"call#":11.0072,"id":"a62gk47ege7o","geo_precision":"range","address":"1 Seneca County","state":"OH","juris":"PD"},"type":"Feature","geometry":{"type":"Point","coordinates":[-83.160743,41.122079]}},{"properties":{"officer":"JSC","city":"Tffin","zip":"44883","date":{"end_time":"2011/05/01 00:31:51 -0400","original":"5/1/2011 12:31:50 AM","granularity":"sec","time":"2011/05/01 00:31:50 -0400"},"geo_score":0.902,"unit":57,"disposition":"200","cfs":11,"call#":11.004168,"id":"a62gk4eb6ger","geo_precision":"range","address":"102 Melmore St","state":"OH","juris":"PD"},"type":"Feature","geometry":{"type":"Point","coordinates":[-83.173267,41.107154]}},{"properties":{"officer":"CWB","city":"Tffin","zip":"44883","date":{"end_time":"2011/04/28 10:10:37 -0400","original":"4/28/2011 10:10:36 AM","granularity":"sec","time":"2011/04/28 10:10:36 -0400"},"geo_score":0.902,"unit":485,"disposition":"700","cfs":11,"call#":11.007199,"id":"a62gk45rab9h","geo_precision":"range","address":"51 E Market St","state":"OH","juris":"PD"},"type":"Feature","geometry":{"type":"Point","coordinates":[-83.17813,41.114436]}},{"properties":{"officer":"JSC","city":"Tffin","zip":"44883","date":{"end_time":"2011/04/25 22:05:14 -0400","original":"4/25/2011 10:05:13 PM","granularity":"sec","time":"2011/04/25 22:05:13 -0400"},"geo_score":0.902,"unit":57,"disposition":"200","cfs":11,"call#":11.003898,"id":"a62gk4fgnjne","geo_precision":"range","address":"120 Benner St","state":"OH","juris":"PD"},"type":"Feature","geometry":{"type":"Point","coordinates":[-83.180574,41.118103]}},{"properties":{"officer":"CWB","city":"Tffin","zip":"44883","date":{"end_time":"2011/04/25 10:05:37 -0400","original":"4/25/2011 10:05:36 AM","granularity":"sec","time":"2011/04/25 10:05:36 -0400"},"geo_score":0.78,"unit":485,"disposition":"700","cfs":11,"call#":11.007198,"id":"a62gk4kzzwen","geo_precision":"range","address":"1 Seneca County","state":"OH","juris":"PD"},"type":"Feature","geometry":{"type":"Point","coordinates":[-83.160743,41.122079]}},{"properties":{"officer":"DES","city":"Tffin","zip":"44883","date":{"end_time":"2011/04/22 15:36:00 -0400","original":"4/22/2011 3:35:59 PM","granularity":"sec","time":"2011/04/22 15:35:59 -0400"},"geo_score":0.902,"unit":61,"disposition":"100","cfs":11,"call#":11.003764,"id":"a62gk4d5jq6n","geo_precision":"range","address":"76 Clay St","state":"OH","juris":"PD"},"type":"Feature","geometry":{"type":"Point","coordinates":[-83.182428,41.116392]}},{"properties":{"officer":"CWB","city":"Tffin","zip":"44883","date":{"end_time":"2011/04/22 09:54:33 -0400","original":"4/22/2011 9:54:32 AM","granularity":"sec","time":"2011/04/22 09:54:32 -0400"},"geo_score":0.78,"unit":485,"disposition":"700","cfs":11,"call#":11.007197,"id":"a62gk4jufbsf","geo_precision":"range","address":"1 Seneca County","state":"OH","juris":"PD"},"type":"Feature","geometry":{"type":"Point","coordinates":[-83.160743,41.122079]}},{"properties":{"officer":"CWB","city":"Tffin","zip":"44883","date":{"end_time":"2011/04/21 14:14:52 -0400","original":"4/21/2011 2:14:51 PM","granularity":"sec","time":"2011/04/21 14:14:51 -0400"},"geo_score":0.78,"unit":485,"disposition":"700","cfs":11,"call#":11.006172,"id":"a62gk4fodu7u","geo_precision":"range","address":"1 Seneca County","state":"OH","juris":"PD"},"type":"Feature","geometry":{"type":"Point","coordinates":[-83.160743,41.122079]}},{"properties":{"officer":"CWB","city":"Tffin","zip":"44883","date":{"end_time":"2011/04/19 14:11:41 -0400","original":"4/19/2011 2:11:40 PM","granularity":"sec","time":"2011/04/19 14:11:40 -0400"},"geo_score":0.78,"unit":485,"disposition":"700","cfs":11,"call#":11.006171,"id":"a62gk4jos411","geo_precision":"range","address":"1 Seneca County","state":"OH","juris":"PD"},"type":"Feature","geometry":{"type":"Point","coordinates":[-83.160743,41.122079]}},{"properties":{"officer":"SGN","city":"Tffin","zip":"44883","date":{"end_time":"2011/04/15 12:45:06 -0400","original":"4/15/2011 12:45:05 PM","granularity":"sec","time":"2011/04/15 12:45:05 -0400"},"geo_score":0.902,"unit":59,"disposition":"200","cfs":11,"call#":11.003487,"id":"a62gk4c9f7ht","geo_precision":"range","address":"465 W Perry St","state":"OH","juris":"PD"},"type":"Feature","geometry":{"type":"Point","coordinates":[-83.196925,41.113941]}},{"properties":{"officer":"CWB","city":"Tffin","zip":"44883","date":{"end_time":"2011/04/11 14:07:30 -0400","original":"4/11/2011 2:07:29 PM","granularity":"sec","time":"2011/04/11 14:07:29 -0400"},"geo_score":0.902,"unit":485,"disposition":"700","cfs":11,"call#":11.00617,"id":"a62gk4hj7zg4","geo_precision":"range","address":"51 E Market St","state":"OH","juris":"PD"},"type":"Feature","geometry":{"type":"Point","coordinates":[-83.17813,41.114436]}},{"properties":{"officer":"EDA","city":"Tffin","zip":"44883","date":{"end_time":"2011/04/10 01:25:30 -0400","original":"4/10/2011 1:25:29 AM","granularity":"sec","time":"2011/04/10 01:25:29 -0400"},"geo_score":0.902,"unit":57,"disposition":"100","cfs":11,"call#":11.003273,"id":"a62gk4adwc9b","geo_precision":"range","address":"129 S Washington St","state":"OH","juris":"PD"},"type":"Feature","geometry":{"type":"Point","coordinates":[-83.176496,41.113983]}},{"properties":{"officer":"CWB","city":"Tffin","zip":"44883","date":{"end_time":"2011/04/08 14:02:17 -0400","original":"4/8/2011 2:02:16 PM","granularity":"sec","time":"2011/04/08 14:02:16 -0400"},"geo_score":0.902,"unit":485,"disposition":"700","cfs":11,"call#":11.006169,"id":"a62gk4a1s7zs","geo_precision":"range","address":"51 E Market St","state":"OH","juris":"PD"},"type":"Feature","geometry":{"type":"Point","coordinates":[-83.17813,41.114436]}},{"properties":{"officer":"CWB","city":"Tffin","zip":"44883","date":{"end_time":"2011/04/06 13:57:44 -0400","original":"4/6/2011 1:57:43 PM","granularity":"sec","time":"2011/04/06 13:57:43 -0400"},"geo_score":0.902,"unit":485,"disposition":"700","cfs":11,"call#":11.006168,"id":"a62gk4f5214t","geo_precision":"range","address":"51 E Market St","state":"OH","juris":"PD"},"type":"Feature","geometry":{"type":"Point","coordinates":[-83.17813,41.114436]}},{"properties":{"officer":"SMM","city":"Tffin","zip":"44883","date":{"end_time":"2011/04/01 00:01:27 -0400","original":"4/1/2011 12:01:26 AM","granularity":"sec","time":"2011/04/01 00:01:26 -0400"},"geo_score":0.902,"unit":61,"disposition":"200","cfs":11,"call#":11.00289,"id":"a62gk4iuoaep","geo_precision":"range","address":"187 Jackson St","state":"OH","juris":"PD"},"type":"Feature","geometry":{"type":"Point","coordinates":[-83.185107,41.118487]}},{"properties":{"officer":"JMW","city":"Tffin","zip":"44883","date":{"end_time":"2011/03/29 19:38:47 -0400","original":"3/29/2011 7:38:46 PM","granularity":"sec","time":"2011/03/29 19:38:46 -0400"},"geo_score":0.902,"unit":63,"disposition":"200","cfs":11,"call#":11.002825,"id":"a62gk48ygmoe","geo_precision":"range","address":"24 Gary Ln","state":"OH","juris":"PD"},"type":"Feature","geometry":{"type":"Point","coordinates":[-83.196228,41.099194]}},{"properties":{"officer":"CWB","city":"Tffin","zip":"44883","date":{"end_time":"2011/03/25 13:53:25 -0400","original":"3/25/2011 1:53:24 PM","granularity":"sec","time":"2011/03/25 13:53:24 -0400"},"geo_score":0.78,"unit":485,"disposition":"700","cfs":11,"call#":11.006167,"id":"a62gk4c5g4hc","geo_precision":"range","address":"1 Seneca County","state":"OH","juris":"PD"},"type":"Feature","geometry":{"type":"Point","coordinates":[-83.160743,41.122079]}},{"properties":{"officer":"CWB","city":"Tffin","zip":"44883","date":{"end_time":"2011/03/25 13:49:29 -0400","original":"3/25/2011 1:49:28 PM","granularity":"sec","time":"2011/03/25 13:49:28 -0400"},"geo_score":0.78,"unit":485,"disposition":"700","cfs":11,"call#":11.006166,"id":"a62gk4ihjiv1","geo_precision":"range","address":"1 Seneca County","state":"OH","juris":"PD"},"type":"Feature","geometry":{"type":"Point","coordinates":[-83.160743,41.122079]}},{"properties":{"officer":"CWB","city":"Tffin","zip":"44883","date":{"end_time":"2011/03/25 13:45:31 -0400","original":"3/25/2011 1:45:30 PM","granularity":"sec","time":"2011/03/25 13:45:30 -0400"},"geo_score":0.78,"unit":485,"disposition":"700","cfs":11,"call#":11.006165,"id":"a62gk4fzwwj4","geo_precision":"range","address":"1 Seneca County","state":"OH","juris":"PD"},"type":"Feature","geometry":{"type":"Point","coordinates":[-83.160743,41.122079]}},{"properties":{"officer":"JPF","city":"Tffin","zip":"44883","date":{"end_time":"2011/03/23 23:27:28 -0400","original":"3/23/2011 11:27:27 PM","granularity":"sec","time":"2011/03/23 23:27:27 -0400"},"geo_score":0.902,"unit":59,"disposition":"100","cfs":11,"call#":11.00266,"id":"a62gk4ig6qp7","geo_precision":"range","address":"25 Miami St","state":"OH","juris":"PD"},"type":"Feature","geometry":{"type":"Point","coordinates":[-83.180129,41.117074]}},{"properties":{"officer":"CWB","city":"Tffin","zip":"44883","date":{"end_time":"2011/03/21 12:11:52 -0400","original":"3/21/2011 12:11:51 PM","granularity":"sec","time":"2011/03/21 12:11:51 -0400"},"geo_score":0.902,"unit":485,"disposition":"700","cfs":11,"call#":11.006159,"id":"a62gk4a00jqr","geo_precision":"range","address":"51 E Market St","state":"OH","juris":"PD"},"type":"Feature","geometry":{"type":"Point","coordinates":[-83.17813,41.114436]}},{"properties":{"officer":"CWB","city":"Tffin","zip":"44883","date":{"end_time":"2011/03/20 12:06:54 -0400","original":"3/20/2011 12:06:53 PM","granularity":"sec","time":"2011/03/20 12:06:53 -0400"},"geo_score":0.902,"unit":485,"disposition":"700","cfs":11,"call#":11.006158,"id":"a62gk4i9bttz","geo_precision":"range","address":"51 E Market St","state":"OH","juris":"PD"},"type":"Feature","geometry":{"type":"Point","coordinates":[-83.17813,41.114436]}},{"properties":{"officer":"CWB","city":"Tffin","zip":"44883","date":{"end_time":"2011/03/16 11:57:59 -0400","original":"3/16/2011 11:57:58 AM","granularity":"sec","time":"2011/03/16 11:57:58 -0400"},"geo_score":0.902,"unit":485,"disposition":"700","cfs":11,"call#":11.006157,"id":"a62gk4dj1yw8","geo_precision":"range","address":"51 E Market St","state":"OH","juris":"PD"},"type":"Feature","geometry":{"type":"Point","coordinates":[-83.17813,41.114436]}},{"properties":{"officer":"JSC","city":"Tffin","zip":"44883","date":{"end_time":"2011/03/07 20:22:59 -0500","original":"3/7/2011 8:22:58 PM","granularity":"sec","time":"2011/03/07 20:22:58 -0500"},"geo_score":0.902,"unit":57,"disposition":"200","cfs":11,"call#":11.002176,"id":"a62gk4cyxo3g","geo_precision":"range","address":"192 E Perry St","state":"OH","juris":"PD"},"type":"Feature","geometry":{"type":"Point","coordinates":[-83.172463,41.116218]}},{"properties":{"officer":"CWB","city":"Tffin","zip":"44883","date":{"end_time":"2011/03/03 11:51:11 -0500","original":"3/3/2011 11:51:10 AM","granularity":"sec","time":"2011/03/03 11:51:10 -0500"},"geo_score":0.902,"unit":485,"disposition":"700","cfs":11,"call#":11.006156,"id":"a62gk4656e5s","geo_precision":"range","address":"51 E Market St","state":"OH","juris":"PD"},"type":"Feature","geometry":{"type":"Point","coordinates":[-83.17813,41.114436]}},{"properties":{"officer":"MEM","city":"Tffin","zip":"44883","date":{"end_time":"2011/03/03 09:27:33 -0500","original":"3/3/2011 9:27:32 AM","granularity":"sec","time":"2011/03/03 09:27:32 -0500"},"geo_score":0.837,"unit":63,"disposition":"200","cfs":11,"call#":11.001992,"id":"a62gk4acbs9a","geo_precision":"range","address":"107X Frost Py","state":"OH","juris":"PD"},"type":"Feature","geometry":{"type":"Point","coordinates":[-83.179348,41.116848]}},{"properties":{"officer":"CWB","city":"Tffin","zip":"44883","date":{"end_time":"2011/03/02 14:59:19 -0500","original":"3/2/2011 2:59:18 PM","granularity":"sec","time":"2011/03/02 14:59:18 -0500"},"geo_score":0.902,"unit":485,"disposition":"700","cfs":11,"call#":11.002011,"id":"a62gk4b2u6p7","geo_precision":"range","address":"51 E Market St","state":"OH","juris":"PD"},"type":"Feature","geometry":{"type":"Point","coordinates":[-83.17813,41.114436]}},{"properties":{"officer":"CWB","city":"Tffin","zip":"44883","date":{"end_time":"2011/02/28 14:46:38 -0500","original":"2/28/2011 2:46:37 PM","granularity":"sec","time":"2011/02/28 14:46:37 -0500"},"geo_score":0.902,"unit":485,"disposition":"700","cfs":11,"call#":11.00201,"id":"a62gk4h2n7rc","geo_precision":"range","address":"51 E Market St","state":"OH","juris":"PD"},"type":"Feature","geometry":{"type":"Point","coordinates":[-83.17813,41.114436]}},{"properties":{"officer":"GTM","city":"Tffin","zip":"44883","date":{"end_time":"2011/02/28 11:12:46 -0500","original":"2/28/2011 11:12:45 AM","granularity":"sec","time":"2011/02/28 11:12:45 -0500"},"geo_score":0.873,"unit":57,"disposition":"200","cfs":11,"call#":11.001911,"id":"a62gk4c3htmm","geo_precision":"range","address":"107 Clinton Av","state":"OH","juris":"PD"},"type":"Feature","geometry":{"type":"Point","coordinates":[-83.170006,41.119587]}},{"properties":{"officer":"DES","city":"Tffin","zip":"44883","date":{"end_time":"2011/02/25 15:12:53 -0500","original":"2/25/2011 3:12:52 PM","granularity":"sec","time":"2011/02/25 15:12:52 -0500"},"geo_score":0.902,"unit":61,"disposition":"200","cfs":11,"call#":11.001802,"id":"a62gk4gzkdox","geo_precision":"range","address":"192 Hall St","state":"OH","juris":"PD"},"type":"Feature","geometry":{"type":"Point","coordinates":[-83.183715,41.123224]}},{"properties":{"officer":"CWB","city":"Tffin","zip":"44883","date":{"end_time":"2011/02/24 14:43:28 -0500","original":"2/24/2011 2:43:27 PM","granularity":"sec","time":"2011/02/24 14:43:27 -0500"},"geo_score":0.78,"unit":485,"disposition":"700","cfs":11,"call#":11.002009,"id":"a62gk4abq9b7","geo_precision":"range","address":"1 Seneca County","state":"OH","juris":"PD"},"type":"Feature","geometry":{"type":"Point","coordinates":[-83.160743,41.122079]}},{"properties":{"officer":"CWB","city":"Tffin","zip":"44883","date":{"end_time":"2011/02/24 14:37:46 -0500","original":"2/24/2011 2:37:45 PM","granularity":"sec","time":"2011/02/24 14:37:45 -0500"},"geo_score":0.78,"unit":485,"disposition":"700","cfs":11,"call#":11.002008,"id":"a62gk46y21hc","geo_precision":"range","address":"1 Seneca County","state":"OH","juris":"PD"},"type":"Feature","geometry":{"type":"Point","coordinates":[-83.160743,41.122079]}},{"properties":{"officer":"FWS","city":"Tffin","zip":"44883","date":{"end_time":"2011/02/22 14:51:13 -0500","original":"2/22/2011 2:51:12 PM","granularity":"sec","time":"2011/02/22 14:51:12 -0500"},"geo_score":0.902,"unit":57,"disposition":"100","cfs":11,"call#":11.001704,"id":"a62gk46ue2ov","geo_precision":"range","address":"87 Erie St","state":"OH","juris":"PD"},"type":"Feature","geometry":{"type":"Point","coordinates":[-83.174685,41.123166]}},{"properties":{"officer":"JPF","city":"Tffin","zip":"44883","date":{"end_time":"2011/02/19 18:50:36 -0500","original":"2/19/2011 6:50:35 PM","granularity":"sec","time":"2011/02/19 18:50:35 -0500"},"geo_score":0.902,"unit":59,"disposition":"200","cfs":11,"call#":11.001638,"id":"a62gk44ny142","geo_precision":"range","address":"382 Wentz St","state":"OH","juris":"PD"},"type":"Feature","geometry":{"type":"Point","coordinates":[-83.199161,41.113298]}},{"properties":{"officer":"CWB","city":"Tffin","zip":"44883","date":{"end_time":"2011/02/17 14:24:00 -0500","original":"2/17/2011 2:23:59 PM","granularity":"sec","time":"2011/02/17 14:23:59 -0500"},"geo_score":0.78,"unit":485,"disposition":"700","cfs":11,"call#":11.002007,"id":"a62gk4drei4t","geo_precision":"range","address":"1 Seneca County","state":"OH","juris":"PD"},"type":"Feature","geometry":{"type":"Point","coordinates":[-83.160743,41.122079]}},{"properties":{"officer":"CWB","city":"Tffin","zip":"44883","date":{"end_time":"2011/02/16 14:19:50 -0500","original":"2/16/2011 2:19:49 PM","granularity":"sec","time":"2011/02/16 14:19:49 -0500"},"geo_score":0.78,"unit":485,"disposition":"700","cfs":11,"call#":11.002006,"id":"a62gk4kklv22","geo_precision":"range","address":"1 Seneca County","state":"OH","juris":"PD"},"type":"Feature","geometry":{"type":"Point","coordinates":[-83.160743,41.122079]}},{"properties":{"officer":"BAR","city":"Tffin","zip":"44883","date":{"end_time":"2011/02/13 21:41:42 -0500","original":"2/13/2011 9:41:41 PM","granularity":"sec","time":"2011/02/13 21:41:41 -0500"},"geo_score":0.902,"unit":58,"disposition":"400","cfs":11,"call#":11.001455,"id":"a62gk4kx1t4l","geo_precision":"range","address":"25X Rebecca St","state":"OH","juris":"PD"},"type":"Feature","geometry":{"type":"Point","coordinates":[-83.170376,41.113034]}},{"properties":{"officer":"CWB","city":"Tffin","zip":"44883","date":{"end_time":"2011/02/13 14:10:17 -0500","original":"2/13/2011 2:10:16 PM","granularity":"sec","time":"2011/02/13 14:10:16 -0500"},"geo_score":0.902,"unit":485,"disposition":"700","cfs":11,"call#":11.002005,"id":"a62gk4i47sm4","geo_precision":"range","address":"51 E Market St","state":"OH","juris":"PD"},"type":"Feature","geometry":{"type":"Point","coordinates":[-83.17813,41.114436]}},{"properties":{"officer":"JMW","city":"Tffin","zip":"44883","date":{"end_time":"2011/02/11 22:39:21 -0500","original":"2/11/2011 10:39:20 PM","granularity":"sec","time":"2011/02/11 22:39:20 -0500"},"geo_score":0.857,"unit":57,"disposition":"200","cfs":11,"call#":11.001377,"id":"a62gk485pgbe","geo_precision":"street","address":"Scott St/W Perry St","state":"OH","juris":"PD"},"type":"Feature","geometry":{"type":"Point","coordinates":[-83.189151,41.116116]}},{"properties":{"officer":"SGN","city":"Tffin","zip":"44883","date":{"end_time":"2011/02/10 10:29:02 -0500","original":"2/10/2011 10:29:01 AM","granularity":"sec","time":"2011/02/10 10:29:01 -0500"},"geo_score":0.902,"unit":59,"disposition":"200","cfs":11,"call#":11.001313,"id":"a62gk4g4hsay","geo_precision":"range","address":"300 S Monroe St","state":"OH","juris":"PD"},"type":"Feature","geometry":{"type":"Point","coordinates":[-83.177173,41.107991]}},{"properties":{"officer":"CWB","city":"Tffin","zip":"44883","date":{"end_time":"2011/02/08 14:06:45 -0500","original":"2/8/2011 2:06:44 PM","granularity":"sec","time":"2011/02/08 14:06:44 -0500"},"geo_score":0.902,"unit":485,"disposition":"700","cfs":11,"call#":11.002004,"id":"a62gk4gc9emk","geo_precision":"range","address":"51 E Market St","state":"OH","juris":"PD"},"type":"Feature","geometry":{"type":"Point","coordinates":[-83.17813,41.114436]}},{"properties":{"officer":"CWB","city":"Tffin","zip":"44883","date":{"end_time":"2011/02/05 14:03:04 -0500","original":"2/5/2011 2:03:03 PM","granularity":"sec","time":"2011/02/05 14:03:03 -0500"},"geo_score":0.902,"unit":485,"disposition":"700","cfs":11,"call#":11.002003,"id":"a62gk4ftowra","geo_precision":"range","address":"51 E Market St","state":"OH","juris":"PD"},"type":"Feature","geometry":{"type":"Point","coordinates":[-83.17813,41.114436]}},{"properties":{"officer":"JDW","city":"Tffin","zip":"44883","date":{"end_time":"2011/02/04 02:13:50 -0500","original":"2/4/2011 2:13:49 AM","granularity":"sec","time":"2011/02/04 02:13:49 -0500"},"geo_score":0.857,"unit":60,"disposition":"400","cfs":11,"call#":11.00105,"id":"a62gk4f6jsr5","geo_precision":"street","address":"E Market St/S Washington St","state":"OH","juris":"PD"},"type":"Feature","geometry":{"type":"Point","coordinates":[-83.179559,41.114309]}},{"properties":{"officer":"JDW","city":"Tffin","zip":"44883","date":{"end_time":"2011/02/03 00:38:00 -0500","original":"2/3/2011 12:37:00 AM","granularity":"min","time":"2011/02/03 00:37:00 -0500"},"geo_score":0.902,"unit":60,"disposition":"200","cfs":11,"call#":11.001003,"id":"a62gk4f7vwh4","geo_precision":"range","address":"247 S Sandusky St","state":"OH","juris":"PD"},"type":"Feature","geometry":{"type":"Point","coordinates":[-83.186688,41.113627]}},{"properties":{"officer":"REB","city":"Tffin","zip":"44883","date":{"end_time":"2011/02/01 10:57:03 -0500","original":"2/1/2011 10:57:02 AM","granularity":"sec","time":"2011/02/01 10:57:02 -0500"},"geo_score":0.857,"unit":558,"disposition":"200","cfs":11,"call#":11.000968,"id":"a62gk44nth6z","geo_precision":"street","address":"Franklin St/Miami St","state":"OH","juris":"PD"},"type":"Feature","geometry":{"type":"Point","coordinates":[-83.181876,41.117677]}},{"properties":{"officer":"EDA","city":"Tffin","zip":"44883","date":{"end_time":"2011/01/30 01:37:44 -0500","original":"1/30/2011 1:37:43 AM","granularity":"sec","time":"2011/01/30 01:37:43 -0500"},"geo_score":0.902,"unit":60,"disposition":"400","cfs":11,"call#":11.000912,"id":"a62gk4ga2qwl","geo_precision":"range","address":"129 S Washington St","state":"OH","juris":"PD"},"type":"Feature","geometry":{"type":"Point","coordinates":[-83.176496,41.113983]}},{"properties":{"officer":"EDA","city":"Tffin","zip":"44883","date":{"end_time":"2011/01/28 20:57:14 -0500","original":"1/28/2011 8:57:13 PM","granularity":"sec","time":"2011/01/28 20:57:13 -0500"},"geo_score":0.902,"unit":59,"disposition":"200","cfs":11,"call#":11.000859,"id":"a62gk4ihexm8","geo_precision":"range","address":"870 W Market St,15","state":"OH","juris":"PD"},"type":"Feature","geometry":{"type":"Point","coordinates":[-83.181178,41.114143]}},{"properties":{"officer":"CWB","city":"Tffin","zip":"44883","date":{"end_time":"2011/01/28 13:59:30 -0500","original":"1/28/2011 1:59:29 PM","granularity":"sec","time":"2011/01/28 13:59:29 -0500"},"geo_score":0.902,"unit":485,"disposition":"700","cfs":11,"call#":11.002002,"id":"a62gk4ane6pm","geo_precision":"range","address":"51 E Market St","state":"OH","juris":"PD"},"type":"Feature","geometry":{"type":"Point","coordinates":[-83.17813,41.114436]}},{"properties":{"officer":"CWB","city":"Tffin","zip":"44883","date":{"end_time":"2011/01/27 13:55:36 -0500","original":"1/27/2011 1:55:35 PM","granularity":"sec","time":"2011/01/27 13:55:35 -0500"},"geo_score":0.78,"unit":485,"disposition":"700","cfs":11,"call#":11.002001,"id":"a62gk4cx5jol","geo_precision":"range","address":"1 Seneca County","state":"OH","juris":"PD"},"type":"Feature","geometry":{"type":"Point","coordinates":[-83.160743,41.122079]}},{"properties":{"officer":"CWB","city":"Tffin","zip":"44883","date":{"end_time":"2011/01/24 13:49:40 -0500","original":"1/24/2011 1:49:39 PM","granularity":"sec","time":"2011/01/24 13:49:39 -0500"},"geo_score":0.902,"unit":485,"disposition":"700","cfs":11,"call#":11.002,"id":"a62gk48gffy5","geo_precision":"range","address":"51 E Market St","state":"OH","juris":"PD"},"type":"Feature","geometry":{"type":"Point","coordinates":[-83.17813,41.114436]}},{"properties":{"officer":"CWB","city":"Tffin","zip":"44883","date":{"end_time":"2011/01/24 13:45:11 -0500","original":"1/24/2011 1:45:10 PM","granularity":"sec","time":"2011/01/24 13:45:10 -0500"},"geo_score":0.902,"unit":485,"disposition":"700","cfs":11,"call#":11.001999,"id":"a62gk44jkshc","geo_precision":"range","address":"51 E Market St","state":"OH","juris":"PD"},"type":"Feature","geometry":{"type":"Point","coordinates":[-83.17813,41.114436]}},{"properties":{"officer":"JPF","city":"Tffin","zip":"44883","date":{"end_time":"2011/01/23 00:52:20 -0500","original":"1/23/2011 12:52:19 AM","granularity":"sec","time":"2011/01/23 00:52:19 -0500"},"geo_score":0.902,"unit":59,"disposition":"200","cfs":11,"call#":11.000675,"id":"a62gk45li361","geo_precision":"range","address":"7 Beechwood Dr,102","state":"OH","juris":"PD"},"type":"Feature","geometry":{"type":"Point","coordinates":[-83.205796,41.114535]}},{"properties":{"officer":"FWS","city":"Tffin","zip":"44883","date":{"end_time":"2011/01/19 14:23:17 -0500","original":"1/19/2011 2:23:16 PM","granularity":"sec","time":"2011/01/19 14:23:16 -0500"},"geo_score":0.902,"unit":57,"disposition":"200","cfs":11,"call#":11.00057,"id":"a62gk4knwqnu","geo_precision":"range","address":"71 S Washington St","state":"OH","juris":"PD"},"type":"Feature","geometry":{"type":"Point","coordinates":[-83.17672,41.11553]}},{"properties":{"officer":"CWB","city":"Tffin","zip":"44883","date":{"end_time":"2011/01/19 13:58:53 -0500","original":"1/19/2011 1:58:52 PM","granularity":"sec","time":"2011/01/19 13:58:52 -0500"},"geo_score":0.902,"unit":485,"disposition":"700","cfs":11,"call#":11.000714,"id":"a62gk4k7j2od","geo_precision":"range","address":"51 E Market St","state":"OH","juris":"PD"},"type":"Feature","geometry":{"type":"Point","coordinates":[-83.17813,41.114436]}},{"properties":{"officer":"CWB","city":"Tffin","zip":"44883","date":{"end_time":"2011/01/19 13:53:50 -0500","original":"1/19/2011 1:53:49 PM","granularity":"sec","time":"2011/01/19 13:53:49 -0500"},"geo_score":0.902,"unit":485,"disposition":"700","cfs":11,"call#":11.000713,"id":"a62gk4es9xkv","geo_precision":"range","address":"51 E Market St","state":"OH","juris":"PD"},"type":"Feature","geometry":{"type":"Point","coordinates":[-83.17813,41.114436]}},{"properties":{"officer":"SGN","city":"Tffin","zip":"44883","date":{"end_time":"2011/01/19 08:25:33 -0500","original":"1/19/2011 8:25:32 AM","granularity":"sec","time":"2011/01/19 08:25:32 -0500"},"geo_score":0.902,"unit":59,"disposition":"200","cfs":11,"call#":11.000565,"id":"a62gk485wgzh","geo_precision":"range","address":"120 Melmore St","state":"OH","juris":"PD"},"type":"Feature","geometry":{"type":"Point","coordinates":[-83.172964,41.106757]}},{"properties":{"officer":"BRB","city":"Tffin","zip":"44883","date":{"end_time":"2011/01/18 12:43:14 -0500","original":"1/18/2011 12:43:13 PM","granularity":"sec","time":"2011/01/18 12:43:13 -0500"},"geo_score":0.902,"unit":59,"disposition":"400","cfs":11,"call#":11.000543,"id":"a62gk4an1bda","geo_precision":"range","address":"154 S Washington St,211","state":"OH","juris":"PD"},"type":"Feature","geometry":{"type":"Point","coordinates":[-83.176151,41.111561]}},{"properties":{"officer":"CWB","city":"Tffin","zip":"44883","date":{"end_time":"2011/01/18 12:21:35 -0500","original":"1/18/2011 12:21:34 PM","granularity":"sec","time":"2011/01/18 12:21:34 -0500"},"geo_score":0.78,"unit":485,"disposition":"700","cfs":11,"call#":11.000711,"id":"a62gk47uyn29","geo_precision":"range","address":"1 Seneca County","state":"OH","juris":"PD"},"type":"Feature","geometry":{"type":"Point","coordinates":[-83.160743,41.122079]}},{"properties":{"officer":"CWB","city":"Tffin","zip":"44883","date":{"end_time":"2011/01/18 12:16:10 -0500","original":"1/18/2011 12:16:09 PM","granularity":"sec","time":"2011/01/18 12:16:09 -0500"},"geo_score":0.78,"unit":485,"disposition":"700","cfs":11,"call#":11.00071,"id":"a62gk450s7tp","geo_precision":"range","address":"1 Seneca County","state":"OH","juris":"PD"},"type":"Feature","geometry":{"type":"Point","coordinates":[-83.160743,41.122079]}},{"properties":{"officer":"CWB","city":"Tffin","zip":"44883","date":{"end_time":"2011/01/18 12:10:24 -0500","original":"1/18/2011 12:10:23 PM","granularity":"sec","time":"2011/01/18 12:10:23 -0500"},"geo_score":0.78,"unit":485,"disposition":"700","cfs":11,"call#":11.000709,"id":"a62gk46g4zyp","geo_precision":"range","address":"1 Seneca County","state":"OH","juris":"PD"},"type":"Feature","geometry":{"type":"Point","coordinates":[-83.160743,41.122079]}},{"properties":{"officer":"CWB","city":"Tffin","zip":"44883","date":{"end_time":"2011/01/17 11:59:47 -0500","original":"1/17/2011 11:59:46 AM","granularity":"sec","time":"2011/01/17 11:59:46 -0500"},"geo_score":0.902,"unit":485,"disposition":"700","cfs":11,"call#":11.000708,"id":"a62gk477rv99","geo_precision":"range","address":"51 E Market St","state":"OH","juris":"PD"},"type":"Feature","geometry":{"type":"Point","coordinates":[-83.17813,41.114436]}},{"properties":{"officer":"CWB","city":"Tffin","zip":"44883","date":{"end_time":"2011/01/08 11:47:11 -0500","original":"1/8/2011 11:47:10 AM","granularity":"sec","time":"2011/01/08 11:47:10 -0500"},"geo_score":0.78,"unit":485,"disposition":"700","cfs":11,"call#":11.000707,"id":"a62gk462l53q","geo_precision":"range","address":"1 Seneca County","state":"OH","juris":"PD"},"type":"Feature","geometry":{"type":"Point","coordinates":[-83.160743,41.122079]}},{"properties":{"officer":"SGN","city":"Tffin","zip":"44883","date":{"end_time":"2011/01/08 08:22:54 -0500","original":"1/8/2011 8:22:53 AM","granularity":"sec","time":"2011/01/08 08:22:53 -0500"},"geo_score":0.78,"unit":59,"disposition":"400","cfs":11,"call#":11.000198,"id":"a62gk4eo51jq","geo_precision":"range","address":"1 Seneca County","state":"OH","juris":"PD"},"type":"Feature","geometry":{"type":"Point","coordinates":[-83.160743,41.122079]}},{"properties":{"officer":"CWB","city":"Tffin","zip":"44883","date":{"end_time":"2011/01/07 11:32:59 -0500","original":"1/7/2011 11:32:58 AM","granularity":"sec","time":"2011/01/07 11:32:58 -0500"},"geo_score":0.78,"unit":485,"disposition":"700","cfs":11,"call#":11.000706,"id":"a62gk4gzzegy","geo_precision":"range","address":"1 Seneca County","state":"OH","juris":"PD"},"type":"Feature","geometry":{"type":"Point","coordinates":[-83.160743,41.122079]}},{"properties":{"officer":"CWB","city":"Tffin","zip":"44883","date":{"end_time":"2011/01/05 10:35:11 -0500","original":"1/5/2011 10:35:10 AM","granularity":"sec","time":"2011/01/05 10:35:10 -0500"},"geo_score":0.902,"unit":485,"disposition":"700","cfs":11,"call#":11.000704,"id":"a62gk47np7j4","geo_precision":"range","address":"51 E Market St","state":"OH","juris":"PD"},"type":"Feature","geometry":{"type":"Point","coordinates":[-83.17813,41.114436]}},{"properties":{"officer":"CWB","city":"Tffin","zip":"44883","date":{"end_time":"2011/01/04 10:29:57 -0500","original":"1/4/2011 10:29:56 AM","granularity":"sec","time":"2011/01/04 10:29:56 -0500"},"geo_score":0.902,"unit":485,"disposition":"700","cfs":11,"call#":11.000703,"id":"a62gk4kcr6ko","geo_precision":"range","address":"51 E Market St","state":"OH","juris":"PD"},"type":"Feature","geometry":{"type":"Point","coordinates":[-83.17813,41.114436]}}],"is_temporal":true,"author":{"url":"","metadata":"","contact_name":"","contact_address":"","source":"","contact_phone":""},"source":"","pagination":{"sort":null,"start":0,"total":229,"limit":1000000},"state":"complete","tags":"","published":"2014-08-14T16:54:27-04:00","id":221536}