{"type":"FeatureCollection","data_type":"Dataset","url_type":null,"permissions":[{"permissions":{"download":true,"view":true},"group_id":"everyone"}],"classification":null,"title":"Kevin_-_Municipalities_-_ran_March_29th","count":34,"stream_id":221598,"contributor":{"url":"http://geocommons.com/users/39447","name":"sam.felipe"},"data_attributes":null,"calculation_params":null,"icon_link":null,"link":"http://geocommons.com/overlays/221598.json","extent":[-122.873,37.6586,-121.163,38.7488],"geometry_types":["point"],"unique_name":null,"name":"Kevin_-_Municipalities_-_ran_March_29th","feature_count":34,"description":"","next_feature":null,"is_raster":false,"short_classification":"Y","stats":{"rep? (1 for yes, 0 for no)":{"max":1,"mean":0.411764705882353,"variance":0.249554367201426,"stdev":0.499554168435642,"min":0,"median":0}},"features":[{"properties":{"rep? (1 for yes, 0 for no)":1,"city":"Santa Rosa","zip":"95402","geo_score":0.805,"street address":"10 Santa Rosa  Ave","id":"a6om3abayg7a","geo_precision":"range","state":"ca"},"type":"Feature","geometry":{"type":"Point","coordinates":[-122.71334,38.43955]}},{"properties":{"rep? (1 for yes, 0 for no)":1,"city":"Santa Rosa","zip":"95401","geo_score":0.753,"street address":"90 Stony Point Rd","id":"a6om3a0cjcvo","geo_precision":"range","state":"ca"},"type":"Feature","geometry":{"type":"Point","coordinates":[-122.745267,38.44067]}},{"properties":{"rep? (1 for yes, 0 for no)":1,"city":"Cotati","zip":"94928","geo_score":0.541,"street address":"201 W Sierra Av","id":"a6om3a4ajudy","geo_precision":"street","state":"ca"},"type":"Feature","geometry":{"type":"Point","coordinates":[-122.717915,38.344543]}},{"properties":{"rep? (1 for yes, 0 for no)":1,"city":"Healdsburg","zip":"95448","geo_score":0.912,"street address":"401 Grove St","id":"a6om39zydnbr","geo_precision":"range","state":"ca"},"type":"Feature","geometry":{"type":"Point","coordinates":[-122.87326,38.611509]}},{"properties":{"rep? (1 for yes, 0 for no)":1,"city":"Petaluma","zip":"94952","geo_score":0.913,"street address":"11 English St","id":"a6om39y4rmwy","geo_precision":"range","state":"ca"},"type":"Feature","geometry":{"type":"Point","coordinates":[-122.644088,38.23284]}},{"properties":{"rep? (1 for yes, 0 for no)":1,"city":"Sebastopol","zip":"95472","geo_score":0.805,"street address":"7120 Bodega Dr","id":"a6om3a96iv9e","geo_precision":"range","state":"ca"},"type":"Feature","geometry":{"type":"Point","coordinates":[-122.824381,38.402018]}},{"properties":{"rep? (1 for yes, 0 for no)":1,"city":"Sonoma","zip":"95476","geo_score":0.814,"street address":"175 First St W","id":"a6om39y639ui","geo_precision":"range","state":"ca"},"type":"Feature","geometry":{"type":"Point","coordinates":[-122.457638,38.299501]}},{"properties":{"rep? (1 for yes, 0 for no)":1,"city":"Santa Rosa","zip":"95403","geo_score":0.913,"street address":"575 Administration Dr","id":"a6om39zg7d4a","geo_precision":"range","state":"ca"},"type":"Feature","geometry":{"type":"Point","coordinates":[-122.724064,38.46411]}},{"properties":{"rep? (1 for yes, 0 for no)":1,"city":"San Rafael","zip":"94903","geo_score":0.922,"street address":"3501 Civic Center Dr","id":"a6om3a8l4219","geo_precision":"range","state":"ca"},"type":"Feature","geometry":{"type":"Point","coordinates":[-122.528801,37.99704]}},{"properties":{"rep? (1 for yes, 0 for no)":1,"city":"Novato","zip":"94945","geo_score":0.912,"street address":"815 DeLong Ave","id":"a6om39w1bja0","geo_precision":"range","state":"ca"},"type":"Feature","geometry":{"type":"Point","coordinates":[-122.567328,38.105776]}},{"properties":{"rep? (1 for yes, 0 for no)":1,"city":"San Rafael","zip":"94901","geo_score":0.756,"street address":"1400 5th St","id":"a6om3a9rpdl8","geo_precision":"range","state":"ca"},"type":"Feature","geometry":{"type":"Point","coordinates":[-122.53186,37.974519]}},{"properties":{"rep? (1 for yes, 0 for no)":1,"city":"Mill Valley","zip":"94941","geo_score":0.774,"street address":"26 Corte Madera Dr","id":"a6om3a0l8kuv","geo_precision":"range","state":"ca"},"type":"Feature","geometry":{"type":"Point","coordinates":[-122.563341,37.90034]}},{"properties":{"rep? (1 for yes, 0 for no)":0,"city":"San Francisco","zip":"94103","geo_score":0.698,"street address":"4512 Van Ness","id":"a6om3a3v07p2","geo_precision":"street","state":"ca"},"type":"Feature","geometry":{"type":"Point","coordinates":[-122.417487,37.765183]}},{"properties":{"rep? (1 for yes, 0 for no)":0,"city":"San Francisco","zip":"94102","geo_score":1.0,"street address":"1 Dr. Carlton Goodlett Pl","id":"a6om3a74kuas","geo_precision":"zip","state":"ca"},"type":"Feature","geometry":{"type":"Point","coordinates":[-122.416582,37.779278]}},{"properties":{"rep? (1 for yes, 0 for no)":0,"city":"San Francisco","zip":"94105","geo_score":0.805,"street address":"2001 Market St","id":"a6om39yyhf3q","geo_precision":"street","state":"ca"},"type":"Feature","geometry":{"type":"Point","coordinates":[-122.403431,37.787642]}},{"properties":{"rep? (1 for yes, 0 for no)":1,"city":"Danville","zip":"94526","geo_score":0.436,"street address":"510 La Gonda Way","id":"a6om3a9zysuj","geo_precision":"street","state":"ca"},"type":"Feature","geometry":{"type":"Point","coordinates":[-122.263284,38.165406]}},{"properties":{"rep? (1 for yes, 0 for no)":0,"city":"Martinez","zip":"94511","geo_score":0.805,"street address":"651 Pine St","id":"a6om3a3bluvq","geo_precision":"range","state":"ca"},"type":"Feature","geometry":{"type":"Point","coordinates":[-122.134037,38.019048]}},{"properties":{"rep? (1 for yes, 0 for no)":0,"city":"Walnut Creek","zip":"94596","geo_score":0.556,"street address":"1666 N. Main St","id":"a6om3aa7egve","geo_precision":"street","state":"ca"},"type":"Feature","geometry":{"type":"Point","coordinates":[-122.034488,37.886731]}},{"properties":{"rep? (1 for yes, 0 for no)":0,"city":"Dublin","zip":"94568","geo_score":0.793,"street address":"100 Civic Dr","id":"a6om3a0i45jl","geo_precision":"range","state":"ca"},"type":"Feature","geometry":{"type":"Point","coordinates":[-121.916214,37.704418]}},{"properties":{"rep? (1 for yes, 0 for no)":0,"city":"San Ramon","zip":"94583","geo_score":1.0,"street address":"2226 Camino Ramon","id":"a6om3aax77g8","geo_precision":"range","state":"ca"},"type":"Feature","geometry":{"type":"Point","coordinates":[-121.968705,37.778865]}},{"properties":{"rep? (1 for yes, 0 for no)":0,"city":"Blackhawk","zip":"94506","geo_score":0.683,"street address":"1255 Camino Tassajara","id":"a6om3a0dpdxr","geo_precision":"street","state":"ca"},"type":"Feature","geometry":{"type":"Point","coordinates":[-121.951696,37.808701]}},{"properties":{"rep? (1 for yes, 0 for no)":0,"city":"Pleasanton","zip":"94566","geo_score":1.0,"street address":"200  Old Bernal Ave","id":"a6om39vsq4vf","geo_precision":"range","state":"ca"},"type":"Feature","geometry":{"type":"Point","coordinates":[-121.878268,37.65859]}},{"properties":{"rep? (1 for yes, 0 for no)":0,"city":"Diablo","zip":"94568","geo_score":0.443,"street address":"2121 Camino Real","id":"a6om3a6midyk","geo_precision":"street","state":"ca"},"type":"Feature","geometry":{"type":"Point","coordinates":[-121.942873,37.701288]}},{"properties":{"rep? (1 for yes, 0 for no)":0,"city":"Sacramento","zip":"95814","geo_score":1.0,"street address":"915 I Street","id":"a6om3a7um2n4","geo_precision":"range","state":"ca"},"type":"Feature","geometry":{"type":"Point","coordinates":[-121.494189,38.581708]}},{"properties":{"rep? (1 for yes, 0 for no)":0,"city":"Sacramento","zip":"95814","geo_score":1.0,"street address":"700 H St","id":"a6om3a2tfrbm","geo_precision":"range","state":"ca"},"type":"Feature","geometry":{"type":"Point","coordinates":[-121.49651,38.58356]}},{"properties":{"rep? (1 for yes, 0 for no)":0,"city":"Fair Oaks","zip":"95628","geo_score":1.0,"street address":"5229 Hazel Ave","id":"a6om3a4is56c","geo_precision":"range","state":"ca"},"type":"Feature","geometry":{"type":"Point","coordinates":[-121.225674,38.661052]}},{"properties":{"rep? (1 for yes, 0 for no)":0,"city":"Sacramento","zip":"95814","geo_score":0.883,"street address":"600 8th St","id":"a6om3a34uc05","geo_precision":"range","state":"ca"},"type":"Feature","geometry":{"type":"Point","coordinates":[-121.494231,38.585394]}},{"properties":{"rep? (1 for yes, 0 for no)":0,"city":"Citrus Heights","zip":"95621","geo_score":0.513,"street address":"6237 Fountain Square Dr","id":"a6om3aalfimw","geo_precision":"street","state":"ca"},"type":"Feature","geometry":{"type":"Point","coordinates":[-121.376666,38.68422]}},{"properties":{"rep? (1 for yes, 0 for no)":0,"city":"Elk Grove","zip":"95758","geo_score":0.937,"street address":"8401 Laguna Palms","id":"a6om3a82z2js","geo_precision":"range","state":"ca"},"type":"Feature","geometry":{"type":"Point","coordinates":[-121.395736,38.417665]}},{"properties":{"rep? (1 for yes, 0 for no)":0,"city":"Folsom","zip":"95630","geo_score":0.913,"street address":"50 Natoma St","id":"a6om3a8vk2cb","geo_precision":"range","state":"ca"},"type":"Feature","geometry":{"type":"Point","coordinates":[-121.163214,38.681624]}},{"properties":{"rep? (1 for yes, 0 for no)":0,"city":"Rancho Cordova","zip":"95670","geo_score":0.91,"street address":"2880 Gold Tailings Ct","id":"a6om3a94rzq8","geo_precision":"range","state":"ca"},"type":"Feature","geometry":{"type":"Point","coordinates":[-121.267588,38.597759]}},{"properties":{"rep? (1 for yes, 0 for no)":0,"city":"Roseville","zip":"95678","geo_score":0.924,"street address":"311 Vernon St","id":"a6om3a94vsyo","geo_precision":"range","state":"ca"},"type":"Feature","geometry":{"type":"Point","coordinates":[-121.284294,38.748761]}},{"properties":{"rep? (1 for yes, 0 for no)":0,"city":"Fair Oaks","zip":"95628","geo_score":0.763,"street address":"8587 N Main St","id":"a6om39xlx00z","geo_precision":"street","state":"ca"},"type":"Feature","geometry":{"type":"Point","coordinates":[-121.268207,38.643437]}},{"properties":{"rep? (1 for yes, 0 for no)":1,"city":"Santa Rosa","zip":"95401","geo_score":0.851,"street address":"45 Stony Point Rd","id":"a6om3a9ultim","geo_precision":"range","state":"ca"},"type":"Feature","geometry":{"type":"Point","coordinates":[-122.750714,38.443461]}}],"is_temporal":false,"author":{"url":"","metadata":null,"contact_name":null,"contact_address":null,"source":null,"contact_phone":null},"source":"","pagination":{"sort":null,"start":0,"total":34,"limit":1000000},"state":"complete","tags":"","published":"2014-08-14T16:57:27-04:00","id":221598}