{"type":"FeatureCollection","data_type":"Dataset","url_type":null,"permissions":[{"permissions":{"download":true,"view":true},"group_id":"everyone"}],"classification":null,"title":"Kevin_-_Real_Estate_-_ran_March_29th","count":152,"stream_id":221579,"contributor":{"url":"http://geocommons.com/users/39447","name":"sam.felipe"},"data_attributes":null,"calculation_params":null,"icon_link":null,"link":"http://geocommons.com/overlays/221579.json","extent":[-122.873,37.6932,-121.073,38.6681],"geometry_types":["point"],"unique_name":null,"name":"Kevin_-_Real_Estate_-_ran_March_29th","feature_count":152,"description":"","next_feature":null,"is_raster":false,"short_classification":"Y","stats":{"rep? (1 for yes, 0 for no)":{"max":1,"mean":0.756578947368421,"variance":0.185386894388289,"stdev":0.430565784042681,"min":0,"median":1}},"features":[{"properties":{"rep? (1 for yes, 0 for no)":1,"city":"Santa Rosa","zip":"95401","geo_score":0.753,"street address":"120 Stony Point Rd","id":"a6xknbbvc0f2","geo_precision":"range","state":"ca"},"type":"Feature","geometry":{"type":"Point","coordinates":[-122.743368,38.43957]}},{"properties":{"rep? (1 for yes, 0 for no)":1,"city":"Santa Rosa","zip":"95403","geo_score":0.596,"street address":"600 Bicentennial","id":"a6xknbdellcm","geo_precision":"zip","state":"ca"},"type":"Feature","geometry":{"type":"Point","coordinates":[-122.749005,38.498114]}},{"properties":{"rep? (1 for yes, 0 for no)":1,"city":"Santa Rosa","zip":"95403","geo_score":0.816,"street address":"3033 Mendocino Ave","id":"a6xknazommdm","geo_precision":"range","state":"ca"},"type":"Feature","geometry":{"type":"Point","coordinates":[-122.721777,38.469056]}},{"properties":{"rep? (1 for yes, 0 for no)":1,"city":"Santa Rosa","zip":"95402","geo_score":0.805,"street address":"800 Mendocino Ave","id":"a6xknaysq5dq","geo_precision":"range","state":"ca"},"type":"Feature","geometry":{"type":"Point","coordinates":[-122.717646,38.447884]}},{"properties":{"rep? (1 for yes, 0 for no)":1,"city":"Santa Rosa","zip":"95402","geo_score":0.615,"street address":"50 B St","id":"a6xknb97u1f3","geo_precision":"street","state":"ca"},"type":"Feature","geometry":{"type":"Point","coordinates":[-122.714195,38.437757]}},{"properties":{"rep? (1 for yes, 0 for no)":1,"city":"Santa Rosa","zip":"95404","geo_score":0.883,"street address":"1401 Fourth St","id":"a6xknb9hb2ge","geo_precision":"range","state":"ca"},"type":"Feature","geometry":{"type":"Point","coordinates":[-122.70177,38.446922]}},{"properties":{"rep? (1 for yes, 0 for no)":1,"city":"Santa Rosa","zip":"95404","geo_score":1.0,"street address":"1303 College Ave","id":"a6xknb0rnmto","geo_precision":"range","state":"ca"},"type":"Feature","geometry":{"type":"Point","coordinates":[-122.70549,38.445322]}},{"properties":{"rep? (1 for yes, 0 for no)":1,"city":"Santa Rosa","zip":"95404","geo_score":1.0,"street address":"1329 College Ave","id":"a6xknaym1vlt","geo_precision":"range","state":"ca"},"type":"Feature","geometry":{"type":"Point","coordinates":[-122.705256,38.445258]}},{"properties":{"rep? (1 for yes, 0 for no)":1,"city":"Santa Rosa","zip":"95402","geo_score":0.805,"street address":"1301 Farmers Ln","id":"a6xknbcrtk41","geo_precision":"range","state":"ca"},"type":"Feature","geometry":{"type":"Point","coordinates":[-122.68727,38.438556]}},{"properties":{"rep? (1 for yes, 0 for no)":1,"city":"Santa Rosa","zip":"95403","geo_score":0.84,"street address":"3554 Round Barn","id":"a6xknbacvj3d","geo_precision":"range","state":"ca"},"type":"Feature","geometry":{"type":"Point","coordinates":[-122.72715,38.480536]}},{"properties":{"rep? (1 for yes, 0 for no)":1,"city":"Santa Rosa","zip":"95403","geo_score":0.84,"street address":"3550 Round Barn","id":"a6xknb0raghs","geo_precision":"range","state":"ca"},"type":"Feature","geometry":{"type":"Point","coordinates":[-122.727786,38.480331]}},{"properties":{"rep? (1 for yes, 0 for no)":1,"city":"Santa Rosa","zip":"95404","geo_score":0.883,"street address":"1407 4th St","id":"a6xknbb5tsvk","geo_precision":"range","state":"ca"},"type":"Feature","geometry":{"type":"Point","coordinates":[-122.70175,38.446938]}},{"properties":{"rep? (1 for yes, 0 for no)":1,"city":"Santa Rosa","zip":"95401","geo_score":0.814,"street address":"121 Stony Point","id":"a6xknb3n61eu","geo_precision":"range","state":"ca"},"type":"Feature","geometry":{"type":"Point","coordinates":[-122.745845,38.439433]}},{"properties":{"rep? (1 for yes, 0 for no)":1,"city":"Santa Rosa","zip":"95403","geo_score":0.776,"street address":"320 College Av","id":"a6xknb3xzaqq","geo_precision":"range","state":"ca"},"type":"Feature","geometry":{"type":"Point","coordinates":[-122.722107,38.445762]}},{"properties":{"rep? (1 for yes, 0 for no)":1,"city":"Santa Rosa","zip":"95404","geo_score":0.883,"street address":"855 4th St","id":"a6xknb064cvh","geo_precision":"range","state":"ca"},"type":"Feature","geometry":{"type":"Point","coordinates":[-122.709472,38.442606]}},{"properties":{"rep? (1 for yes, 0 for no)":1,"city":"Santa Rosa","zip":"95409","geo_score":1.0,"street address":"8558 Oakmont Dr","id":"a6xknb8lpk45","geo_precision":"range","state":"ca"},"type":"Feature","geometry":{"type":"Point","coordinates":[-122.576701,38.424256]}},{"properties":{"rep? (1 for yes, 0 for no)":1,"city":"Santa Rosa","zip":"95409","geo_score":1.0,"street address":"8552 Oakmont Dr","id":"a6xknba4522t","geo_precision":"range","state":"ca"},"type":"Feature","geometry":{"type":"Point","coordinates":[-122.576723,38.424216]}},{"properties":{"rep? (1 for yes, 0 for no)":1,"city":"Santa Rosa","zip":"95407","geo_score":0.612,"street address":"2557 Bellvue","id":"a6xknay7karf","geo_precision":"street","state":"ca"},"type":"Feature","geometry":{"type":"Point","coordinates":[-122.741447,38.401823]}},{"properties":{"rep? (1 for yes, 0 for no)":0,"city":"Healdsburg","zip":"95448","geo_score":0.912,"street address":"343 Center St","id":"a6xknb7r80tg","geo_precision":"range","state":"ca"},"type":"Feature","geometry":{"type":"Point","coordinates":[-122.869464,38.610846]}},{"properties":{"rep? (1 for yes, 0 for no)":1,"city":"Santa Rosa","zip":"95404","geo_score":0.546,"street address":"386 Tesconi Cr","id":"a6xknb7dxhsv","geo_precision":"street","state":"ca"},"type":"Feature","geometry":{"type":"Point","coordinates":[-122.704788,38.438271]}},{"properties":{"rep? (1 for yes, 0 for no)":0,"city":"Healdsburg","zip":"95448","geo_score":0.61,"street address":"356 Brooks Rd","id":"a6xknb7kshjw","geo_precision":"street","state":"ca"},"type":"Feature","geometry":{"type":"Point","coordinates":[-122.807409,38.562072]}},{"properties":{"rep? (1 for yes, 0 for no)":0,"city":"Healdsburg","zip":"95448","geo_score":0.912,"street address":"10 Matheson St","id":"a6xknb4mytoo","geo_precision":"range","state":"ca"},"type":"Feature","geometry":{"type":"Point","coordinates":[-122.871498,38.610157]}},{"properties":{"rep? (1 for yes, 0 for no)":0,"city":"Healdsburg","zip":"95448","geo_score":0.768,"street address":"2323 Healdsburg Av","id":"a6xknb826nag","geo_precision":"range","state":"ca"},"type":"Feature","geometry":{"type":"Point","coordinates":[-122.873105,38.632577]}},{"properties":{"rep? (1 for yes, 0 for no)":0,"city":"Sebastopol","zip":"95472","geo_score":0.598,"street address":"21 Stuart St","id":"a6xknbb3no4u","geo_precision":"street","state":"ca"},"type":"Feature","geometry":{"type":"Point","coordinates":[-122.827343,38.403465]}},{"properties":{"rep? (1 for yes, 0 for no)":0,"city":"Sebastopol","zip":"95472","geo_score":0.666,"street address":"2190 Main St","id":"a6xknbcdpvt4","geo_precision":"street","state":"ca"},"type":"Feature","geometry":{"type":"Point","coordinates":[-122.819172,38.395013]}},{"properties":{"rep? (1 for yes, 0 for no)":0,"city":"Sebastopol","zip":"95472","geo_score":0.666,"street address":"3339 Main St","id":"a6xknbde0llc","geo_precision":"street","state":"ca"},"type":"Feature","geometry":{"type":"Point","coordinates":[-122.827488,38.408511]}},{"properties":{"rep? (1 for yes, 0 for no)":0,"city":"Healdsburg","zip":"95448","geo_score":0.912,"street address":"10 Matheson St","id":"a6xknazm85x2","geo_precision":"range","state":"ca"},"type":"Feature","geometry":{"type":"Point","coordinates":[-122.871498,38.610157]}},{"properties":{"rep? (1 for yes, 0 for no)":1,"city":"Santa Rosa","zip":"95402","geo_score":0.766,"street address":"19 Old Courthouse","id":"a6xknb1xtm7d","geo_precision":"range","state":"ca"},"type":"Feature","geometry":{"type":"Point","coordinates":[-122.713433,38.438947]}},{"properties":{"rep? (1 for yes, 0 for no)":1,"city":"Rohnert Park","zip":"94928","geo_score":0.752,"street address":"2455 State Farm","id":"a6xknb7rjlf3","geo_precision":"street","state":"ca"},"type":"Feature","geometry":{"type":"Point","coordinates":[-122.71251,38.357403]}},{"properties":{"rep? (1 for yes, 0 for no)":1,"city":"Rohnert Park","zip":"94928","geo_score":0.752,"street address":"2561 State Farm","id":"a6xknb8uansf","geo_precision":"street","state":"ca"},"type":"Feature","geometry":{"type":"Point","coordinates":[-122.71251,38.357403]}},{"properties":{"rep? (1 for yes, 0 for no)":1,"city":"Rohnert Park","zip":"94928","geo_score":0.707,"street address":"458 Labath St","id":"a6xknb8uh6fp","geo_precision":"street","state":"ca"},"type":"Feature","geometry":{"type":"Point","coordinates":[-122.722363,38.356704]}},{"properties":{"rep? (1 for yes, 0 for no)":1,"city":"Sonoma","zip":"95476","geo_score":0.62,"street address":"101 1st St East","id":"a6xknayxwbu6","geo_precision":"street","state":"ca"},"type":"Feature","geometry":{"type":"Point","coordinates":[-122.455897,38.296209]}},{"properties":{"rep? (1 for yes, 0 for no)":1,"city":"Sonoma","zip":"95476","geo_score":0.68,"street address":"2584 Spain St","id":"a6xknb37vhfk","geo_precision":"street","state":"ca"},"type":"Feature","geometry":{"type":"Point","coordinates":[-122.475626,38.295497]}},{"properties":{"rep? (1 for yes, 0 for no)":1,"city":"Sonoma","zip":"95476","geo_score":0.721,"street address":"461 Broadway","id":"a6xknb3jby15","geo_precision":"street","state":"ca"},"type":"Feature","geometry":{"type":"Point","coordinates":[-122.457859,38.291957]}},{"properties":{"rep? (1 for yes, 0 for no)":1,"city":"Sonoma","zip":"95476","geo_score":0.911,"street address":"561 Broadway","id":"a6xknb7opu68","geo_precision":"range","state":"ca"},"type":"Feature","geometry":{"type":"Point","coordinates":[-122.458007,38.290854]}},{"properties":{"rep? (1 for yes, 0 for no)":1,"city":"Sonoma","zip":"95476","geo_score":0.911,"street address":"800 Broadway","id":"a6xknb6a7km0","geo_precision":"range","state":"ca"},"type":"Feature","geometry":{"type":"Point","coordinates":[-122.45868,38.286553]}},{"properties":{"rep? (1 for yes, 0 for no)":1,"city":"Novato","zip":"94947","geo_score":0.93,"street address":"1701 Novato Blvd","id":"a6xknbcd1lvu","geo_precision":"range","state":"ca"},"type":"Feature","geometry":{"type":"Point","coordinates":[-122.578988,38.106232]}},{"properties":{"rep? (1 for yes, 0 for no)":1,"city":"Novato","zip":"94945","geo_score":0.805,"street address":"915 Diablo Ave","id":"a6xknb9ehlpu","geo_precision":"range","state":"ca"},"type":"Feature","geometry":{"type":"Point","coordinates":[-122.572504,38.103784]}},{"properties":{"rep? (1 for yes, 0 for no)":1,"city":"Novato","zip":"94945","geo_score":0.912,"street address":"1450 Grant Ave","id":"a6xknb35rk5v","geo_precision":"range","state":"ca"},"type":"Feature","geometry":{"type":"Point","coordinates":[-122.575281,38.10857]}},{"properties":{"rep? (1 for yes, 0 for no)":1,"city":"Novato","zip":"94945","geo_score":0.79,"street address":"1737 Grant Ave","id":"a6xknb0bkvqk","geo_precision":"range","state":"ca"},"type":"Feature","geometry":{"type":"Point","coordinates":[-122.581052,38.109331]}},{"properties":{"rep? (1 for yes, 0 for no)":1,"city":"Novato","zip":"94945","geo_score":0.912,"street address":"1122 Grant Ave","id":"a6xknb4tnv11","geo_precision":"range","state":"ca"},"type":"Feature","geometry":{"type":"Point","coordinates":[-122.571474,38.107765]}},{"properties":{"rep? (1 for yes, 0 for no)":1,"city":"Danville","zip":"94526","geo_score":0.896,"street address":"601 Sycamore Valley Rd","id":"a6xknbaky21p","geo_precision":"range","state":"ca"},"type":"Feature","geometry":{"type":"Point","coordinates":[-121.99526,37.811361]}},{"properties":{"rep? (1 for yes, 0 for no)":1,"city":"Danville","zip":"94526","geo_score":0.913,"street address":"360 Hartz Ave","id":"a6xknbdukkmf","geo_precision":"range","state":"ca"},"type":"Feature","geometry":{"type":"Point","coordinates":[-122.000292,37.821994]}},{"properties":{"rep? (1 for yes, 0 for no)":1,"city":"Danville","zip":"94526","geo_score":0.816,"street address":"630 San Ramon Valley Blvd","id":"a6xknb4po4rv","geo_precision":"range","state":"ca"},"type":"Feature","geometry":{"type":"Point","coordinates":[-121.996226,37.814883]}},{"properties":{"rep? (1 for yes, 0 for no)":1,"city":"Danville","zip":"94526","geo_score":0.596,"street address":"3701 Mt Diablo Blvd","id":"a6xknba9v37l","geo_precision":"street","state":"ca"},"type":"Feature","geometry":{"type":"Point","coordinates":[-121.971726,37.835778]}},{"properties":{"rep? (1 for yes, 0 for no)":1,"city":"Danville","zip":"94526","geo_score":0.805,"street address":"3880 Blackhawk Rd","id":"a6xknbdlsblq","geo_precision":"range","state":"ca"},"type":"Feature","geometry":{"type":"Point","coordinates":[-121.9215,37.799335]}},{"properties":{"rep? (1 for yes, 0 for no)":1,"city":"Danville","zip":"94526","geo_score":0.913,"street address":"671 San Ramon Valley Blvd","id":"a6xknb56u565","geo_precision":"range","state":"ca"},"type":"Feature","geometry":{"type":"Point","coordinates":[-121.995785,37.813292]}},{"properties":{"rep? (1 for yes, 0 for no)":1,"city":"Danville","zip":"94526","geo_score":0.913,"street address":"380 Diablo Rd","id":"a6xknb4nhywa","geo_precision":"range","state":"ca"},"type":"Feature","geometry":{"type":"Point","coordinates":[-121.994582,37.822944]}},{"properties":{"rep? (1 for yes, 0 for no)":0,"city":"Danville","zip":"94526","geo_score":0.754,"street address":"350 Railroad Ave","id":"a6xknbbhzqgn","geo_precision":"range","state":"ca"},"type":"Feature","geometry":{"type":"Point","coordinates":[-121.998292,37.819711]}},{"properties":{"rep? (1 for yes, 0 for no)":1,"city":"Danville","zip":"94526","geo_score":0.575,"street address":"4125 Blackhawk Plaza Circle #201","id":"a6xknb2g4um1","geo_precision":"street","state":"ca"},"type":"Feature","geometry":{"type":"Point","coordinates":[-121.917227,37.798868]}},{"properties":{"rep? (1 for yes, 0 for no)":1,"city":"Danville","zip":"94526","geo_score":0.754,"street address":"15 Railroad Ave","id":"a6xknb9iv6py","geo_precision":"range","state":"ca"},"type":"Feature","geometry":{"type":"Point","coordinates":[-122.003436,37.82395]}},{"properties":{"rep? (1 for yes, 0 for no)":1,"city":"Danville","zip":"94526","geo_score":0.61,"street address":"3880 Blackhawk Rd #200","id":"a6xknba74s03","geo_precision":"street","state":"ca"},"type":"Feature","geometry":{"type":"Point","coordinates":[-121.92151,37.801816]}},{"properties":{"rep? (1 for yes, 0 for no)":1,"city":"Danville","zip":"94526","geo_score":0.77,"street address":"4105 Blackhawk Plaza Circle","id":"a6xknbbt10ll","geo_precision":"range","state":"ca"},"type":"Feature","geometry":{"type":"Point","coordinates":[-121.920377,37.801476]}},{"properties":{"rep? (1 for yes, 0 for no)":1,"city":"Danville","zip":"94526","geo_score":0.718,"street address":"760 Camino Ramon #200","id":"a6xknb1nkmc3","geo_precision":"street","state":"ca"},"type":"Feature","geometry":{"type":"Point","coordinates":[-121.990898,37.811395]}},{"properties":{"rep? (1 for yes, 0 for no)":0,"city":"Danville","zip":"94526","geo_score":0.913,"street address":"954 El Cajon Dr","id":"a6xknb1xfxai","geo_precision":"range","state":"ca"},"type":"Feature","geometry":{"type":"Point","coordinates":[-121.981365,37.832441]}},{"properties":{"rep? (1 for yes, 0 for no)":1,"city":"Danville","zip":"94526","geo_score":0.896,"street address":"101 Sycamore Valley Rd","id":"a6xknb9wuisf","geo_precision":"range","state":"ca"},"type":"Feature","geometry":{"type":"Point","coordinates":[-121.99526,37.811361]}},{"properties":{"rep? (1 for yes, 0 for no)":1,"city":"Danville","zip":"94526","geo_score":0.913,"street address":"360 Diablo Rd","id":"a6xknb825pea","geo_precision":"range","state":"ca"},"type":"Feature","geometry":{"type":"Point","coordinates":[-121.995421,37.822932]}},{"properties":{"rep? (1 for yes, 0 for no)":1,"city":"Danville","zip":"94526","geo_score":0.816,"street address":"630 San Ramon Valley Blvd","id":"a6xknazw8k30","geo_precision":"range","state":"ca"},"type":"Feature","geometry":{"type":"Point","coordinates":[-121.996226,37.814883]}},{"properties":{"rep? (1 for yes, 0 for no)":0,"city":"Danville","zip":"94526","geo_score":0.553,"street address":"701 St George Rd","id":"a6xknbbh8vbq","geo_precision":"street","state":"ca"},"type":"Feature","geometry":{"type":"Point","coordinates":[-121.763323,37.693183]}},{"properties":{"rep? (1 for yes, 0 for no)":1,"city":"Danville","zip":"94526","geo_score":0.896,"street address":"313 Sycamore Valley Rd","id":"a6xknb7s0mpa","geo_precision":"range","state":"ca"},"type":"Feature","geometry":{"type":"Point","coordinates":[-121.997227,37.811892]}},{"properties":{"rep? (1 for yes, 0 for no)":1,"city":"Danville","zip":"94526","geo_score":0.913,"street address":"301 Hartz Ave","id":"a6xknb81krc0","geo_precision":"range","state":"ca"},"type":"Feature","geometry":{"type":"Point","coordinates":[-122.000844,37.822589]}},{"properties":{"rep? (1 for yes, 0 for no)":1,"city":"Danville","zip":"94526","geo_score":0.77,"street address":"4185 Blackhawk Plaza Circle","id":"a6xknb8p0w7g","geo_precision":"range","state":"ca"},"type":"Feature","geometry":{"type":"Point","coordinates":[-121.920496,37.800579]}},{"properties":{"rep? (1 for yes, 0 for no)":1,"city":"San Rafael","zip":"94901","geo_score":0.883,"street address":"2144 4th St","id":"a6xknbcpye1i","geo_precision":"range","state":"ca"},"type":"Feature","geometry":{"type":"Point","coordinates":[-122.547437,37.975761]}},{"properties":{"rep? (1 for yes, 0 for no)":1,"city":"San Rafael","zip":"94901","geo_score":1.0,"street address":"1099 D St","id":"a6xknbbcgedj","geo_precision":"range","state":"ca"},"type":"Feature","geometry":{"type":"Point","coordinates":[-122.53186,37.974519]}},{"properties":{"rep? (1 for yes, 0 for no)":1,"city":"San Rafael","zip":"94901","geo_score":0.883,"street address":"1000 4th St","id":"a6xknb0b8fdt","geo_precision":"range","state":"ca"},"type":"Feature","geometry":{"type":"Point","coordinates":[-122.527067,37.973034]}},{"properties":{"rep? (1 for yes, 0 for no)":1,"city":"San Rafael","zip":"94901","geo_score":1.0,"street address":"851 Irwin St","id":"a6xknazsci2l","geo_precision":"range","state":"ca"},"type":"Feature","geometry":{"type":"Point","coordinates":[-122.521071,37.970856]}},{"properties":{"rep? (1 for yes, 0 for no)":1,"city":"Greenbrae","zip":"94904","geo_score":0.718,"street address":"350 Bon Air Ctr","id":"a6xknbbvmpka","geo_precision":"range","state":"ca"},"type":"Feature","geometry":{"type":"Point","coordinates":[-122.537728,37.945051]}},{"properties":{"rep? (1 for yes, 0 for no)":1,"city":"Greenbrae","zip":"94904","geo_score":0.913,"street address":"500 Sir Francis Drake Blvd","id":"a6xknb64bp96","geo_precision":"range","state":"ca"},"type":"Feature","geometry":{"type":"Point","coordinates":[-122.525297,37.947584]}},{"properties":{"rep? (1 for yes, 0 for no)":1,"city":"Mill Valley","zip":"94941","geo_score":0.857,"street address":"36 Tiburon Blvd","id":"a6xknbbxsh0d","geo_precision":"range","state":"ca"},"type":"Feature","geometry":{"type":"Point","coordinates":[-122.512467,37.90252]}},{"properties":{"rep? (1 for yes, 0 for no)":1,"city":"Mill Valley","zip":"94941","geo_score":0.662,"street address":"1690 Tiburon Blvd","id":"a6xknb1fb6jn","geo_precision":"street","state":"ca"},"type":"Feature","geometry":{"type":"Point","coordinates":[-122.504661,37.899374]}},{"properties":{"rep? (1 for yes, 0 for no)":1,"city":"Greenbrae","zip":"94904","geo_score":0.852,"street address":"850 Sir Francis Drake","id":"a6xknb6h3jxc","geo_precision":"range","state":"ca"},"type":"Feature","geometry":{"type":"Point","coordinates":[-122.543195,37.953726]}},{"properties":{"rep? (1 for yes, 0 for no)":1,"city":"Mill Valley","zip":"94941","geo_score":0.892,"street address":"206 E Blithedale","id":"a6xknaziyyda","geo_precision":"range","state":"ca"},"type":"Feature","geometry":{"type":"Point","coordinates":[-122.542799,37.904548]}},{"properties":{"rep? (1 for yes, 0 for no)":1,"city":"Mill Valley","zip":"94941","geo_score":0.892,"street address":"25 E Blithedale","id":"a6xknb6yu0pn","geo_precision":"range","state":"ca"},"type":"Feature","geometry":{"type":"Point","coordinates":[-122.545957,37.90645]}},{"properties":{"rep? (1 for yes, 0 for no)":1,"city":"Mill Valley","zip":"94941","geo_score":0.673,"street address":"1204 Strawberry Village","id":"a6xknaxmbz55","geo_precision":"street","state":"ca"},"type":"Feature","geometry":{"type":"Point","coordinates":[-122.50279,37.887876]}},{"properties":{"rep? (1 for yes, 0 for no)":1,"city":"Greenbrae","zip":"94904","geo_score":0.852,"street address":"511 Sir Francis Drake","id":"a6xknbcdp0z1","geo_precision":"range","state":"ca"},"type":"Feature","geometry":{"type":"Point","coordinates":[-122.525638,37.947752]}},{"properties":{"rep? (1 for yes, 0 for no)":1,"city":"Greenbrae","zip":"94904","geo_score":0.852,"street address":"189 Sir Francis Drake","id":"a6xknay9scyl","geo_precision":"range","state":"ca"},"type":"Feature","geometry":{"type":"Point","coordinates":[-122.519696,37.945441]}},{"properties":{"rep? (1 for yes, 0 for no)":1,"city":"Greenbrae","zip":"94904","geo_score":0.754,"street address":"901 Sir Francis Drake","id":"a6xknb7mypui","geo_precision":"street","state":"ca"},"type":"Feature","geometry":{"type":"Point","coordinates":[-122.54465,37.95363]}},{"properties":{"rep? (1 for yes, 0 for no)":1,"city":"San Francisco","zip":"94105","geo_score":1.0,"street address":"489 Harrison St","id":"a6xknb10n6bz","geo_precision":"range","state":"ca"},"type":"Feature","geometry":{"type":"Point","coordinates":[-122.39268,37.786139]}},{"properties":{"rep? (1 for yes, 0 for no)":1,"city":"San Francisco","zip":"94114","geo_score":0.902,"street address":"4040 24th St","id":"a6xknazqst8b","geo_precision":"range","state":"ca"},"type":"Feature","geometry":{"type":"Point","coordinates":[-122.432591,37.751382]}},{"properties":{"rep? (1 for yes, 0 for no)":0,"city":"San Francisco","zip":"94109","geo_score":0.742,"street address":"783 Buena Vista Ave","id":"a6xknba5kszc","geo_precision":"range","state":"ca"},"type":"Feature","geometry":{"type":"Point","coordinates":[-122.443529,37.768714]}},{"properties":{"rep? (1 for yes, 0 for no)":1,"city":"San Francisco","zip":"94132","geo_score":0.545,"street address":"234 1st Street","id":"a6xknazhe90z","geo_precision":"street","state":"ca"},"type":"Feature","geometry":{"type":"Point","coordinates":[-122.471711,37.714228]}},{"properties":{"rep? (1 for yes, 0 for no)":0,"city":"San Francisco","zip":"94114","geo_score":0.805,"street address":"560 Mission St","id":"a6xknbakpg2d","geo_precision":"range","state":"ca"},"type":"Feature","geometry":{"type":"Point","coordinates":[-122.398564,37.788981]}},{"properties":{"rep? (1 for yes, 0 for no)":0,"city":"San Francisco","zip":"94114","geo_score":0.805,"street address":"111 Battery St","id":"a6xknbc32fet","geo_precision":"range","state":"ca"},"type":"Feature","geometry":{"type":"Point","coordinates":[-122.399779,37.792355]}},{"properties":{"rep? (1 for yes, 0 for no)":1,"city":"San Francisco","zip":"94103","geo_score":0.61,"street address":"3721 Geary St","id":"a6xknbbyfsxm","geo_precision":"street","state":"ca"},"type":"Feature","geometry":{"type":"Point","coordinates":[-122.421393,37.785686]}},{"properties":{"rep? (1 for yes, 0 for no)":1,"city":"San Francisco","zip":"94132","geo_score":0.805,"street address":"114 Sansome St","id":"a6xknb2gu05i","geo_precision":"range","state":"ca"},"type":"Feature","geometry":{"type":"Point","coordinates":[-122.400765,37.79131]}},{"properties":{"rep? (1 for yes, 0 for no)":0,"city":"San Francisco","zip":"94105","geo_score":1.0,"street address":"318 Spear St","id":"a6xknbc9q9kb","geo_precision":"range","state":"ca"},"type":"Feature","geometry":{"type":"Point","coordinates":[-122.390747,37.789844]}},{"properties":{"rep? (1 for yes, 0 for no)":1,"city":"San Francisco","zip":"94109","geo_score":0.617,"street address":"1 Saint Francis Pl","id":"a6xknb7ypa45","geo_precision":"street","state":"ca"},"type":"Feature","geometry":{"type":"Point","coordinates":[-122.418256,37.80365]}},{"properties":{"rep? (1 for yes, 0 for no)":0,"city":"San Francisco","zip":"94114","geo_score":0.805,"street address":"925 Mission St","id":"a6xknb0x7nyf","geo_precision":"range","state":"ca"},"type":"Feature","geometry":{"type":"Point","coordinates":[-122.406885,37.782326]}},{"properties":{"rep? (1 for yes, 0 for no)":1,"city":"San Francisco","zip":"94123","geo_score":0.683,"street address":"1 Letterman Dr","id":"a6xknb8y5r3i","geo_precision":"zip","state":"ca"},"type":"Feature","geometry":{"type":"Point","coordinates":[-122.435732,37.79967]}},{"properties":{"rep? (1 for yes, 0 for no)":1,"city":"San Francisco","zip":"94111","geo_score":1.0,"street address":"117 Greenwich St","id":"a6xknb5azap2","geo_precision":"range","state":"ca"},"type":"Feature","geometry":{"type":"Point","coordinates":[-122.402133,37.803216]}},{"properties":{"rep? (1 for yes, 0 for no)":1,"city":"San Francisco","zip":"94114","geo_score":0.688,"street address":"211 2nd St","id":"a6xknb5xp6tn","geo_precision":"range","state":"ca"},"type":"Feature","geometry":{"type":"Point","coordinates":[-122.398089,37.786609]}},{"properties":{"rep? (1 for yes, 0 for no)":0,"city":"San Francisco","zip":"94114","geo_score":1.0,"street address":"555 Castro St","id":"a6xknb53apze","geo_precision":"range","state":"ca"},"type":"Feature","geometry":{"type":"Point","coordinates":[-122.434937,37.760007]}},{"properties":{"rep? (1 for yes, 0 for no)":1,"city":"San Francisco","zip":"94108","geo_score":0.805,"street address":"537 Hyde St","id":"a6xknb4r56wy","geo_precision":"range","state":"ca"},"type":"Feature","geometry":{"type":"Point","coordinates":[-122.416331,37.785727]}},{"properties":{"rep? (1 for yes, 0 for no)":0,"city":"San Francisco","zip":"94109","geo_score":0.805,"street address":"44 Page St","id":"a6xknbdy6vbr","geo_precision":"range","state":"ca"},"type":"Feature","geometry":{"type":"Point","coordinates":[-122.42133,37.774203]}},{"properties":{"rep? (1 for yes, 0 for no)":0,"city":"San Francisco","zip":"94108","geo_score":0.688,"street address":"180 7th St","id":"a6xknb3ev45p","geo_precision":"range","state":"ca"},"type":"Feature","geometry":{"type":"Point","coordinates":[-122.409747,37.778224]}},{"properties":{"rep? (1 for yes, 0 for no)":1,"city":"San Francisco","zip":"94132","geo_score":0.805,"street address":"3111 Fillmore St","id":"a6xknb6a0ct4","geo_precision":"range","state":"ca"},"type":"Feature","geometry":{"type":"Point","coordinates":[-122.435703,37.798176]}},{"properties":{"rep? (1 for yes, 0 for no)":1,"city":"San Francisco","zip":"94103","geo_score":0.805,"street address":"2355 Market St","id":"a6xknb3xbuag","geo_precision":"street","state":"ca"},"type":"Feature","geometry":{"type":"Point","coordinates":[-122.426858,37.769042]}},{"properties":{"rep? (1 for yes, 0 for no)":1,"city":"San Francisco","zip":"94123","geo_score":1.0,"street address":"1801 Lombard St","id":"a6xknbbxe4f2","geo_precision":"range","state":"ca"},"type":"Feature","geometry":{"type":"Point","coordinates":[-122.431115,37.800469]}},{"properties":{"rep? (1 for yes, 0 for no)":1,"city":"San Francisco","zip":"94123","geo_score":0.805,"street address":"1699 Van Ness Ave","id":"a6xknayc4lid","geo_precision":"range","state":"ca"},"type":"Feature","geometry":{"type":"Point","coordinates":[-122.422515,37.791289]}},{"properties":{"rep? (1 for yes, 0 for no)":1,"city":"San Francisco","zip":"94122","geo_score":1.0,"street address":"1390 Noriega St","id":"a6xknb0d9bmh","geo_precision":"range","state":"ca"},"type":"Feature","geometry":{"type":"Point","coordinates":[-122.478324,37.75415]}},{"properties":{"rep? (1 for yes, 0 for no)":1,"city":"San Francisco","zip":"94132","geo_score":1.0,"street address":"2633 Ocean Ave","id":"a6xknb81qjq3","geo_precision":"range","state":"ca"},"type":"Feature","geometry":{"type":"Point","coordinates":[-122.474206,37.732119]}},{"properties":{"rep? (1 for yes, 0 for no)":0,"city":"San Francisco","zip":"94109","geo_score":0.707,"street address":"4157 24th St","id":"a6xknazt1hop","geo_precision":"range","state":"ca"},"type":"Feature","geometry":{"type":"Point","coordinates":[-122.435088,37.751217]}},{"properties":{"rep? (1 for yes, 0 for no)":0,"city":"San Francisco","zip":"94123","geo_score":0.721,"street address":"660 16th Ave","id":"a6xknayq8urd","geo_precision":"range","state":"ca"},"type":"Feature","geometry":{"type":"Point","coordinates":[-122.474755,37.7756]}},{"properties":{"rep? (1 for yes, 0 for no)":1,"city":"San Francisco","zip":"94123","geo_score":0.683,"street address":"1 Letterman Dr","id":"a6xknazgqlbp","geo_precision":"zip","state":"ca"},"type":"Feature","geometry":{"type":"Point","coordinates":[-122.435732,37.79967]}},{"properties":{"rep? (1 for yes, 0 for no)":0,"city":"San Francisco","zip":"94114","geo_score":0.805,"street address":"120 Capp St","id":"a6xknbbij0i5","geo_precision":"range","state":"ca"},"type":"Feature","geometry":{"type":"Point","coordinates":[-122.418673,37.764777]}},{"properties":{"rep? (1 for yes, 0 for no)":1,"city":"San Francisco","zip":"94122","geo_score":0.805,"street address":"2201 Laguna St","id":"a6xknbcewz7y","geo_precision":"range","state":"ca"},"type":"Feature","geometry":{"type":"Point","coordinates":[-122.42927,37.791339]}},{"properties":{"rep? (1 for yes, 0 for no)":0,"city":"San Francisco","zip":"94110","geo_score":1.0,"street address":"2501 Mission St","id":"a6xknbcva15i","geo_precision":"range","state":"ca"},"type":"Feature","geometry":{"type":"Point","coordinates":[-122.418901,37.757034]}},{"properties":{"rep? (1 for yes, 0 for no)":1,"city":"San Francisco","zip":"94123","geo_score":0.805,"street address":"601 Van Ness Ave","id":"a6xknbdt6tei","geo_precision":"range","state":"ca"},"type":"Feature","geometry":{"type":"Point","coordinates":[-122.42044,37.781031]}},{"properties":{"rep? (1 for yes, 0 for no)":0,"city":"San Francisco","zip":"94109","geo_score":0.805,"street address":"3512 Fulton St","id":"a6xknb5cfhu3","geo_precision":"range","state":"ca"},"type":"Feature","geometry":{"type":"Point","coordinates":[-122.469196,37.773251]}},{"properties":{"rep? (1 for yes, 0 for no)":0,"city":"San Francisco","zip":"94103","geo_score":0.61,"street address":"3512 Geary St","id":"a6xknb4kf2q5","geo_precision":"street","state":"ca"},"type":"Feature","geometry":{"type":"Point","coordinates":[-122.421393,37.785686]}},{"properties":{"rep? (1 for yes, 0 for no)":1,"city":"San Francisco","zip":"94114","geo_score":0.805,"street address":"101 California St","id":"a6xknbc5d01i","geo_precision":"range","state":"ca"},"type":"Feature","geometry":{"type":"Point","coordinates":[-122.397607,37.793509]}},{"properties":{"rep? (1 for yes, 0 for no)":1,"city":"San Francisco","zip":"94123","geo_score":0.805,"street address":"1825 Van Ness Ave","id":"a6xknb8sh9ua","geo_precision":"range","state":"ca"},"type":"Feature","geometry":{"type":"Point","coordinates":[-122.422833,37.792361]}},{"properties":{"rep? (1 for yes, 0 for no)":0,"city":"San Francisco","zip":"94103","geo_score":1.0,"street address":"44 Gough St","id":"a6xknb1dpz23","geo_precision":"range","state":"ca"},"type":"Feature","geometry":{"type":"Point","coordinates":[-122.42232,37.773666]}},{"properties":{"rep? (1 for yes, 0 for no)":1,"city":"San Francisco","zip":"94111","geo_score":1.0,"street address":"121 Greenwich St","id":"a6xknb8wmwuo","geo_precision":"range","state":"ca"},"type":"Feature","geometry":{"type":"Point","coordinates":[-122.402171,37.80321]}},{"properties":{"rep? (1 for yes, 0 for no)":1,"city":"San Francisco","zip":"94123","geo_score":0.717,"street address":"1400 Van Ness","id":"a6xknb9pkmm5","geo_precision":"range","state":"ca"},"type":"Feature","geometry":{"type":"Point","coordinates":[-122.421949,37.788489]}},{"properties":{"rep? (1 for yes, 0 for no)":1,"city":"San Francisco","zip":"94111","geo_score":1.0,"street address":"111 Pine St","id":"a6xknb3depnj","geo_precision":"range","state":"ca"},"type":"Feature","geometry":{"type":"Point","coordinates":[-122.398683,37.792393]}},{"properties":{"rep? (1 for yes, 0 for no)":0,"city":"San Francisco","zip":"94111","geo_score":1.0,"street address":"560 Davis St","id":"a6xknbdy3kma","geo_precision":"range","state":"ca"},"type":"Feature","geometry":{"type":"Point","coordinates":[-122.398424,37.797662]}},{"properties":{"rep? (1 for yes, 0 for no)":0,"city":"San Francisco","zip":"94109","geo_score":0.805,"street address":"451 Anza St","id":"a6xknbb4qqhl","geo_precision":"range","state":"ca"},"type":"Feature","geometry":{"type":"Point","coordinates":[-122.451028,37.780593]}},{"properties":{"rep? (1 for yes, 0 for no)":0,"city":"Elk Grove","zip":"95825","geo_score":0.512,"street address":"8416 Zinnia Way","id":"a6xknay1kdr9","geo_precision":"street","state":"ca"},"type":"Feature","geometry":{"type":"Point","coordinates":[-121.32282,38.563288]}},{"properties":{"rep? (1 for yes, 0 for no)":0,"city":"Sacramento","zip":"95822","geo_score":1.0,"street address":"5896 South Land Park Dr","id":"a6xknbchg247","geo_precision":"range","state":"ca"},"type":"Feature","geometry":{"type":"Point","coordinates":[-121.51215,38.520052]}},{"properties":{"rep? (1 for yes, 0 for no)":1,"city":"Sacramento","zip":"95825","geo_score":0.941,"street address":"2003 Howe Ave","id":"a6xknb916g1z","geo_precision":"range","state":"ca"},"type":"Feature","geometry":{"type":"Point","coordinates":[-121.415278,38.602593]}},{"properties":{"rep? (1 for yes, 0 for no)":1,"city":"Sacramento","zip":"95825","geo_score":0.746,"street address":"2201 Broadway","id":"a6xknb5atr2y","geo_precision":"range","state":"ca"},"type":"Feature","geometry":{"type":"Point","coordinates":[-121.484366,38.559472]}},{"properties":{"rep? (1 for yes, 0 for no)":1,"city":"Sacramento","zip":"95834","geo_score":0.805,"street address":"730 Alhambra Blvd","id":"a6xknb9a3279","geo_precision":"range","state":"ca"},"type":"Feature","geometry":{"type":"Point","coordinates":[-121.463905,38.575696]}},{"properties":{"rep? (1 for yes, 0 for no)":0,"city":"Sacramento","zip":"95834","geo_score":0.805,"street address":"7919 Folsom Blvd","id":"a6xknaxtijhs","geo_precision":"range","state":"ca"},"type":"Feature","geometry":{"type":"Point","coordinates":[-121.412162,38.55017]}},{"properties":{"rep? (1 for yes, 0 for no)":1,"city":"Elk Grove","zip":"95624","geo_score":0.525,"street address":"9250 Laguna Springs Dr","id":"a6xknb3sxvmz","geo_precision":"street","state":"ca"},"type":"Feature","geometry":{"type":"Point","coordinates":[-121.376326,38.43234]}},{"properties":{"rep? (1 for yes, 0 for no)":1,"city":"El Dorado Hills","zip":"95762","geo_score":1.0,"street address":"3941 Park Dr","id":"a6xknbc80279","geo_precision":"range","state":"ca"},"type":"Feature","geometry":{"type":"Point","coordinates":[-121.073461,38.658751]}},{"properties":{"rep? (1 for yes, 0 for no)":0,"city":"Sacramento","zip":"95825","geo_score":0.805,"street address":"2800 Grasslands Dr","id":"a6xknbb4dqbo","geo_precision":"range","state":"ca"},"type":"Feature","geometry":{"type":"Point","coordinates":[-121.519989,38.614032]}},{"properties":{"rep? (1 for yes, 0 for no)":0,"city":"Sacramento","zip":"95825","geo_score":0.941,"street address":"1945 Bell St","id":"a6xknb2a743t","geo_precision":"range","state":"ca"},"type":"Feature","geometry":{"type":"Point","coordinates":[-121.410681,38.601132]}},{"properties":{"rep? (1 for yes, 0 for no)":1,"city":"Fair Oaks","zip":"95628","geo_score":0.805,"street address":"5034 Fair Oaks Blvd","id":"a6xknaypue5p","geo_precision":"street","state":"ca"},"type":"Feature","geometry":{"type":"Point","coordinates":[-121.291769,38.636292]}},{"properties":{"rep? (1 for yes, 0 for no)":1,"city":"Elk Grove","zip":"95624","geo_score":0.915,"street address":"9355 E Stockton Blvd","id":"a6xknbdbsx82","geo_precision":"range","state":"ca"},"type":"Feature","geometry":{"type":"Point","coordinates":[-121.391686,38.415902]}},{"properties":{"rep? (1 for yes, 0 for no)":1,"city":"Elk Grove","zip":"95624","geo_score":0.525,"street address":"9260 Laguna Springs Dr","id":"a6xknb3v1vmd","geo_precision":"street","state":"ca"},"type":"Feature","geometry":{"type":"Point","coordinates":[-121.376326,38.43234]}},{"properties":{"rep? (1 for yes, 0 for no)":1,"city":"Fair Oaks","zip":"95628","geo_score":1.0,"street address":"8525 Madison Ave","id":"a6xknb68kyy0","geo_precision":"range","state":"ca"},"type":"Feature","geometry":{"type":"Point","coordinates":[-121.243287,38.664256]}},{"properties":{"rep? (1 for yes, 0 for no)":0,"city":"Sacramento","zip":"95834","geo_score":0.805,"street address":"391 Howe Ave","id":"a6xknbcjzspd","geo_precision":"range","state":"ca"},"type":"Feature","geometry":{"type":"Point","coordinates":[-121.412403,38.571925]}},{"properties":{"rep? (1 for yes, 0 for no)":1,"city":"Elk Grove","zip":"95624","geo_score":0.525,"street address":"9260 Laguna Springs Dr","id":"a6xknb6hsaaw","geo_precision":"street","state":"ca"},"type":"Feature","geometry":{"type":"Point","coordinates":[-121.376326,38.43234]}},{"properties":{"rep? (1 for yes, 0 for no)":0,"city":"Sacramento","zip":"95825","geo_score":0.941,"street address":"2775 Cottage Way","id":"a6xknb6r2pc0","geo_precision":"range","state":"ca"},"type":"Feature","geometry":{"type":"Point","coordinates":[-121.397275,38.60336]}},{"properties":{"rep? (1 for yes, 0 for no)":0,"city":"Sacramento","zip":"95834","geo_score":0.513,"street address":"1520 River Park Dr","id":"a6xknb1f1jjl","geo_precision":"street","state":"ca"},"type":"Feature","geometry":{"type":"Point","coordinates":[-121.486283,38.628858]}},{"properties":{"rep? (1 for yes, 0 for no)":1,"city":"Citrus Heights","zip":"95610","geo_score":1.0,"street address":"7919 Pebble Beach Dr","id":"a6xknb13wbbh","geo_precision":"range","state":"ca"},"type":"Feature","geometry":{"type":"Point","coordinates":[-121.271387,38.668058]}},{"properties":{"rep? (1 for yes, 0 for no)":1,"city":"Fair Oaks","zip":"95628","geo_score":1.0,"street address":"7976 California Ave","id":"a6xknb2s2eo9","geo_precision":"range","state":"ca"},"type":"Feature","geometry":{"type":"Point","coordinates":[-121.269553,38.642308]}},{"properties":{"rep? (1 for yes, 0 for no)":1,"city":"Sacramento","zip":"95825","geo_score":0.805,"street address":"8801 Folsom Blvd","id":"a6xknaxmn3v8","geo_precision":"range","state":"ca"},"type":"Feature","geometry":{"type":"Point","coordinates":[-121.377185,38.552134]}},{"properties":{"rep? (1 for yes, 0 for no)":1,"city":"Sacramento","zip":"95825","geo_score":0.805,"street address":"1819 K St","id":"a6xknb0kngvz","geo_precision":"range","state":"ca"},"type":"Feature","geometry":{"type":"Point","coordinates":[-121.482843,38.576236]}},{"properties":{"rep? (1 for yes, 0 for no)":1,"city":"Carmichael","zip":"95608","geo_score":1.0,"street address":"5120 Manzanita Ave","id":"a6xknbaqbvsy","geo_precision":"range","state":"ca"},"type":"Feature","geometry":{"type":"Point","coordinates":[-121.327444,38.659412]}},{"properties":{"rep? (1 for yes, 0 for no)":1,"city":"Fair Oaks","zip":"95628","geo_score":1.0,"street address":"11707 Fair Oaks Blvd","id":"a6xknb8thcyf","geo_precision":"range","state":"ca"},"type":"Feature","geometry":{"type":"Point","coordinates":[-121.262149,38.664046]}},{"properties":{"rep? (1 for yes, 0 for no)":1,"city":"Elk Grove","zip":"95624","geo_score":0.522,"street address":"7801 Laguna Blvd","id":"a6xknb3kniac","geo_precision":"street","state":"ca"},"type":"Feature","geometry":{"type":"Point","coordinates":[-121.708322,38.545586]}},{"properties":{"rep? (1 for yes, 0 for no)":0,"city":"Sacramento","zip":"95834","geo_score":1.0,"street address":"4110 Truxel Rd","id":"a6xknb3ba4tq","geo_precision":"range","state":"ca"},"type":"Feature","geometry":{"type":"Point","coordinates":[-121.509014,38.646913]}},{"properties":{"rep? (1 for yes, 0 for no)":1,"city":"Rancho Cordova","zip":"95670","geo_score":0.91,"street address":"10540 White Rock Rd","id":"a6xknbaq3bfe","geo_precision":"range","state":"ca"},"type":"Feature","geometry":{"type":"Point","coordinates":[-121.297697,38.585773]}},{"properties":{"rep? (1 for yes, 0 for no)":1,"city":"El Dorado Hills","zip":"95762","geo_score":1.0,"street address":"3907 Park Dr","id":"a6xknb8z3cfq","geo_precision":"range","state":"ca"},"type":"Feature","geometry":{"type":"Point","coordinates":[-121.073899,38.659727]}},{"properties":{"rep? (1 for yes, 0 for no)":1,"city":"Elk Grove","zip":"95624","geo_score":0.61,"street address":"9630 Bruceville Rd","id":"a6xknb62jao4","geo_precision":"street","state":"ca"},"type":"Feature","geometry":{"type":"Point","coordinates":[-121.419806,38.290445]}},{"properties":{"rep? (1 for yes, 0 for no)":1,"city":"Sacramento","zip":"95825","geo_score":0.805,"street address":"1011 F St","id":"a6xknbbuqdri","geo_precision":"range","state":"ca"},"type":"Feature","geometry":{"type":"Point","coordinates":[-121.491462,38.584646]}},{"properties":{"rep? (1 for yes, 0 for no)":1,"city":"Elk Grove","zip":"95624","geo_score":0.915,"street address":"9295 E Stockton Blvd","id":"a6xknb3dzh1k","geo_precision":"range","state":"ca"},"type":"Feature","geometry":{"type":"Point","coordinates":[-121.391936,38.416594]}},{"properties":{"rep? (1 for yes, 0 for no)":1,"city":"Folsom","zip":"95630","geo_score":0.913,"street address":"160 Blue Ravine Rd","id":"a6xknazy582h","geo_precision":"range","state":"ca"},"type":"Feature","geometry":{"type":"Point","coordinates":[-121.1848,38.65156]}},{"properties":{"rep? (1 for yes, 0 for no)":1,"city":"Sacramento","zip":"95834","geo_score":0.805,"street address":"1792 Tribute Rd","id":"a6xknaz58sjg","geo_precision":"range","state":"ca"},"type":"Feature","geometry":{"type":"Point","coordinates":[-121.446575,38.598544]}},{"properties":{"rep? (1 for yes, 0 for no)":1,"city":"Fair Oaks","zip":"95628","geo_score":0.805,"street address":"5006 Fair Oaks Blvd","id":"a6xknbd1s1d1","geo_precision":"street","state":"ca"},"type":"Feature","geometry":{"type":"Point","coordinates":[-121.291769,38.636292]}}],"is_temporal":false,"author":{"url":"","metadata":null,"contact_name":null,"contact_address":null,"source":null,"contact_phone":null},"source":"","pagination":{"sort":null,"start":0,"total":152,"limit":1000000},"state":"complete","tags":"","published":"2014-08-14T16:57:12-04:00","id":221579}