{"type":"FeatureCollection","data_type":"Dataset","url_type":null,"permissions":[{"permissions":{"download":true,"view":true},"group_id":"everyone"}],"classification":null,"title":"Kevin_-_Mort_Brokers_-_ran_March_29th","count":103,"stream_id":221582,"contributor":{"url":"http://geocommons.com/users/39447","name":"sam.felipe"},"data_attributes":null,"calculation_params":null,"icon_link":null,"link":"http://geocommons.com/overlays/221582.json","extent":[-122.957,37.7314,-120.38,39.2996],"geometry_types":["point"],"unique_name":null,"name":"Kevin_-_Mort_Brokers_-_ran_March_29th","feature_count":103,"description":"","next_feature":null,"is_raster":false,"short_classification":"Y","stats":{"rep? (1 for yes, 0 for no)":{"max":1,"mean":0.495145631067961,"variance":0.25242718446602,"stdev":0.502421321667403,"min":0,"median":0}},"features":[{"properties":{"rep? (1 for yes, 0 for no)":1,"city":"Santa Rosa","zip":"95401","geo_score":0.739,"street address":"1428 North Dutton","id":"a6miwqd5ofpp","geo_precision":"range"},"type":"Feature","geometry":{"type":"Point","coordinates":[-122.734631,38.450952]}},{"properties":{"rep? (1 for yes, 0 for no)":1,"city":"Santa Rosa","zip":"95401","geo_score":0.739,"street address":"1400 North Dutton","id":"a6miwqc6jjkx","geo_precision":"range"},"type":"Feature","geometry":{"type":"Point","coordinates":[-122.734413,38.450676]}},{"properties":{"rep? (1 for yes, 0 for no)":0,"city":"Santa Rosa","zip":"95401","geo_score":0.739,"street address":"1235 North Dutton","id":"a6miwqbxfjzh","geo_precision":"range"},"type":"Feature","geometry":{"type":"Point","coordinates":[-122.731915,38.448225]}},{"properties":{"rep? (1 for yes, 0 for no)":1,"city":"Santa Rosa","zip":"95401","geo_score":0.739,"street address":"1330 North Dutton","id":"a6miwqbdrkjv","geo_precision":"range"},"type":"Feature","geometry":{"type":"Point","coordinates":[-122.733515,38.449757]}},{"properties":{"rep? (1 for yes, 0 for no)":1,"city":"Santa Rosa","zip":"95404","geo_score":0.902,"street address":"1229 College Ave","id":"a6miwqijby8x","geo_precision":"range"},"type":"Feature","geometry":{"type":"Point","coordinates":[-122.706524,38.445336]}},{"properties":{"rep? (1 for yes, 0 for no)":1,"city":"Santa Rosa","zip":"95403","geo_score":0.743,"street address":"3550 Round Barn","id":"a6miwqioj5as","geo_precision":"range"},"type":"Feature","geometry":{"type":"Point","coordinates":[-122.727786,38.480331]}},{"properties":{"rep? (1 for yes, 0 for no)":1,"city":"Santa Rosa","zip":"95404","geo_score":0.805,"street address":"800 Mendocino Ave","id":"a6miwqr87c5b","geo_precision":"range"},"type":"Feature","geometry":{"type":"Point","coordinates":[-122.717646,38.447884]}},{"properties":{"rep? (1 for yes, 0 for no)":1,"city":"Santa Rosa","zip":"95402","geo_score":0.688,"street address":"844 3rd St.","id":"a6miwqd49ir9","geo_precision":"range"},"type":"Feature","geometry":{"type":"Point","coordinates":[-122.709394,38.441468]}},{"properties":{"rep? (1 for yes, 0 for no)":1,"city":"Santa Rosa","zip":"95401","geo_score":0.739,"street address":"1260 North Dutton","id":"a6miwqbwk6ot","geo_precision":"range"},"type":"Feature","geometry":{"type":"Point","coordinates":[-122.732336,38.448635]}},{"properties":{"rep? (1 for yes, 0 for no)":1,"city":"Santa Rosa","zip":"95404","geo_score":0.902,"street address":"1053 College Ave","id":"a6miwql1quib","geo_precision":"range"},"type":"Feature","geometry":{"type":"Point","coordinates":[-122.709414,38.445417]}},{"properties":{"rep? (1 for yes, 0 for no)":1,"city":"Santa Rosa","zip":"95402","geo_score":0.429,"street address":"144 S. E St.","id":"a6miwqqiv6cd","geo_precision":"street"},"type":"Feature","geometry":{"type":"Point","coordinates":[-122.914203,39.03799]}},{"properties":{"rep? (1 for yes, 0 for no)":1,"city":"Santa Rosa","zip":"95405","geo_score":0.533,"street address":"2455 Bennett Valley Rd","id":"a6miwqhd259x","geo_precision":"street"},"type":"Feature","geometry":{"type":"Point","coordinates":[-122.657686,38.431473]}},{"properties":{"rep? (1 for yes, 0 for no)":1,"city":"Santa Rosa","zip":"95405","geo_score":0.533,"street address":"2455 Bennett Valley Rd","id":"a6miwqcluret","geo_precision":"street"},"type":"Feature","geometry":{"type":"Point","coordinates":[-122.657686,38.431473]}},{"properties":{"rep? (1 for yes, 0 for no)":1,"city":"Santa Rosa","zip":"95405","geo_score":0.701,"street address":"1310 Neotomas","id":"a6miwql3m0gh","geo_precision":"range"},"type":"Feature","geometry":{"type":"Point","coordinates":[-122.687104,38.433678]}},{"properties":{"rep? (1 for yes, 0 for no)":1,"city":"Santa Rosa","zip":"95401","geo_score":0.766,"street address":"19 Old Courthouse","id":"a6miwqdvvfjb","geo_precision":"range"},"type":"Feature","geometry":{"type":"Point","coordinates":[-122.713433,38.438947]}},{"properties":{"rep? (1 for yes, 0 for no)":0,"city":"Rohnert Park","zip":"94928","geo_score":0.902,"street address":"6225 State Farm Dr","id":"a6miwqk9mwrs","geo_precision":"range"},"type":"Feature","geometry":{"type":"Point","coordinates":[-122.705995,38.349617]}},{"properties":{"rep? (1 for yes, 0 for no)":1,"city":"Rohnert Park","zip":"94928","geo_score":0.902,"street address":"101 Golf Course Dr","id":"a6miwqmjs4os","geo_precision":"range"},"type":"Feature","geometry":{"type":"Point","coordinates":[-122.710592,38.363327]}},{"properties":{"rep? (1 for yes, 0 for no)":0,"city":"Rohnert Park","zip":"94928","geo_score":0.902,"street address":"6050 Commerce Blvd","id":"a6miwqmxjt3v","geo_precision":"range"},"type":"Feature","geometry":{"type":"Point","coordinates":[-122.710401,38.352065]}},{"properties":{"rep? (1 for yes, 0 for no)":0,"city":"Rohnert Park","zip":"94928","geo_score":0.902,"street address":"6250 State Farm Dr","id":"a6miwqnoyp9s","geo_precision":"range"},"type":"Feature","geometry":{"type":"Point","coordinates":[-122.705996,38.349172]}},{"properties":{"rep? (1 for yes, 0 for no)":1,"city":"Petaluma","zip":"94952","geo_score":0.699,"street address":"35 5th St","id":"a6miwqegvrxy","geo_precision":"range"},"type":"Feature","geometry":{"type":"Point","coordinates":[-122.639999,38.231717]}},{"properties":{"rep? (1 for yes, 0 for no)":0,"city":"Petaluma","zip":"94952","geo_score":0.748,"street address":"5401 Old Redwood Hwy","id":"a6miwqirff5i","geo_precision":"range"},"type":"Feature","geometry":{"type":"Point","coordinates":[-122.601103,38.18802]}},{"properties":{"rep? (1 for yes, 0 for no)":0,"city":"Petaluma","zip":"94952","geo_score":0.562,"street address":"1301 Redwood Way","id":"a6miwqcm1bhf","geo_precision":"street"},"type":"Feature","geometry":{"type":"Point","coordinates":[-122.603456,38.21639]}},{"properties":{"rep? (1 for yes, 0 for no)":0,"city":"Petaluma","zip":"94952","geo_score":0.699,"street address":"101 2nd St.","id":"a6miwqg3iluc","geo_precision":"range"},"type":"Feature","geometry":{"type":"Point","coordinates":[-122.637637,38.233584]}},{"properties":{"rep? (1 for yes, 0 for no)":0,"city":"Petaluma","zip":"94952","geo_score":0.805,"street address":"775 Baywood Dr","id":"a6miwqd1ne0i","geo_precision":"range"},"type":"Feature","geometry":{"type":"Point","coordinates":[-122.614066,38.232063]}},{"properties":{"rep? (1 for yes, 0 for no)":0,"city":"Petaluma","zip":"94952","geo_score":0.805,"street address":"720 Southpoint Blvd","id":"a6miwqr2o1rd","geo_precision":"range"},"type":"Feature","geometry":{"type":"Point","coordinates":[-122.646963,38.258332]}},{"properties":{"rep? (1 for yes, 0 for no)":1,"city":"Sonoma","zip":"95476","geo_score":0.814,"street address":"801 Broadway","id":"a6miwqizvxiw","geo_precision":"range"},"type":"Feature","geometry":{"type":"Point","coordinates":[-122.45868,38.286553]}},{"properties":{"rep? (1 for yes, 0 for no)":0,"city":"Sonoma","zip":"95476","geo_score":0.37,"street address":"12 5th St. East","id":"a6miwqeov6qm","geo_precision":"street"},"type":"Feature","geometry":{"type":"Point","coordinates":[-122.447916,38.28906]}},{"properties":{"rep? (1 for yes, 0 for no)":1,"city":"Sonoma","zip":"95476","geo_score":0.814,"street address":"755 Broadway","id":"a6miwqp3h8uq","geo_precision":"range"},"type":"Feature","geometry":{"type":"Point","coordinates":[-122.458539,38.287355]}},{"properties":{"rep? (1 for yes, 0 for no)":0,"city":"Sonoma","zip":"95476","geo_score":0.502,"street address":"317 1st St.","id":"a6miwqbt7466","geo_precision":"street"},"type":"Feature","geometry":{"type":"Point","coordinates":[-122.487903,38.327343]}},{"properties":{"rep? (1 for yes, 0 for no)":0,"city":"Sonoma","zip":"95476","geo_score":0.502,"street address":"450 1st St.","id":"a6miwqclqj1j","geo_precision":"street"},"type":"Feature","geometry":{"type":"Point","coordinates":[-122.487903,38.327343]}},{"properties":{"rep? (1 for yes, 0 for no)":0,"city":"Sonoma","zip":"95476","geo_score":0.814,"street address":"822 Broadway","id":"a6miwqnkqc58","geo_precision":"range"},"type":"Feature","geometry":{"type":"Point","coordinates":[-122.458739,38.28615]}},{"properties":{"rep? (1 for yes, 0 for no)":1,"city":"Sebastopol","zip":"95472","geo_score":0.805,"street address":"130 Petaluma Ave","id":"a6miwqlb899h","geo_precision":"range"},"type":"Feature","geometry":{"type":"Point","coordinates":[-122.822882,38.4022]}},{"properties":{"rep? (1 for yes, 0 for no)":1,"city":"Sebastopol","zip":"95472","geo_score":0.805,"street address":"105 Morris St","id":"a6miwqepemxl","geo_precision":"range"},"type":"Feature","geometry":{"type":"Point","coordinates":[-122.819085,38.402935]}},{"properties":{"rep? (1 for yes, 0 for no)":0,"city":"Sebastopol","zip":"95472","geo_score":0.805,"street address":"742 Litchfield Ave","id":"a6miwqgmmzk4","geo_precision":"range"},"type":"Feature","geometry":{"type":"Point","coordinates":[-122.820807,38.395002]}},{"properties":{"rep? (1 for yes, 0 for no)":0,"city":"Healdsburg","zip":"95448","geo_score":0.693,"street address":"16001 Healdsburg Ave","id":"a6miwqkargn0","geo_precision":"range"},"type":"Feature","geometry":{"type":"Point","coordinates":[-122.874315,38.635371]}},{"properties":{"rep? (1 for yes, 0 for no)":0,"city":"Healdsburg","zip":"95448","geo_score":0.552,"street address":"8465 Old Redwood","id":"a6miwqnrodjj","geo_precision":"street"},"type":"Feature","geometry":{"type":"Point","coordinates":[-122.841852,38.574718]}},{"properties":{"rep? (1 for yes, 0 for no)":1,"city":"Healdsburg","zip":"95448","geo_score":0.611,"street address":"239 Windsor Rd","id":"a6miwqlbz3pp","geo_precision":"street"},"type":"Feature","geometry":{"type":"Point","coordinates":[-122.95707,38.420469]}},{"properties":{"rep? (1 for yes, 0 for no)":0,"city":"Danville","zip":"94526","geo_score":0.575,"street address":"4125 Blackhawk Plaza Circle #200","id":"a6miwqc2oiks","geo_precision":"street"},"type":"Feature","geometry":{"type":"Point","coordinates":[-121.917227,37.798868]}},{"properties":{"rep? (1 for yes, 0 for no)":0,"city":"Danville","zip":"94526","geo_score":0.718,"street address":"780 San Ramon Valley Blvd","id":"a6miwqlmh0y0","geo_precision":"range"},"type":"Feature","geometry":{"type":"Point","coordinates":[-121.994984,37.81059]}},{"properties":{"rep? (1 for yes, 0 for no)":0,"city":"Danville","zip":"94526","geo_score":0.436,"street address":"500 La Gonda Way #210","id":"a6miwqmb790q","geo_precision":"street"},"type":"Feature","geometry":{"type":"Point","coordinates":[-122.263145,38.165196]}},{"properties":{"rep? (1 for yes, 0 for no)":0,"city":"Danville","zip":"94526","geo_score":0.816,"street address":"675 Hartz Ave #205","id":"a6miwqd044ql","geo_precision":"range"},"type":"Feature","geometry":{"type":"Point","coordinates":[-122.001466,37.823185]}},{"properties":{"rep? (1 for yes, 0 for no)":0,"city":"Danville","zip":"94526","geo_score":0.355,"street address":"801 San Ramon Valley Blvd #e","id":"a6miwqd93lif","geo_precision":"street"},"type":"Feature","geometry":{"type":"Point","coordinates":[-121.970006,37.842794]}},{"properties":{"rep? (1 for yes, 0 for no)":0,"city":"Danville","zip":"94526","geo_score":0.816,"street address":"548 Silver Lake Dr","id":"a6miwqlzkilu","geo_precision":"range"},"type":"Feature","geometry":{"type":"Point","coordinates":[-121.961269,37.790541]}},{"properties":{"rep? (1 for yes, 0 for no)":0,"city":"Danville","zip":"94526","geo_score":0.525,"street address":"588 San Ramon Valley Blvd #202","id":"a6miwqjov9xs","geo_precision":"street"},"type":"Feature","geometry":{"type":"Point","coordinates":[-121.996524,37.819068]}},{"properties":{"rep? (1 for yes, 0 for no)":0,"city":"Danville","zip":"94526","geo_score":0.575,"street address":"4125 Blackhawk Plaza Circle #103","id":"a6miwqb8zojw","geo_precision":"street"},"type":"Feature","geometry":{"type":"Point","coordinates":[-121.917227,37.798868]}},{"properties":{"rep? (1 for yes, 0 for no)":0,"city":"Danville","zip":"94526","geo_score":0.816,"street address":"379 Diablo Rd #210","id":"a6miwqh49dr6","geo_precision":"range"},"type":"Feature","geometry":{"type":"Point","coordinates":[-121.998756,37.823028]}},{"properties":{"rep? (1 for yes, 0 for no)":0,"city":"Danville","zip":"94526","geo_score":0.575,"street address":"4115 Blackhawk Plaza Circle #100","id":"a6miwqe4qncd","geo_precision":"street"},"type":"Feature","geometry":{"type":"Point","coordinates":[-121.917227,37.798868]}},{"properties":{"rep? (1 for yes, 0 for no)":1,"city":"Danville","zip":"94526","geo_score":0.656,"street address":"43 Railroad Ave","id":"a6miwqf8mnbv","geo_precision":"range"},"type":"Feature","geometry":{"type":"Point","coordinates":[-122.003151,37.823509]}},{"properties":{"rep? (1 for yes, 0 for no)":0,"city":"Danville","zip":"94526","geo_score":0.805,"street address":"33 Portola Ct","id":"a6miwqpfuz36","geo_precision":"range"},"type":"Feature","geometry":{"type":"Point","coordinates":[-121.91463,37.799094]}},{"properties":{"rep? (1 for yes, 0 for no)":0,"city":"Danville","zip":"94526","geo_score":0.816,"street address":"190 Hartz Ave #200","id":"a6miwqol7bu8","geo_precision":"range"},"type":"Feature","geometry":{"type":"Point","coordinates":[-122.001488,37.823209]}},{"properties":{"rep? (1 for yes, 0 for no)":0,"city":"Danville","zip":"94526","geo_score":0.816,"street address":"675 Hartz Ave","id":"a6miwqrgtft5","geo_precision":"range"},"type":"Feature","geometry":{"type":"Point","coordinates":[-121.996599,37.819332]}},{"properties":{"rep? (1 for yes, 0 for no)":1,"city":"Danville","zip":"94526","geo_score":0.436,"street address":"500 La Gonda Way","id":"a6miwqfua0hx","geo_precision":"street"},"type":"Feature","geometry":{"type":"Point","coordinates":[-122.263284,38.165406]}},{"properties":{"rep? (1 for yes, 0 for no)":0,"city":"Danville","zip":"94526","geo_score":0.805,"street address":"403 Skylark Ct","id":"a6miwqjbf1py","geo_precision":"range"},"type":"Feature","geometry":{"type":"Point","coordinates":[-121.919115,37.796204]}},{"properties":{"rep? (1 for yes, 0 for no)":1,"city":"Danville","zip":"94526","geo_score":0.816,"street address":"395 Hartz Ave","id":"a6miwqbx04y3","geo_precision":"range"},"type":"Feature","geometry":{"type":"Point","coordinates":[-121.999945,37.821665]}},{"properties":{"rep? (1 for yes, 0 for no)":1,"city":"Danville","zip":"94526","geo_score":0.816,"street address":"370 Diablo Rd #103","id":"a6miwqcq053l","geo_precision":"range"},"type":"Feature","geometry":{"type":"Point","coordinates":[-122.000358,37.822754]}},{"properties":{"rep? (1 for yes, 0 for no)":1,"city":"Danville","zip":"94526","geo_score":0.816,"street address":"319 Diablo Rd #103","id":"a6miwqf0uwdu","geo_precision":"range"},"type":"Feature","geometry":{"type":"Point","coordinates":[-122.000358,37.822754]}},{"properties":{"rep? (1 for yes, 0 for no)":0,"city":"Danville","zip":"94526","geo_score":0.718,"street address":"700 Hartz Ave","id":"a6miwqe48wyl","geo_precision":"street"},"type":"Feature","geometry":{"type":"Point","coordinates":[-121.996524,37.819068]}},{"properties":{"rep? (1 for yes, 0 for no)":0,"city":"Danville","zip":"94526","geo_score":0.436,"street address":"530 La Gonda Way","id":"a6miwqf51pyr","geo_precision":"street"},"type":"Feature","geometry":{"type":"Point","coordinates":[-122.263284,38.165406]}},{"properties":{"rep? (1 for yes, 0 for no)":0,"city":"Danville","zip":"94526","geo_score":0.575,"street address":"4125 Blackhawk Plaza Circle #270","id":"a6miwqn061ks","geo_precision":"street"},"type":"Feature","geometry":{"type":"Point","coordinates":[-121.917227,37.798868]}},{"properties":{"rep? (1 for yes, 0 for no)":1,"city":"San Rafael","zip":"94901","geo_score":0.785,"street address":"1000 4th St","id":"a6miwqibkv80","geo_precision":"range"},"type":"Feature","geometry":{"type":"Point","coordinates":[-122.527067,37.973034]}},{"properties":{"rep? (1 for yes, 0 for no)":0,"city":"Mill Valley","zip":"94941","geo_score":0.804,"street address":"1 Belvedere Pl","id":"a6miwqdounks","geo_precision":"range"},"type":"Feature","geometry":{"type":"Point","coordinates":[-122.515819,37.896832]}},{"properties":{"rep? (1 for yes, 0 for no)":1,"city":"San Rafael","zip":"94901","geo_score":0.785,"street address":"1000 4th St","id":"a6miwqn2y9l6","geo_precision":"range"},"type":"Feature","geometry":{"type":"Point","coordinates":[-122.527067,37.973034]}},{"properties":{"rep? (1 for yes, 0 for no)":1,"city":"San Rafael","zip":"94903","geo_score":0.824,"street address":"4304 Redwood Hwy","id":"a6miwqh56nxm","geo_precision":"range"},"type":"Feature","geometry":{"type":"Point","coordinates":[-122.5414,38.013653]}},{"properties":{"rep? (1 for yes, 0 for no)":1,"city":"Novato","zip":"94947","geo_score":0.805,"street address":"16 Digital Dr","id":"a6miwqb6o9dv","geo_precision":"range"},"type":"Feature","geometry":{"type":"Point","coordinates":[-122.53388,38.07028]}},{"properties":{"rep? (1 for yes, 0 for no)":1,"city":"Novato","zip":"94945","geo_score":0.805,"street address":"1744 Novato Blvd","id":"a6miwqbyxy4s","geo_precision":"range"},"type":"Feature","geometry":{"type":"Point","coordinates":[-122.580749,38.107122]}},{"properties":{"rep? (1 for yes, 0 for no)":1,"city":"San Francisco","zip":"94109","geo_score":0.708,"street address":"601 Van Ness Ave","id":"a6miwqmri1p5","geo_precision":"street"},"type":"Feature","geometry":{"type":"Point","coordinates":[-122.420817,37.782894]}},{"properties":{"rep? (1 for yes, 0 for no)":1,"city":"San Francisco","zip":"94108","geo_score":0.621,"street address":"540 California St","id":"a6miwqp9b367","geo_precision":"street"},"type":"Feature","geometry":{"type":"Point","coordinates":[-122.404418,37.792639]}},{"properties":{"rep? (1 for yes, 0 for no)":0,"city":"San Francisco","zip":"94123","geo_score":0.805,"street address":"3296 Sacramento St","id":"a6miwqjwkzlq","geo_precision":"range"},"type":"Feature","geometry":{"type":"Point","coordinates":[-122.446661,37.788189]}},{"properties":{"rep? (1 for yes, 0 for no)":0,"city":"San Francisco","zip":"94114","geo_score":0.708,"street address":"700 Market St","id":"a6miwqnpm7e5","geo_precision":"street"},"type":"Feature","geometry":{"type":"Point","coordinates":[-122.444563,37.75833]}},{"properties":{"rep? (1 for yes, 0 for no)":1,"city":"San Francisco","zip":"94103","geo_score":0.709,"street address":"410 Townsend St","id":"a6miwqlrj2m9","geo_precision":"street"},"type":"Feature","geometry":{"type":"Point","coordinates":[-122.399433,37.773573]}},{"properties":{"rep? (1 for yes, 0 for no)":0,"city":"San Francisco","zip":"94132","geo_score":0.805,"street address":"1 Sansome St","id":"a6miwqmyn9vv","geo_precision":"range"},"type":"Feature","geometry":{"type":"Point","coordinates":[-122.400555,37.790247]}},{"properties":{"rep? (1 for yes, 0 for no)":1,"city":"San Francisco","zip":"94109","geo_score":0.525,"street address":"88 Kearny St","id":"a6miwqmun3l7","geo_precision":"street"},"type":"Feature","geometry":{"type":"Point","coordinates":[-122.417217,37.798472]}},{"properties":{"rep? (1 for yes, 0 for no)":0,"city":"San Francisco","zip":"94127","geo_score":0.805,"street address":"180 Redwood St","id":"a6miwqp1f3si","geo_precision":"range"},"type":"Feature","geometry":{"type":"Point","coordinates":[-122.419706,37.780612]}},{"properties":{"rep? (1 for yes, 0 for no)":1,"city":"San Francisco","zip":"94105","geo_score":0.688,"street address":"22 4th St","id":"a6miwqou53fn","geo_precision":"range"},"type":"Feature","geometry":{"type":"Point","coordinates":[-122.40567,37.785585]}},{"properties":{"rep? (1 for yes, 0 for no)":0,"city":"San Francisco","zip":"94114","geo_score":0.902,"street address":"2358 Market St","id":"a6miwqqvygdo","geo_precision":"range"},"type":"Feature","geometry":{"type":"Point","coordinates":[-122.43415,37.763312]}},{"properties":{"rep? (1 for yes, 0 for no)":1,"city":"San Francisco","zip":"94109","geo_score":0.902,"street address":"1388 Sutter St","id":"a6miwqd4o1hp","geo_precision":"range"},"type":"Feature","geometry":{"type":"Point","coordinates":[-122.422926,37.787359]}},{"properties":{"rep? (1 for yes, 0 for no)":1,"city":"San Francisco","zip":"94132","geo_score":0.902,"street address":"2623 Ocean Ave","id":"a6miwqorjsdg","geo_precision":"range"},"type":"Feature","geometry":{"type":"Point","coordinates":[-122.473897,37.732063]}},{"properties":{"rep? (1 for yes, 0 for no)":1,"city":"San Francisco","zip":"94122","geo_score":0.87,"street address":"1902 Noriga St","id":"a6miwqc9y18t","geo_precision":"range"},"type":"Feature","geometry":{"type":"Point","coordinates":[-122.483991,37.753909]}},{"properties":{"rep? (1 for yes, 0 for no)":1,"city":"San Francisco","zip":"94114","geo_score":0.902,"street address":"600 Castro St","id":"a6miwqr8uhp7","geo_precision":"range"},"type":"Feature","geometry":{"type":"Point","coordinates":[-122.434854,37.759288]}},{"properties":{"rep? (1 for yes, 0 for no)":0,"city":"San Francisco","zip":"94109","geo_score":0.863,"street address":"1 Daniel Burnham","id":"a6miwqej687d","geo_precision":"range"},"type":"Feature","geometry":{"type":"Point","coordinates":[-122.423307,37.786868]}},{"properties":{"rep? (1 for yes, 0 for no)":1,"city":"San Francisco","zip":"94105","geo_score":0.902,"street address":"100 Spear St","id":"a6miwqb82bwk","geo_precision":"range"},"type":"Feature","geometry":{"type":"Point","coordinates":[-122.39406,37.792536]}},{"properties":{"rep? (1 for yes, 0 for no)":0,"city":"San Francisco","zip":"94104","geo_score":0.854,"street address":"265 Montgomery","id":"a6miwqgoga9w","geo_precision":"range"},"type":"Feature","geometry":{"type":"Point","coordinates":[-122.402479,37.791576]}},{"properties":{"rep? (1 for yes, 0 for no)":0,"city":"San Francisco","zip":"94132","geo_score":0.902,"street address":"2564 Ocean Ave","id":"a6miwqfxuk5y","geo_precision":"range"},"type":"Feature","geometry":{"type":"Point","coordinates":[-122.472595,37.73145]}},{"properties":{"rep? (1 for yes, 0 for no)":1,"city":"San Francisco","zip":"94118","geo_score":0.902,"street address":"3220 Fulton St","id":"a6miwqmsjviw","geo_precision":"range"},"type":"Feature","geometry":{"type":"Point","coordinates":[-122.466054,37.773388]}},{"properties":{"rep? (1 for yes, 0 for no)":1,"city":"Citrus Heights","zip":"95610","geo_score":0.861,"street address":"6060 Sunrise Vista Dr","id":"a6miwqgw0htf","geo_precision":"range"},"type":"Feature","geometry":{"type":"Point","coordinates":[-121.264564,38.676265]}},{"properties":{"rep? (1 for yes, 0 for no)":0,"city":"Rancho Cordova","zip":"95670","geo_score":0.812,"street address":"10951 White Rock Rd","id":"a6miwqmbijzl","geo_precision":"range"},"type":"Feature","geometry":{"type":"Point","coordinates":[-121.284089,38.58834]}},{"properties":{"rep? (1 for yes, 0 for no)":0,"city":"Sacramento","zip":"95811","geo_score":0.752,"street address":"1545 River Park Dr","id":"a6miwqbmiyi2","geo_precision":"range"},"type":"Feature","geometry":{"type":"Point","coordinates":[-121.438602,38.598726]}},{"properties":{"rep? (1 for yes, 0 for no)":0,"city":"Sacramento","zip":"95811","geo_score":0.805,"street address":"9197 Kiefer Blvd","id":"a6miwqe2md1y","geo_precision":"range"},"type":"Feature","geometry":{"type":"Point","coordinates":[-121.357084,38.547305]}},{"properties":{"rep? (1 for yes, 0 for no)":1,"city":"Sacramento","zip":"95825","geo_score":0.649,"street address":"3626 Fair Oaks Blvd","id":"a6miwqq2wnfz","geo_precision":"street"},"type":"Feature","geometry":{"type":"Point","coordinates":[-121.4015,38.574237]}},{"properties":{"rep? (1 for yes, 0 for no)":1,"city":"Folsom","zip":"95630","geo_score":0.491,"street address":"50 Iron Point Cr","id":"a6miwqqkjtxw","geo_precision":"street"},"type":"Feature","geometry":{"type":"Point","coordinates":[-121.190936,38.644176]}},{"properties":{"rep? (1 for yes, 0 for no)":0,"city":"Sacramento","zip":"95825","geo_score":0.844,"street address":"3 Park Center Dr","id":"a6miwqlo6wcj","geo_precision":"range"},"type":"Feature","geometry":{"type":"Point","coordinates":[-121.415189,38.572257]}},{"properties":{"rep? (1 for yes, 0 for no)":0,"city":"Sacramento","zip":"95825","geo_score":0.805,"street address":"1215 K St","id":"a6miwqhyobnn","geo_precision":"range"},"type":"Feature","geometry":{"type":"Point","coordinates":[-121.491103,38.578436]}},{"properties":{"rep? (1 for yes, 0 for no)":0,"city":"Sacramento","zip":"95834","geo_score":0.805,"street address":"700 J St","id":"a6miwqfdxq6u","geo_precision":"range"},"type":"Feature","geometry":{"type":"Point","coordinates":[-121.497452,38.581378]}},{"properties":{"rep? (1 for yes, 0 for no)":1,"city":"Fair Oaks","zip":"95628","geo_score":0.805,"street address":"5330 Primrose Blvd","id":"a6miwqe47s6j","geo_precision":"range"},"type":"Feature","geometry":{"type":"Point","coordinates":[-121.276306,38.662642]}},{"properties":{"rep? (1 for yes, 0 for no)":1,"city":"Fair Oaks","zip":"95628","geo_score":0.902,"street address":"9827 Fair Oaks Blvd","id":"a6miwqc0ukxu","geo_precision":"range"},"type":"Feature","geometry":{"type":"Point","coordinates":[-121.275684,38.63932]}},{"properties":{"rep? (1 for yes, 0 for no)":1,"city":"Fair Oaks","zip":"95628","geo_score":0.78,"street address":"4401 Hazel Ave","id":"a6miwqnqfba8","geo_precision":"range"},"type":"Feature","geometry":{"type":"Point","coordinates":[-121.225129,38.636382]}},{"properties":{"rep? (1 for yes, 0 for no)":0,"city":"Elk Grove","zip":"95624","geo_score":0.817,"street address":"9587 School St","id":"a6miwqpe4bbm","geo_precision":"range"},"type":"Feature","geometry":{"type":"Point","coordinates":[-121.362307,38.409496]}},{"properties":{"rep? (1 for yes, 0 for no)":0,"city":"Elk Grove","zip":"95624","geo_score":0.428,"street address":"9245 Laguna Springs Dr","id":"a6miwqcp83us","geo_precision":"street"},"type":"Feature","geometry":{"type":"Point","coordinates":[-121.376326,38.43234]}},{"properties":{"rep? (1 for yes, 0 for no)":0,"city":"Elk Grove","zip":"95624","geo_score":0.817,"street address":"9632 Emerald Oak Dr","id":"a6miwqhx44cv","geo_precision":"range"},"type":"Feature","geometry":{"type":"Point","coordinates":[-121.37871,38.407486]}},{"properties":{"rep? (1 for yes, 0 for no)":1,"city":"Elk Grove","zip":"95624","geo_score":0.513,"street address":"8801 Boreal Way","id":"a6miwqqua4ky","geo_precision":"street"},"type":"Feature","geometry":{"type":"Point","coordinates":[-121.243661,38.68286]}},{"properties":{"rep? (1 for yes, 0 for no)":1,"city":"Roseville","zip":"95765","geo_score":0.438,"street address":"8781 Sierra College Blvd","id":"a6miwqf1yelq","geo_precision":"street"},"type":"Feature","geometry":{"type":"Point","coordinates":[-120.379573,39.299569]}},{"properties":{"rep? (1 for yes, 0 for no)":0,"city":"Roseville","zip":"95678","geo_score":0.505,"street address":"3000 Lava Ridge Ct","id":"a6miwqh2idth","geo_precision":"street"},"type":"Feature","geometry":{"type":"Point","coordinates":[-120.7893,38.72877]}},{"properties":{"rep? (1 for yes, 0 for no)":1,"city":"Roseville","zip":"95678","geo_score":0.805,"street address":"2130 Professional Dr","id":"a6miwqk7lljt","geo_precision":"range"},"type":"Feature","geometry":{"type":"Point","coordinates":[-121.252501,38.742336]}}],"is_temporal":false,"author":{"url":"","metadata":null,"contact_name":null,"contact_address":null,"source":null,"contact_phone":null},"source":"","pagination":{"sort":null,"start":0,"total":103,"limit":1000000},"state":"complete","tags":"","published":"2014-08-14T16:57:15-04:00","id":221582}