{"type":"FeatureCollection","data_type":"Dataset","url_type":null,"permissions":[{"permissions":{"download":true,"view":true},"group_id":"everyone"}],"classification":null,"title":"ge1lpgzipphil","count":14,"stream_id":221874,"contributor":{"url":"http://geocommons.com/users/41899","name":"alvinmars31"},"data_attributes":null,"calculation_params":null,"icon_link":null,"link":"http://geocommons.com/overlays/221874.json","extent":[-170.747,-14.3517,-70.9423,46.8024],"geometry_types":["point"],"unique_name":null,"name":"ge1lpgzipphil","feature_count":14,"description":"lpg consumption region philippines","next_feature":null,"is_raster":false,"short_classification":"Y","stats":{"lpg usage(1000 tons)":{"max":150,"mean":35.7857142857143,"variance":1973.25824175824,"stdev":44.4213714529194,"min":5,"median":17}},"features":[{"properties":{"city":"Manila","region":"NCR","geo_score":0.653,"country":"Philippines","lpg usage(1000 tons)":150,"zip code":"1000","id":"a620ljx7wkzn","geo_precision":"city","column_3":null},"type":"Feature","geometry":{"type":"Point","coordinates":[-87.63388,31.279615]}},{"properties":{"city":"Baguio City","region":"CAR","geo_score":0.614,"country":"Philippines","lpg usage(1000 tons)":16,"zip code":"2602","id":"a620ljnc2rmd","geo_precision":"city","column_3":null},"type":"Feature","geometry":{"type":"Point","coordinates":[-120.094087,39.386018]}},{"properties":{"city":"San Fernando City, La Union","region":"Ilocos Region","geo_score":0.636,"country":"Philippines","lpg usage(1000 tons)":25,"zip code":"2500","id":"a620ljsevuyu","geo_precision":"city","column_3":null},"type":"Feature","geometry":{"type":"Point","coordinates":[-122.419416,37.77493]}},{"properties":{"city":"Tuguegarao City","region":"Cagayan Valley","geo_score":0.612,"country":"Philippines","lpg usage(1000 tons)":23,"zip code":"3500","id":"a620ljmpifee","geo_precision":"city","column_3":null},"type":"Feature","geometry":{"type":"Point","coordinates":[-94.077152,34.734825]}},{"properties":{"city":"San Fernando City, Pampanga","region":"Central Luzon","geo_score":0.627,"country":"Philippines","lpg usage(1000 tons)":85,"zip code":"2000","id":"a620ljm0jlo3","geo_precision":"city","column_3":null},"type":"Feature","geometry":{"type":"Point","coordinates":[-122.419416,37.77493]}},{"properties":{"city":"Calamba City","region":"Southern Tagalog","geo_score":0.726,"country":"Philippines","lpg usage(1000 tons)":105,"zip code":"4027","id":"a620ljjkps90","geo_precision":"zip","column_3":null},"type":"Feature","geometry":{"type":"Point","coordinates":[-70.942285,43.337582]}},{"properties":{"city":"Legazpi City","region":"Bicol Region","geo_score":0.623,"country":"Philippines","lpg usage(1000 tons)":16,"zip code":"4500","id":"a620lju2t0v0","geo_precision":"city","column_3":null},"type":"Feature","geometry":{"type":"Point","coordinates":[-94.077152,34.734825]}},{"properties":{"city":"Iloilo City","region":"Western Visayas","geo_score":0.643,"country":"Philippines","lpg usage(1000 tons)":22,"zip code":"5000","id":"a620ljsmxo23","geo_precision":"city","column_3":null},"type":"Feature","geometry":{"type":"Point","coordinates":[-170.746944,-14.351667]}},{"properties":{"city":"Cebu City","region":"Central Visayas","geo_score":0.607,"country":"Philippines","lpg usage(1000 tons)":17,"zip code":"6000","id":"a620ljhkk3oo","geo_precision":"city","column_3":null},"type":"Feature","geometry":{"type":"Point","coordinates":[-88.414573,46.802431]}},{"properties":{"city":"Tacloban City","region":"Eastern Visayas","geo_score":0.619,"country":"Philippines","lpg usage(1000 tons)":13,"zip code":"6500","id":"a620ljtn2k7z","geo_precision":"city","column_3":null},"type":"Feature","geometry":{"type":"Point","coordinates":[-94.077152,34.734825]}},{"properties":{"city":"Pagadian City","region":"Western Mindanao","geo_score":0.757,"country":"Philippines","lpg usage(1000 tons)":7,"zip code":"7016","id":"a620ljguguy5","geo_precision":"zip","column_3":null},"type":"Feature","geometry":{"type":"Point","coordinates":[-74.287092,40.658991]}},{"properties":{"city":"Cagayan De Oro","region":"Northern Mindanao","geo_score":0.583,"country":"Philippines","lpg usage(1000 tons)":5,"zip code":"9000","id":"a620ljn1c2zi","geo_precision":"city","column_3":null},"type":"Feature","geometry":{"type":"Point","coordinates":[-83.14993,42.605589]}},{"properties":{"city":"Davao City","region":"Southern Mindanao","geo_score":0.635,"country":"Philippines","lpg usage(1000 tons)":10,"zip code":"8000","id":"a620ljhqebzh","geo_precision":"city","column_3":null},"type":"Feature","geometry":{"type":"Point","coordinates":[-94.077152,34.734825]}},{"properties":{"city":"Koronadal City","region":"Central Mindanao","geo_score":0.615,"country":"Philippines","lpg usage(1000 tons)":7,"zip code":"9506","id":"a620ljqugc6e","geo_precision":"city","column_3":null},"type":"Feature","geometry":{"type":"Point","coordinates":[-91.210666,33.092344]}}],"is_temporal":false,"author":{"url":"","metadata":"","contact_name":"","contact_address":"","source":"","contact_phone":""},"source":"","pagination":{"sort":null,"start":0,"total":14,"limit":1000000},"state":"complete","tags":"consumption,lpg,philippines,region","published":"2014-08-14T17:11:29-04:00","id":221874}