{"type":"FeatureCollection","data_type":"Dataset","url_type":null,"permissions":[{"permissions":{"download":true,"view":true},"group_id":"everyone"}],"classification":null,"title":"Home Depot, Home Depot Locations, 100 miles surrounding Iowa City, 6.23.2008","count":4,"stream_id":2218,"contributor":{"url":"http://geocommons.com/users/139","name":"Burkey"},"data_attributes":null,"calculation_params":null,"icon_link":null,"link":"http://geocommons.com/overlays/2218.json","extent":[-92.3357,41.5389,-90.2406,42.4554],"geometry_types":["point"],"unique_name":null,"name":"Home Depot, Home Depot Locations, 100 miles surrounding Iowa City, 6.23.2008","feature_count":4,"description":"This dataset displays all the Home Depot locations as of 6.23.2008. This dataset was created to help in the relief of the recent floods that have ravaged Iowa City in June of 2008. The data comes from the website of Home Depot at homedepot.com and the lat/lons were obtained by geocoding the location's street address.\n","next_feature":null,"is_raster":false,"short_classification":"Y","stats":{"lon":{"max":-90.240599,"mean":-91.18077475,"variance":0.950480898129578,"stdev":0.9749260988042,"min":-92.33568,"median":-90.520847},"zip":{"max":52732,"mean":52139.75,"variance":942066.916666667,"stdev":970.601317053849,"min":50702,"median":52722},"lat":{"max":42.455422,"mean":41.95830525,"variance":0.149172925035582,"stdev":0.386229109513488,"min":41.538946,"median":42.023129}},"features":[{"properties":{"city":"Bettendorf","lon":-90.520847,"zip":52722,"store":"Bettendorf 2111","phone":"(563)359-7228","id":"a61zryt1oomj","address":"920 Middle Road","lat":41.538946,"state":"IA"},"type":"Feature","geometry":{"type":"Point","coordinates":[-90.520847,41.538946]}},{"properties":{"city":"Cedar Rapids","lon":-91.625973,"zip":52403,"store":"Cedar Rapids 2108","phone":"(319)294-0480","id":"a61zrywvnek2","address":"4501 1st Avenue SE","lat":42.023129,"state":"IA"},"type":"Feature","geometry":{"type":"Point","coordinates":[-91.625973,42.023129]}},{"properties":{"city":"Clinton","lon":-90.240599,"zip":52732,"store":"Clinton 2113","phone":"(563)242-0349","id":"a61zrypjveql","address":"1850 Lincoln Way","lat":41.815724,"state":"IA"},"type":"Feature","geometry":{"type":"Point","coordinates":[-90.240599,41.815724]}},{"properties":{"city":"Waterloo","lon":-92.33568,"zip":50702,"store":"Waterloo 2101","phone":"(319)232-8889","id":"a61zrz1gvo14","address":"1050 Southtown Drive","lat":42.455422,"state":"IA"},"type":"Feature","geometry":{"type":"Point","coordinates":[-92.33568,42.455422]}}],"is_temporal":false,"author":{"url":"http://www.homedepot.com/webapp/wcs/stores/servlet/THDStoreFinder?storeId=10051&URL=http%3A%2F%2Fwww.homedepot.com%2Fwebapp%2Fwcs%2Fstores%2Fservlet%2FStoreFinderView%3FlangId%3D-1%26storeId%3D10051%26catalogId%3D10053%26URL%3Dhttp%253A%2F%2Fwww.homedepot","metadata":"","contact_name":"","contact_address":"","source":"Home Depot","contact_phone":""},"source":"http://www.homedepot.com/webapp/wcs/stores/servlet/THDStoreFinder?storeId=10051&URL=http%3A%2F%2Fwww.homedepot.com%2Fwebapp%2Fwcs%2Fstores%2Fservlet%2FStoreFinderView%3FlangId%3D-1%26storeId%3D10051%26catalogId%3D10053%26URL%3Dhttp%253A%2F%2Fwww.homedepot","pagination":{"sort":null,"start":0,"total":4,"limit":1000000},"state":"complete","tags":"flooding,floods,iowa","published":"2008-06-23T12:00:00Z","id":2218}