{"type":"FeatureCollection","data_type":"Dataset","url_type":null,"permissions":[{"permissions":{"download":true,"edit":true,"view":true},"group_id":42518},{"permissions":{"download":true,"view":true},"group_id":"everyone"}],"classification":null,"title":"Guy - Muni - ran March 30th STCA","count":51,"stream_id":222183,"contributor":{"url":"http://geocommons.com/users/39447","name":"sam.felipe"},"data_attributes":null,"calculation_params":null,"icon_link":null,"link":"http://geocommons.com/overlays/222183.json","extent":[-117.936,32.7934,-114.597,34.8379],"geometry_types":["point"],"unique_name":null,"name":"Guy - Muni - ran March 30th STCA","feature_count":51,"description":"","next_feature":null,"is_raster":false,"short_classification":"Y","stats":{"rep? (1 for yes, 0 for no)":{"max":1,"mean":0.96078431372549,"variance":0.0384313725490196,"stdev":0.196039211763921,"min":0,"median":1}},"features":[{"properties":{"rep? (1 for yes, 0 for no)":1,"city":"Cathedral City","column_5":null,"zip":"92234","geo_score":0.902,"street address":"68700 Avenida Lalo Guerrero","id":"a64rvkew4fp5","geo_precision":"range"},"type":"Feature","geometry":{"type":"Point","coordinates":[-116.464629,33.781037]}},{"properties":{"rep? (1 for yes, 0 for no)":1,"city":"Banning","column_5":null,"zip":"92220","geo_score":0.476,"street address":"99 E. Ramsey St.","id":"a64rvkbxxwmg","geo_precision":"street"},"type":"Feature","geometry":{"type":"Point","coordinates":[-116.877244,33.925442]}},{"properties":{"rep? (1 for yes, 0 for no)":0,"city":"Blythe","column_5":null,"zip":"92225","geo_score":0.419,"street address":"270 N. Broadway","id":"a64rvkcu3vdl","geo_precision":"street"},"type":"Feature","geometry":{"type":"Point","coordinates":[-114.596802,33.610577]}},{"properties":{"rep? (1 for yes, 0 for no)":1,"city":"Canyon Lake","column_5":null,"zip":"92587","geo_score":0.793,"street address":"31516 Railroad Canyon Rd","id":"a64rvk9ip3u8","geo_precision":"range"},"type":"Feature","geometry":{"type":"Point","coordinates":[-117.253048,33.673358]}},{"properties":{"rep? (1 for yes, 0 for no)":1,"city":"Coachella","column_5":null,"zip":"92236","geo_score":0.785,"street address":"1515 Sixth Street","id":"a64rvk9510m2","geo_precision":"range"},"type":"Feature","geometry":{"type":"Point","coordinates":[-116.176404,33.678891]}},{"properties":{"rep? (1 for yes, 0 for no)":1,"city":"Corona","column_5":null,"zip":"92882","geo_score":0.464,"street address":"400 S. Vicentia Ave.  ","id":"a64rvkjerx4k","geo_precision":"street"},"type":"Feature","geometry":{"type":"Point","coordinates":[-117.57449,33.881051]}},{"properties":{"rep? (1 for yes, 0 for no)":1,"city":"Desert Hot Springs","column_5":null,"zip":"92240","geo_score":0.616,"street address":"65-950 Pierson Blvd","id":"a64rvk7rvdb8","geo_precision":"street"},"type":"Feature","geometry":{"type":"Point","coordinates":[-116.59045,33.961352]}},{"properties":{"rep? (1 for yes, 0 for no)":1,"city":"Eastvale","column_5":null,"zip":"91752","geo_score":0.682,"street address":"12363 Limonite Ave  Suite 910","id":"a64rvkgdtgyu","geo_precision":"range"},"type":"Feature","geometry":{"type":"Point","coordinates":[-117.552354,33.975283]}},{"properties":{"rep? (1 for yes, 0 for no)":1,"city":"Hemet","column_5":null,"zip":"92543","geo_score":0.468,"street address":"445 E. Florida Ave.","id":"a64rvk814z99","geo_precision":"street"},"type":"Feature","geometry":{"type":"Point","coordinates":[-116.972758,33.747547]}},{"properties":{"rep? (1 for yes, 0 for no)":1,"city":"Indian Wells","column_5":null,"zip":"92210","geo_score":0.707,"street address":"44-950 Eldorado Drive","id":"a64rvk9tl32g","geo_precision":"street"},"type":"Feature","geometry":{"type":"Point","coordinates":[-116.339808,33.713274]}},{"properties":{"rep? (1 for yes, 0 for no)":1,"city":"Indio","column_5":null,"zip":"92201","geo_score":0.813,"street address":"100 Civic Center Mall","id":"a64rvk64z90s","geo_precision":"range"},"type":"Feature","geometry":{"type":"Point","coordinates":[-116.219483,33.718657]}},{"properties":{"rep? (1 for yes, 0 for no)":1,"city":"Jurupa Valley","column_5":null,"zip":"92509","geo_score":0.348,"street address":"8304 Limonite Avenue Suite 'M'","id":"a64rvkfw5age","geo_precision":"street"},"type":"Feature","geometry":{"type":"Point","coordinates":[-117.421509,33.994175]}},{"properties":{"rep? (1 for yes, 0 for no)":1,"city":"Lake Elsinore","column_5":null,"zip":"92530","geo_score":0.902,"street address":"130 South Main Street","id":"a64rvkl4mwnu","geo_precision":"range"},"type":"Feature","geometry":{"type":"Point","coordinates":[-117.327826,33.667602]}},{"properties":{"rep? (1 for yes, 0 for no)":1,"city":"La Quinta","column_5":null,"zip":"92253","geo_score":0.707,"street address":"78-495 Calle Tampico","id":"a64rvkk0dmxg","geo_precision":"street"},"type":"Feature","geometry":{"type":"Point","coordinates":[-116.303707,33.678168]}},{"properties":{"rep? (1 for yes, 0 for no)":1,"city":"Menifee","column_5":null,"zip":"92586","geo_score":0.819,"street address":"29714 Haun Rd.","id":"a64rvkfqi2jl","geo_precision":"range"},"type":"Feature","geometry":{"type":"Point","coordinates":[-117.174973,33.688282]}},{"properties":{"rep? (1 for yes, 0 for no)":1,"city":"Moreno Valley","column_5":null,"zip":"92552","geo_score":0.805,"street address":"14177 Frederick Street","id":"a64rvk88228v","geo_precision":"range"},"type":"Feature","geometry":{"type":"Point","coordinates":[-117.261106,33.915552]}},{"properties":{"rep? (1 for yes, 0 for no)":1,"city":"Murrieta","column_5":null,"zip":"92562","geo_score":0.551,"street address":"One Town Square","id":"a64rvkjafdbb","geo_precision":"street"},"type":"Feature","geometry":{"type":"Point","coordinates":[-117.216799,33.554533]}},{"properties":{"rep? (1 for yes, 0 for no)":1,"city":"Norco","column_5":null,"zip":"92860","geo_score":0.902,"street address":"2870 Clark Ave.","id":"a64rvkeb9bm3","geo_precision":"range"},"type":"Feature","geometry":{"type":"Point","coordinates":[-117.561032,33.923522]}},{"properties":{"rep? (1 for yes, 0 for no)":1,"city":"Palm Desert","column_5":null,"zip":"92260","geo_score":0.625,"street address":"73-510 Fred Waring Drive","id":"a64rvkjxcg57","geo_precision":"street"},"type":"Feature","geometry":{"type":"Point","coordinates":[-116.395616,33.728684]}},{"properties":{"rep? (1 for yes, 0 for no)":1,"city":"Perris","column_5":null,"zip":"92570","geo_score":0.536,"street address":"101 N. D Street","id":"a64rvkap84hw","geo_precision":"street"},"type":"Feature","geometry":{"type":"Point","coordinates":[-117.228603,33.789661]}},{"properties":{"rep? (1 for yes, 0 for no)":1,"city":"Rancho Mirage","column_5":null,"zip":"92270","geo_score":0.707,"street address":"69-825 Highway 111","id":"a64rvk5r54xz","geo_precision":"street"},"type":"Feature","geometry":{"type":"Point","coordinates":[-116.407963,33.735671]}},{"properties":{"rep? (1 for yes, 0 for no)":1,"city":"Riverside","column_5":null,"zip":"92501","geo_score":0.805,"street address":"3900 Main St.","id":"a64rvkhl6c0m","geo_precision":"street"},"type":"Feature","geometry":{"type":"Point","coordinates":[-117.375745,33.981232]}},{"properties":{"rep? (1 for yes, 0 for no)":1,"city":"San Jacinto","column_5":null,"zip":"92583","geo_score":0.352,"street address":"595 S. San Jacinto Ave.","id":"a64rvkg2960x","geo_precision":"street"},"type":"Feature","geometry":{"type":"Point","coordinates":[-116.958895,33.787801]}},{"properties":{"rep? (1 for yes, 0 for no)":1,"city":"Temecula","column_5":null,"zip":"92589","geo_score":0.61,"street address":"41000 Main Street","id":"a64rvkfv6yix","geo_precision":"street"},"type":"Feature","geometry":{"type":"Point","coordinates":[-117.147106,33.494855]}},{"properties":{"rep? (1 for yes, 0 for no)":1,"city":"Wildomar","column_5":null,"zip":"92595","geo_score":0.52,"street address":"23873 Clinton Keith Rd. Suite 201","id":"a64rvk72hk6w","geo_precision":"street"},"type":"Feature","geometry":{"type":"Point","coordinates":[-117.247024,33.594321]}},{"properties":{"rep? (1 for yes, 0 for no)":1,"city":"EL Centro","column_5":null,"zip":"92243","geo_score":0.525,"street address":"940 Main Street","id":"a64rvkgq15ra","geo_precision":"street"},"type":"Feature","geometry":{"type":"Point","coordinates":[-115.688272,32.793434]}},{"properties":{"rep? (1 for yes, 0 for no)":1,"city":"San Bernardino","column_5":null,"zip":"92415","geo_score":0.319,"street address":"385 N. Arrowhead Avenue","id":"a64rvkit33zu","geo_precision":"street"},"type":"Feature","geometry":{"type":"Point","coordinates":[-117.289674,34.106439]}},{"properties":{"rep? (1 for yes, 0 for no)":1,"city":"Adelanto","column_5":null,"zip":"92301","geo_score":0.805,"street address":"11600 Air Expressway","id":"a64rvk7kms21","geo_precision":"range"},"type":"Feature","geometry":{"type":"Point","coordinates":[-117.411598,34.572005]}},{"properties":{"rep? (1 for yes, 0 for no)":1,"city":"Apple Valley","column_5":null,"zip":"92307","geo_score":0.82,"street address":"14955 Dale Evans Parkway","id":"a64rvkh83ch6","geo_precision":"range"},"type":"Feature","geometry":{"type":"Point","coordinates":[-117.215408,34.525487]}},{"properties":{"rep? (1 for yes, 0 for no)":1,"city":"Barstow","column_5":null,"zip":"92311","geo_score":0.333,"street address":"220 E. Mountain View","id":"a64rvkea4u27","geo_precision":"street"},"type":"Feature","geometry":{"type":"Point","coordinates":[-116.853343,34.237615]}},{"properties":{"rep? (1 for yes, 0 for no)":1,"city":"Big Bear Lake","column_5":null,"zip":"92315","geo_score":0.823,"street address":"39707 Big Bear Blvd","id":"a64rvkctizzl","geo_precision":"range"},"type":"Feature","geometry":{"type":"Point","coordinates":[-116.935831,34.23856]}},{"properties":{"rep? (1 for yes, 0 for no)":1,"city":"Chino","column_5":null,"zip":"91710","geo_score":0.821,"street address":"13220 Central Avenue","id":"a64rvkj6xuut","geo_precision":"range"},"type":"Feature","geometry":{"type":"Point","coordinates":[-117.689257,34.013338]}},{"properties":{"rep? (1 for yes, 0 for no)":1,"city":"Chino Hills","column_5":null,"zip":"91709","geo_score":0.512,"street address":"14000 City Center Drive","id":"a64rvk8usd0d","geo_precision":"street"},"type":"Feature","geometry":{"type":"Point","coordinates":[-117.936305,34.111973]}},{"properties":{"rep? (1 for yes, 0 for no)":1,"city":"Colton","column_5":null,"zip":"92324","geo_score":0.397,"street address":"650 North La Cadena Drive","id":"a64rvk6tkm2k","geo_precision":"street"},"type":"Feature","geometry":{"type":"Point","coordinates":[-117.029528,34.054407]}},{"properties":{"rep? (1 for yes, 0 for no)":1,"city":"Fontana","column_5":null,"zip":"92335","geo_score":0.862,"street address":"8353 Sierra Avenue ","id":"a64rvk77pahx","geo_precision":"range"},"type":"Feature","geometry":{"type":"Point","coordinates":[-117.435786,34.102036]}},{"properties":{"rep? (1 for yes, 0 for no)":1,"city":"Grand Terrace","column_5":null,"zip":"92313","geo_score":0.902,"street address":"22795 Barton Rd","id":"a64rvkatoqcz","geo_precision":"range"},"type":"Feature","geometry":{"type":"Point","coordinates":[-117.307358,34.035566]}},{"properties":{"rep? (1 for yes, 0 for no)":1,"city":"Hesperia","column_5":null,"zip":"92345","geo_score":0.707,"street address":"9700 Seventh Ave","id":"a64rvkgdobaa","geo_precision":"range"},"type":"Feature","geometry":{"type":"Point","coordinates":[-117.315055,34.426448]}},{"properties":{"rep? (1 for yes, 0 for no)":1,"city":"Highland","column_5":null,"zip":"92346","geo_score":0.761,"street address":"27215 Base Line","id":"a64rvkk3n3tz","geo_precision":"range"},"type":"Feature","geometry":{"type":"Point","coordinates":[-117.210913,34.121252]}},{"properties":{"rep? (1 for yes, 0 for no)":1,"city":"Loma Linda","column_5":null,"zip":"92354","geo_score":0.902,"street address":"25541 Barton Road","id":"a64rvk7h4gi5","geo_precision":"range"},"type":"Feature","geometry":{"type":"Point","coordinates":[-117.247128,34.048372]}},{"properties":{"rep? (1 for yes, 0 for no)":1,"city":"Montclair","column_5":null,"zip":"91763","geo_score":0.902,"street address":"5111 Benito Street","id":"a64rvkjp3rgh","geo_precision":"range"},"type":"Feature","geometry":{"type":"Point","coordinates":[-117.693782,34.074042]}},{"properties":{"rep? (1 for yes, 0 for no)":1,"city":"Needles","column_5":null,"zip":"92363","geo_score":0.698,"street address":"817 3rd Street ","id":"a64rvkfzwxn1","geo_precision":"range"},"type":"Feature","geometry":{"type":"Point","coordinates":[-114.605631,34.837905]}},{"properties":{"rep? (1 for yes, 0 for no)":1,"city":"Ontario","column_5":null,"zip":"91764","geo_score":0.536,"street address":"303 East \"B\" Street","id":"a64rvkcroa6a","geo_precision":"street"},"type":"Feature","geometry":{"type":"Point","coordinates":[-117.651018,34.064593]}},{"properties":{"rep? (1 for yes, 0 for no)":1,"city":"Rancho Cucamonga","column_5":null,"zip":"91730","geo_score":0.902,"street address":"10500 Civic Center Drive","id":"a64rvkg7bij6","geo_precision":"range"},"type":"Feature","geometry":{"type":"Point","coordinates":[-117.575825,34.102857]}},{"properties":{"rep? (1 for yes, 0 for no)":1,"city":"Redlands","column_5":null,"zip":"92373","geo_score":0.857,"street address":"35 Cajon Street","id":"a64rvk5un4jg","geo_precision":"range"},"type":"Feature","geometry":{"type":"Point","coordinates":[-117.182562,34.05522]}},{"properties":{"rep? (1 for yes, 0 for no)":1,"city":"Rialto","column_5":null,"zip":"92376","geo_score":0.471,"street address":"128 N. Willow Ave","id":"a64rvk5u39t9","geo_precision":"street"},"type":"Feature","geometry":{"type":"Point","coordinates":[-117.37474,34.10058]}},{"properties":{"rep? (1 for yes, 0 for no)":1,"city":"San Bernardino","column_5":null,"zip":"92418","geo_score":0.429,"street address":"300 North \"D\" Street","id":"a64rvk6jrj5l","geo_precision":"street"},"type":"Feature","geometry":{"type":"Point","coordinates":[-117.181807,34.247977]}},{"properties":{"rep? (1 for yes, 0 for no)":1,"city":"Twentynine Palms","column_5":null,"zip":"92277","geo_score":0.902,"street address":"6136 Adobe Rd","id":"a64rvkla6gh9","geo_precision":"range"},"type":"Feature","geometry":{"type":"Point","coordinates":[-116.054275,34.142481]}},{"properties":{"rep? (1 for yes, 0 for no)":1,"city":"Upland","column_5":null,"zip":"91786","geo_score":0.345,"street address":"460 N. Euclid Avenue","id":"a64rvk8nbsok","geo_precision":"street"},"type":"Feature","geometry":{"type":"Point","coordinates":[-117.651141,34.094746]}},{"properties":{"rep? (1 for yes, 0 for no)":1,"city":"Victorville","column_5":null,"zip":"92393","geo_score":0.683,"street address":"14343 Civic Drive","id":"a64rvkjjyv5n","geo_precision":"range"},"type":"Feature","geometry":{"type":"Point","coordinates":[-117.323627,34.510457]}},{"properties":{"rep? (1 for yes, 0 for no)":1,"city":"Yucaipa","column_5":null,"zip":"92399","geo_score":0.805,"street address":"34272 Yucaipa Boulevard","id":"a64rvk5uf0wb","geo_precision":"range"},"type":"Feature","geometry":{"type":"Point","coordinates":[-117.056846,34.033891]}},{"properties":{"rep? (1 for yes, 0 for no)":0,"city":"Yucca Valley","column_5":null,"zip":"92284","geo_score":0.512,"street address":"57090 Twentynine Palms Highway","id":"a64rvkhj0cko","geo_precision":"street"},"type":"Feature","geometry":{"type":"Point","coordinates":[-116.391996,34.130241]}}],"is_temporal":false,"author":{"url":"","metadata":"","contact_name":"","contact_address":"","source":"","contact_phone":""},"source":"","pagination":{"sort":null,"start":0,"total":51,"limit":1000000},"state":"complete","tags":"","published":"2014-08-14T17:37:51-04:00","id":222183}