{"type":"FeatureCollection","data_type":"Dataset","url_type":null,"permissions":[{"permissions":{"download":true,"view":true},"group_id":"everyone"}],"classification":null,"title":"W&amp;S Americas Coverage","count":42,"stream_id":22216,"contributor":{"url":"http://geocommons.com/users/10808","name":"sommelier"},"data_attributes":null,"calculation_params":null,"icon_link":null,"link":"http://geocommons.com/overlays/22216.json","extent":[-141.001,-55.7206,-12.1553,83.623],"geometry_types":[],"unique_name":null,"name":"W&S Americas Coverage","feature_count":42,"description":"","next_feature":null,"is_raster":false,"short_classification":"Y","stats":{"GMI_CNTRY":{"max":35,"mean":0.880952380952381,"variance":29.1806039488967,"stdev":5.40190743616518,"min":0,"median":0}},"features":[{"properties":{"NAME":"Antigua and Barbuda","id":"a69nkno8ihqb","REGION":"Caribbean","GMI_CNTRY":0},"type":"Feature","geometry":null},{"properties":{"NAME":"Argentina","id":"a69nkns183wa","REGION":"Latin America","GMI_CNTRY":0},"type":"Feature","geometry":null},{"properties":{"NAME":"Bahamas, The","id":"a69nko4azn3n","REGION":"Caribbean","GMI_CNTRY":0},"type":"Feature","geometry":null},{"properties":{"NAME":"Barbados","id":"a69nknr16j9e","REGION":"Caribbean","GMI_CNTRY":0},"type":"Feature","geometry":null},{"properties":{"NAME":"Belize","id":"a69nknqbflhw","REGION":"Latin America","GMI_CNTRY":0},"type":"Feature","geometry":null},{"properties":{"NAME":"Bermuda","id":"a69nko2ytseb","REGION":"North America","GMI_CNTRY":0},"type":"Feature","geometry":null},{"properties":{"NAME":"Bolivia","id":"a69nko2con44","REGION":"Latin America","GMI_CNTRY":0},"type":"Feature","geometry":null},{"properties":{"NAME":"Brazil","id":"a69nknox60fo","REGION":"Latin America","GMI_CNTRY":0},"type":"Feature","geometry":null},{"properties":{"NAME":"Canada","id":"a69nknwym8ok","REGION":"North America","GMI_CNTRY":0},"type":"Feature","geometry":null},{"properties":{"NAME":"Chile","id":"a69nknz5kswe","REGION":"Latin America","GMI_CNTRY":2},"type":"Feature","geometry":null},{"properties":{"NAME":"Colombia","id":"a69nko0ii5w8","REGION":"Latin America","GMI_CNTRY":0},"type":"Feature","geometry":null},{"properties":{"NAME":"Costa Rica","id":"a69nknqf4lns","REGION":"Latin America","GMI_CNTRY":0},"type":"Feature","geometry":null},{"properties":{"NAME":"Cuba","id":"a69nknzs4xjr","REGION":"Caribbean","GMI_CNTRY":0},"type":"Feature","geometry":null},{"properties":{"NAME":"Dominica","id":"a69nknu3iqzn","REGION":"Caribbean","GMI_CNTRY":0},"type":"Feature","geometry":null},{"properties":{"NAME":"Dominican Republic","id":"a69nknpoqept","REGION":"Caribbean","GMI_CNTRY":0},"type":"Feature","geometry":null},{"properties":{"NAME":"Ecuador","id":"a69nko27hstn","REGION":"Latin America","GMI_CNTRY":0},"type":"Feature","geometry":null},{"properties":{"NAME":"El Salvador","id":"a69nknv0rqyi","REGION":"Latin America","GMI_CNTRY":0},"type":"Feature","geometry":null},{"properties":{"NAME":"Falkland Islands (Islas Malvinas)","id":"a69nknojyzrb","REGION":"Latin America","GMI_CNTRY":0},"type":"Feature","geometry":null},{"properties":{"NAME":"French Guiana","id":"a69nknrh8ki0","REGION":"Latin America","GMI_CNTRY":0},"type":"Feature","geometry":null},{"properties":{"NAME":"Greenland","id":"a69nknzwks2f","REGION":"North America","GMI_CNTRY":35},"type":"Feature","geometry":null},{"properties":{"NAME":"Grenada","id":"a69nknv6t2y5","REGION":"Caribbean","GMI_CNTRY":0},"type":"Feature","geometry":null},{"properties":{"NAME":"Guadeloupe","id":"a69nknvsyfo9","REGION":"Caribbean","GMI_CNTRY":0},"type":"Feature","geometry":null},{"properties":{"NAME":"Guatemala","id":"a69nknw3jd9f","REGION":"Latin America","GMI_CNTRY":0},"type":"Feature","geometry":null},{"properties":{"NAME":"Guyana","id":"a69nko33x4gr","REGION":"Latin America","GMI_CNTRY":0},"type":"Feature","geometry":null},{"properties":{"NAME":"Haiti","id":"a69nknrsu4sq","REGION":"Caribbean","GMI_CNTRY":0},"type":"Feature","geometry":null},{"properties":{"NAME":"Honduras","id":"a69nknsvze40","REGION":"Latin America","GMI_CNTRY":0},"type":"Feature","geometry":null},{"properties":{"NAME":"Jamaica","id":"a69nknt8q8j6","REGION":"Caribbean","GMI_CNTRY":0},"type":"Feature","geometry":null},{"properties":{"NAME":"Martinique","id":"a69nko0a3rjr","REGION":"Caribbean","GMI_CNTRY":0},"type":"Feature","geometry":null},{"properties":{"NAME":"Mexico","id":"a69nknzyol4x","REGION":"Latin America","GMI_CNTRY":0},"type":"Feature","geometry":null},{"properties":{"NAME":"Nicaragua","id":"a69nko0zhv65","REGION":"Latin America","GMI_CNTRY":0},"type":"Feature","geometry":null},{"properties":{"NAME":"Panama","id":"a69nko0y283w","REGION":"Latin America","GMI_CNTRY":0},"type":"Feature","geometry":null},{"properties":{"NAME":"Paraguay","id":"a69nko3dh7ym","REGION":"Latin America","GMI_CNTRY":0},"type":"Feature","geometry":null},{"properties":{"NAME":"Peru","id":"a69nko1v27k8","REGION":"Latin America","GMI_CNTRY":0},"type":"Feature","geometry":null},{"properties":{"NAME":"Puerto Rico","id":"a69nknxvhgw3","REGION":"Caribbean","GMI_CNTRY":0},"type":"Feature","geometry":null},{"properties":{"NAME":"St. Christopher-Nevis","id":"a69nko0kxxkb","REGION":"Caribbean","GMI_CNTRY":0},"type":"Feature","geometry":null},{"properties":{"NAME":"St. Lucia","id":"a69nknp5hyj5","REGION":"Caribbean","GMI_CNTRY":0},"type":"Feature","geometry":null},{"properties":{"NAME":"St. Vincent and the Grenadines","id":"a69nknpx18d0","REGION":"Caribbean","GMI_CNTRY":0},"type":"Feature","geometry":null},{"properties":{"NAME":"Suriname","id":"a69nkno42cn6","REGION":"Latin America","GMI_CNTRY":0},"type":"Feature","geometry":null},{"properties":{"NAME":"Trinidad and Tobago","id":"a69nknwev5qf","REGION":"Caribbean","GMI_CNTRY":0},"type":"Feature","geometry":null},{"properties":{"NAME":"Turks and Caicos Islands","id":"a69nknqy1vk5","REGION":"Caribbean","GMI_CNTRY":0},"type":"Feature","geometry":null},{"properties":{"NAME":"Uruguay","id":"a69nknv35773","REGION":"Latin America","GMI_CNTRY":0},"type":"Feature","geometry":null},{"properties":{"NAME":"Venezuela","id":"a69nknwcknwa","REGION":"Latin America","GMI_CNTRY":0},"type":"Feature","geometry":null}],"is_temporal":false,"author":{"url":"","metadata":"","contact_name":"","contact_address":"","source":"","contact_phone":""},"source":"","pagination":{"sort":null,"start":0,"total":42,"limit":1000000},"state":"complete","tags":"","published":"2014-08-10T14:24:55-04:00","id":22216}