{"type":"FeatureCollection","data_type":"Dataset","url_type":null,"permissions":[{"permissions":{"download":true,"view":true},"group_id":"everyone"}],"classification":null,"title":"Murder_2010","count":42,"stream_id":222982,"contributor":{"url":"http://geocommons.com/users/42302","name":"hillproject"},"data_attributes":null,"calculation_params":null,"icon_link":null,"link":"http://geocommons.com/overlays/222982.json","extent":[-83.2085,41.104,-83.1595,41.1351],"geometry_types":["point"],"unique_name":null,"name":"Murder_2010","feature_count":42,"description":"","next_feature":null,"is_raster":false,"short_classification":"Y","stats":{"date":{"max":"2010/12/19 18:06:46 -0500","mean":"2010/06/29 20:42:43 -0400","variance":82723337502525.3,"stdev":9095237.07786253,"min":"2010/01/14 18:14:52 -0500","median":"2010/07/07 03:09:24 -0400"},"unit":{"max":1028,"mean":124.214285714286,"variance":55407.7822299652,"stdev":235.388577101705,"min":57,"median":60},"disposition":{"max":500,"mean":214.285714285714,"variance":7108.01393728223,"stdev":84.3090382893923,"min":100,"median":200},"cfs":{"max":1,"mean":1.0,"variance":0.0,"stdev":0.0,"min":1,"median":1},"call#":{"max":10.011516,"mean":10.0058445238095,"variance":1.25398715725895e-05,"stdev":0.00354116810849041,"min":10.000327,"median":10.006137}},"features":[{"properties":{"officer":"REB","city":"Tiffin","date":{"end_time":"2010/04/10 15:44:13 -0400","original":"4/10/2010 3:44:12 PM","granularity":"sec","time":"2010/04/10 15:44:12 -0400"},"geo_score":0.902,"unit":63,"disposition":200,"zip code":"44883","cfs":1,"call#":10.003075,"id":"a6x7nb7ckh6h","geo_precision":"range","address":"115 N Sandusky St","state":"OH","juris":"PD"},"type":"Feature","geometry":{"type":"Point","coordinates":[-83.180664,41.12279]}},{"properties":{"officer":"JPF","city":"Tiffin","date":{"end_time":"2010/09/16 20:39:00 -0400","original":"9/16/2010 8:38:00 PM","granularity":"min","time":"2010/09/16 20:38:00 -0400"},"geo_score":0.873,"unit":59,"disposition":400,"zip code":"44883","cfs":1,"call#":10.008557,"id":"a6x7nb564q5e","geo_precision":"range","address":"127 Cottage Av","state":"OH","juris":"PD"},"type":"Feature","geometry":{"type":"Point","coordinates":[-83.195545,41.108915]}},{"properties":{"officer":"MAM","city":"Tiffin","date":{"end_time":"2010/02/20 23:31:19 -0500","original":"2/20/2010 11:31:18 PM","granularity":"sec","time":"2010/02/20 23:31:18 -0500"},"geo_score":0.87,"unit":58,"disposition":500,"zip code":"44883","cfs":1,"call#":10.001531,"id":"a6x7nb5vdity","geo_precision":"range","address":"129 Greeley St","state":"OH","juris":"PD"},"type":"Feature","geometry":{"type":"Point","coordinates":[-83.159463,41.116893]}},{"properties":{"officer":"SMM","city":"Tiffin","date":{"end_time":"2010/07/07 03:09:25 -0400","original":"7/7/2010 3:09:24 AM","granularity":"sec","time":"2010/07/07 03:09:24 -0400"},"geo_score":0.902,"unit":58,"disposition":200,"zip code":"44883","cfs":1,"call#":10.006137,"id":"a6x7nb5ady6x","geo_precision":"range","address":"144 W Market St","state":"OH","juris":"PD"},"type":"Feature","geometry":{"type":"Point","coordinates":[-83.18517,41.113752]}},{"properties":{"officer":"MEM","city":"Tiffin","date":{"end_time":"2010/06/12 00:39:09 -0400","original":"6/12/2010 12:39:08 AM","granularity":"sec","time":"2010/06/12 00:39:08 -0400"},"geo_score":0.902,"unit":63,"disposition":400,"zip code":"44883","cfs":1,"call#":10.005183,"id":"a6x7nb4ndipk","geo_precision":"range","address":"144 W Market St","state":"OH","juris":"PD"},"type":"Feature","geometry":{"type":"Point","coordinates":[-83.18517,41.113752]}},{"properties":{"officer":"JDW","city":"Tiffin","date":{"end_time":"2010/10/21 17:32:39 -0400","original":"10/21/2010 5:32:38 PM","granularity":"sec","time":"2010/10/21 17:32:38 -0400"},"geo_score":0.902,"unit":60,"disposition":200,"zip code":"44883","cfs":1,"call#":10.009735,"id":"a6x7nb5ve65f","geo_precision":"range","address":"156 Clay St","state":"OH","juris":"PD"},"type":"Feature","geometry":{"type":"Point","coordinates":[-83.185197,41.117587]}},{"properties":{"officer":"LMK","city":"Tiffin","date":{"end_time":"2010/08/16 20:45:12 -0400","original":"8/16/2010 8:45:11 PM","granularity":"sec","time":"2010/08/16 20:45:11 -0400"},"geo_score":0.902,"unit":58,"disposition":200,"zip code":"44883","cfs":1,"call#":10.007492,"id":"a6x7nb6wrlo6","geo_precision":"range","address":"157 Circular St","state":"OH","juris":"PD"},"type":"Feature","geometry":{"type":"Point","coordinates":[-83.169281,41.111148]}},{"properties":{"officer":"MAM","city":"Tiffin","date":{"end_time":"2010/06/17 17:34:32 -0400","original":"6/17/2010 5:34:31 PM","granularity":"sec","time":"2010/06/17 17:34:31 -0400"},"geo_score":0.429,"unit":58,"disposition":100,"zip code":"44883","cfs":1,"call#":10.005386,"id":"a6x7nb7hcu2z","geo_precision":"street","address":"1740 W Market St,F","state":"OH","juris":"PD"},"type":"Feature","geometry":{"type":"Point","coordinates":[-83.181592,41.114111]}},{"properties":{"officer":"BAR","city":"Tiffin","date":{"end_time":"2010/07/08 01:37:24 -0400","original":"7/8/2010 1:37:23 AM","granularity":"sec","time":"2010/07/08 01:37:23 -0400"},"geo_score":0.902,"unit":1028,"disposition":200,"zip code":"44883","cfs":1,"call#":10.006165,"id":"a6x7nbj51d4t","geo_precision":"range","address":"182 E Market St,318","state":"OH","juris":"PD"},"type":"Feature","geometry":{"type":"Point","coordinates":[-83.168399,41.116847]}},{"properties":{"officer":"AMR","city":"Tiffin","date":{"end_time":"2010/03/07 19:07:58 -0500","original":"3/7/2010 7:07:57 PM","granularity":"sec","time":"2010/03/07 19:07:57 -0500"},"geo_score":0.902,"unit":63,"disposition":200,"zip code":"44883","cfs":1,"call#":10.002002,"id":"a6x7nb96rd5i","geo_precision":"range","address":"182 S Monroe St","state":"OH","juris":"PD"},"type":"Feature","geometry":{"type":"Point","coordinates":[-83.177627,41.110991]}},{"properties":{"officer":"BRB","city":"Tiffin","date":{"end_time":"2010/06/15 16:08:54 -0400","original":"6/15/2010 4:08:53 PM","granularity":"sec","time":"2010/06/15 16:08:53 -0400"},"geo_score":0.902,"unit":61,"disposition":200,"zip code":"44883","cfs":1,"call#":10.005316,"id":"a6x7nbaepxvz","geo_precision":"range","address":"184 E Market St,121","state":"OH","juris":"PD"},"type":"Feature","geometry":{"type":"Point","coordinates":[-83.175696,41.114691]}},{"properties":{"officer":"JPF","city":"Tiffin","date":{"end_time":"2010/03/04 19:32:04 -0500","original":"3/4/2010 7:32:03 PM","granularity":"sec","time":"2010/03/04 19:32:03 -0500"},"geo_score":0.902,"unit":61,"disposition":100,"zip code":"44883","cfs":1,"call#":10.001905,"id":"a6x7nb8e6g1j","geo_precision":"range","address":"184 E Market St,121","state":"OH","juris":"PD"},"type":"Feature","geometry":{"type":"Point","coordinates":[-83.175696,41.114691]}},{"properties":{"officer":"BAR","city":"Tiffin","date":{"end_time":"2010/09/20 14:57:00 -0400","original":"9/20/2010 2:56:00 PM","granularity":"min","time":"2010/09/20 14:56:00 -0400"},"geo_score":0.902,"unit":58,"disposition":200,"zip code":"44883","cfs":1,"call#":10.008707,"id":"a6x7nb97rtwz","geo_precision":"range","address":"195 Front St","state":"OH","juris":"PD"},"type":"Feature","geometry":{"type":"Point","coordinates":[-83.18375,41.111396]}},{"properties":{"officer":"LMK","city":"Tiffin","date":{"end_time":"2010/07/13 22:06:04 -0400","original":"7/13/2010 10:06:03 PM","granularity":"sec","time":"2010/07/13 22:06:03 -0400"},"geo_score":0.902,"unit":58,"disposition":200,"zip code":"44883","cfs":1,"call#":10.006357,"id":"a6x7nbkwwpex","geo_precision":"range","address":"201 Jefferson St","state":"OH","juris":"PD"},"type":"Feature","geometry":{"type":"Point","coordinates":[-83.174543,41.111899]}},{"properties":{"officer":"AMR","city":"Tiffin","date":{"end_time":"2010/07/25 23:34:25 -0400","original":"7/25/2010 11:34:24 PM","granularity":"sec","time":"2010/07/25 23:34:24 -0400"},"geo_score":0.902,"unit":63,"disposition":200,"zip code":"44883","cfs":1,"call#":10.006756,"id":"a6x7nbeh44vd","geo_precision":"range","address":"203 Douglas St","state":"OH","juris":"PD"},"type":"Feature","geometry":{"type":"Point","coordinates":[-83.169667,41.12793]}},{"properties":{"officer":"BRB","city":"Tiffin","date":{"end_time":"2010/07/06 11:15:23 -0400","original":"7/6/2010 11:15:22 AM","granularity":"sec","time":"2010/07/06 11:15:22 -0400"},"geo_score":0.902,"unit":61,"disposition":200,"zip code":"44883","cfs":1,"call#":10.006107,"id":"a6x7nb8t7dtk","geo_precision":"range","address":"206 Ella St","state":"OH","juris":"PD"},"type":"Feature","geometry":{"type":"Point","coordinates":[-83.187737,41.103968]}},{"properties":{"officer":"LMK","city":"Tiffin","date":{"end_time":"2010/02/24 17:56:28 -0500","original":"2/24/2010 5:56:27 PM","granularity":"sec","time":"2010/02/24 17:56:27 -0500"},"geo_score":0.902,"unit":62,"disposition":200,"zip code":"44883","cfs":1,"call#":10.001651,"id":"a6x7nbe9r7rj","geo_precision":"range","address":"215 Jefferson St","state":"OH","juris":"PD"},"type":"Feature","geometry":{"type":"Point","coordinates":[-83.17443,41.111466]}},{"properties":{"officer":"LMK","city":"Tiffin","date":{"end_time":"2010/11/09 22:48:32 -0500","original":"11/9/2010 10:48:31 PM","granularity":"sec","time":"2010/11/09 22:48:31 -0500"},"geo_score":0.902,"unit":60,"disposition":200,"zip code":"44883","cfs":1,"call#":10.010368,"id":"a6x7nbcyuipm","geo_precision":"range","address":"23 Miami St","state":"OH","juris":"PD"},"type":"Feature","geometry":{"type":"Point","coordinates":[-83.180072,41.117044]}},{"properties":{"officer":"LMK","city":"Tiffin","date":{"end_time":"2010/02/09 17:10:40 -0500","original":"2/9/2010 5:10:39 PM","granularity":"sec","time":"2010/02/09 17:10:39 -0500"},"geo_score":0.902,"unit":850,"disposition":200,"zip code":"44883","cfs":1,"call#":10.001116,"id":"a6x7nbkrt3ik","geo_precision":"range","address":"248 N Washington St","state":"OH","juris":"PD"},"type":"Feature","geometry":{"type":"Point","coordinates":[-83.178152,41.124708]}},{"properties":{"officer":"JMW","city":"Tiffin","date":{"end_time":"2010/05/18 21:43:52 -0400","original":"5/18/2010 9:43:51 PM","granularity":"sec","time":"2010/05/18 21:43:51 -0400"},"geo_score":0.902,"unit":57,"disposition":200,"zip code":"44883","cfs":1,"call#":10.004378,"id":"a6x7nbj6qe6q","geo_precision":"range","address":"25 St Clair St","state":"OH","juris":"PD"},"type":"Feature","geometry":{"type":"Point","coordinates":[-83.18157,41.113939]}},{"properties":{"officer":"SGN","city":"Tiffin","date":{"end_time":"2010/05/15 15:47:56 -0400","original":"5/15/2010 3:47:55 PM","granularity":"sec","time":"2010/05/15 15:47:55 -0400"},"geo_score":0.902,"unit":59,"disposition":200,"zip code":"44883","cfs":1,"call#":10.004255,"id":"a6x7nbj4cmad","geo_precision":"range","address":"253 S Monroe St","state":"OH","juris":"PD"},"type":"Feature","geometry":{"type":"Point","coordinates":[-83.177438,41.109558]}},{"properties":{"officer":"GTM","city":"Tiffin","date":{"end_time":"2010/12/01 00:16:40 -0500","original":"12/1/2010 12:16:39 AM","granularity":"sec","time":"2010/12/01 00:16:39 -0500"},"geo_score":0.902,"unit":62,"disposition":200,"zip code":"44883","cfs":1,"call#":10.011,"id":"a6x7nb8n8qht","geo_precision":"range","address":"255 E Perry St,1","state":"OH","juris":"PD"},"type":"Feature","geometry":{"type":"Point","coordinates":[-83.179278,41.115595]}},{"properties":{"officer":"LMK","city":"Tiffin","date":{"end_time":"2010/10/28 17:12:41 -0400","original":"10/28/2010 5:12:40 PM","granularity":"sec","time":"2010/10/28 17:12:40 -0400"},"geo_score":0.902,"unit":58,"disposition":200,"zip code":"44883","cfs":1,"call#":10.009973,"id":"a6x7nbi12w7j","geo_precision":"range","address":"306 Water St","state":"OH","juris":"PD"},"type":"Feature","geometry":{"type":"Point","coordinates":[-83.174239,41.120946]}},{"properties":{"officer":"DGH","city":"Tiffin","date":{"end_time":"2010/03/10 09:52:23 -0500","original":"3/10/2010 9:52:22 AM","granularity":"sec","time":"2010/03/10 09:52:22 -0500"},"geo_score":0.902,"unit":63,"disposition":200,"zip code":"44883","cfs":1,"call#":10.002067,"id":"a6x7nbib4qoi","geo_precision":"range","address":"325 Water St","state":"OH","juris":"PD"},"type":"Feature","geometry":{"type":"Point","coordinates":[-83.173987,41.121654]}},{"properties":{"officer":"RLT","city":"Tiffin","date":{"end_time":"2010/04/04 21:43:16 -0400","original":"4/4/2010 9:43:15 PM","granularity":"sec","time":"2010/04/04 21:43:15 -0400"},"geo_score":0.902,"unit":1000,"disposition":200,"zip code":"44883","cfs":1,"call#":10.002896,"id":"a6x7nbe81596","geo_precision":"range","address":"337 Wall St","state":"OH","juris":"PD"},"type":"Feature","geometry":{"type":"Point","coordinates":[-83.186776,41.124216]}},{"properties":{"officer":"EDA","city":"Tiffin","date":{"end_time":"2010/07/10 23:39:44 -0400","original":"7/10/2010 11:39:43 PM","granularity":"sec","time":"2010/07/10 23:39:43 -0400"},"geo_score":0.902,"unit":60,"disposition":200,"zip code":"44883","cfs":1,"call#":10.006277,"id":"a6x7nbceoszp","geo_precision":"range","address":"36 Melmore St","state":"OH","juris":"PD"},"type":"Feature","geometry":{"type":"Point","coordinates":[-83.174865,41.108574]}},{"properties":{"officer":"JPF","city":"Tiffin","date":{"end_time":"2010/12/17 18:09:09 -0500","original":"12/17/2010 6:09:08 PM","granularity":"sec","time":"2010/12/17 18:09:08 -0500"},"geo_score":0.902,"unit":59,"disposition":200,"zip code":"44883","cfs":1,"call#":10.011459,"id":"a6x7nb70w2hn","geo_precision":"range","address":"366 Wentz St","state":"OH","juris":"PD"},"type":"Feature","geometry":{"type":"Point","coordinates":[-83.198801,41.11361]}},{"properties":{"officer":"SMM","city":"Tiffin","date":{"end_time":"2010/02/26 05:25:44 -0500","original":"2/26/2010 5:25:43 AM","granularity":"sec","time":"2010/02/26 05:25:43 -0500"},"geo_score":0.902,"unit":58,"disposition":200,"zip code":"44883","cfs":1,"call#":10.001695,"id":"a6x7nbe6i8ij","geo_precision":"range","address":"366 Wentz St","state":"OH","juris":"PD"},"type":"Feature","geometry":{"type":"Point","coordinates":[-83.198801,41.11361]}},{"properties":{"officer":"JMW","city":"Tiffin","date":{"end_time":"2010/10/09 21:37:39 -0400","original":"10/9/2010 9:37:38 PM","granularity":"sec","time":"2010/10/09 21:37:38 -0400"},"geo_score":0.902,"unit":57,"disposition":400,"zip code":"44883","cfs":1,"call#":10.009353,"id":"a6x7nbbsil6z","geo_precision":"range","address":"410 E Perry St","state":"OH","juris":"PD"},"type":"Feature","geometry":{"type":"Point","coordinates":[-83.164506,41.117788]}},{"properties":{"officer":"PJD","city":"Tiffin","date":{"end_time":"2010/04/14 22:24:13 -0400","original":"4/14/2010 10:24:12 PM","granularity":"sec","time":"2010/04/14 22:24:12 -0400"},"geo_score":0.902,"unit":60,"disposition":100,"zip code":"44883","cfs":1,"call#":10.003223,"id":"a6x7nbk4cuhe","geo_precision":"range","address":"42 Jefferson St,3","state":"OH","juris":"PD"},"type":"Feature","geometry":{"type":"Point","coordinates":[-83.175798,41.117537]}},{"properties":{"officer":"MEM","city":"Tiffin","date":{"end_time":"2010/08/15 05:42:52 -0400","original":"8/15/2010 5:42:51 AM","granularity":"sec","time":"2010/08/15 05:42:51 -0400"},"geo_score":0.873,"unit":63,"disposition":200,"zip code":"44883","cfs":1,"call#":10.007447,"id":"a6x7nbi2cycf","geo_precision":"range","address":"47 Cottage Av","state":"OH","juris":"PD"},"type":"Feature","geometry":{"type":"Point","coordinates":[-83.193203,41.107204]}},{"properties":{"officer":"JMW","city":"Tiffin","date":{"end_time":"2010/07/26 01:49:27 -0400","original":"7/26/2010 1:49:26 AM","granularity":"sec","time":"2010/07/26 01:49:26 -0400"},"geo_score":0.902,"unit":57,"disposition":200,"zip code":"44883","cfs":1,"call#":10.00676,"id":"a6x7nbbkaptl","geo_precision":"range","address":"481 S Washington St","state":"OH","juris":"PD"},"type":"Feature","geometry":{"type":"Point","coordinates":[-83.17495,41.104318]}},{"properties":{"officer":"JPF","city":"Tiffin","date":{"end_time":"2010/12/03 23:58:19 -0500","original":"12/3/2010 11:58:18 PM","granularity":"sec","time":"2010/12/03 23:58:18 -0500"},"geo_score":0.429,"unit":59,"disposition":200,"zip code":"44883","cfs":1,"call#":10.011101,"id":"a6x7nb5co7ec","geo_precision":"street","address":"580 S Sandusky St,F","state":"OH","juris":"PD"},"type":"Feature","geometry":{"type":"Point","coordinates":[-83.183613,41.118373]}},{"properties":{"officer":"AMR","city":"Tiffin","date":{"end_time":"2010/11/14 17:11:09 -0500","original":"11/14/2010 5:11:08 PM","granularity":"sec","time":"2010/11/14 17:11:08 -0500"},"geo_score":0.902,"unit":63,"disposition":400,"zip code":"44883","cfs":1,"call#":10.010514,"id":"a6x7nbk6xmu5","geo_precision":"range","address":"65 Noble St","state":"OH","juris":"PD"},"type":"Feature","geometry":{"type":"Point","coordinates":[-83.175208,41.122665]}},{"properties":{"officer":"GTM","city":"Tiffin","date":{"end_time":"2010/05/07 03:00:11 -0400","original":"5/7/2010 3:00:10 AM","granularity":"sec","time":"2010/05/07 03:00:10 -0400"},"geo_score":0.902,"unit":58,"disposition":200,"zip code":"44883","cfs":1,"call#":10.004006,"id":"a6x7nb4rqy81","geo_precision":"range","address":"652 N Sandusky St,13","state":"OH","juris":"PD"},"type":"Feature","geometry":{"type":"Point","coordinates":[-83.18221,41.120491]}},{"properties":{"officer":"MEM","city":"Tiffin","date":{"end_time":"2010/01/27 22:25:52 -0500","original":"1/27/2010 10:25:51 PM","granularity":"sec","time":"2010/01/27 22:25:51 -0500"},"geo_score":0.902,"unit":63,"disposition":100,"zip code":"44883","cfs":1,"call#":10.000704,"id":"a6x7nbe3hwp4","geo_precision":"range","address":"652 N Sandusky St,13","state":"OH","juris":"PD"},"type":"Feature","geometry":{"type":"Point","coordinates":[-83.18221,41.120491]}},{"properties":{"officer":"JPF","city":"Tiffin","date":{"end_time":"2010/02/23 19:07:00 -0500","original":"2/23/2010 7:06:59 PM","granularity":"sec","time":"2010/02/23 19:06:59 -0500"},"geo_score":0.712,"unit":58,"disposition":100,"zip code":"44883","cfs":1,"call#":10.001627,"id":"a6x7nbcayqqx","geo_precision":"street","address":"7 Beechwood Dr,305","state":"OH","juris":"PD"},"type":"Feature","geometry":{"type":"Point","coordinates":[-83.208547,41.11647]}},{"properties":{"officer":"RLT","city":"Tiffin","date":{"end_time":"2010/02/14 04:52:54 -0500","original":"2/14/2010 4:52:53 AM","granularity":"sec","time":"2010/02/14 04:52:53 -0500"},"geo_score":0.902,"unit":59,"disposition":200,"zip code":"44883","cfs":1,"call#":10.001283,"id":"a6x7nb70gflr","geo_precision":"range","address":"72 N Monroe St,16","state":"OH","juris":"PD"},"type":"Feature","geometry":{"type":"Point","coordinates":[-83.178741,41.118086]}},{"properties":{"officer":"SGN","city":"Tiffin","date":{"end_time":"2010/09/22 12:16:00 -0400","original":"9/22/2010 12:15:00 PM","granularity":"min","time":"2010/09/22 12:15:00 -0400"},"geo_score":0.902,"unit":58,"disposition":200,"zip code":"44883","cfs":1,"call#":10.008766,"id":"a6x7nbkn860v","geo_precision":"range","address":"75 Valleyview Pl","state":"OH","juris":"PD"},"type":"Feature","geometry":{"type":"Point","coordinates":[-83.160761,41.104502]}},{"properties":{"officer":"MEM","city":"Tiffin","date":{"end_time":"2010/12/11 05:29:24 -0500","original":"12/11/2010 5:29:23 AM","granularity":"sec","time":"2010/12/11 05:29:23 -0500"},"geo_score":0.902,"unit":58,"disposition":200,"zip code":"44883","cfs":1,"call#":10.011297,"id":"a6x7nb5lx8ez","geo_precision":"range","address":"77 Douglas St","state":"OH","juris":"PD"},"type":"Feature","geometry":{"type":"Point","coordinates":[-83.173754,41.127695]}},{"properties":{"officer":"JSC","city":"Tiffin","date":{"end_time":"2010/01/14 18:14:53 -0500","original":"1/14/2010 6:14:52 PM","granularity":"sec","time":"2010/01/14 18:14:52 -0500"},"geo_score":0.902,"unit":63,"disposition":200,"zip code":"44883","cfs":1,"call#":10.000327,"id":"a6x7nb99xqb0","geo_precision":"range","address":"843 N Water St","state":"OH","juris":"PD"},"type":"Feature","geometry":{"type":"Point","coordinates":[-83.164021,41.135128]}},{"properties":{"officer":"AMR","city":"Tiffin","date":{"end_time":"2010/12/19 18:06:47 -0500","original":"12/19/2010 6:06:46 PM","granularity":"sec","time":"2010/12/19 18:06:46 -0500"},"geo_score":0.902,"unit":63,"disposition":200,"zip code":"44883","cfs":1,"call#":10.011516,"id":"a6x7nbfkc21m","geo_precision":"range","address":"859 Miami St,24","state":"OH","juris":"PD"},"type":"Feature","geometry":{"type":"Point","coordinates":[-83.180098,41.117058]}}],"is_temporal":true,"author":{"url":"","metadata":null,"contact_name":null,"contact_address":null,"source":null,"contact_phone":null},"source":"","pagination":{"sort":null,"start":0,"total":42,"limit":1000000},"state":"complete","tags":"","published":"2014-08-14T18:50:47-04:00","id":222982}