{"type":"FeatureCollection","data_type":"Dataset","url_type":null,"permissions":[{"permissions":{"download":true,"view":true},"group_id":"everyone"}],"classification":null,"title":"Murder_2011","count":46,"stream_id":222983,"contributor":{"url":"http://geocommons.com/users/42302","name":"hillproject"},"data_attributes":null,"calculation_params":null,"icon_link":null,"link":"http://geocommons.com/overlays/222983.json","extent":[-83.2197,41.0989,-82.7187,41.4553],"geometry_types":["point"],"unique_name":null,"name":"Murder_2011","feature_count":46,"description":"","next_feature":null,"is_raster":false,"short_classification":"Y","stats":{"date":{"max":"2011/12/31 10:05:28 -0500","mean":"2011/08/13 04:45:34 -0400","variance":82247361467685.8,"stdev":9069033.10544657,"min":"2011/01/05 18:23:21 -0500","median":"2011/08/20 17:11:44 -0400"},"unit":{"max":63,"mean":59.6739130434783,"variance":3.95797101449276,"stdev":1.98946500710436,"min":56,"median":60},"disposition":{"max":400,"mean":208.695652173913,"variance":4367.14975845411,"stdev":66.0844138844713,"min":100,"median":200},"cfs":{"max":1,"mean":1.0,"variance":0.0,"stdev":0.0,"min":1,"median":1},"call#":{"max":11.013748,"mean":11.0082895217391,"variance":1.66449288772945e-05,"stdev":0.00407981971137139,"min":11.000138,"median":11.008499}},"features":[{"properties":{"officer":"RJO","city":"Tiffin","date":{"end_time":"2011/07/10 14:02:36 -0400","original":"7/10/2011 2:02:35 PM","granularity":"sec","time":"2011/07/10 14:02:35 -0400"},"geo_score":0.902,"unit":60,"disposition":200,"zip code":"44883","cfs":1,"call#":11.006904,"id":"a6x7nei442q9","geo_precision":"range","address":"100 Douglas St","state":"OH","juris":"PD"},"type":"Feature","geometry":{"type":"Point","coordinates":[-83.173299,41.127714]}},{"properties":{"officer":"REB","city":"Tiffin","date":{"end_time":"2011/10/07 14:13:17 -0400","original":"10/7/2011 2:13:16 PM","granularity":"sec","time":"2011/10/07 14:13:16 -0400"},"geo_score":0.902,"unit":62,"disposition":100,"zip code":"44883","cfs":1,"call#":11.010442,"id":"a6x7neqznmcf","geo_precision":"range","address":"105 Indian Ln","state":"OH","juris":"PD"},"type":"Feature","geometry":{"type":"Point","coordinates":[-83.176857,41.100078]}},{"properties":{"officer":"MEM","city":"Tiffin","date":{"end_time":"2011/10/16 20:45:12 -0400","original":"10/16/2011 8:45:11 PM","granularity":"sec","time":"2011/10/16 20:45:11 -0400"},"geo_score":0.902,"unit":58,"disposition":200,"zip code":"44883","cfs":1,"call#":11.010836,"id":"a6x7nejp50cm","geo_precision":"range","address":"109 Frost Pkwy","state":"OH","juris":"PD"},"type":"Feature","geometry":{"type":"Point","coordinates":[-83.179322,41.11688]}},{"properties":{"officer":"BAR","city":"Tiffin","date":{"end_time":"2011/02/19 17:34:44 -0500","original":"2/19/2011 5:34:43 PM","granularity":"sec","time":"2011/02/19 17:34:43 -0500"},"geo_score":0.902,"unit":58,"disposition":400,"zip code":"44883","cfs":1,"call#":11.001635,"id":"a6x7nemv47xd","geo_precision":"range","address":"147 Madison St","state":"OH","juris":"PD"},"type":"Feature","geometry":{"type":"Point","coordinates":[-83.174677,41.113524]}},{"properties":{"officer":"BAR","city":"Tiffin","date":{"end_time":"2011/05/07 17:00:22 -0400","original":"5/7/2011 5:00:21 PM","granularity":"sec","time":"2011/05/07 17:00:21 -0400"},"geo_score":0.902,"unit":63,"disposition":200,"zip code":"44883","cfs":1,"call#":11.004408,"id":"a6x7negy5dg0","geo_precision":"range","address":"154 S Washington St,300","state":"OH","juris":"PD"},"type":"Feature","geometry":{"type":"Point","coordinates":[-83.175743,41.109463]}},{"properties":{"officer":"EDA","city":"Tiffin","date":{"end_time":"2011/08/20 17:11:45 -0400","original":"8/20/2011 5:11:44 PM","granularity":"sec","time":"2011/08/20 17:11:44 -0400"},"geo_score":0.902,"unit":60,"disposition":200,"zip code":"44883","cfs":1,"call#":11.008499,"id":"a6x7nefgebpk","geo_precision":"range","address":"166 Circular St","state":"OH","juris":"PD"},"type":"Feature","geometry":{"type":"Point","coordinates":[-83.169223,41.110946]}},{"properties":{"officer":"MMS","city":"Tiffin","date":{"end_time":"2011/12/03 21:24:38 -0500","original":"12/3/2011 9:24:37 PM","granularity":"sec","time":"2011/12/03 21:24:37 -0500"},"geo_score":0.902,"unit":61,"disposition":200,"zip code":"44883","cfs":1,"call#":11.012745,"id":"a6x7nehqeknm","geo_precision":"range","address":"166 Hall St","state":"OH","juris":"PD"},"type":"Feature","geometry":{"type":"Point","coordinates":[-83.183045,41.122875]}},{"properties":{"officer":"BAR","city":"Tiffin","date":{"end_time":"2011/05/05 20:56:49 -0400","original":"5/5/2011 8:56:48 PM","granularity":"sec","time":"2011/05/05 20:56:48 -0400"},"geo_score":0.707,"unit":63,"disposition":100,"zip code":"44883","cfs":1,"call#":11.004329,"id":"a6x7ned1kp11","geo_precision":"street","address":"1700 Duchess Ln","state":"OH","juris":"PD"},"type":"Feature","geometry":{"type":"Point","coordinates":[-83.191514,41.098863]}},{"properties":{"officer":"EDA","city":"Tiffin","date":{"end_time":"2011/07/31 23:31:25 -0400","original":"7/31/2011 11:31:24 PM","granularity":"sec","time":"2011/07/31 23:31:24 -0400"},"geo_score":0.756,"unit":58,"disposition":200,"zip code":"44883","cfs":1,"call#":11.007762,"id":"a6x7nerrgt50","geo_precision":"range","address":"175 Second Av","state":"OH","juris":"PD"},"type":"Feature","geometry":{"type":"Point","coordinates":[-83.182772,41.128746]}},{"properties":{"officer":"DES","city":"Tiffin","date":{"end_time":"2011/07/08 17:41:14 -0400","original":"7/8/2011 5:41:13 PM","granularity":"sec","time":"2011/07/08 17:41:13 -0400"},"geo_score":0.756,"unit":59,"disposition":200,"zip code":"44883","cfs":1,"call#":11.006826,"id":"a6x7necdirxf","geo_precision":"range","address":"175 Second Av","state":"OH","juris":"PD"},"type":"Feature","geometry":{"type":"Point","coordinates":[-83.182772,41.128746]}},{"properties":{"officer":"JAD","city":"Tiffin","date":{"end_time":"2011/06/18 21:26:40 -0400","original":"6/18/2011 9:26:39 PM","granularity":"sec","time":"2011/06/18 21:26:39 -0400"},"geo_score":0.902,"unit":56,"disposition":200,"zip code":"44883","cfs":1,"call#":11.006058,"id":"a6x7nedgecr7","geo_precision":"range","address":"186 E Market St,237","state":"OH","juris":"PD"},"type":"Feature","geometry":{"type":"Point","coordinates":[-83.17137,41.115126]}},{"properties":{"officer":"RLT","city":"Tiffin","date":{"end_time":"2011/05/20 22:17:36 -0400","original":"5/20/2011 10:17:35 PM","granularity":"sec","time":"2011/05/20 22:17:35 -0400"},"geo_score":0.902,"unit":62,"disposition":200,"zip code":"44883","cfs":1,"call#":11.004927,"id":"a6x7nedt857j","geo_precision":"range","address":"186 E Market St,238","state":"OH","juris":"PD"},"type":"Feature","geometry":{"type":"Point","coordinates":[-83.171343,41.115133]}},{"properties":{"officer":"RLT","city":"Tiffin","date":{"end_time":"2011/01/14 17:14:25 -0500","original":"1/14/2011 5:14:24 PM","granularity":"sec","time":"2011/01/14 17:14:24 -0500"},"geo_score":0.902,"unit":61,"disposition":200,"zip code":"44883","cfs":1,"call#":11.000374,"id":"a6x7neeycaer","geo_precision":"range","address":"186 Hall St","state":"OH","juris":"PD"},"type":"Feature","geometry":{"type":"Point","coordinates":[-83.18356,41.123144]}},{"properties":{"officer":"RLT","city":"Tiffin","date":{"end_time":"2011/02/12 22:11:44 -0500","original":"2/12/2011 10:11:43 PM","granularity":"sec","time":"2011/02/12 22:11:43 -0500"},"geo_score":0.902,"unit":61,"disposition":200,"zip code":"44883","cfs":1,"call#":11.001416,"id":"a6x7nejlf0kw","geo_precision":"range","address":"190 Circular St","state":"OH","juris":"PD"},"type":"Feature","geometry":{"type":"Point","coordinates":[-83.169154,41.110341]}},{"properties":{"officer":"MEM","city":"Tiffin","date":{"end_time":"2011/11/21 19:58:06 -0500","original":"11/21/2011 7:58:05 PM","granularity":"sec","time":"2011/11/21 19:58:05 -0500"},"geo_score":0.756,"unit":58,"disposition":200,"zip code":"44883","cfs":1,"call#":11.012242,"id":"a6x7neig2535","geo_precision":"range","address":"198 Second Av","state":"OH","juris":"PD"},"type":"Feature","geometry":{"type":"Point","coordinates":[-83.183384,41.128736]}},{"properties":{"officer":"SMM","city":"Tiffin","date":{"end_time":"2011/08/04 22:43:48 -0400","original":"8/4/2011 10:43:47 PM","granularity":"sec","time":"2011/08/04 22:43:47 -0400"},"geo_score":0.902,"unit":58,"disposition":200,"zip code":"44883","cfs":1,"call#":11.007889,"id":"a6x7nepgyrtu","geo_precision":"range","address":"204 E Market St,244","state":"OH","juris":"PD"},"type":"Feature","geometry":{"type":"Point","coordinates":[-83.1712,41.115168]}},{"properties":{"officer":"JMW","city":"Tiffin","date":{"end_time":"2011/04/15 16:51:49 -0400","original":"4/15/2011 4:51:48 PM","granularity":"sec","time":"2011/04/15 16:51:48 -0400"},"geo_score":0.902,"unit":57,"disposition":200,"zip code":"44883","cfs":1,"call#":11.0035,"id":"a6x7nehxflmj","geo_precision":"range","address":"23 Wentz St","state":"OH","juris":"PD"},"type":"Feature","geometry":{"type":"Point","coordinates":[-83.186774,41.117667]}},{"properties":{"officer":"MEM","city":"Tiffin","date":{"end_time":"2011/05/20 15:37:33 -0400","original":"5/20/2011 3:37:32 PM","granularity":"sec","time":"2011/05/20 15:37:32 -0400"},"geo_score":0.902,"unit":63,"disposition":200,"zip code":"44883","cfs":1,"call#":11.004909,"id":"a6x7neqviq43","geo_precision":"range","address":"245 Beechwood Dr","state":"OH","juris":"PD"},"type":"Feature","geometry":{"type":"Point","coordinates":[-83.208552,41.115636]}},{"properties":{"officer":"RJO","city":"Tiffin","date":{"end_time":"2011/12/10 13:36:03 -0500","original":"12/10/2011 1:36:02 PM","granularity":"sec","time":"2011/12/10 13:36:02 -0500"},"geo_score":0.902,"unit":60,"disposition":200,"zip code":"44883","cfs":1,"call#":11.012987,"id":"a6x7nehf0dnu","geo_precision":"range","address":"2499 W Market St","state":"OH","juris":"PD"},"type":"Feature","geometry":{"type":"Point","coordinates":[-83.218519,41.109235]}},{"properties":{"officer":"JSC","city":"Tiffin","date":{"end_time":"2011/10/16 00:58:55 -0400","original":"10/16/2011 12:58:54 AM","granularity":"sec","time":"2011/10/16 00:58:54 -0400"},"geo_score":0.902,"unit":58,"disposition":200,"zip code":"44883","cfs":1,"call#":11.010811,"id":"a6x7nenqad3g","geo_precision":"range","address":"24X Miami St","state":"OH","juris":"PD"},"type":"Feature","geometry":{"type":"Point","coordinates":[-83.180098,41.117058]}},{"properties":{"officer":"SGN","city":"Tiffin","date":{"end_time":"2011/12/09 13:14:38 -0500","original":"12/9/2011 1:14:37 PM","granularity":"sec","time":"2011/12/09 13:14:37 -0500"},"geo_score":0.902,"unit":59,"disposition":200,"zip code":"44883","cfs":1,"call#":11.012942,"id":"a6x7nej3n961","geo_precision":"range","address":"2562 W Market St","state":"OH","juris":"PD"},"type":"Feature","geometry":{"type":"Point","coordinates":[-83.219677,41.109031]}},{"properties":{"officer":"JAD","city":"Tiffin","date":{"end_time":"2011/12/24 22:37:51 -0500","original":"12/24/2011 10:37:50 PM","granularity":"sec","time":"2011/12/24 22:37:50 -0500"},"geo_score":0.902,"unit":56,"disposition":200,"zip code":"44883","cfs":1,"call#":11.01356,"id":"a6x7nem7g2uq","geo_precision":"range","address":"27 Coe St","state":"OH","juris":"PD"},"type":"Feature","geometry":{"type":"Point","coordinates":[-83.174621,41.108957]}},{"properties":{"officer":"JPF","city":"Tiffin","date":{"end_time":"2011/12/09 22:13:08 -0500","original":"12/9/2011 10:13:07 PM","granularity":"sec","time":"2011/12/09 22:13:07 -0500"},"geo_score":0.854,"unit":59,"disposition":400,"zip code":"44883","cfs":1,"call#":11.012966,"id":"a6x7nekav3tg","geo_precision":"range","address":"270 Elm Av","state":"OH","juris":"PD"},"type":"Feature","geometry":{"type":"Point","coordinates":[-83.162137,41.125099]}},{"properties":{"officer":"JDW","city":"Tiffin","date":{"end_time":"2011/10/21 13:00:24 -0400","original":"10/21/2011 1:00:23 PM","granularity":"sec","time":"2011/10/21 13:00:23 -0400"},"geo_score":0.854,"unit":62,"disposition":200,"zip code":"44883","cfs":1,"call#":11.010972,"id":"a6x7neppi7qp","geo_precision":"range","address":"270 Elm Av","state":"OH","juris":"PD"},"type":"Feature","geometry":{"type":"Point","coordinates":[-83.162137,41.125099]}},{"properties":{"officer":"RMN","city":"Tiffin","date":{"end_time":"2011/09/19 23:40:55 -0400","original":"9/19/2011 11:40:54 PM","granularity":"sec","time":"2011/09/19 23:40:54 -0400"},"geo_score":0.902,"unit":59,"disposition":200,"zip code":"44883","cfs":1,"call#":11.009761,"id":"a6x7nekrbnzd","geo_precision":"range","address":"287 Noble St","state":"OH","juris":"PD"},"type":"Feature","geometry":{"type":"Point","coordinates":[-83.183236,41.123625]}},{"properties":{"officer":"BRB","city":"Tiffin","date":{"end_time":"2011/02/23 16:15:13 -0500","original":"2/23/2011 4:15:12 PM","granularity":"sec","time":"2011/02/23 16:15:12 -0500"},"geo_score":0.902,"unit":62,"disposition":200,"zip code":"44883","cfs":1,"call#":11.00173,"id":"a6x7necrvifs","geo_precision":"range","address":"297 N Sandusky St","state":"OH","juris":"PD"},"type":"Feature","geometry":{"type":"Point","coordinates":[-83.178118,41.126272]}},{"properties":{"officer":"GTM","city":"Tiffin","date":{"end_time":"2011/05/28 15:10:34 -0400","original":"5/28/2011 3:10:33 PM","granularity":"sec","time":"2011/05/28 15:10:33 -0400"},"geo_score":0.902,"unit":57,"disposition":100,"zip code":"44883","cfs":1,"call#":11.005223,"id":"a6x7neciacwn","geo_precision":"range","address":"306 Water St","state":"OH","juris":"PD"},"type":"Feature","geometry":{"type":"Point","coordinates":[-83.174239,41.120946]}},{"properties":{"officer":"JSC","city":"Tiffin","date":{"end_time":"2011/07/26 19:08:50 -0400","original":"7/26/2011 7:08:49 PM","granularity":"sec","time":"2011/07/26 19:08:49 -0400"},"geo_score":0.854,"unit":58,"disposition":200,"zip code":"44883","cfs":1,"call#":11.007511,"id":"a6x7neqbpgox","geo_precision":"range","address":"34 Riverlea Pk","state":"OH","juris":"PD"},"type":"Feature","geometry":{"type":"Point","coordinates":[-83.17131,41.12191]}},{"properties":{"officer":"BAR","city":"Tiffin","date":{"end_time":"2011/12/25 20:23:44 -0500","original":"12/25/2011 8:23:43 PM","granularity":"sec","time":"2011/12/25 20:23:43 -0500"},"geo_score":0.902,"unit":63,"disposition":200,"zip code":"44883","cfs":1,"call#":11.013578,"id":"a6x7neg549h6","geo_precision":"range","address":"366 Wentz St","state":"OH","juris":"PD"},"type":"Feature","geometry":{"type":"Point","coordinates":[-83.198801,41.11361]}},{"properties":{"officer":"RLT","city":"Tiffin","date":{"end_time":"2011/06/17 21:51:25 -0400","original":"6/17/2011 9:51:24 PM","granularity":"sec","time":"2011/06/17 21:51:24 -0400"},"geo_score":0.902,"unit":61,"disposition":200,"zip code":"44883","cfs":1,"call#":11.006011,"id":"a6x7neegywpb","geo_precision":"range","address":"366 Wentz St","state":"OH","juris":"PD"},"type":"Feature","geometry":{"type":"Point","coordinates":[-83.198801,41.11361]}},{"properties":{"officer":"JPF","city":"Tiffin","date":{"end_time":"2011/01/05 18:23:22 -0500","original":"1/5/2011 6:23:21 PM","granularity":"sec","time":"2011/01/05 18:23:21 -0500"},"geo_score":0.902,"unit":59,"disposition":200,"zip code":"44883","cfs":1,"call#":11.000138,"id":"a6x7neiirgb5","geo_precision":"range","address":"366 Wentz St","state":"OH","juris":"PD"},"type":"Feature","geometry":{"type":"Point","coordinates":[-83.198801,41.11361]}},{"properties":{"officer":"JDW","city":"Tiffin","date":{"end_time":"2011/04/16 22:15:31 -0400","original":"4/16/2011 10:15:30 PM","granularity":"sec","time":"2011/04/16 22:15:30 -0400"},"geo_score":0.902,"unit":61,"disposition":200,"zip code":"44883","cfs":1,"call#":11.003546,"id":"a6x7nei8qo6j","geo_precision":"range","address":"367 Water St","state":"OH","juris":"PD"},"type":"Feature","geometry":{"type":"Point","coordinates":[-83.173414,41.122781]}},{"properties":{"officer":"JSC","city":"Tiffin","date":{"end_time":"2011/05/15 20:16:47 -0400","original":"5/15/2011 8:16:46 PM","granularity":"sec","time":"2011/05/15 20:16:46 -0400"},"geo_score":0.902,"unit":57,"disposition":200,"zip code":"44883","cfs":1,"call#":11.00475,"id":"a6x7neonhi2o","geo_precision":"range","address":"371 Water St","state":"OH","juris":"PD"},"type":"Feature","geometry":{"type":"Point","coordinates":[-83.173315,41.122851]}},{"properties":{"officer":"RJO","city":"Tiffin","date":{"end_time":"2011/12/31 10:05:29 -0500","original":"12/31/2011 10:05:28 AM","granularity":"sec","time":"2011/12/31 10:05:28 -0500"},"geo_score":0.902,"unit":60,"disposition":400,"zip code":"44883","cfs":1,"call#":11.013748,"id":"a6x7nele24ig","geo_precision":"range","address":"383 Greenfield St","state":"OH","juris":"PD"},"type":"Feature","geometry":{"type":"Point","coordinates":[-83.156545,41.112296]}},{"properties":{"officer":"LMK","city":"Tiffin","date":{"end_time":"2011/12/23 04:25:21 -0500","original":"12/23/2011 4:25:20 AM","granularity":"sec","time":"2011/12/23 04:25:20 -0500"},"geo_score":0.516,"unit":61,"disposition":200,"zip code":"44883","cfs":1,"call#":11.013501,"id":"a6x7nelfwbav","geo_precision":"street","address":"45 St Lawrence Dr","state":"OH","juris":"PD"},"type":"Feature","geometry":{"type":"Point","coordinates":[-82.718729,41.455282]}},{"properties":{"officer":"MMS","city":"Tiffin","date":{"end_time":"2011/09/25 15:38:36 -0400","original":"9/25/2011 3:38:35 PM","granularity":"sec","time":"2011/09/25 15:38:35 -0400"},"geo_score":0.72,"unit":63,"disposition":200,"zip code":"44883","cfs":1,"call#":11.009988,"id":"a6x7nemd8dp1","geo_precision":"street","address":"47 S Washington St,4","state":"OH","juris":"PD"},"type":"Feature","geometry":{"type":"Point","coordinates":[-83.176943,41.117025]}},{"properties":{"officer":"RMN","city":"Tiffin","date":{"end_time":"2011/07/29 02:47:15 -0400","original":"7/29/2011 2:47:14 AM","granularity":"sec","time":"2011/07/29 02:47:14 -0400"},"geo_score":0.902,"unit":60,"disposition":200,"zip code":"44883","cfs":1,"call#":11.007599,"id":"a6x7nehddt8w","geo_precision":"range","address":"54 S Washington St","state":"OH","juris":"PD"},"type":"Feature","geometry":{"type":"Point","coordinates":[-83.176822,41.116008]}},{"properties":{"officer":"RMN","city":"Tiffin","date":{"end_time":"2011/08/14 19:28:13 -0400","original":"8/14/2011 7:28:12 PM","granularity":"sec","time":"2011/08/14 19:28:12 -0400"},"geo_score":0.902,"unit":57,"disposition":200,"zip code":"44883","cfs":1,"call#":11.008267,"id":"a6x7ned8x8nw","geo_precision":"range","address":"552X N Sandusky St","state":"OH","juris":"PD"},"type":"Feature","geometry":{"type":"Point","coordinates":[-83.173272,41.132934]}},{"properties":{"officer":"SMM","city":"Tiffin","date":{"end_time":"2011/11/30 19:05:30 -0500","original":"11/30/2011 7:05:29 PM","granularity":"sec","time":"2011/11/30 19:05:29 -0500"},"geo_score":0.514,"unit":58,"disposition":200,"zip code":"44883","cfs":1,"call#":11.012628,"id":"a6x7nehj6edn","geo_precision":"street","address":"630 S Sandusky St,C","state":"OH","juris":"PD"},"type":"Feature","geometry":{"type":"Point","coordinates":[-83.174672,41.108987]}},{"properties":{"officer":"EDA","city":"Tiffin","date":{"end_time":"2011/05/09 21:02:28 -0400","original":"5/9/2011 9:02:27 PM","granularity":"sec","time":"2011/05/09 21:02:27 -0400"},"geo_score":0.902,"unit":60,"disposition":200,"zip code":"44883","cfs":1,"call#":11.00451,"id":"a6x7nene65ip","geo_precision":"range","address":"686 S Sandusky St,66","state":"OH","juris":"PD"},"type":"Feature","geometry":{"type":"Point","coordinates":[-83.183803,41.118011]}},{"properties":{"officer":"RLT","city":"Tiffin","date":{"end_time":"2011/11/15 00:59:44 -0500","original":"11/15/2011 12:59:43 AM","granularity":"sec","time":"2011/11/15 00:59:43 -0500"},"geo_score":0.902,"unit":59,"disposition":400,"zip code":"44883","cfs":1,"call#":11.011976,"id":"a6x7nerdfupe","geo_precision":"range","address":"686 S Sandusky St,75","state":"OH","juris":"PD"},"type":"Feature","geometry":{"type":"Point","coordinates":[-83.183925,41.117779]}},{"properties":{"officer":"FWS","city":"Tiffin","date":{"end_time":"2011/11/01 15:21:05 -0400","original":"11/1/2011 3:21:04 PM","granularity":"sec","time":"2011/11/01 15:21:04 -0400"},"geo_score":0.902,"unit":58,"disposition":200,"zip code":"44883","cfs":1,"call#":11.011418,"id":"a6x7nefe5rau","geo_precision":"range","address":"7 Beechwood Dr","state":"OH","juris":"PD"},"type":"Feature","geometry":{"type":"Point","coordinates":[-83.200784,41.115377]}},{"properties":{"officer":"EDA","city":"Tiffin","date":{"end_time":"2011/09/05 18:31:20 -0400","original":"9/5/2011 6:31:19 PM","granularity":"sec","time":"2011/09/05 18:31:19 -0400"},"geo_score":0.429,"unit":60,"disposition":200,"zip code":"44883","cfs":1,"call#":11.009162,"id":"a6x7neqtdpri","geo_precision":"street","address":"7 W Market St,O","state":"OH","juris":"PD"},"type":"Feature","geometry":{"type":"Point","coordinates":[-83.181592,41.114111]}},{"properties":{"officer":"DES","city":"Tiffin","date":{"end_time":"2011/12/09 15:07:45 -0500","original":"12/9/2011 3:07:44 PM","granularity":"sec","time":"2011/12/09 15:07:44 -0500"},"geo_score":0.902,"unit":61,"disposition":100,"zip code":"44883","cfs":1,"call#":11.012948,"id":"a6x7nenlkt0k","geo_precision":"range","address":"76 Ashwood Rd","state":"OH","juris":"PD"},"type":"Feature","geometry":{"type":"Point","coordinates":[-83.201448,41.114835]}},{"properties":{"officer":"RMN","city":"Tiffin","date":{"end_time":"2011/10/07 15:28:17 -0400","original":"10/7/2011 3:28:16 PM","granularity":"sec","time":"2011/10/07 15:28:16 -0400"},"geo_score":0.902,"unit":58,"disposition":200,"zip code":"44883","cfs":1,"call#":11.010445,"id":"a6x7nep7aac7","geo_precision":"range","address":"89 Jackson St","state":"OH","juris":"PD"},"type":"Feature","geometry":{"type":"Point","coordinates":[-83.186926,41.115845]}},{"properties":{"officer":"DES","city":"Tiffin","date":{"end_time":"2011/12/09 13:05:04 -0500","original":"12/9/2011 1:05:03 PM","granularity":"sec","time":"2011/12/09 13:05:03 -0500"},"geo_score":0.902,"unit":61,"disposition":200,"zip code":"44883","cfs":1,"call#":11.012941,"id":"a6x7nei4eric","geo_precision":"range","address":"93 Jackson St","state":"OH","juris":"PD"},"type":"Feature","geometry":{"type":"Point","coordinates":[-83.186864,41.115964]}}],"is_temporal":true,"author":{"url":"","metadata":null,"contact_name":null,"contact_address":null,"source":null,"contact_phone":null},"source":"","pagination":{"sort":null,"start":0,"total":46,"limit":1000000},"state":"complete","tags":"","published":"2014-08-14T18:50:48-04:00","id":222983}