{"type":"FeatureCollection","data_type":"Dataset","url_type":null,"permissions":[{"permissions":{"download":true,"view":true},"group_id":"everyone"}],"classification":null,"title":"Assault_2011","count":288,"stream_id":222981,"contributor":{"url":"http://geocommons.com/users/42302","name":"hillproject"},"data_attributes":null,"calculation_params":null,"icon_link":null,"link":"http://geocommons.com/overlays/222981.json","extent":[-83.4295,41.0975,-82.464,41.4553],"geometry_types":["point"],"unique_name":null,"name":"Assault_2011","feature_count":288,"description":"","next_feature":null,"is_raster":false,"short_classification":"Y","stats":{"date":{"max":"2011/12/31 10:00:20 -0500","mean":"2011/07/08 07:48:38 -0400","variance":75795804583083.0,"stdev":8706078.59963847,"min":"2011/01/01 03:35:21 -0500","median":"2011/07/13 07:39:14 -0400"},"unit":{"max":763,"mean":62.7534722222222,"variance":1844.99476142083,"stdev":42.9534022100791,"min":56,"median":59},"cfs":{"max":14,"mean":14.0,"variance":0.0,"stdev":0.0,"min":14,"median":14},"call#":{"max":11.013747,"mean":11.0068891458333,"variance":1.51186914072299e-05,"stdev":0.00388827614853034,"min":11.000016,"median":11.006994}},"features":[{"properties":{"officer":"JDW","city":"Tiffin","date":{"end_time":"2011/11/02 13:59:42 -0400","original":"11/2/2011 1:59:41 PM","granularity":"sec","time":"2011/11/02 13:59:41 -0400"},"geo_score":0.646,"unit":62,"disposition":"200","zip code":"44883","cfs":14,"call#":11.011449,"id":"a6aeedai8oms","geo_precision":"range","address":"1 City Lot 7","state":"OH","juris":"PD"},"type":"Feature","geometry":{"type":"Point","coordinates":[-83.285418,41.123483]}},{"properties":{"officer":"SGN","city":"Tiffin","date":{"end_time":"2011/05/31 15:44:43 -0400","original":"5/31/2011 3:44:42 PM","granularity":"sec","time":"2011/05/31 15:44:42 -0400"},"geo_score":0.902,"unit":59,"disposition":"200","zip code":"44883","cfs":14,"call#":11.005348,"id":"a6aeedi85zsn","geo_precision":"range","address":"1 E Market St","state":"OH","juris":"PD"},"type":"Feature","geometry":{"type":"Point","coordinates":[-83.179559,41.114309]}},{"properties":{"officer":"RLT","city":"Tiffin","date":{"end_time":"2011/08/13 22:29:54 -0400","original":"8/13/2011 10:29:53 PM","granularity":"sec","time":"2011/08/13 22:29:53 -0400"},"geo_score":0.72,"unit":58,"disposition":"400","zip code":"44883","cfs":14,"call#":11.008231,"id":"a6aeedgkrblq","geo_precision":"range","address":"1 Little Hedges Park","state":"OH","juris":"PD"},"type":"Feature","geometry":{"type":"Point","coordinates":[-83.166016,41.116233]}},{"properties":{"officer":"EDA","city":"Tiffin","date":{"end_time":"2011/07/15 20:48:10 -0400","original":"7/15/2011 8:48:09 PM","granularity":"sec","time":"2011/07/15 20:48:09 -0400"},"geo_score":0.546,"unit":58,"disposition":"400","zip code":"44883","cfs":14,"call#":11.007107,"id":"a6aeed9xi2qk","geo_precision":"street","address":"1 Oakley Park","state":"OH","juris":"PD"},"type":"Feature","geometry":{"type":"Point","coordinates":[-83.172916,41.112623]}},{"properties":{"officer":"BAR","city":"Tiffin","date":{"end_time":"2011/05/20 20:33:03 -0400","original":"5/20/2011 8:33:02 PM","granularity":"sec","time":"2011/05/20 20:33:02 -0400"},"geo_score":0.709,"unit":63,"disposition":"200","zip code":"44883","cfs":14,"call#":11.004923,"id":"a6aeedi4emsk","geo_precision":"street","address":"1 Wall St","state":"OH","juris":"PD"},"type":"Feature","geometry":{"type":"Point","coordinates":[-83.188667,41.117231]}},{"properties":{"officer":"JAD","city":"Tiffin","date":{"end_time":"2011/10/02 02:01:39 -0400","original":"10/2/2011 2:01:38 AM","granularity":"sec","time":"2011/10/02 02:01:38 -0400"},"geo_score":0.902,"unit":56,"disposition":"200","zip code":"44883","cfs":14,"call#":11.01024,"id":"a6aeeda3w501","geo_precision":"range","address":"101 Ella St","state":"OH","juris":"PD"},"type":"Feature","geometry":{"type":"Point","coordinates":[-83.183685,41.104226]}},{"properties":{"officer":"EDA","city":"Tiffin","date":{"end_time":"2011/09/18 04:43:34 -0400","original":"9/18/2011 4:43:33 AM","granularity":"sec","time":"2011/09/18 04:43:33 -0400"},"geo_score":0.902,"unit":60,"disposition":"200","zip code":"44883","cfs":14,"call#":11.009702,"id":"a6aeedgmp8r5","geo_precision":"range","address":"103X E Perry St","state":"OH","juris":"PD"},"type":"Feature","geometry":{"type":"Point","coordinates":[-83.176291,41.115884]}},{"properties":{"officer":"SGN","city":"Tiffin","date":{"end_time":"2011/07/19 08:17:19 -0400","original":"7/19/2011 8:17:18 AM","granularity":"sec","time":"2011/07/19 08:17:18 -0400"},"geo_score":0.902,"unit":59,"disposition":"200","zip code":"44883","cfs":14,"call#":11.007227,"id":"a6aeedb8b8dt","geo_precision":"range","address":"106 S Washington St","state":"OH","juris":"PD"},"type":"Feature","geometry":{"type":"Point","coordinates":[-83.176566,41.114585]}},{"properties":{"officer":"EDA","city":"Tiffin","date":{"end_time":"2011/06/10 18:30:16 -0400","original":"6/10/2011 6:30:15 PM","granularity":"sec","time":"2011/06/10 18:30:15 -0400"},"geo_score":0.902,"unit":60,"disposition":"400","zip code":"44883","cfs":14,"call#":11.005739,"id":"a6aeedav0up4","geo_precision":"range","address":"107 Frost Pkwy","state":"OH","juris":"PD"},"type":"Feature","geometry":{"type":"Point","coordinates":[-83.179348,41.116848]}},{"properties":{"officer":"MMS","city":"Tiffin","date":{"end_time":"2011/11/26 22:04:11 -0500","original":"11/26/2011 10:04:10 PM","granularity":"sec","time":"2011/11/26 22:04:10 -0500"},"geo_score":0.902,"unit":60,"disposition":"200","zip code":"44883","cfs":14,"call#":11.012454,"id":"a6aeedie0gab","geo_precision":"range","address":"107X Frost Pkwy","state":"OH","juris":"PD"},"type":"Feature","geometry":{"type":"Point","coordinates":[-83.179348,41.116848]}},{"properties":{"officer":"DES","city":"Tiffin","date":{"end_time":"2011/11/26 14:14:56 -0500","original":"11/26/2011 2:14:55 PM","granularity":"sec","time":"2011/11/26 14:14:55 -0500"},"geo_score":0.837,"unit":61,"disposition":"200","zip code":"44883","cfs":14,"call#":11.012436,"id":"a6aeedm4esd6","geo_precision":"range","address":"107X Frost Py","state":"OH","juris":"PD"},"type":"Feature","geometry":{"type":"Point","coordinates":[-83.179348,41.116848]}},{"properties":{"officer":"JAD","city":"Tiffin","date":{"end_time":"2011/02/13 00:22:17 -0500","original":"2/13/2011 12:22:16 AM","granularity":"sec","time":"2011/02/13 00:22:16 -0500"},"geo_score":0.87,"unit":56,"disposition":"200","zip code":"44883","cfs":14,"call#":11.001421,"id":"a6aeedk3gbjh","geo_precision":"range","address":"108 Warren Av","state":"OH","juris":"PD"},"type":"Feature","geometry":{"type":"Point","coordinates":[-83.180742,41.130489]}},{"properties":{"officer":"MEM","city":"Tiffin","date":{"end_time":"2011/08/30 20:32:14 -0400","original":"8/30/2011 8:32:13 PM","granularity":"sec","time":"2011/08/30 20:32:13 -0400"},"geo_score":0.902,"unit":58,"disposition":"200","zip code":"44883","cfs":14,"call#":11.008923,"id":"a6aeedis7cit","geo_precision":"range","address":"109 Frost Pkwy","state":"OH","juris":"PD"},"type":"Feature","geometry":{"type":"Point","coordinates":[-83.179322,41.11688]}},{"properties":{"officer":"JMW","city":"Tiffin","date":{"end_time":"2011/11/30 17:31:39 -0500","original":"11/30/2011 5:31:38 PM","granularity":"sec","time":"2011/11/30 17:31:38 -0500"},"geo_score":0.837,"unit":60,"disposition":"200","zip code":"44883","cfs":14,"call#":11.012627,"id":"a6aeedn2vqsn","geo_precision":"range","address":"109 Frost Py","state":"OH","juris":"PD"},"type":"Feature","geometry":{"type":"Point","coordinates":[-83.179322,41.11688]}},{"properties":{"officer":"JPF","city":"Tiffin","date":{"end_time":"2011/05/26 21:06:18 -0400","original":"5/26/2011 9:06:17 PM","granularity":"sec","time":"2011/05/26 21:06:17 -0400"},"geo_score":0.837,"unit":59,"disposition":"200","zip code":"44883","cfs":14,"call#":11.005141,"id":"a6aeedjd3lf7","geo_precision":"range","address":"109 Frost Py","state":"OH","juris":"PD"},"type":"Feature","geometry":{"type":"Point","coordinates":[-83.179322,41.11688]}},{"properties":{"officer":"DES","city":"Tiffin","date":{"end_time":"2011/06/18 09:05:56 -0400","original":"6/18/2011 9:05:55 AM","granularity":"sec","time":"2011/06/18 09:05:55 -0400"},"geo_score":0.902,"unit":61,"disposition":"200","zip code":"44883","cfs":14,"call#":11.006038,"id":"a6aeedlj5edb","geo_precision":"range","address":"110 Longfellow Dr","state":"OH","juris":"PD"},"type":"Feature","geometry":{"type":"Point","coordinates":[-83.194347,41.100952]}},{"properties":{"officer":"RJO","city":"Tiffin","date":{"end_time":"2011/07/10 11:43:55 -0400","original":"7/10/2011 11:43:54 AM","granularity":"sec","time":"2011/07/10 11:43:54 -0400"},"geo_score":0.902,"unit":60,"disposition":"200","zip code":"44883","cfs":14,"call#":11.006902,"id":"a6aeedkvowcn","geo_precision":"range","address":"111 Wall St","state":"OH","juris":"PD"},"type":"Feature","geometry":{"type":"Point","coordinates":[-83.188777,41.117546]}},{"properties":{"officer":"JMW","city":"Tiffin","date":{"end_time":"2011/06/02 20:07:44 -0400","original":"6/2/2011 8:07:43 PM","granularity":"sec","time":"2011/06/02 20:07:43 -0400"},"geo_score":0.902,"unit":60,"disposition":"400","zip code":"44883","cfs":14,"call#":11.005436,"id":"a6aeedc2wud7","geo_precision":"range","address":"115 N Washington St","state":"OH","juris":"PD"},"type":"Feature","geometry":{"type":"Point","coordinates":[-83.177575,41.121015]}},{"properties":{"officer":"FWS","city":"Tiffin","date":{"end_time":"2011/05/23 20:34:03 -0400","original":"5/23/2011 8:34:02 PM","granularity":"sec","time":"2011/05/23 20:34:02 -0400"},"geo_score":0.756,"unit":58,"disposition":"200","zip code":"44883","cfs":14,"call#":11.005037,"id":"a6aeed85j7pg","geo_precision":"range","address":"115 Third Av","state":"OH","juris":"PD"},"type":"Feature","geometry":{"type":"Point","coordinates":[-83.179833,41.129639]}},{"properties":{"officer":"RMN","city":"Tiffin","date":{"end_time":"2011/12/09 22:47:43 -0500","original":"12/9/2011 10:47:42 PM","granularity":"sec","time":"2011/12/09 22:47:42 -0500"},"geo_score":0.902,"unit":57,"disposition":"200","zip code":"44883","cfs":14,"call#":11.012968,"id":"a6aeed9vdtz4","geo_precision":"range","address":"119 Greenfield St","state":"OH","juris":"PD"},"type":"Feature","geometry":{"type":"Point","coordinates":[-83.165899,41.115108]}},{"properties":{"officer":"RJO","city":"Tiffin","date":{"end_time":"2011/02/24 14:53:31 -0500","original":"2/24/2011 2:53:30 PM","granularity":"sec","time":"2011/02/24 14:53:30 -0500"},"geo_score":0.902,"unit":58,"disposition":"200","zip code":"44883","cfs":14,"call#":11.001761,"id":"a6aeed9y3ihb","geo_precision":"range","address":"120 Erie St","state":"OH","juris":"PD"},"type":"Feature","geometry":{"type":"Point","coordinates":[-83.174834,41.124061]}},{"properties":{"officer":"GTM","city":"Tiffin","date":{"end_time":"2011/04/12 10:47:17 -0400","original":"4/12/2011 10:47:16 AM","granularity":"sec","time":"2011/04/12 10:47:16 -0400"},"geo_score":0.902,"unit":57,"disposition":"200","zip code":"44883","cfs":14,"call#":11.003373,"id":"a6aeed97ho4a","geo_precision":"range","address":"120 Melmore St","state":"OH","juris":"PD"},"type":"Feature","geometry":{"type":"Point","coordinates":[-83.172964,41.106757]}},{"properties":{"officer":"MMC","city":"Tiffin","date":{"end_time":"2011/12/29 22:42:38 -0500","original":"12/29/2011 10:42:37 PM","granularity":"sec","time":"2011/12/29 22:42:37 -0500"},"geo_score":0.902,"unit":107,"disposition":"200","zip code":"44883","cfs":14,"call#":11.0137,"id":"a6aeedkagck0","geo_precision":"range","address":"122 Schonhardt St","state":"OH","juris":"PD"},"type":"Feature","geometry":{"type":"Point","coordinates":[-83.172456,41.109694]}},{"properties":{"officer":"SGN","city":"Tiffin","date":{"end_time":"2011/12/28 15:40:55 -0500","original":"12/28/2011 3:40:54 PM","granularity":"sec","time":"2011/12/28 15:40:54 -0500"},"geo_score":0.902,"unit":59,"disposition":"200","zip code":"44883","cfs":14,"call#":11.013665,"id":"a6aeedaiivoa","geo_precision":"range","address":"122 Schonhardt St","state":"OH","juris":"PD"},"type":"Feature","geometry":{"type":"Point","coordinates":[-83.172456,41.109694]}},{"properties":{"officer":"JMW","city":"Tiffin","date":{"end_time":"2011/07/27 04:38:47 -0400","original":"7/27/2011 4:38:46 AM","granularity":"sec","time":"2011/07/27 04:38:46 -0400"},"geo_score":0.902,"unit":59,"disposition":"230","zip code":"44883","cfs":14,"call#":11.007526,"id":"a6aeeddbuol6","geo_precision":"range","address":"127 Franklin St","state":"OH","juris":"PD"},"type":"Feature","geometry":{"type":"Point","coordinates":[-83.18231,41.118242]}},{"properties":{"officer":"RMN","city":"Tiffin","date":{"end_time":"2011/10/30 03:00:12 -0400","original":"10/30/2011 3:00:11 AM","granularity":"sec","time":"2011/10/30 03:00:11 -0400"},"geo_score":0.902,"unit":57,"disposition":"400","zip code":"44883","cfs":14,"call#":11.011338,"id":"a6aeedaijbeo","geo_precision":"range","address":"129 S Washington St","state":"OH","juris":"PD"},"type":"Feature","geometry":{"type":"Point","coordinates":[-83.176496,41.113983]}},{"properties":{"officer":"LMK","city":"Tiffin","date":{"end_time":"2011/09/03 02:15:27 -0400","original":"9/3/2011 2:15:26 AM","granularity":"sec","time":"2011/09/03 02:15:26 -0400"},"geo_score":0.902,"unit":61,"disposition":"400","zip code":"44883","cfs":14,"call#":11.009061,"id":"a6aeedboyt83","geo_precision":"range","address":"129 S Washington St","state":"OH","juris":"PD"},"type":"Feature","geometry":{"type":"Point","coordinates":[-83.176496,41.113983]}},{"properties":{"officer":"SGN","city":"Tiffin","date":{"end_time":"2011/08/02 12:34:45 -0400","original":"8/2/2011 12:34:44 PM","granularity":"sec","time":"2011/08/02 12:34:44 -0400"},"geo_score":0.902,"unit":59,"disposition":"200","zip code":"44883","cfs":14,"call#":11.007811,"id":"a6aeedmiecs2","geo_precision":"range","address":"129 S Washington St","state":"OH","juris":"PD"},"type":"Feature","geometry":{"type":"Point","coordinates":[-83.176496,41.113983]}},{"properties":{"officer":"LMK","city":"Tiffin","date":{"end_time":"2011/07/27 03:01:26 -0400","original":"7/27/2011 3:01:25 AM","granularity":"sec","time":"2011/07/27 03:01:25 -0400"},"geo_score":0.902,"unit":57,"disposition":"400","zip code":"44883","cfs":14,"call#":11.007524,"id":"a6aeedkn446y","geo_precision":"range","address":"129 S Washington St","state":"OH","juris":"PD"},"type":"Feature","geometry":{"type":"Point","coordinates":[-83.176496,41.113983]}},{"properties":{"officer":"JSC","city":"Tiffin","date":{"end_time":"2011/07/03 02:30:42 -0400","original":"7/3/2011 2:30:41 AM","granularity":"sec","time":"2011/07/03 02:30:41 -0400"},"geo_score":0.902,"unit":61,"disposition":"100","zip code":"44883","cfs":14,"call#":11.006635,"id":"a6aeedkv82qg","geo_precision":"range","address":"129 S Washington St","state":"OH","juris":"PD"},"type":"Feature","geometry":{"type":"Point","coordinates":[-83.176496,41.113983]}},{"properties":{"officer":"EDA","city":"Tiffin","date":{"end_time":"2011/07/03 01:30:30 -0400","original":"7/3/2011 1:30:29 AM","granularity":"sec","time":"2011/07/03 01:30:29 -0400"},"geo_score":0.902,"unit":59,"disposition":"200","zip code":"44883","cfs":14,"call#":11.006629,"id":"a6aeedgbig9q","geo_precision":"range","address":"129 S Washington St","state":"OH","juris":"PD"},"type":"Feature","geometry":{"type":"Point","coordinates":[-83.176496,41.113983]}},{"properties":{"officer":"DES","city":"Tiffin","date":{"end_time":"2011/10/09 13:56:43 -0400","original":"10/9/2011 1:56:42 PM","granularity":"sec","time":"2011/10/09 13:56:42 -0400"},"geo_score":0.902,"unit":58,"disposition":"400","zip code":"44883","cfs":14,"call#":11.010546,"id":"a6aeediqa2eo","geo_precision":"range","address":"130X S Washington St","state":"OH","juris":"PD"},"type":"Feature","geometry":{"type":"Point","coordinates":[-83.176489,41.113923]}},{"properties":{"officer":"AMR","city":"Tiffin","date":{"end_time":"2011/02/06 22:53:38 -0500","original":"2/6/2011 10:53:37 PM","granularity":"sec","time":"2011/02/06 22:53:37 -0500"},"geo_score":0.87,"unit":63,"disposition":"200","zip code":"44883","cfs":14,"call#":11.001176,"id":"a6aeedmshe9t","geo_precision":"range","address":"133 Warren Av","state":"OH","juris":"PD"},"type":"Feature","geometry":{"type":"Point","coordinates":[-83.180748,41.130979]}},{"properties":{"officer":"BRB","city":"Tiffin","date":{"end_time":"2011/12/11 16:46:31 -0500","original":"12/11/2011 4:46:30 PM","granularity":"sec","time":"2011/12/11 16:46:30 -0500"},"geo_score":0.902,"unit":63,"disposition":"200","zip code":"44883","cfs":14,"call#":11.013039,"id":"a6aeedaex9oy","geo_precision":"range","address":"136 W Market St","state":"OH","juris":"PD"},"type":"Feature","geometry":{"type":"Point","coordinates":[-83.184964,41.11378]}},{"properties":{"officer":"EDA","city":"Tiffin","date":{"end_time":"2011/01/31 18:14:02 -0500","original":"1/31/2011 6:14:01 PM","granularity":"sec","time":"2011/01/31 18:14:01 -0500"},"geo_score":0.902,"unit":59,"disposition":"200","zip code":"44883","cfs":14,"call#":11.00096,"id":"a6aeedcfk6j2","geo_precision":"range","address":"139 W Davis St","state":"OH","juris":"PD"},"type":"Feature","geometry":{"type":"Point","coordinates":[-83.183134,41.125954]}},{"properties":{"officer":"RLT","city":"Tiffin","date":{"end_time":"2011/04/01 03:50:56 -0400","original":"4/1/2011 3:50:55 AM","granularity":"sec","time":"2011/04/01 03:50:55 -0400"},"geo_score":0.902,"unit":62,"disposition":"200","zip code":"44883","cfs":14,"call#":11.0029,"id":"a6aeedl2qm7u","geo_precision":"range","address":"14 Schonhardt St","state":"OH","juris":"PD"},"type":"Feature","geometry":{"type":"Point","coordinates":[-83.172954,41.112813]}},{"properties":{"officer":"JAD","city":"Tiffin","date":{"end_time":"2011/10/08 01:41:43 -0400","original":"10/8/2011 1:41:42 AM","granularity":"sec","time":"2011/10/08 01:41:42 -0400"},"geo_score":0.902,"unit":56,"disposition":"200","zip code":"44883","cfs":14,"call#":11.010472,"id":"a6aeedn1q9uj","geo_precision":"range","address":"140 Union St","state":"OH","juris":"PD"},"type":"Feature","geometry":{"type":"Point","coordinates":[-83.182438,41.107575]}},{"properties":{"officer":"BAR","city":"Tiffin","date":{"end_time":"2011/10/09 02:03:05 -0400","original":"10/9/2011 2:03:04 AM","granularity":"sec","time":"2011/10/09 02:03:04 -0400"},"geo_score":0.902,"unit":63,"disposition":"100","zip code":"44883","cfs":14,"call#":11.010525,"id":"a6aeed8snhc4","geo_precision":"range","address":"144 W Market St","state":"OH","juris":"PD"},"type":"Feature","geometry":{"type":"Point","coordinates":[-83.18517,41.113752]}},{"properties":{"officer":"LMK","city":"Tiffin","date":{"end_time":"2011/06/10 04:03:28 -0400","original":"6/10/2011 4:03:27 AM","granularity":"sec","time":"2011/06/10 04:03:27 -0400"},"geo_score":0.429,"unit":61,"disposition":"200","zip code":"44883","cfs":14,"call#":11.005721,"id":"a6aeedado7k9","geo_precision":"street","address":"149 Dallas St,B","state":"OH","juris":"PD"},"type":"Feature","geometry":{"type":"Point","coordinates":[-82.46403,41.384433]}},{"properties":{"officer":"AMR","city":"Tiffin","date":{"end_time":"2011/03/07 19:30:24 -0500","original":"3/7/2011 7:30:23 PM","granularity":"sec","time":"2011/03/07 19:30:23 -0500"},"geo_score":0.756,"unit":63,"disposition":"500","zip code":"44883","cfs":14,"call#":11.002174,"id":"a6aeedc7jf22","geo_precision":"range","address":"149 First Av","state":"OH","juris":"PD"},"type":"Feature","geometry":{"type":"Point","coordinates":[-83.18264,41.127893]}},{"properties":{"officer":"RLT","city":"Tiffin","date":{"end_time":"2011/08/07 02:47:19 -0400","original":"8/7/2011 2:47:18 AM","granularity":"sec","time":"2011/08/07 02:47:18 -0400"},"geo_score":0.902,"unit":59,"disposition":"200","zip code":"44883","cfs":14,"call#":11.007975,"id":"a6aeedeqjrfb","geo_precision":"range","address":"15 Adams St","state":"OH","juris":"PD"},"type":"Feature","geometry":{"type":"Point","coordinates":[-83.178727,41.117967]}},{"properties":{"officer":"JSC","city":"Tiffin","date":{"end_time":"2011/02/05 23:27:47 -0500","original":"2/5/2011 11:27:46 PM","granularity":"sec","time":"2011/02/05 23:27:46 -0500"},"geo_score":0.902,"unit":57,"disposition":"400","zip code":"44883","cfs":14,"call#":11.001141,"id":"a6aeed984pmv","geo_precision":"range","address":"152 Martha St","state":"OH","juris":"PD"},"type":"Feature","geometry":{"type":"Point","coordinates":[-83.184976,41.102833]}},{"properties":{"officer":"SMM","city":"Tiffin","date":{"end_time":"2011/01/01 03:35:22 -0500","original":"1/1/2011 3:35:21 AM","granularity":"sec","time":"2011/01/01 03:35:21 -0500"},"geo_score":0.902,"unit":58,"disposition":"200","zip code":"44883","cfs":14,"call#":11.000016,"id":"a6aeedhcsw79","geo_precision":"range","address":"152 Martha St","state":"OH","juris":"PD"},"type":"Feature","geometry":{"type":"Point","coordinates":[-83.184976,41.102833]}},{"properties":{"officer":"DES","city":"Tiffin","date":{"end_time":"2011/10/02 11:11:00 -0400","original":"10/2/2011 11:10:00 AM","granularity":"min","time":"2011/10/02 11:10:00 -0400"},"geo_score":0.429,"unit":58,"disposition":"400","zip code":"44883","cfs":14,"call#":11.010248,"id":"a6aeedkadtxu","geo_precision":"street","address":"153 Dallas St,A","state":"OH","juris":"PD"},"type":"Feature","geometry":{"type":"Point","coordinates":[-82.718098,41.444865]}},{"properties":{"officer":"BRB","city":"Tiffin","date":{"end_time":"2011/01/18 12:25:28 -0500","original":"1/18/2011 12:25:27 PM","granularity":"sec","time":"2011/01/18 12:25:27 -0500"},"geo_score":0.902,"unit":59,"disposition":"200","zip code":"44883","cfs":14,"call#":11.000542,"id":"a6aeedekt5wy","geo_precision":"range","address":"154 S Washington St","state":"OH","juris":"PD"},"type":"Feature","geometry":{"type":"Point","coordinates":[-83.176365,41.11326]}},{"properties":{"officer":"AMR","city":"Tiffin","date":{"end_time":"2011/01/18 17:32:38 -0500","original":"1/18/2011 5:32:37 PM","granularity":"sec","time":"2011/01/18 17:32:37 -0500"},"geo_score":0.902,"unit":63,"disposition":"400","zip code":"44883","cfs":14,"call#":11.000555,"id":"a6aeedc8vx42","geo_precision":"range","address":"156 Benner St","state":"OH","juris":"PD"},"type":"Feature","geometry":{"type":"Point","coordinates":[-83.181458,41.117286]}},{"properties":{"officer":"SGN","city":"Tiffin","date":{"end_time":"2011/08/12 10:38:05 -0400","original":"8/12/2011 10:38:04 AM","granularity":"sec","time":"2011/08/12 10:38:04 -0400"},"geo_score":0.902,"unit":59,"disposition":"200","zip code":"44883","cfs":14,"call#":11.008158,"id":"a6aeedbf3qbe","geo_precision":"range","address":"156 E Perry St","state":"OH","juris":"PD"},"type":"Feature","geometry":{"type":"Point","coordinates":[-83.174254,41.116084]}},{"properties":{"officer":"MMS","city":"Tiffin","date":{"end_time":"2011/09/04 04:22:25 -0400","original":"9/4/2011 4:22:24 AM","granularity":"sec","time":"2011/09/04 04:22:24 -0400"},"geo_score":0.902,"unit":58,"disposition":"400","zip code":"44883","cfs":14,"call#":11.009113,"id":"a6aeedgxe6jk","geo_precision":"range","address":"156 Hall St","state":"OH","juris":"PD"},"type":"Feature","geometry":{"type":"Point","coordinates":[-83.182787,41.12274]}},{"properties":{"officer":"JAD","city":"Tiffin","date":{"end_time":"2011/09/04 00:25:30 -0400","original":"9/4/2011 12:25:29 AM","granularity":"sec","time":"2011/09/04 00:25:29 -0400"},"geo_score":0.902,"unit":56,"disposition":"200","zip code":"44883","cfs":14,"call#":11.009104,"id":"a6aeedgackpl","geo_precision":"range","address":"156 Hall St","state":"OH","juris":"PD"},"type":"Feature","geometry":{"type":"Point","coordinates":[-83.182787,41.12274]}},{"properties":{"officer":"BRB","city":"Tiffin","date":{"end_time":"2011/02/07 07:38:42 -0500","original":"2/7/2011 7:38:41 AM","granularity":"sec","time":"2011/02/07 07:38:41 -0500"},"geo_score":0.902,"unit":59,"disposition":"200","zip code":"44883","cfs":14,"call#":11.001183,"id":"a6aeedfwaydn","geo_precision":"range","address":"16 Tiffin St","state":"OH","juris":"PD"},"type":"Feature","geometry":{"type":"Point","coordinates":[-83.173537,41.112975]}},{"properties":{"officer":"RLT","city":"Tiffin","date":{"end_time":"2011/02/07 02:17:36 -0500","original":"2/7/2011 2:17:35 AM","granularity":"sec","time":"2011/02/07 02:17:35 -0500"},"geo_score":0.902,"unit":61,"disposition":"200","zip code":"44883","cfs":14,"call#":11.001181,"id":"a6aeedjdutsf","geo_precision":"range","address":"16 Tiffin St","state":"OH","juris":"PD"},"type":"Feature","geometry":{"type":"Point","coordinates":[-83.173537,41.112975]}},{"properties":{"officer":"BAR","city":"Tiffin","date":{"end_time":"2011/08/28 18:10:09 -0400","original":"8/28/2011 6:10:08 PM","granularity":"sec","time":"2011/08/28 18:10:08 -0400"},"geo_score":0.866,"unit":63,"disposition":"200","zip code":"44883","cfs":14,"call#":11.008836,"id":"a6aeedd64ybm","geo_precision":"range","address":"160 Grand Av","state":"OH","juris":"PD"},"type":"Feature","geometry":{"type":"Point","coordinates":[-83.175608,41.131648]}},{"properties":{"officer":"JMW","city":"Tiffin","date":{"end_time":"2011/11/02 15:16:59 -0400","original":"11/2/2011 3:16:58 PM","granularity":"sec","time":"2011/11/02 15:16:58 -0400"},"geo_score":0.902,"unit":60,"disposition":"200","zip code":"44883","cfs":14,"call#":11.011452,"id":"a6aeedh9c90k","geo_precision":"range","address":"160 Miami St","state":"OH","juris":"PD"},"type":"Feature","geometry":{"type":"Point","coordinates":[-83.18492,41.11892]}},{"properties":{"officer":"MEM","city":"Tiffin","date":{"end_time":"2011/02/11 16:01:51 -0500","original":"2/11/2011 4:01:50 PM","granularity":"sec","time":"2011/02/11 16:01:50 -0500"},"geo_score":0.902,"unit":63,"disposition":"200","zip code":"44883","cfs":14,"call#":11.001362,"id":"a6aeedbd9t1d","geo_precision":"range","address":"162 N Sandusky St","state":"OH","juris":"PD"},"type":"Feature","geometry":{"type":"Point","coordinates":[-83.179827,41.123796]}},{"properties":{"officer":"PJD","city":"Tiffin","date":{"end_time":"2011/08/29 21:29:23 -0400","original":"8/29/2011 9:29:22 PM","granularity":"sec","time":"2011/08/29 21:29:22 -0400"},"geo_score":0.902,"unit":61,"disposition":"200","zip code":"44883","cfs":14,"call#":11.008872,"id":"a6aeed8uz536","geo_precision":"range","address":"163 S Sandusky St","state":"OH","juris":"PD"},"type":"Feature","geometry":{"type":"Point","coordinates":[-83.185265,41.115605]}},{"properties":{"officer":"MEM","city":"Tiffin","date":{"end_time":"2011/10/09 20:07:24 -0400","original":"10/9/2011 8:07:23 PM","granularity":"sec","time":"2011/10/09 20:07:23 -0400"},"geo_score":0.902,"unit":58,"disposition":"200","zip code":"44883","cfs":14,"call#":11.010556,"id":"a6aeed9jdfk2","geo_precision":"range","address":"167 E Market St","state":"OH","juris":"PD"},"type":"Feature","geometry":{"type":"Point","coordinates":[-83.174089,41.114835]}},{"properties":{"officer":"DES","city":"Tiffin","date":{"end_time":"2011/07/29 15:51:55 -0400","original":"7/29/2011 3:51:54 PM","granularity":"sec","time":"2011/07/29 15:51:54 -0400"},"geo_score":0.902,"unit":58,"disposition":"200","zip code":"44883","cfs":14,"call#":11.007618,"id":"a6aeedgxthqk","geo_precision":"range","address":"167 E Market St","state":"OH","juris":"PD"},"type":"Feature","geometry":{"type":"Point","coordinates":[-83.174089,41.114835]}},{"properties":{"officer":"SGN","city":"Tiffin","date":{"end_time":"2011/04/19 16:32:19 -0400","original":"4/19/2011 4:32:18 PM","granularity":"sec","time":"2011/04/19 16:32:18 -0400"},"geo_score":0.902,"unit":59,"disposition":"200","zip code":"44883","cfs":14,"call#":11.00365,"id":"a6aeedcr7qhk","geo_precision":"range","address":"1692 W Market St,33","state":"OH","juris":"PD"},"type":"Feature","geometry":{"type":"Point","coordinates":[-83.18164,41.114105]}},{"properties":{"officer":"BRB","city":"Tiffin","date":{"end_time":"2011/03/13 14:31:32 -0400","original":"3/13/2011 2:31:31 PM","granularity":"sec","time":"2011/03/13 14:31:31 -0400"},"geo_score":0.902,"unit":59,"disposition":"200","zip code":"44883","cfs":14,"call#":11.002356,"id":"a6aeed82orzn","geo_precision":"range","address":"1692 W Market St,49","state":"OH","juris":"PD"},"type":"Feature","geometry":{"type":"Point","coordinates":[-83.182023,41.114055]}},{"properties":{"officer":"SMM","city":"Tiffin","date":{"end_time":"2011/05/18 22:12:52 -0400","original":"5/18/2011 10:12:51 PM","granularity":"sec","time":"2011/05/18 22:12:51 -0400"},"geo_score":0.476,"unit":58,"disposition":"200","zip code":"44883","cfs":14,"call#":11.004842,"id":"a6aeed795glp","geo_precision":"street","address":"1740 W Market St,A","state":"OH","juris":"PD"},"type":"Feature","geometry":{"type":"Point","coordinates":[-83.181592,41.114111]}},{"properties":{"officer":"MEM","city":"Tiffin","date":{"end_time":"2011/04/20 16:12:16 -0400","original":"4/20/2011 4:12:15 PM","granularity":"sec","time":"2011/04/20 16:12:15 -0400"},"geo_score":0.902,"unit":63,"disposition":"200","zip code":"44883","cfs":14,"call#":11.003687,"id":"a6aeedgngktb","geo_precision":"range","address":"175 S Monroe St","state":"OH","juris":"PD"},"type":"Feature","geometry":{"type":"Point","coordinates":[-83.177748,41.11164]}},{"properties":{"officer":"LMK","city":"Tiffin","date":{"end_time":"2011/01/07 20:53:40 -0500","original":"1/7/2011 8:53:39 PM","granularity":"sec","time":"2011/01/07 20:53:39 -0500"},"geo_score":0.756,"unit":58,"disposition":"400","zip code":"44883","cfs":14,"call#":11.000189,"id":"a6aeedf7v3un","geo_precision":"range","address":"175 Second Av","state":"OH","juris":"PD"},"type":"Feature","geometry":{"type":"Point","coordinates":[-83.182772,41.128746]}},{"properties":{"officer":"RLT","city":"Tiffin","date":{"end_time":"2011/04/16 01:44:57 -0400","original":"4/16/2011 1:44:56 AM","granularity":"sec","time":"2011/04/16 01:44:56 -0400"},"geo_score":0.756,"unit":62,"disposition":"200","zip code":"44883","cfs":14,"call#":11.003517,"id":"a6aeedmj1mvd","geo_precision":"range","address":"176 First Av","state":"OH","juris":"PD"},"type":"Feature","geometry":{"type":"Point","coordinates":[-83.183453,41.127883]}},{"properties":{"officer":"DES","city":"Tiffin","date":{"end_time":"2011/02/28 07:17:11 -0500","original":"2/28/2011 7:17:10 AM","granularity":"sec","time":"2011/02/28 07:17:10 -0500"},"geo_score":0.756,"unit":61,"disposition":"100","zip code":"44883","cfs":14,"call#":11.001904,"id":"a6aeedi29knx","geo_precision":"range","address":"176 Fourth Av","state":"OH","juris":"PD"},"type":"Feature","geometry":{"type":"Point","coordinates":[-83.18137,41.130479]}},{"properties":{"officer":"JAD","city":"Tiffin","date":{"end_time":"2011/03/22 01:40:26 -0400","original":"3/22/2011 1:40:25 AM","granularity":"sec","time":"2011/03/22 01:40:25 -0400"},"geo_score":0.902,"unit":56,"disposition":"200","zip code":"44883","cfs":14,"call#":11.002608,"id":"a6aeednevm4w","geo_precision":"range","address":"178X S Washington St","state":"OH","juris":"PD"},"type":"Feature","geometry":{"type":"Point","coordinates":[-83.176273,41.112532]}},{"properties":{"officer":"LMK","city":"Tiffin","date":{"end_time":"2011/08/24 23:53:32 -0400","original":"8/24/2011 11:53:31 PM","granularity":"sec","time":"2011/08/24 23:53:31 -0400"},"geo_score":0.902,"unit":62,"disposition":"400","zip code":"44883","cfs":14,"call#":11.008689,"id":"a6aeednlx3gj","geo_precision":"range","address":"18 Madison St","state":"OH","juris":"PD"},"type":"Feature","geometry":{"type":"Point","coordinates":[-83.178501,41.113184]}},{"properties":{"officer":"LMK","city":"Tiffin","date":{"end_time":"2011/05/11 20:59:17 -0400","original":"5/11/2011 8:59:16 PM","granularity":"sec","time":"2011/05/11 20:59:16 -0400"},"geo_score":0.902,"unit":63,"disposition":"200","zip code":"44883","cfs":14,"call#":11.004581,"id":"a6aeedapfx38","geo_precision":"range","address":"18 Olive St","state":"OH","juris":"PD"},"type":"Feature","geometry":{"type":"Point","coordinates":[-83.178081,41.124266]}},{"properties":{"officer":"RLT","city":"Tiffin","date":{"end_time":"2011/07/10 04:39:08 -0400","original":"7/10/2011 4:39:07 AM","granularity":"sec","time":"2011/07/10 04:39:07 -0400"},"geo_score":0.902,"unit":59,"disposition":"200","zip code":"44883","cfs":14,"call#":11.006897,"id":"a6aeedidqin9","geo_precision":"range","address":"18 Tiffin St","state":"OH","juris":"PD"},"type":"Feature","geometry":{"type":"Point","coordinates":[-83.173616,41.112966]}},{"properties":{"officer":"RMN","city":"Tiffin","date":{"end_time":"2011/09/03 18:45:11 -0400","original":"9/3/2011 6:45:10 PM","granularity":"sec","time":"2011/09/03 18:45:10 -0400"},"geo_score":0.861,"unit":57,"disposition":"100","zip code":"44883","cfs":14,"call#":11.009085,"id":"a6aeedarlsff","geo_precision":"range","address":"181 Ohio Av","state":"OH","juris":"PD"},"type":"Feature","geometry":{"type":"Point","coordinates":[-83.1649,41.123743]}},{"properties":{"officer":"FWS","city":"Tiffin","date":{"end_time":"2011/07/13 10:19:33 -0400","original":"7/13/2011 10:19:32 AM","granularity":"sec","time":"2011/07/13 10:19:32 -0400"},"geo_score":0.902,"unit":58,"disposition":"200","zip code":"44883","cfs":14,"call#":11.006998,"id":"a6aeedmw9l4m","geo_precision":"range","address":"182 E Market St,114","state":"OH","juris":"PD"},"type":"Feature","geometry":{"type":"Point","coordinates":[-83.175957,41.114659]}},{"properties":{"officer":"DES","city":"Tiffin","date":{"end_time":"2011/01/09 14:53:39 -0500","original":"1/9/2011 2:53:38 PM","granularity":"sec","time":"2011/01/09 14:53:38 -0500"},"geo_score":0.902,"unit":61,"disposition":"200","zip code":"44883","cfs":14,"call#":11.000239,"id":"a6aeedggr5qt","geo_precision":"range","address":"184 E Market St","state":"OH","juris":"PD"},"type":"Feature","geometry":{"type":"Point","coordinates":[-83.17287,41.11492]}},{"properties":{"officer":"BRB","city":"Tiffin","date":{"end_time":"2011/08/15 15:14:03 -0400","original":"8/15/2011 3:14:02 PM","granularity":"sec","time":"2011/08/15 15:14:02 -0400"},"geo_score":0.429,"unit":57,"disposition":"200","zip code":"44883","cfs":14,"call#":11.008301,"id":"a6aeedlta48z","geo_precision":"street","address":"184 E Market St, O","state":"OH","juris":"PD"},"type":"Feature","geometry":{"type":"Point","coordinates":[-83.181592,41.114111]}},{"properties":{"officer":"JDW","city":"Tiffin","date":{"end_time":"2011/07/08 22:52:43 -0400","original":"7/8/2011 10:52:42 PM","granularity":"sec","time":"2011/07/08 22:52:42 -0400"},"geo_score":0.429,"unit":59,"disposition":"200","zip code":"44883","cfs":14,"call#":11.006836,"id":"a6aeedjuggby","geo_precision":"street","address":"184 E Market St, O","state":"OH","juris":"PD"},"type":"Feature","geometry":{"type":"Point","coordinates":[-83.181592,41.114111]}},{"properties":{"officer":"MEM","city":"Tiffin","date":{"end_time":"2011/06/16 12:56:53 -0400","original":"6/16/2011 12:56:52 PM","granularity":"sec","time":"2011/06/16 12:56:52 -0400"},"geo_score":0.429,"unit":61,"disposition":"200","zip code":"44883","cfs":14,"call#":11.005954,"id":"a6aeedct4q7q","geo_precision":"street","address":"184 E Market St, O","state":"OH","juris":"PD"},"type":"Feature","geometry":{"type":"Point","coordinates":[-83.181592,41.114111]}},{"properties":{"officer":"AMR","city":"Tiffin","date":{"end_time":"2011/01/12 18:41:43 -0500","original":"1/12/2011 6:41:42 PM","granularity":"sec","time":"2011/01/12 18:41:42 -0500"},"geo_score":0.902,"unit":63,"disposition":"400","zip code":"44883","cfs":14,"call#":11.000337,"id":"a6aeedaa62c3","geo_precision":"range","address":"184 E Market St,121","state":"OH","juris":"PD"},"type":"Feature","geometry":{"type":"Point","coordinates":[-83.175696,41.114691]}},{"properties":{"officer":"EDA","city":"Tiffin","date":{"end_time":"2011/07/17 20:51:03 -0400","original":"7/17/2011 8:51:02 PM","granularity":"sec","time":"2011/07/17 20:51:02 -0400"},"geo_score":0.902,"unit":58,"disposition":"200","zip code":"44883","cfs":14,"call#":11.00719,"id":"a6aeedjedk9y","geo_precision":"range","address":"184 E Market St,223","state":"OH","juris":"PD"},"type":"Feature","geometry":{"type":"Point","coordinates":[-83.171692,41.115047]}},{"properties":{"officer":"JAD","city":"Tiffin","date":{"end_time":"2011/12/10 21:26:00 -0500","original":"12/10/2011 9:25:00 PM","granularity":"min","time":"2011/12/10 21:25:00 -0500"},"geo_score":0.902,"unit":58,"disposition":"400","zip code":"44883","cfs":14,"call#":11.013009,"id":"a6aeedimm81u","geo_precision":"range","address":"184 E Market St,225","state":"OH","juris":"PD"},"type":"Feature","geometry":{"type":"Point","coordinates":[-83.171646,41.115058]}},{"properties":{"officer":"RLT","city":"Tiffin","date":{"end_time":"2011/06/18 19:10:02 -0400","original":"6/18/2011 7:10:01 PM","granularity":"sec","time":"2011/06/18 19:10:01 -0400"},"geo_score":0.902,"unit":61,"disposition":"230","zip code":"44883","cfs":14,"call#":11.006054,"id":"a6aeedixvitv","geo_precision":"range","address":"184 E Market St,324","state":"OH","juris":"PD"},"type":"Feature","geometry":{"type":"Point","coordinates":[-83.168341,41.1169]}},{"properties":{"officer":"JAD","city":"Tiffin","date":{"end_time":"2011/04/23 21:34:49 -0400","original":"4/23/2011 9:34:48 PM","granularity":"sec","time":"2011/04/23 21:34:48 -0400"},"geo_score":0.756,"unit":56,"disposition":"200","zip code":"44883","cfs":14,"call#":11.003823,"id":"a6aeedfbk6rd","geo_precision":"range","address":"185 First Av","state":"OH","juris":"PD"},"type":"Feature","geometry":{"type":"Point","coordinates":[-83.183361,41.127884]}},{"properties":{"officer":"GTM","city":"Tiffin","date":{"end_time":"2011/03/15 08:08:49 -0400","original":"3/15/2011 8:08:48 AM","granularity":"sec","time":"2011/03/15 08:08:48 -0400"},"geo_score":0.756,"unit":57,"disposition":"200","zip code":"44883","cfs":14,"call#":11.002391,"id":"a6aeeddyi6i3","geo_precision":"range","address":"185 First Av","state":"OH","juris":"PD"},"type":"Feature","geometry":{"type":"Point","coordinates":[-83.183361,41.127884]}},{"properties":{"officer":"BAR","city":"Tiffin","date":{"end_time":"2011/12/24 02:41:49 -0500","original":"12/24/2011 2:41:48 AM","granularity":"sec","time":"2011/12/24 02:41:48 -0500"},"geo_score":0.429,"unit":63,"disposition":"200","zip code":"44883","cfs":14,"call#":11.013535,"id":"a6aeedctlaut","geo_precision":"street","address":"186 E Market St, O","state":"OH","juris":"PD"},"type":"Feature","geometry":{"type":"Point","coordinates":[-83.181592,41.114111]}},{"properties":{"officer":"MEM","city":"Tiffin","date":{"end_time":"2011/07/21 08:18:23 -0400","original":"7/21/2011 8:18:22 AM","granularity":"sec","time":"2011/07/21 08:18:22 -0400"},"geo_score":0.902,"unit":61,"disposition":"200","zip code":"44883","cfs":14,"call#":11.007273,"id":"a6aeedebyfbc","geo_precision":"range","address":"186 E Market St,232","state":"OH","juris":"PD"},"type":"Feature","geometry":{"type":"Point","coordinates":[-83.171486,41.115098]}},{"properties":{"officer":"BAR","city":"Tiffin","date":{"end_time":"2011/11/26 22:27:34 -0500","original":"11/26/2011 10:27:33 PM","granularity":"sec","time":"2011/11/26 22:27:33 -0500"},"geo_score":0.902,"unit":63,"disposition":"400","zip code":"44883","cfs":14,"call#":11.012458,"id":"a6aeeddqcfoe","geo_precision":"range","address":"187 S Monroe St","state":"OH","juris":"PD"},"type":"Feature","geometry":{"type":"Point","coordinates":[-83.177709,41.111315]}},{"properties":{"officer":"JSC","city":"Tiffin","date":{"end_time":"2011/06/12 00:12:49 -0400","original":"6/12/2011 12:12:48 AM","granularity":"sec","time":"2011/06/12 00:12:48 -0400"},"geo_score":0.902,"unit":57,"disposition":"230","zip code":"44883","cfs":14,"call#":11.005799,"id":"a6aeedj6tckk","geo_precision":"range","address":"187 S Washington St","state":"OH","juris":"PD"},"type":"Feature","geometry":{"type":"Point","coordinates":[-83.176242,41.112289]}},{"properties":{"officer":"BAR","city":"Tiffin","date":{"end_time":"2011/01/11 13:29:20 -0500","original":"1/11/2011 1:29:19 PM","granularity":"sec","time":"2011/01/11 13:29:19 -0500"},"geo_score":0.902,"unit":63,"disposition":"400","zip code":"44883","cfs":14,"call#":11.000303,"id":"a6aeedd5tfnl","geo_precision":"range","address":"190 Circular St","state":"OH","juris":"PD"},"type":"Feature","geometry":{"type":"Point","coordinates":[-83.169154,41.110341]}},{"properties":{"officer":"MEM","city":"Tiffin","date":{"end_time":"2011/12/06 17:47:58 -0500","original":"12/6/2011 5:47:57 PM","granularity":"sec","time":"2011/12/06 17:47:57 -0500"},"geo_score":0.902,"unit":58,"disposition":"200","zip code":"44883","cfs":14,"call#":11.012836,"id":"a6aeedb2guh2","geo_precision":"range","address":"192 Hall St","state":"OH","juris":"PD"},"type":"Feature","geometry":{"type":"Point","coordinates":[-83.183715,41.123224]}},{"properties":{"officer":"GTM","city":"Tiffin","date":{"end_time":"2011/11/01 16:13:00 -0400","original":"11/1/2011 4:12:00 PM","granularity":"min","time":"2011/11/01 16:12:00 -0400"},"geo_score":0.902,"unit":62,"disposition":"400","zip code":"44883","cfs":14,"call#":11.011422,"id":"a6aeedbnc7au","geo_precision":"range","address":"192 Hall St","state":"OH","juris":"PD"},"type":"Feature","geometry":{"type":"Point","coordinates":[-83.183715,41.123224]}},{"properties":{"officer":"MMS","city":"Tiffin","date":{"end_time":"2011/08/21 21:20:30 -0400","original":"8/21/2011 9:20:29 PM","granularity":"sec","time":"2011/08/21 21:20:29 -0400"},"geo_score":0.902,"unit":58,"disposition":"200","zip code":"44883","cfs":14,"call#":11.00854,"id":"a6aeede6hl9l","geo_precision":"range","address":"192 Hall St","state":"OH","juris":"PD"},"type":"Feature","geometry":{"type":"Point","coordinates":[-83.183715,41.123224]}},{"properties":{"officer":"SGN","city":"Tiffin","date":{"end_time":"2011/04/26 16:19:06 -0400","original":"4/26/2011 4:19:05 PM","granularity":"sec","time":"2011/04/26 16:19:05 -0400"},"geo_score":0.902,"unit":59,"disposition":"200","zip code":"44883","cfs":14,"call#":11.003925,"id":"a6aeedalhisb","geo_precision":"range","address":"192 Hall St","state":"OH","juris":"PD"},"type":"Feature","geometry":{"type":"Point","coordinates":[-83.183715,41.123224]}},{"properties":{"officer":"JPF","city":"Tiffin","date":{"end_time":"2011/05/19 17:56:43 -0400","original":"5/19/2011 5:56:42 PM","granularity":"sec","time":"2011/05/19 17:56:42 -0400"},"geo_score":0.902,"unit":59,"disposition":"200","zip code":"44883","cfs":14,"call#":11.004871,"id":"a6aeedk80fvp","geo_precision":"range","address":"194 E Perry St","state":"OH","juris":"PD"},"type":"Feature","geometry":{"type":"Point","coordinates":[-83.172463,41.116218]}},{"properties":{"officer":"FWS","city":"Tiffin","date":{"end_time":"2011/03/23 15:16:33 -0400","original":"3/23/2011 3:16:32 PM","granularity":"sec","time":"2011/03/23 15:16:32 -0400"},"geo_score":0.902,"unit":60,"disposition":"200","zip code":"44883","cfs":14,"call#":11.002652,"id":"a6aeed966azf","geo_precision":"range","address":"196X Jefferson St","state":"OH","juris":"PD"},"type":"Feature","geometry":{"type":"Point","coordinates":[-83.174566,41.112085]}},{"properties":{"officer":"BAR","city":"Tiffin","date":{"end_time":"2011/06/05 01:49:00 -0400","original":"6/5/2011 1:48:00 AM","granularity":"min","time":"2011/06/05 01:48:00 -0400"},"geo_score":0.902,"unit":63,"disposition":"400","zip code":"44883","cfs":14,"call#":11.00553,"id":"a6aeedi51qxd","geo_precision":"range","address":"2 Main St","state":"OH","juris":"PD"},"type":"Feature","geometry":{"type":"Point","coordinates":[-83.176035,41.111318]}},{"properties":{"officer":"JSC","city":"Tiffin","date":{"end_time":"2011/05/16 21:18:48 -0400","original":"5/16/2011 9:18:47 PM","granularity":"sec","time":"2011/05/16 21:18:47 -0400"},"geo_score":0.902,"unit":60,"disposition":"200","zip code":"44883","cfs":14,"call#":11.004777,"id":"a6aeedhcmic2","geo_precision":"range","address":"200 E Market St","state":"OH","juris":"PD"},"type":"Feature","geometry":{"type":"Point","coordinates":[-83.172475,41.114966]}},{"properties":{"officer":"MEM","city":"Tiffin","date":{"end_time":"2011/08/12 09:23:15 -0400","original":"8/12/2011 9:23:14 AM","granularity":"sec","time":"2011/08/12 09:23:14 -0400"},"geo_score":0.902,"unit":61,"disposition":"200","zip code":"44883","cfs":14,"call#":11.008156,"id":"a6aeede9phxd","geo_precision":"range","address":"201 Clay St,2","state":"OH","juris":"PD"},"type":"Feature","geometry":{"type":"Point","coordinates":[-83.180549,41.115641]}},{"properties":{"officer":"JDW","city":"Tiffin","date":{"end_time":"2011/08/31 15:52:06 -0400","original":"8/31/2011 3:52:05 PM","granularity":"sec","time":"2011/08/31 15:52:05 -0400"},"geo_score":0.902,"unit":57,"disposition":"200","zip code":"44883","cfs":14,"call#":11.008958,"id":"a6aeedmqtmen","geo_precision":"range","address":"201 S Sandusky St","state":"OH","juris":"PD"},"type":"Feature","geometry":{"type":"Point","coordinates":[-83.186118,41.114708]}},{"properties":{"officer":"GTM","city":"Tiffin","date":{"end_time":"2011/08/02 10:58:34 -0400","original":"8/2/2011 10:58:33 AM","granularity":"sec","time":"2011/08/02 10:58:33 -0400"},"geo_score":0.902,"unit":61,"disposition":"400","zip code":"44883","cfs":14,"call#":11.00781,"id":"a6aeedb6ww3y","geo_precision":"range","address":"204 E Market St,244","state":"OH","juris":"PD"},"type":"Feature","geometry":{"type":"Point","coordinates":[-83.1712,41.115168]}},{"properties":{"officer":"LMK","city":"Tiffin","date":{"end_time":"2011/07/15 22:19:53 -0400","original":"7/15/2011 10:19:52 PM","granularity":"sec","time":"2011/07/15 22:19:52 -0400"},"geo_score":0.902,"unit":58,"disposition":"200","zip code":"44883","cfs":14,"call#":11.00711,"id":"a6aeeddp1fzj","geo_precision":"range","address":"205 S Sandusky St","state":"OH","juris":"PD"},"type":"Feature","geometry":{"type":"Point","coordinates":[-83.186167,41.114614]}},{"properties":{"officer":"FWS","city":"Tiffin","date":{"end_time":"2011/06/14 14:50:57 -0400","original":"6/14/2011 2:50:56 PM","granularity":"sec","time":"2011/06/14 14:50:56 -0400"},"geo_score":0.902,"unit":58,"disposition":"200","zip code":"44883","cfs":14,"call#":11.005892,"id":"a6aeedgbutkc","geo_precision":"range","address":"208 S Washington St","state":"OH","juris":"PD"},"type":"Feature","geometry":{"type":"Point","coordinates":[-83.176158,41.111621]}},{"properties":{"officer":"EDA","city":"Tiffin","date":{"end_time":"2011/05/30 21:21:57 -0400","original":"5/30/2011 9:21:56 PM","granularity":"sec","time":"2011/05/30 21:21:56 -0400"},"geo_score":0.902,"unit":60,"disposition":"200","zip code":"44883","cfs":14,"call#":11.005321,"id":"a6aeedlo8ur8","geo_precision":"range","address":"208 S Washington St","state":"OH","juris":"PD"},"type":"Feature","geometry":{"type":"Point","coordinates":[-83.176158,41.111621]}},{"properties":{"officer":"DES","city":"Tiffin","date":{"end_time":"2011/10/21 14:19:14 -0400","original":"10/21/2011 2:19:13 PM","granularity":"sec","time":"2011/10/21 14:19:13 -0400"},"geo_score":0.756,"unit":58,"disposition":"200","zip code":"44883","cfs":14,"call#":11.010974,"id":"a6aeedfacp9g","geo_precision":"range","address":"209 Fifth Av","state":"OH","juris":"PD"},"type":"Feature","geometry":{"type":"Point","coordinates":[-83.178799,41.131372]}},{"properties":{"officer":"MEM","city":"Tiffin","date":{"end_time":"2011/08/07 17:10:44 -0400","original":"8/7/2011 5:10:43 PM","granularity":"sec","time":"2011/08/07 17:10:43 -0400"},"geo_score":0.902,"unit":61,"disposition":"200","zip code":"44883","cfs":14,"call#":11.007991,"id":"a6aeed7dlhvp","geo_precision":"range","address":"209X E Market St","state":"OH","juris":"PD"},"type":"Feature","geometry":{"type":"Point","coordinates":[-83.172104,41.114989]}},{"properties":{"officer":"JMW","city":"Tiffin","date":{"end_time":"2011/02/23 21:05:50 -0500","original":"2/23/2011 9:05:49 PM","granularity":"sec","time":"2011/02/23 21:05:49 -0500"},"geo_score":0.902,"unit":57,"disposition":"100","zip code":"44883","cfs":14,"call#":11.001742,"id":"a6aeediatfzm","geo_precision":"range","address":"209X E Market St","state":"OH","juris":"PD"},"type":"Feature","geometry":{"type":"Point","coordinates":[-83.172104,41.114989]}},{"properties":{"officer":"JAD","city":"Tiffin","date":{"end_time":"2011/10/09 02:53:13 -0400","original":"10/9/2011 2:53:12 AM","granularity":"sec","time":"2011/10/09 02:53:12 -0400"},"geo_score":0.902,"unit":56,"disposition":"400","zip code":"44883","cfs":14,"call#":11.010532,"id":"a6aeedncsfhx","geo_precision":"range","address":"210 N Washington St","state":"OH","juris":"PD"},"type":"Feature","geometry":{"type":"Point","coordinates":[-83.177997,41.123731]}},{"properties":{"officer":"SMM","city":"Tiffin","date":{"end_time":"2011/01/26 20:52:22 -0500","original":"1/26/2011 8:52:21 PM","granularity":"sec","time":"2011/01/26 20:52:21 -0500"},"geo_score":0.854,"unit":61,"disposition":"200","zip code":"44883","cfs":14,"call#":11.000788,"id":"a6aeeddcqi31","geo_precision":"range","address":"211 Elm Av","state":"OH","juris":"PD"},"type":"Feature","geometry":{"type":"Point","coordinates":[-83.163269,41.123517]}},{"properties":{"officer":"JDW","city":"Tiffin","date":{"end_time":"2011/01/20 16:46:50 -0500","original":"1/20/2011 4:46:49 PM","granularity":"sec","time":"2011/01/20 16:46:49 -0500"},"geo_score":0.902,"unit":60,"disposition":"200","zip code":"44883","cfs":14,"call#":11.000604,"id":"a6aeedgexj0c","geo_precision":"range","address":"211 S Monroe St","state":"OH","juris":"PD"},"type":"Feature","geometry":{"type":"Point","coordinates":[-83.177595,41.110724]}},{"properties":{"officer":"JAD","city":"Tiffin","date":{"end_time":"2011/12/25 00:25:41 -0500","original":"12/25/2011 12:25:40 AM","granularity":"sec","time":"2011/12/25 00:25:40 -0500"},"geo_score":0.902,"unit":56,"disposition":"400","zip code":"44883","cfs":14,"call#":11.013561,"id":"a6aeedmaeab2","geo_precision":"range","address":"211 S Monroe St,6","state":"OH","juris":"PD"},"type":"Feature","geometry":{"type":"Point","coordinates":[-83.178442,41.116135]}},{"properties":{"officer":"SMM","city":"Tiffin","date":{"end_time":"2011/01/27 01:30:17 -0500","original":"1/27/2011 1:30:16 AM","granularity":"sec","time":"2011/01/27 01:30:16 -0500"},"geo_score":0.902,"unit":61,"disposition":"400","zip code":"44883","cfs":14,"call#":11.000792,"id":"a6aeedb2rtso","geo_precision":"range","address":"212 E Perry St,4","state":"OH","juris":"PD"},"type":"Feature","geometry":{"type":"Point","coordinates":[-83.17924,41.1156]}},{"properties":{"officer":"MEM","city":"Tiffin","date":{"end_time":"2011/02/26 12:31:45 -0500","original":"2/26/2011 12:31:44 PM","granularity":"sec","time":"2011/02/26 12:31:44 -0500"},"geo_score":0.902,"unit":63,"disposition":"400","zip code":"44883","cfs":14,"call#":11.001847,"id":"a6aeedla63ua","geo_precision":"range","address":"2128 W Market St","state":"OH","juris":"PD"},"type":"Feature","geometry":{"type":"Point","coordinates":[-83.21221,41.110273]}},{"properties":{"officer":"RLT","city":"Tiffin","date":{"end_time":"2011/07/10 20:58:53 -0400","original":"7/10/2011 8:58:52 PM","granularity":"sec","time":"2011/07/10 20:58:52 -0400"},"geo_score":0.902,"unit":59,"disposition":"200","zip code":"44883","cfs":14,"call#":11.006917,"id":"a6aeeddv6jl2","geo_precision":"range","address":"213 S Sandusky St","state":"OH","juris":"PD"},"type":"Feature","geometry":{"type":"Point","coordinates":[-83.186267,41.114426]}},{"properties":{"officer":"SMM","city":"Tiffin","date":{"end_time":"2011/05/19 00:22:41 -0400","original":"5/19/2011 12:22:40 AM","granularity":"sec","time":"2011/05/19 00:22:40 -0400"},"geo_score":0.902,"unit":58,"disposition":"200","zip code":"44883","cfs":14,"call#":11.004847,"id":"a6aeeda0fpb5","geo_precision":"range","address":"22 W Market St","state":"OH","juris":"PD"},"type":"Feature","geometry":{"type":"Point","coordinates":[-83.181313,41.114126]}},{"properties":{"officer":"RMN","city":"Tiffin","date":{"end_time":"2011/12/24 19:55:41 -0500","original":"12/24/2011 7:55:40 PM","granularity":"sec","time":"2011/12/24 19:55:40 -0500"},"geo_score":0.902,"unit":62,"disposition":"200","zip code":"44883","cfs":14,"call#":11.013557,"id":"a6aeedcafmgy","geo_precision":"range","address":"227 Franklin St","state":"OH","juris":"PD"},"type":"Feature","geometry":{"type":"Point","coordinates":[-83.180494,41.120951]}},{"properties":{"officer":"EDA","city":"Tiffin","date":{"end_time":"2011/07/09 19:11:51 -0400","original":"7/9/2011 7:11:50 PM","granularity":"sec","time":"2011/07/09 19:11:50 -0400"},"geo_score":0.902,"unit":60,"disposition":"100","zip code":"44883","cfs":14,"call#":11.006864,"id":"a6aeedgjmiul","geo_precision":"range","address":"227 Mohawk St","state":"OH","juris":"PD"},"type":"Feature","geometry":{"type":"Point","coordinates":[-83.177951,41.097455]}},{"properties":{"officer":"JDW","city":"Tiffin","date":{"end_time":"2011/10/07 13:28:53 -0400","original":"10/7/2011 1:28:52 PM","granularity":"sec","time":"2011/10/07 13:28:52 -0400"},"geo_score":0.429,"unit":57,"disposition":"200","zip code":"44883","cfs":14,"call#":11.01044,"id":"a6aeedibiaro","geo_precision":"street","address":"227 Mohawk St,B6","state":"OH","juris":"PD"},"type":"Feature","geometry":{"type":"Point","coordinates":[-83.178062,41.103556]}},{"properties":{"officer":"SGN","city":"Tiffin","date":{"end_time":"2011/10/06 12:31:56 -0400","original":"10/6/2011 12:31:55 PM","granularity":"sec","time":"2011/10/06 12:31:55 -0400"},"geo_score":0.429,"unit":59,"disposition":"200","zip code":"44883","cfs":14,"call#":11.010412,"id":"a6aeedm1998f","geo_precision":"street","address":"227 Mohawk St,B6","state":"OH","juris":"PD"},"type":"Feature","geometry":{"type":"Point","coordinates":[-83.178062,41.103556]}},{"properties":{"officer":"EDA","city":"Tiffin","date":{"end_time":"2011/12/26 18:22:27 -0500","original":"12/26/2011 6:22:26 PM","granularity":"sec","time":"2011/12/26 18:22:26 -0500"},"geo_score":0.514,"unit":62,"disposition":"200","zip code":"44883","cfs":14,"call#":11.013609,"id":"a6aeedemdkws","geo_precision":"street","address":"229 Mohawk St,C7","state":"OH","juris":"PD"},"type":"Feature","geometry":{"type":"Point","coordinates":[-83.174672,41.108987]}},{"properties":{"officer":"JAD","city":"Tiffin","date":{"end_time":"2011/07/03 02:09:02 -0400","original":"7/3/2011 2:09:01 AM","granularity":"sec","time":"2011/07/03 02:09:01 -0400"},"geo_score":0.902,"unit":56,"disposition":"200","zip code":"44883","cfs":14,"call#":11.006633,"id":"a6aeeddvjwbo","geo_precision":"range","address":"229 S Monroe St","state":"OH","juris":"PD"},"type":"Feature","geometry":{"type":"Point","coordinates":[-83.177519,41.110282]}},{"properties":{"officer":"JDW","city":"Tiffin","date":{"end_time":"2011/09/17 15:24:06 -0400","original":"9/17/2011 3:24:05 PM","granularity":"sec","time":"2011/09/17 15:24:05 -0400"},"geo_score":0.902,"unit":62,"disposition":"200","zip code":"44883","cfs":14,"call#":11.009666,"id":"a6aeedj6a2qa","geo_precision":"range","address":"23 Carl St","state":"OH","juris":"PD"},"type":"Feature","geometry":{"type":"Point","coordinates":[-83.181968,41.112685]}},{"properties":{"officer":"LMK","city":"Tiffin","date":{"end_time":"2011/08/07 05:31:19 -0400","original":"8/7/2011 5:31:18 AM","granularity":"sec","time":"2011/08/07 05:31:18 -0400"},"geo_score":0.902,"unit":60,"disposition":"200","zip code":"44883","cfs":14,"call#":11.007981,"id":"a6aeedfkxpbf","geo_precision":"range","address":"23 Carl St","state":"OH","juris":"PD"},"type":"Feature","geometry":{"type":"Point","coordinates":[-83.181968,41.112685]}},{"properties":{"officer":"BRB","city":"Tiffin","date":{"end_time":"2011/11/16 15:02:56 -0500","original":"11/16/2011 3:02:55 PM","granularity":"sec","time":"2011/11/16 15:02:55 -0500"},"geo_score":0.902,"unit":63,"disposition":"200","zip code":"44883","cfs":14,"call#":11.012028,"id":"a6aeedkwbn23","geo_precision":"range","address":"23 Elmer St","state":"OH","juris":"PD"},"type":"Feature","geometry":{"type":"Point","coordinates":[-83.193482,41.113691]}},{"properties":{"officer":"SGN","city":"Tiffin","date":{"end_time":"2011/12/16 16:07:22 -0500","original":"12/16/2011 4:07:21 PM","granularity":"sec","time":"2011/12/16 16:07:21 -0500"},"geo_score":0.902,"unit":59,"disposition":"200","zip code":"44883","cfs":14,"call#":11.013258,"id":"a6aeedcnfth0","geo_precision":"range","address":"23 Miami St","state":"OH","juris":"PD"},"type":"Feature","geometry":{"type":"Point","coordinates":[-83.180072,41.117044]}},{"properties":{"officer":"JMW","city":"Tiffin","date":{"end_time":"2011/01/04 22:05:08 -0500","original":"1/4/2011 10:05:07 PM","granularity":"sec","time":"2011/01/04 22:05:07 -0500"},"geo_score":0.902,"unit":57,"disposition":"100","zip code":"44883","cfs":14,"call#":11.000125,"id":"a6aeedctndau","geo_precision":"range","address":"23 Miami St","state":"OH","juris":"PD"},"type":"Feature","geometry":{"type":"Point","coordinates":[-83.180072,41.117044]}},{"properties":{"officer":"GTM","city":"Tiffin","date":{"end_time":"2011/01/30 14:53:13 -0500","original":"1/30/2011 2:53:12 PM","granularity":"sec","time":"2011/01/30 14:53:12 -0500"},"geo_score":0.902,"unit":63,"disposition":"100","zip code":"44883","cfs":14,"call#":11.000927,"id":"a6aeednq2cv5","geo_precision":"range","address":"240 W Market St","state":"OH","juris":"PD"},"type":"Feature","geometry":{"type":"Point","coordinates":[-83.188873,41.113387]}},{"properties":{"officer":"JMW","city":"Tiffin","date":{"end_time":"2011/06/24 21:55:39 -0400","original":"6/24/2011 9:55:38 PM","granularity":"sec","time":"2011/06/24 21:55:38 -0400"},"geo_score":0.902,"unit":61,"disposition":"230","zip code":"44883","cfs":14,"call#":11.00628,"id":"a6aeeddn7xul","geo_precision":"range","address":"245 S Washington St","state":"OH","juris":"PD"},"type":"Feature","geometry":{"type":"Point","coordinates":[-83.175954,41.110653]}},{"properties":{"officer":"BAR","city":"Tiffin","date":{"end_time":"2011/07/28 16:56:59 -0400","original":"7/28/2011 4:56:58 PM","granularity":"sec","time":"2011/07/28 16:56:58 -0400"},"geo_score":0.902,"unit":63,"disposition":"200","zip code":"44883","cfs":14,"call#":11.007563,"id":"a6aeedeaj472","geo_precision":"range","address":"247 S Sandusky St","state":"OH","juris":"PD"},"type":"Feature","geometry":{"type":"Point","coordinates":[-83.186688,41.113627]}},{"properties":{"officer":"MEM","city":"Tiffin","date":{"end_time":"2011/11/13 18:43:51 -0500","original":"11/13/2011 6:43:50 PM","granularity":"sec","time":"2011/11/13 18:43:50 -0500"},"geo_score":0.902,"unit":58,"disposition":"200","zip code":"44883","cfs":14,"call#":11.011911,"id":"a6aeeddm3k0i","geo_precision":"range","address":"24X Johnson St","state":"OH","juris":"PD"},"type":"Feature","geometry":{"type":"Point","coordinates":[-83.165228,41.118289]}},{"properties":{"officer":"FWS","city":"Tiffin","date":{"end_time":"2011/05/17 17:56:55 -0400","original":"5/17/2011 5:56:54 PM","granularity":"sec","time":"2011/05/17 17:56:54 -0400"},"geo_score":0.902,"unit":58,"disposition":"200","zip code":"44883","cfs":14,"call#":11.004796,"id":"a6aeed90nvx4","geo_precision":"range","address":"25 Grace St","state":"OH","juris":"PD"},"type":"Feature","geometry":{"type":"Point","coordinates":[-83.184265,41.120786]}},{"properties":{"officer":"GTM","city":"Tiffin","date":{"end_time":"2011/01/23 13:41:09 -0500","original":"1/23/2011 1:41:08 PM","granularity":"sec","time":"2011/01/23 13:41:08 -0500"},"geo_score":0.902,"unit":63,"disposition":"200","zip code":"44883","cfs":14,"call#":11.000687,"id":"a6aeedj8vxyc","geo_precision":"range","address":"25 Grace St","state":"OH","juris":"PD"},"type":"Feature","geometry":{"type":"Point","coordinates":[-83.184265,41.120786]}},{"properties":{"officer":"JMW","city":"Tiffin","date":{"end_time":"2011/10/18 18:49:03 -0400","original":"10/18/2011 6:49:02 PM","granularity":"sec","time":"2011/10/18 18:49:02 -0400"},"geo_score":0.902,"unit":63,"disposition":"100","zip code":"44883","cfs":14,"call#":11.010887,"id":"a6aeedftdfsi","geo_precision":"range","address":"255 Main St","state":"OH","juris":"PD"},"type":"Feature","geometry":{"type":"Point","coordinates":[-83.164025,41.11237]}},{"properties":{"officer":"JSC","city":"Tiffin","date":{"end_time":"2011/06/05 00:07:47 -0400","original":"6/5/2011 12:07:46 AM","granularity":"sec","time":"2011/06/05 00:07:46 -0400"},"geo_score":0.902,"unit":57,"disposition":"200","zip code":"44883","cfs":14,"call#":11.005524,"id":"a6aeeddse5l7","geo_precision":"range","address":"255 N Washington St","state":"OH","juris":"PD"},"type":"Feature","geometry":{"type":"Point","coordinates":[-83.178157,41.12475]}},{"properties":{"officer":"MEM","city":"Tiffin","date":{"end_time":"2011/08/31 17:38:57 -0400","original":"8/31/2011 5:38:56 PM","granularity":"sec","time":"2011/08/31 17:38:56 -0400"},"geo_score":0.805,"unit":58,"disposition":"200","zip code":"44883","cfs":14,"call#":11.008961,"id":"a6aeedmyexls","geo_precision":"street","address":"255 W Market St","state":"OH","juris":"PD"},"type":"Feature","geometry":{"type":"Point","coordinates":[-83.189461,41.113339]}},{"properties":{"officer":"EDA","city":"Tiffin","date":{"end_time":"2011/06/24 17:57:15 -0400","original":"6/24/2011 5:57:14 PM","granularity":"sec","time":"2011/06/24 17:57:14 -0400"},"geo_score":0.805,"unit":58,"disposition":"200","zip code":"44883","cfs":14,"call#":11.006267,"id":"a6aeedejeojw","geo_precision":"street","address":"255 W Market St","state":"OH","juris":"PD"},"type":"Feature","geometry":{"type":"Point","coordinates":[-83.189461,41.113339]}},{"properties":{"officer":"GTM","city":"Tiffin","date":{"end_time":"2011/04/24 15:35:08 -0400","original":"4/24/2011 3:35:07 PM","granularity":"sec","time":"2011/04/24 15:35:07 -0400"},"geo_score":0.902,"unit":57,"disposition":"200","zip code":"44883","cfs":14,"call#":11.003862,"id":"a6aeedijo915","geo_precision":"range","address":"257 W Market St","state":"OH","juris":"PD"},"type":"Feature","geometry":{"type":"Point","coordinates":[-83.189461,41.113339]}},{"properties":{"officer":"BAR","city":"Tiffin","date":{"end_time":"2011/04/10 02:51:12 -0400","original":"4/10/2011 2:51:11 AM","granularity":"sec","time":"2011/04/10 02:51:11 -0400"},"geo_score":0.902,"unit":63,"disposition":"400","zip code":"44883","cfs":14,"call#":11.003286,"id":"a6aeedk44tkm","geo_precision":"range","address":"26 N Washington St","state":"OH","juris":"PD"},"type":"Feature","geometry":{"type":"Point","coordinates":[-83.177159,41.118471]}},{"properties":{"officer":"BAR","city":"Tiffin","date":{"end_time":"2011/06/02 19:29:36 -0400","original":"6/2/2011 7:29:35 PM","granularity":"sec","time":"2011/06/02 19:29:35 -0400"},"geo_score":0.902,"unit":63,"disposition":"200","zip code":"44883","cfs":14,"call#":11.005435,"id":"a6aeedi7a6c8","geo_precision":"range","address":"265 Jackson St","state":"OH","juris":"PD"},"type":"Feature","geometry":{"type":"Point","coordinates":[-83.183602,41.120439]}},{"properties":{"officer":"BAR","city":"Tiffin","date":{"end_time":"2011/07/29 18:08:55 -0400","original":"7/29/2011 6:08:54 PM","granularity":"sec","time":"2011/07/29 18:08:54 -0400"},"geo_score":0.902,"unit":63,"disposition":"100","zip code":"44883","cfs":14,"call#":11.007625,"id":"a6aeedgh1pzl","geo_precision":"range","address":"265 N Washington St","state":"OH","juris":"PD"},"type":"Feature","geometry":{"type":"Point","coordinates":[-83.178186,41.124992]}},{"properties":{"officer":"JAD","city":"Tiffin","date":{"end_time":"2011/10/09 02:34:20 -0400","original":"10/9/2011 2:34:19 AM","granularity":"sec","time":"2011/10/09 02:34:19 -0400"},"geo_score":0.902,"unit":56,"disposition":"200","zip code":"44883","cfs":14,"call#":11.01053,"id":"a6aeedh92knw","geo_precision":"range","address":"266 S Washington St","state":"OH","juris":"PD"},"type":"Feature","geometry":{"type":"Point","coordinates":[-83.175874,41.11022]}},{"properties":{"officer":"FWS","city":"Tiffin","date":{"end_time":"2011/10/12 15:47:19 -0400","original":"10/12/2011 3:47:18 PM","granularity":"sec","time":"2011/10/12 15:47:18 -0400"},"geo_score":0.717,"unit":58,"disposition":"200","zip code":"44883","cfs":14,"call#":11.010684,"id":"a6aeedkkc85t","geo_precision":"street","address":"269 S Washington St,1","state":"OH","juris":"PD"},"type":"Feature","geometry":{"type":"Point","coordinates":[-83.176943,41.117025]}},{"properties":{"officer":"BAR","city":"Tiffin","date":{"end_time":"2011/03/20 20:11:50 -0400","original":"3/20/2011 8:11:49 PM","granularity":"sec","time":"2011/03/20 20:11:49 -0400"},"geo_score":0.902,"unit":59,"disposition":"100","zip code":"44883","cfs":14,"call#":11.002568,"id":"a6aeedizrkio","geo_precision":"range","address":"272 N Sandusky St","state":"OH","juris":"PD"},"type":"Feature","geometry":{"type":"Point","coordinates":[-83.178238,41.126053]}},{"properties":{"officer":"BAR","city":"Tiffin","date":{"end_time":"2011/08/21 02:39:34 -0400","original":"8/21/2011 2:39:33 AM","granularity":"sec","time":"2011/08/21 02:39:33 -0400"},"geo_score":0.902,"unit":63,"disposition":"200","zip code":"44883","cfs":14,"call#":11.008522,"id":"a6aeedhf3ual","geo_precision":"range","address":"275 S Washington St","state":"OH","juris":"PD"},"type":"Feature","geometry":{"type":"Point","coordinates":[-83.17585,41.110025]}},{"properties":{"officer":"RMN","city":"Tiffin","date":{"end_time":"2011/12/19 17:09:44 -0500","original":"12/19/2011 5:09:43 PM","granularity":"sec","time":"2011/12/19 17:09:43 -0500"},"geo_score":0.902,"unit":59,"disposition":"200","zip code":"44883","cfs":14,"call#":11.013385,"id":"a6aeeddjbmgc","geo_precision":"range","address":"275X Jefferson St","state":"OH","juris":"PD"},"type":"Feature","geometry":{"type":"Point","coordinates":[-83.17424,41.110185]}},{"properties":{"officer":"SMM","city":"Tiffin","date":{"end_time":"2011/10/25 22:40:50 -0400","original":"10/25/2011 10:40:49 PM","granularity":"sec","time":"2011/10/25 22:40:49 -0400"},"geo_score":0.902,"unit":59,"disposition":"200","zip code":"44883","cfs":14,"call#":11.011154,"id":"a6aeedczhgvh","geo_precision":"range","address":"28 Miami St","state":"OH","juris":"PD"},"type":"Feature","geometry":{"type":"Point","coordinates":[-83.180216,41.117119]}},{"properties":{"officer":"JDW","city":"Tiffin","date":{"end_time":"2011/09/15 15:15:06 -0400","original":"9/15/2011 3:15:05 PM","granularity":"sec","time":"2011/09/15 15:15:05 -0400"},"geo_score":0.902,"unit":63,"disposition":"200","zip code":"44883","cfs":14,"call#":11.009556,"id":"a6aeedaip0k3","geo_precision":"range","address":"28 Miami St","state":"OH","juris":"PD"},"type":"Feature","geometry":{"type":"Point","coordinates":[-83.180216,41.117119]}},{"properties":{"officer":"LMK","city":"Tiffin","date":{"end_time":"2011/03/08 23:27:51 -0500","original":"3/8/2011 11:27:50 PM","granularity":"sec","time":"2011/03/08 23:27:50 -0500"},"geo_score":0.902,"unit":58,"disposition":"200","zip code":"44883","cfs":14,"call#":11.002212,"id":"a6aeedj3c9xf","geo_precision":"range","address":"28 Walker St","state":"OH","juris":"PD"},"type":"Feature","geometry":{"type":"Point","coordinates":[-83.171708,41.110726]}},{"properties":{"officer":"RLT","city":"Tiffin","date":{"end_time":"2011/12/20 01:57:34 -0500","original":"12/20/2011 1:57:33 AM","granularity":"sec","time":"2011/12/20 01:57:33 -0500"},"geo_score":0.582,"unit":63,"disposition":"200","zip code":"44883","cfs":14,"call#":11.013402,"id":"a6aeedebifed","geo_precision":"street","address":"2801 W Sr 18","state":"OH","juris":"PD"},"type":"Feature","geometry":{"type":"Point","coordinates":[-83.278292,41.108823]}},{"properties":{"officer":"LMK","city":"Tiffin","date":{"end_time":"2011/10/06 19:18:29 -0400","original":"10/6/2011 7:18:28 PM","granularity":"sec","time":"2011/10/06 19:18:28 -0400"},"geo_score":0.756,"unit":58,"disposition":"400","zip code":"44883","cfs":14,"call#":11.010422,"id":"a6aeedl2wc3a","geo_precision":"range","address":"281 Fourth Av","state":"OH","juris":"PD"},"type":"Feature","geometry":{"type":"Point","coordinates":[-83.185195,41.130437]}},{"properties":{"officer":"LMK","city":"Tiffin","date":{"end_time":"2011/01/11 01:17:54 -0500","original":"1/11/2011 1:17:53 AM","granularity":"sec","time":"2011/01/11 01:17:53 -0500"},"geo_score":0.902,"unit":58,"disposition":"200","zip code":"44883","cfs":14,"call#":11.000291,"id":"a6aeede3q6v6","geo_precision":"range","address":"283 S Washington St","state":"OH","juris":"PD"},"type":"Feature","geometry":{"type":"Point","coordinates":[-83.175825,41.10983]}},{"properties":{"officer":"GTM","city":"Tiffin","date":{"end_time":"2011/08/22 12:40:25 -0400","original":"8/22/2011 12:40:24 PM","granularity":"sec","time":"2011/08/22 12:40:24 -0400"},"geo_score":0.902,"unit":59,"disposition":"400","zip code":"44883","cfs":14,"call#":11.008563,"id":"a6aeed90a4zw","geo_precision":"range","address":"289 Hall St","state":"OH","juris":"PD"},"type":"Feature","geometry":{"type":"Point","coordinates":[-83.187294,41.123665]}},{"properties":{"officer":"MMS","city":"Tiffin","date":{"end_time":"2011/10/09 02:36:36 -0400","original":"10/9/2011 2:36:35 AM","granularity":"sec","time":"2011/10/09 02:36:35 -0400"},"geo_score":0.902,"unit":58,"disposition":"200","zip code":"44883","cfs":14,"call#":11.010531,"id":"a6aeedhi3nna","geo_precision":"range","address":"29 Center St","state":"OH","juris":"PD"},"type":"Feature","geometry":{"type":"Point","coordinates":[-83.183433,41.114521]}},{"properties":{"officer":"MEM","city":"Tiffin","date":{"end_time":"2011/08/17 18:18:13 -0400","original":"8/17/2011 6:18:12 PM","granularity":"sec","time":"2011/08/17 18:18:12 -0400"},"geo_score":0.902,"unit":58,"disposition":"400","zip code":"44883","cfs":14,"call#":11.008378,"id":"a6aeedgn06ja","geo_precision":"range","address":"30 Morningside Dr","state":"OH","juris":"PD"},"type":"Feature","geometry":{"type":"Point","coordinates":[-83.190564,41.103102]}},{"properties":{"officer":"JPF","city":"Tiffin","date":{"end_time":"2011/12/07 14:57:54 -0500","original":"12/7/2011 2:57:53 PM","granularity":"sec","time":"2011/12/07 14:57:53 -0500"},"geo_score":0.902,"unit":57,"disposition":"450","zip code":"44883","cfs":14,"call#":11.012859,"id":"a6aeedb55hr6","geo_precision":"range","address":"300 S Monroe St","state":"OH","juris":"PD"},"type":"Feature","geometry":{"type":"Point","coordinates":[-83.177173,41.107991]}},{"properties":{"officer":"SGN","city":"Tiffin","date":{"end_time":"2011/03/16 08:15:11 -0400","original":"3/16/2011 8:15:10 AM","granularity":"sec","time":"2011/03/16 08:15:10 -0400"},"geo_score":0.902,"unit":59,"disposition":"200","zip code":"44883","cfs":14,"call#":11.002411,"id":"a6aeedhjdb51","geo_precision":"range","address":"300 S Monroe St","state":"OH","juris":"PD"},"type":"Feature","geometry":{"type":"Point","coordinates":[-83.177173,41.107991]}},{"properties":{"officer":"GTM","city":"Tiffin","date":{"end_time":"2011/05/01 12:29:23 -0400","original":"5/1/2011 12:29:22 PM","granularity":"sec","time":"2011/05/01 12:29:22 -0400"},"geo_score":0.902,"unit":57,"disposition":"400","zip code":"44883","cfs":14,"call#":11.004195,"id":"a6aeedm4hg42","geo_precision":"range","address":"308 Wall St","state":"OH","juris":"PD"},"type":"Feature","geometry":{"type":"Point","coordinates":[-83.18675,41.123383]}},{"properties":{"officer":"GTM","city":"Tiffin","date":{"end_time":"2011/05/08 18:07:06 -0400","original":"5/8/2011 6:07:05 PM","granularity":"sec","time":"2011/05/08 18:07:05 -0400"},"geo_score":0.902,"unit":57,"disposition":"200","zip code":"44883","cfs":14,"call#":11.004463,"id":"a6aeedau33jz","geo_precision":"range","address":"311 Noble St","state":"OH","juris":"PD"},"type":"Feature","geometry":{"type":"Point","coordinates":[-83.183724,41.123879]}},{"properties":{"officer":"JMW","city":"Tiffin","date":{"end_time":"2011/10/20 18:55:35 -0400","original":"10/20/2011 6:55:34 PM","granularity":"sec","time":"2011/10/20 18:55:34 -0400"},"geo_score":0.902,"unit":60,"disposition":"200","zip code":"44883","cfs":14,"call#":11.010951,"id":"a6aeedhlkt4a","geo_precision":"range","address":"314 S Sandusky St","state":"OH","juris":"PD"},"type":"Feature","geometry":{"type":"Point","coordinates":[-83.187977,41.11209]}},{"properties":{"officer":"JPF","city":"Tiffin","date":{"end_time":"2011/09/22 21:49:46 -0400","original":"9/22/2011 9:49:45 PM","granularity":"sec","time":"2011/09/22 21:49:45 -0400"},"geo_score":0.902,"unit":59,"disposition":"200","zip code":"44883","cfs":14,"call#":11.00987,"id":"a6aeedgzj0dt","geo_precision":"range","address":"315 W Market St","state":"OH","juris":"PD"},"type":"Feature","geometry":{"type":"Point","coordinates":[-83.191142,41.113162]}},{"properties":{"officer":"JMW","city":"Tiffin","date":{"end_time":"2011/09/07 18:46:55 -0400","original":"9/7/2011 6:46:54 PM","granularity":"sec","time":"2011/09/07 18:46:54 -0400"},"geo_score":0.902,"unit":63,"disposition":"400","zip code":"44883","cfs":14,"call#":11.009258,"id":"a6aeedb7x8go","geo_precision":"range","address":"315 W Market St","state":"OH","juris":"PD"},"type":"Feature","geometry":{"type":"Point","coordinates":[-83.191142,41.113162]}},{"properties":{"officer":"SMM","city":"Tiffin","date":{"end_time":"2011/06/17 00:16:47 -0400","original":"6/17/2011 12:16:46 AM","granularity":"sec","time":"2011/06/17 00:16:46 -0400"},"geo_score":0.902,"unit":59,"disposition":"200","zip code":"44883","cfs":14,"call#":11.00597,"id":"a6aeedghssxo","geo_precision":"range","address":"318 W Market St","state":"OH","juris":"PD"},"type":"Feature","geometry":{"type":"Point","coordinates":[-83.191227,41.113152]}},{"properties":{"officer":"JMW","city":"Tiffin","date":{"end_time":"2011/03/08 17:54:22 -0500","original":"3/8/2011 5:54:21 PM","granularity":"sec","time":"2011/03/08 17:54:21 -0500"},"geo_score":0.902,"unit":57,"disposition":"200","zip code":"44883","cfs":14,"call#":11.002201,"id":"a6aeedbprp3q","geo_precision":"range","address":"318 W Market St","state":"OH","juris":"PD"},"type":"Feature","geometry":{"type":"Point","coordinates":[-83.191227,41.113152]}},{"properties":{"officer":"LMK","city":"Tiffin","date":{"end_time":"2011/11/18 22:59:37 -0500","original":"11/18/2011 10:59:36 PM","granularity":"sec","time":"2011/11/18 22:59:36 -0500"},"geo_score":0.805,"unit":62,"disposition":"200","zip code":"44883","cfs":14,"call#":11.012135,"id":"a6aeedbxi8pu","geo_precision":"street","address":"319 S Monroe St","state":"OH","juris":"PD"},"type":"Feature","geometry":{"type":"Point","coordinates":[-83.177116,41.107532]}},{"properties":{"officer":"EDA","city":"Tiffin","date":{"end_time":"2011/12/10 20:36:31 -0500","original":"12/10/2011 8:36:30 PM","granularity":"sec","time":"2011/12/10 20:36:30 -0500"},"geo_score":0.902,"unit":62,"disposition":"200","zip code":"44883","cfs":14,"call#":11.013003,"id":"a6aeedd4zm20","geo_precision":"range","address":"321 E Perry St","state":"OH","juris":"PD"},"type":"Feature","geometry":{"type":"Point","coordinates":[-83.167735,41.116985]}},{"properties":{"officer":"FWS","city":"Tiffin","date":{"end_time":"2011/05/05 01:59:34 -0400","original":"5/5/2011 1:59:33 AM","granularity":"sec","time":"2011/05/05 01:59:33 -0400"},"geo_score":0.902,"unit":60,"disposition":"200","zip code":"44883","cfs":14,"call#":11.004306,"id":"a6aeedhqm0zx","geo_precision":"range","address":"329 W Market St","state":"OH","juris":"PD"},"type":"Feature","geometry":{"type":"Point","coordinates":[-83.191758,41.113127]}},{"properties":{"officer":"LMK","city":"Tiffin","date":{"end_time":"2011/08/05 21:00:07 -0400","original":"8/5/2011 9:00:06 PM","granularity":"sec","time":"2011/08/05 21:00:06 -0400"},"geo_score":0.902,"unit":57,"disposition":"200","zip code":"44883","cfs":14,"call#":11.007921,"id":"a6aeedd4uah4","geo_precision":"range","address":"32X Sycamore St","state":"OH","juris":"PD"},"type":"Feature","geometry":{"type":"Point","coordinates":[-83.17631,41.108801]}},{"properties":{"officer":"JDW","city":"Tiffin","date":{"end_time":"2011/05/18 20:49:00 -0400","original":"5/18/2011 8:48:59 PM","granularity":"sec","time":"2011/05/18 20:48:59 -0400"},"geo_score":0.902,"unit":63,"disposition":"400","zip code":"44883","cfs":14,"call#":11.004837,"id":"a6aeed7k3n34","geo_precision":"range","address":"337 Wall St","state":"OH","juris":"PD"},"type":"Feature","geometry":{"type":"Point","coordinates":[-83.186776,41.124216]}},{"properties":{"officer":"RMN","city":"Tiffin","date":{"end_time":"2011/08/02 02:51:55 -0400","original":"8/2/2011 2:51:54 AM","granularity":"sec","time":"2011/08/02 02:51:54 -0400"},"geo_score":0.902,"unit":57,"disposition":"450","zip code":"44883","cfs":14,"call#":11.007803,"id":"a6aeedkrfhir","geo_precision":"range","address":"339 S Monroe St","state":"OH","juris":"PD"},"type":"Feature","geometry":{"type":"Point","coordinates":[-83.177065,41.107119]}},{"properties":{"officer":"JPF","city":"Tiffin","date":{"end_time":"2011/05/08 01:07:39 -0400","original":"5/8/2011 1:07:38 AM","granularity":"sec","time":"2011/05/08 01:07:38 -0400"},"geo_score":0.902,"unit":59,"disposition":"200","zip code":"44883","cfs":14,"call#":11.004442,"id":"a6aeedbi16zt","geo_precision":"range","address":"345 Benner St","state":"OH","juris":"PD"},"type":"Feature","geometry":{"type":"Point","coordinates":[-83.186594,41.112513]}},{"properties":{"officer":"BRB","city":"Tiffin","date":{"end_time":"2011/01/03 14:39:54 -0500","original":"1/3/2011 2:39:53 PM","granularity":"sec","time":"2011/01/03 14:39:53 -0500"},"geo_score":0.902,"unit":59,"disposition":"200","zip code":"44883","cfs":14,"call#":11.000086,"id":"a6aeedcsr60v","geo_precision":"range","address":"35 Huss St","state":"OH","juris":"PD"},"type":"Feature","geometry":{"type":"Point","coordinates":[-83.167585,41.131124]}},{"properties":{"officer":"JPF","city":"Tiffin","date":{"end_time":"2011/09/30 20:03:55 -0400","original":"9/30/2011 8:03:54 PM","granularity":"sec","time":"2011/09/30 20:03:54 -0400"},"geo_score":0.876,"unit":59,"disposition":"200","zip code":"44883","cfs":14,"call#":11.010189,"id":"a6aeedijzsw1","geo_precision":"range","address":"35 Virginia Av","state":"OH","juris":"PD"},"type":"Feature","geometry":{"type":"Point","coordinates":[-83.191749,41.115621]}},{"properties":{"officer":"JAD","city":"Tiffin","date":{"end_time":"2011/10/01 03:04:23 -0400","original":"10/1/2011 3:04:22 AM","granularity":"sec","time":"2011/10/01 03:04:22 -0400"},"geo_score":0.902,"unit":56,"disposition":"200","zip code":"44883","cfs":14,"call#":11.010202,"id":"a6aeed8clpcv","geo_precision":"range","address":"35 W Perry St","state":"OH","juris":"PD"},"type":"Feature","geometry":{"type":"Point","coordinates":[-83.181409,41.115373]}},{"properties":{"officer":"BRB","city":"Tiffin","date":{"end_time":"2011/11/22 10:49:32 -0500","original":"11/22/2011 10:49:31 AM","granularity":"sec","time":"2011/11/22 10:49:31 -0500"},"geo_score":0.902,"unit":63,"disposition":"200","zip code":"44883","cfs":14,"call#":11.012275,"id":"a6aeed9ocwx1","geo_precision":"range","address":"355 E Perry St","state":"OH","juris":"PD"},"type":"Feature","geometry":{"type":"Point","coordinates":[-83.165345,41.117556]}},{"properties":{"officer":"SMM","city":"Tiffin","date":{"end_time":"2011/01/22 06:22:33 -0500","original":"1/22/2011 6:22:32 AM","granularity":"sec","time":"2011/01/22 06:22:32 -0500"},"geo_score":0.873,"unit":60,"disposition":"400","zip code":"44883","cfs":14,"call#":11.000652,"id":"a6aeedndybcl","geo_precision":"range","address":"36 Clinton Av","state":"OH","juris":"PD"},"type":"Feature","geometry":{"type":"Point","coordinates":[-83.170812,41.117312]}},{"properties":{"officer":"PJD","city":"Tiffin","date":{"end_time":"2011/08/02 00:34:43 -0400","original":"8/2/2011 12:34:42 AM","granularity":"sec","time":"2011/08/02 00:34:42 -0400"},"geo_score":0.707,"unit":60,"disposition":"200","zip code":"44883","cfs":14,"call#":11.007798,"id":"a6aeedmdpnqh","geo_precision":"range","address":"36 Fair Ln","state":"OH","juris":"PD"},"type":"Feature","geometry":{"type":"Point","coordinates":[-83.166786,41.207584]}},{"properties":{"officer":"SMM","city":"Tiffin","date":{"end_time":"2011/07/06 06:03:42 -0400","original":"7/6/2011 6:03:41 AM","granularity":"sec","time":"2011/07/06 06:03:41 -0400"},"geo_score":0.902,"unit":59,"disposition":"400","zip code":"44883","cfs":14,"call#":11.006743,"id":"a6aeed8t6xsj","geo_precision":"range","address":"36 Maple St","state":"OH","juris":"PD"},"type":"Feature","geometry":{"type":"Point","coordinates":[-83.184298,41.112965]}},{"properties":{"officer":"JPF","city":"Tiffin","date":{"end_time":"2011/04/01 19:56:33 -0400","original":"4/1/2011 7:56:32 PM","granularity":"sec","time":"2011/04/01 19:56:32 -0400"},"geo_score":0.902,"unit":59,"disposition":"200","zip code":"44883","cfs":14,"call#":11.002923,"id":"a6aeedfpz2in","geo_precision":"range","address":"362 Wall St","state":"OH","juris":"PD"},"type":"Feature","geometry":{"type":"Point","coordinates":[-83.186793,41.12471]}},{"properties":{"officer":"RJO","city":"Tiffin","date":{"end_time":"2011/05/06 16:01:08 -0400","original":"5/6/2011 4:01:07 PM","granularity":"sec","time":"2011/05/06 16:01:07 -0400"},"geo_score":0.902,"unit":60,"disposition":"200","zip code":"44883","cfs":14,"call#":11.004367,"id":"a6aeedgo4ysu","geo_precision":"range","address":"366 Wentz St","state":"OH","juris":"PD"},"type":"Feature","geometry":{"type":"Point","coordinates":[-83.198801,41.11361]}},{"properties":{"officer":"AMR","city":"Tiffin","date":{"end_time":"2011/03/21 21:42:20 -0400","original":"3/21/2011 9:42:19 PM","granularity":"sec","time":"2011/03/21 21:42:19 -0400"},"geo_score":0.902,"unit":63,"disposition":"400","zip code":"44883","cfs":14,"call#":11.002606,"id":"a6aeedhle8kq","geo_precision":"range","address":"366 Wentz St","state":"OH","juris":"PD"},"type":"Feature","geometry":{"type":"Point","coordinates":[-83.198801,41.11361]}},{"properties":{"officer":"DES","city":"Tiffin","date":{"end_time":"2011/03/11 10:43:53 -0500","original":"3/11/2011 10:43:52 AM","granularity":"sec","time":"2011/03/11 10:43:52 -0500"},"geo_score":0.902,"unit":61,"disposition":"200","zip code":"44883","cfs":14,"call#":11.002288,"id":"a6aeedmhp545","geo_precision":"range","address":"366 Wentz St","state":"OH","juris":"PD"},"type":"Feature","geometry":{"type":"Point","coordinates":[-83.198801,41.11361]}},{"properties":{"officer":"JAD","city":"Tiffin","date":{"end_time":"2011/03/10 22:21:13 -0500","original":"3/10/2011 10:21:12 PM","granularity":"sec","time":"2011/03/10 22:21:12 -0500"},"geo_score":0.902,"unit":56,"disposition":"400","zip code":"44883","cfs":14,"call#":11.002272,"id":"a6aeedl9we1s","geo_precision":"range","address":"366 Wentz St","state":"OH","juris":"PD"},"type":"Feature","geometry":{"type":"Point","coordinates":[-83.198801,41.11361]}},{"properties":{"officer":"EDA","city":"Tiffin","date":{"end_time":"2011/02/12 17:31:36 -0500","original":"2/12/2011 5:31:35 PM","granularity":"sec","time":"2011/02/12 17:31:35 -0500"},"geo_score":0.902,"unit":59,"disposition":"400","zip code":"44883","cfs":14,"call#":11.001406,"id":"a6aeedlb3xn4","geo_precision":"range","address":"366 Wentz St","state":"OH","juris":"PD"},"type":"Feature","geometry":{"type":"Point","coordinates":[-83.198801,41.11361]}},{"properties":{"officer":"SGN","city":"Tiffin","date":{"end_time":"2011/02/08 08:40:25 -0500","original":"2/8/2011 8:40:24 AM","granularity":"sec","time":"2011/02/08 08:40:24 -0500"},"geo_score":0.902,"unit":59,"disposition":"200","zip code":"44883","cfs":14,"call#":11.001234,"id":"a6aeedecf1bo","geo_precision":"range","address":"366 Wentz St","state":"OH","juris":"PD"},"type":"Feature","geometry":{"type":"Point","coordinates":[-83.198801,41.11361]}},{"properties":{"officer":"BRB","city":"Tiffin","date":{"end_time":"2011/05/01 14:45:23 -0400","original":"5/1/2011 2:45:22 PM","granularity":"sec","time":"2011/05/01 14:45:22 -0400"},"geo_score":0.902,"unit":63,"disposition":"200","zip code":"44883","cfs":14,"call#":11.004198,"id":"a6aeedkysa04","geo_precision":"range","address":"37 Fostoria St","state":"OH","juris":"PD"},"type":"Feature","geometry":{"type":"Point","coordinates":[-83.196953,41.114719]}},{"properties":{"officer":"GTM","city":"Tiffin","date":{"end_time":"2011/04/24 13:02:18 -0400","original":"4/24/2011 1:02:17 PM","granularity":"sec","time":"2011/04/24 13:02:17 -0400"},"geo_score":0.902,"unit":57,"disposition":"200","zip code":"44883","cfs":14,"call#":11.003857,"id":"a6aeedjzh0a6","geo_precision":"range","address":"372 W Perry St","state":"OH","juris":"PD"},"type":"Feature","geometry":{"type":"Point","coordinates":[-83.19373,41.114379]}},{"properties":{"officer":"JSC","city":"Tiffin","date":{"end_time":"2011/10/27 23:55:25 -0400","original":"10/27/2011 11:55:24 PM","granularity":"sec","time":"2011/10/27 23:55:24 -0400"},"geo_score":0.873,"unit":58,"disposition":"200","zip code":"44883","cfs":14,"call#":11.011239,"id":"a6aeedip7pby","geo_precision":"range","address":"38 Clinton Av","state":"OH","juris":"PD"},"type":"Feature","geometry":{"type":"Point","coordinates":[-83.170802,41.117347]}},{"properties":{"officer":"BRB","city":"Tiffin","date":{"end_time":"2011/07/26 11:52:40 -0400","original":"7/26/2011 11:52:39 AM","granularity":"sec","time":"2011/07/26 11:52:39 -0400"},"geo_score":0.902,"unit":57,"disposition":"200","zip code":"44883","cfs":14,"call#":11.007501,"id":"a6aeedljjszy","geo_precision":"range","address":"385X E Perry St","state":"OH","juris":"PD"},"type":"Feature","geometry":{"type":"Point","coordinates":[-83.165299,41.117572]}},{"properties":{"officer":"EDA","city":"Tiffin","date":{"end_time":"2011/04/10 06:21:00 -0400","original":"4/10/2011 6:20:00 AM","granularity":"min","time":"2011/04/10 06:20:00 -0400"},"geo_score":0.902,"unit":57,"disposition":"400","zip code":"44883","cfs":14,"call#":11.003291,"id":"a6aeed7mt0su","geo_precision":"range","address":"387 W Perry St","state":"OH","juris":"PD"},"type":"Feature","geometry":{"type":"Point","coordinates":[-83.194107,41.114312]}},{"properties":{"officer":"MEM","city":"Tiffin","date":{"end_time":"2011/05/27 14:03:31 -0400","original":"5/27/2011 2:03:30 PM","granularity":"sec","time":"2011/05/27 14:03:30 -0400"},"geo_score":0.429,"unit":63,"disposition":"200","zip code":"44883","cfs":14,"call#":11.005167,"id":"a6aeedn70lkg","geo_precision":"street","address":"388 S Washington St,B","state":"OH","juris":"PD"},"type":"Feature","geometry":{"type":"Point","coordinates":[-83.177111,41.118089]}},{"properties":{"officer":"JPF","city":"Tiffin","date":{"end_time":"2011/04/28 19:31:26 -0400","original":"4/28/2011 7:31:25 PM","granularity":"sec","time":"2011/04/28 19:31:25 -0400"},"geo_score":0.429,"unit":59,"disposition":"230","zip code":"44883","cfs":14,"call#":11.004017,"id":"a6aeedhczt4a","geo_precision":"street","address":"388 S Washington St,B","state":"OH","juris":"PD"},"type":"Feature","geometry":{"type":"Point","coordinates":[-83.177111,41.118089]}},{"properties":{"officer":"JDW","city":"Tiffin","date":{"end_time":"2011/09/07 14:35:52 -0400","original":"9/7/2011 2:35:51 PM","granularity":"sec","time":"2011/09/07 14:35:51 -0400"},"geo_score":0.514,"unit":60,"disposition":"100","zip code":"44883","cfs":14,"call#":11.00925,"id":"a6aeedndzk0w","geo_precision":"street","address":"39 W Perry St,C","state":"OH","juris":"PD"},"type":"Feature","geometry":{"type":"Point","coordinates":[-83.174672,41.108987]}},{"properties":{"officer":"LMK","city":"Tiffin","date":{"end_time":"2011/05/11 21:36:06 -0400","original":"5/11/2011 9:36:05 PM","granularity":"sec","time":"2011/05/11 21:36:05 -0400"},"geo_score":0.902,"unit":63,"disposition":"200","zip code":"44883","cfs":14,"call#":11.004583,"id":"a6aeedmzv3v4","geo_precision":"range","address":"397 W Market St","state":"OH","juris":"PD"},"type":"Feature","geometry":{"type":"Point","coordinates":[-83.193972,41.1129]}},{"properties":{"officer":"SMM","city":"Tiffin","date":{"end_time":"2011/04/28 00:04:28 -0400","original":"4/28/2011 12:04:27 AM","granularity":"sec","time":"2011/04/28 00:04:27 -0400"},"geo_score":0.902,"unit":61,"disposition":"200","zip code":"44883","cfs":14,"call#":11.003978,"id":"a6aeedkbc2vx","geo_precision":"range","address":"397 W Market St","state":"OH","juris":"PD"},"type":"Feature","geometry":{"type":"Point","coordinates":[-83.193972,41.1129]}},{"properties":{"officer":"FWS","city":"Tiffin","date":{"end_time":"2011/04/19 21:14:03 -0400","original":"4/19/2011 9:14:02 PM","granularity":"sec","time":"2011/04/19 21:14:02 -0400"},"geo_score":0.902,"unit":60,"disposition":"400","zip code":"44883","cfs":14,"call#":11.003666,"id":"a6aeedmhr7md","geo_precision":"range","address":"40 W Market St","state":"OH","juris":"PD"},"type":"Feature","geometry":{"type":"Point","coordinates":[-83.181821,41.114081]}},{"properties":{"officer":"SGN","city":"Tiffin","date":{"end_time":"2011/03/16 13:30:37 -0400","original":"3/16/2011 1:30:36 PM","granularity":"sec","time":"2011/03/16 13:30:36 -0400"},"geo_score":0.902,"unit":59,"disposition":"200","zip code":"44883","cfs":14,"call#":11.002419,"id":"a6aeedm3ape2","geo_precision":"range","address":"400X N Sandusky St","state":"OH","juris":"PD"},"type":"Feature","geometry":{"type":"Point","coordinates":[-83.175902,41.129233]}},{"properties":{"officer":"SGN","city":"Tiffin","date":{"end_time":"2011/10/13 13:57:41 -0400","original":"10/13/2011 1:57:40 PM","granularity":"sec","time":"2011/10/13 13:57:40 -0400"},"geo_score":0.902,"unit":59,"disposition":"100","zip code":"44883","cfs":14,"call#":11.010712,"id":"a6aeedglmuam","geo_precision":"range","address":"40X N Washington St","state":"OH","juris":"PD"},"type":"Feature","geometry":{"type":"Point","coordinates":[-83.177211,41.118721]}},{"properties":{"officer":"JPF","city":"Tiffin","date":{"end_time":"2011/03/03 00:16:33 -0500","original":"3/3/2011 12:16:32 AM","granularity":"sec","time":"2011/03/03 00:16:32 -0500"},"geo_score":0.902,"unit":59,"disposition":"200","zip code":"44883","cfs":14,"call#":11.001985,"id":"a6aeednpy84s","geo_precision":"range","address":"40X N Washington St","state":"OH","juris":"PD"},"type":"Feature","geometry":{"type":"Point","coordinates":[-83.177211,41.118721]}},{"properties":{"officer":"LMK","city":"Tiffin","date":{"end_time":"2011/09/24 21:57:08 -0400","original":"9/24/2011 9:57:07 PM","granularity":"sec","time":"2011/09/24 21:57:07 -0400"},"geo_score":0.902,"unit":60,"disposition":"200","zip code":"44883","cfs":14,"call#":11.009952,"id":"a6aeedam34l3","geo_precision":"range","address":"412 Sycamore St","state":"OH","juris":"PD"},"type":"Feature","geometry":{"type":"Point","coordinates":[-83.180915,41.103723]}},{"properties":{"officer":"GTM","city":"Tiffin","date":{"end_time":"2011/08/06 08:43:38 -0400","original":"8/6/2011 8:43:37 AM","granularity":"sec","time":"2011/08/06 08:43:37 -0400"},"geo_score":0.902,"unit":59,"disposition":"200","zip code":"44883","cfs":14,"call#":11.007938,"id":"a6aeednis6sk","geo_precision":"range","address":"419 S Washington St","state":"OH","juris":"PD"},"type":"Feature","geometry":{"type":"Point","coordinates":[-83.175246,41.106172]}},{"properties":{"officer":"GTM","city":"Tiffin","date":{"end_time":"2011/12/31 10:00:21 -0500","original":"12/31/2011 10:00:20 AM","granularity":"sec","time":"2011/12/31 10:00:20 -0500"},"geo_score":0.902,"unit":62,"disposition":"400","zip code":"44883","cfs":14,"call#":11.013747,"id":"a6aeede2y9uz","geo_precision":"range","address":"43 Minerva St","state":"OH","juris":"PD"},"type":"Feature","geometry":{"type":"Point","coordinates":[-83.176061,41.12171]}},{"properties":{"officer":"MEM","city":"Tiffin","date":{"end_time":"2011/05/05 14:51:27 -0400","original":"5/5/2011 2:51:26 PM","granularity":"sec","time":"2011/05/05 14:51:26 -0400"},"geo_score":0.902,"unit":61,"disposition":"200","zip code":"44883","cfs":14,"call#":11.004319,"id":"a6aeedkpnqhs","geo_precision":"range","address":"431 Water St","state":"OH","juris":"PD"},"type":"Feature","geometry":{"type":"Point","coordinates":[-83.172503,41.12425]}},{"properties":{"officer":"FWS","city":"Tiffin","date":{"end_time":"2011/11/14 13:46:27 -0500","original":"11/14/2011 1:46:26 PM","granularity":"sec","time":"2011/11/14 13:46:26 -0500"},"geo_score":0.902,"unit":58,"disposition":"200","zip code":"44883","cfs":14,"call#":11.011948,"id":"a6aeedh0a6wx","geo_precision":"range","address":"44 Fostoria St","state":"OH","juris":"PD"},"type":"Feature","geometry":{"type":"Point","coordinates":[-83.197879,41.114648]}},{"properties":{"officer":"JSC","city":"Tiffin","date":{"end_time":"2011/08/12 20:50:44 -0400","original":"8/12/2011 8:50:43 PM","granularity":"sec","time":"2011/08/12 20:50:43 -0400"},"geo_score":0.876,"unit":58,"disposition":"200","zip code":"44883","cfs":14,"call#":11.008173,"id":"a6aeedhau4ka","geo_precision":"range","address":"44 Virginia Av","state":"OH","juris":"PD"},"type":"Feature","geometry":{"type":"Point","coordinates":[-83.191103,41.115797]}},{"properties":{"officer":"EDA","city":"Tiffin","date":{"end_time":"2011/12/27 16:59:09 -0500","original":"12/27/2011 4:59:08 PM","granularity":"sec","time":"2011/12/27 16:59:08 -0500"},"geo_score":0.516,"unit":62,"disposition":"200","zip code":"44883","cfs":14,"call#":11.01363,"id":"a6aeed80hbi8","geo_precision":"street","address":"45 St Lawrence Dr","state":"OH","juris":"PD"},"type":"Feature","geometry":{"type":"Point","coordinates":[-82.718729,41.455282]}},{"properties":{"officer":"PJD","city":"Tiffin","date":{"end_time":"2011/01/11 01:57:44 -0500","original":"1/11/2011 1:57:43 AM","granularity":"sec","time":"2011/01/11 01:57:43 -0500"},"geo_score":0.516,"unit":61,"disposition":"400","zip code":"44883","cfs":14,"call#":11.000293,"id":"a6aeedfmdxsv","geo_precision":"street","address":"45 St Lawrence Dr","state":"OH","juris":"PD"},"type":"Feature","geometry":{"type":"Point","coordinates":[-82.718729,41.455282]}},{"properties":{"officer":"JDW","city":"Tiffin","date":{"end_time":"2011/03/17 11:37:06 -0400","original":"3/17/2011 11:37:05 AM","granularity":"sec","time":"2011/03/17 11:37:05 -0400"},"geo_score":0.902,"unit":60,"disposition":"200","zip code":"44883","cfs":14,"call#":11.002445,"id":"a6aeed9pgvme","geo_precision":"range","address":"46 St Clair St","state":"OH","juris":"PD"},"type":"Feature","geometry":{"type":"Point","coordinates":[-83.181355,41.112736]}},{"properties":{"officer":"FWS","city":"Tiffin","date":{"end_time":"2011/03/16 10:11:35 -0400","original":"3/16/2011 10:11:34 AM","granularity":"sec","time":"2011/03/16 10:11:34 -0400"},"geo_score":0.902,"unit":57,"disposition":"200","zip code":"44883","cfs":14,"call#":11.002413,"id":"a6aeed8d7o4v","geo_precision":"range","address":"47 S Washington St","state":"OH","juris":"PD"},"type":"Feature","geometry":{"type":"Point","coordinates":[-83.17685,41.116247]}},{"properties":{"officer":"MEM","city":"Tiffin","date":{"end_time":"2011/07/13 07:39:15 -0400","original":"7/13/2011 7:39:14 AM","granularity":"sec","time":"2011/07/13 07:39:14 -0400"},"geo_score":0.718,"unit":61,"disposition":"200","zip code":"44883","cfs":14,"call#":11.006994,"id":"a6aeedhgki6h","geo_precision":"street","address":"47 S Washington St,3","state":"OH","juris":"PD"},"type":"Feature","geometry":{"type":"Point","coordinates":[-83.176943,41.117025]}},{"properties":{"officer":"JMW","city":"Tiffin","date":{"end_time":"2011/11/08 20:32:49 -0500","original":"11/8/2011 8:32:48 PM","granularity":"sec","time":"2011/11/08 20:32:48 -0500"},"geo_score":0.902,"unit":60,"disposition":"200","zip code":"44883","cfs":14,"call#":11.011689,"id":"a6aeedkoauzs","geo_precision":"range","address":"485 E Perry St","state":"OH","juris":"PD"},"type":"Feature","geometry":{"type":"Point","coordinates":[-83.162228,41.118449]}},{"properties":{"officer":"JSC","city":"Tiffin","date":{"end_time":"2011/08/31 21:33:26 -0400","original":"8/31/2011 9:33:25 PM","granularity":"sec","time":"2011/08/31 21:33:25 -0400"},"geo_score":0.902,"unit":62,"disposition":"200","zip code":"44883","cfs":14,"call#":11.008966,"id":"a6aeed7ict1v","geo_precision":"range","address":"491 Coe St","state":"OH","juris":"PD"},"type":"Feature","geometry":{"type":"Point","coordinates":[-83.160385,41.102667]}},{"properties":{"officer":"LMK","city":"Tiffin","date":{"end_time":"2011/06/29 21:57:20 -0400","original":"6/29/2011 9:57:19 PM","granularity":"sec","time":"2011/06/29 21:57:19 -0400"},"geo_score":0.902,"unit":58,"disposition":"200","zip code":"44883","cfs":14,"call#":11.00647,"id":"a6aeed7n4pvx","geo_precision":"range","address":"491 Coe St","state":"OH","juris":"PD"},"type":"Feature","geometry":{"type":"Point","coordinates":[-83.160385,41.102667]}},{"properties":{"officer":"AMR","city":"Tiffin","date":{"end_time":"2011/06/29 20:07:43 -0400","original":"6/29/2011 8:07:42 PM","granularity":"sec","time":"2011/06/29 20:07:42 -0400"},"geo_score":0.902,"unit":63,"disposition":"400","zip code":"44883","cfs":14,"call#":11.006464,"id":"a6aeeddc4cbw","geo_precision":"range","address":"491 Coe St","state":"OH","juris":"PD"},"type":"Feature","geometry":{"type":"Point","coordinates":[-83.160385,41.102667]}},{"properties":{"officer":"SMM","city":"Tiffin","date":{"end_time":"2011/08/24 05:27:32 -0400","original":"8/24/2011 5:27:31 AM","granularity":"sec","time":"2011/08/24 05:27:31 -0400"},"geo_score":0.902,"unit":763,"disposition":"400","zip code":"44883","cfs":14,"call#":11.008648,"id":"a6aeedg23qic","geo_precision":"range","address":"50 Clay St","state":"OH","juris":"PD"},"type":"Feature","geometry":{"type":"Point","coordinates":[-83.181533,41.116163]}},{"properties":{"officer":"JDW","city":"Tiffin","date":{"end_time":"2011/08/06 12:10:00 -0400","original":"8/6/2011 12:09:59 PM","granularity":"sec","time":"2011/08/06 12:09:59 -0400"},"geo_score":0.902,"unit":58,"disposition":"200","zip code":"44883","cfs":14,"call#":11.007947,"id":"a6aeed8rdfyy","geo_precision":"range","address":"50 Clay St","state":"OH","juris":"PD"},"type":"Feature","geometry":{"type":"Point","coordinates":[-83.181533,41.116163]}},{"properties":{"officer":"RMN","city":"Tiffin","date":{"end_time":"2011/06/22 00:01:12 -0400","original":"6/22/2011 12:01:11 AM","granularity":"sec","time":"2011/06/22 00:01:11 -0400"},"geo_score":0.902,"unit":59,"disposition":"200","zip code":"44883","cfs":14,"call#":11.006181,"id":"a6aeedhey694","geo_precision":"range","address":"50 N Washington St","state":"OH","juris":"PD"},"type":"Feature","geometry":{"type":"Point","coordinates":[-83.177244,41.118979]}},{"properties":{"officer":"JSC","city":"Tiffin","date":{"end_time":"2011/02/15 16:50:56 -0500","original":"2/15/2011 4:50:55 PM","granularity":"sec","time":"2011/02/15 16:50:55 -0500"},"geo_score":0.902,"unit":59,"disposition":"400","zip code":"44883","cfs":14,"call#":11.001506,"id":"a6aeedh0s0wv","geo_precision":"range","address":"501 W Perry St","state":"OH","juris":"PD"},"type":"Feature","geometry":{"type":"Point","coordinates":[-83.198064,41.113738]}},{"properties":{"officer":"GTM","city":"Tiffin","date":{"end_time":"2011/05/14 12:15:44 -0400","original":"5/14/2011 12:15:43 PM","granularity":"sec","time":"2011/05/14 12:15:43 -0400"},"geo_score":0.902,"unit":57,"disposition":"200","zip code":"44883","cfs":14,"call#":11.004694,"id":"a6aeede2ot5w","geo_precision":"range","address":"510 Miami St","state":"OH","juris":"PD"},"type":"Feature","geometry":{"type":"Point","coordinates":[-83.199171,41.117527]}},{"properties":{"officer":"RLT","city":"Tiffin","date":{"end_time":"2011/06/27 02:55:24 -0400","original":"6/27/2011 2:55:23 AM","granularity":"sec","time":"2011/06/27 02:55:23 -0400"},"geo_score":0.902,"unit":58,"disposition":"200","zip code":"44883","cfs":14,"call#":11.006364,"id":"a6aeedcuifkt","geo_precision":"range","address":"54 W Perry St","state":"OH","juris":"PD"},"type":"Feature","geometry":{"type":"Point","coordinates":[-83.18195,41.115302]}},{"properties":{"officer":"SGN","city":"Tiffin","date":{"end_time":"2011/09/08 15:42:58 -0400","original":"9/8/2011 3:42:57 PM","granularity":"sec","time":"2011/09/08 15:42:57 -0400"},"geo_score":0.902,"unit":59,"disposition":"200","zip code":"44883","cfs":14,"call#":11.009283,"id":"a6aeedetp40t","geo_precision":"range","address":"549 Circular St","state":"OH","juris":"PD"},"type":"Feature","geometry":{"type":"Point","coordinates":[-83.178525,41.105311]}},{"properties":{"officer":"LMK","city":"Tiffin","date":{"end_time":"2011/06/02 22:10:53 -0400","original":"6/2/2011 10:10:52 PM","granularity":"sec","time":"2011/06/02 22:10:52 -0400"},"geo_score":0.902,"unit":61,"disposition":"200","zip code":"44883","cfs":14,"call#":11.005442,"id":"a6aeedd5gtf8","geo_precision":"range","address":"549 Circular St","state":"OH","juris":"PD"},"type":"Feature","geometry":{"type":"Point","coordinates":[-83.178525,41.105311]}},{"properties":{"officer":"JMW","city":"Tiffin","date":{"end_time":"2011/04/21 19:40:02 -0400","original":"4/21/2011 7:40:01 PM","granularity":"sec","time":"2011/04/21 19:40:01 -0400"},"geo_score":0.902,"unit":57,"disposition":"400","zip code":"44883","cfs":14,"call#":11.003725,"id":"a6aeed7zkl5c","geo_precision":"range","address":"55 Avery St","state":"OH","juris":"PD"},"type":"Feature","geometry":{"type":"Point","coordinates":[-83.178149,41.110468]}},{"properties":{"officer":"FWS","city":"Tiffin","date":{"end_time":"2011/09/13 09:26:30 -0400","original":"9/13/2011 9:26:29 AM","granularity":"sec","time":"2011/09/13 09:26:29 -0400"},"geo_score":0.902,"unit":58,"disposition":"200","zip code":"44883","cfs":14,"call#":11.009481,"id":"a6aeedcojor8","geo_precision":"range","address":"55 Madison St","state":"OH","juris":"PD"},"type":"Feature","geometry":{"type":"Point","coordinates":[-83.177509,41.113285]}},{"properties":{"officer":"SMM","city":"Tiffin","date":{"end_time":"2011/03/15 04:51:49 -0400","original":"3/15/2011 4:51:48 AM","granularity":"sec","time":"2011/03/15 04:51:48 -0400"},"geo_score":0.902,"unit":60,"disposition":"100","zip code":"44883","cfs":14,"call#":11.002389,"id":"a6aeedb86i34","geo_precision":"range","address":"55 Madison St,4","state":"OH","juris":"PD"},"type":"Feature","geometry":{"type":"Point","coordinates":[-83.178806,41.113146]}},{"properties":{"officer":"JMW","city":"Tiffin","date":{"end_time":"2011/06/15 22:43:40 -0400","original":"6/15/2011 10:43:39 PM","granularity":"sec","time":"2011/06/15 22:43:39 -0400"},"geo_score":0.902,"unit":57,"disposition":"400","zip code":"44883","cfs":14,"call#":11.005939,"id":"a6aeedje76ok","geo_precision":"range","address":"552X N Sandusky St","state":"OH","juris":"PD"},"type":"Feature","geometry":{"type":"Point","coordinates":[-83.173272,41.132934]}},{"properties":{"officer":"JAD","city":"Tiffin","date":{"end_time":"2011/05/01 23:32:58 -0400","original":"5/1/2011 11:32:57 PM","granularity":"sec","time":"2011/05/01 23:32:57 -0400"},"geo_score":0.902,"unit":56,"disposition":"200","zip code":"44883","cfs":14,"call#":11.004213,"id":"a6aeedgrde00","geo_precision":"range","address":"552X N Sandusky St","state":"OH","juris":"PD"},"type":"Feature","geometry":{"type":"Point","coordinates":[-83.173272,41.132934]}},{"properties":{"officer":"JMW","city":"Tiffin","date":{"end_time":"2011/03/03 20:25:45 -0500","original":"3/3/2011 8:25:44 PM","granularity":"sec","time":"2011/03/03 20:25:44 -0500"},"geo_score":0.902,"unit":57,"disposition":"400","zip code":"44883","cfs":14,"call#":11.002021,"id":"a6aeedlqmch4","geo_precision":"range","address":"555 N Sandusky St","state":"OH","juris":"PD"},"type":"Feature","geometry":{"type":"Point","coordinates":[-83.173244,41.132984]}},{"properties":{"officer":"JMW","city":"Tiffin","date":{"end_time":"2011/05/17 20:33:08 -0400","original":"5/17/2011 8:33:07 PM","granularity":"sec","time":"2011/05/17 20:33:07 -0400"},"geo_score":0.902,"unit":60,"disposition":"200","zip code":"44883","cfs":14,"call#":11.004804,"id":"a6aeedmb06a2","geo_precision":"range","address":"56 Hall St","state":"OH","juris":"PD"},"type":"Feature","geometry":{"type":"Point","coordinates":[-83.179546,41.121435]}},{"properties":{"officer":"RMN","city":"Tiffin","date":{"end_time":"2011/07/05 03:08:28 -0400","original":"7/5/2011 3:08:27 AM","granularity":"sec","time":"2011/07/05 03:08:27 -0400"},"geo_score":0.902,"unit":59,"disposition":"200","zip code":"44883","cfs":14,"call#":11.00671,"id":"a6aeedlr810c","geo_precision":"range","address":"575 E Perry St","state":"OH","juris":"PD"},"type":"Feature","geometry":{"type":"Point","coordinates":[-83.158917,41.119267]}},{"properties":{"officer":"JMW","city":"Tiffin","date":{"end_time":"2011/09/28 19:02:44 -0400","original":"9/28/2011 7:02:43 PM","granularity":"sec","time":"2011/09/28 19:02:43 -0400"},"geo_score":0.873,"unit":63,"disposition":"200","zip code":"44883","cfs":14,"call#":11.010118,"id":"a6aeed7af2xh","geo_precision":"range","address":"58 Cottage Av","state":"OH","juris":"PD"},"type":"Feature","geometry":{"type":"Point","coordinates":[-83.193349,41.107339]}},{"properties":{"officer":"BAR","city":"Tiffin","date":{"end_time":"2011/01/22 17:03:53 -0500","original":"1/22/2011 5:03:52 PM","granularity":"sec","time":"2011/01/22 17:03:52 -0500"},"geo_score":0.902,"unit":63,"disposition":"400","zip code":"44883","cfs":14,"call#":11.000657,"id":"a6aeedlgcbdk","geo_precision":"range","address":"59 E Market St","state":"OH","juris":"PD"},"type":"Feature","geometry":{"type":"Point","coordinates":[-83.177936,41.114461]}},{"properties":{"officer":"SGN","city":"Tiffin","date":{"end_time":"2011/10/11 16:49:59 -0400","original":"10/11/2011 4:49:58 PM","granularity":"sec","time":"2011/10/11 16:49:58 -0400"},"geo_score":0.471,"unit":59,"disposition":"200","zip code":"44883","cfs":14,"call#":11.01064,"id":"a6aeedmzhoag","geo_precision":"street","address":"600 S Sandusky St,A","state":"OH","juris":"PD"},"type":"Feature","geometry":{"type":"Point","coordinates":[-83.152097,41.240958]}},{"properties":{"officer":"MEM","city":"Tiffin","date":{"end_time":"2011/01/15 03:52:07 -0500","original":"1/15/2011 3:52:06 AM","granularity":"sec","time":"2011/01/15 03:52:06 -0500"},"geo_score":0.429,"unit":63,"disposition":"200","zip code":"44883","cfs":14,"call#":11.0004,"id":"a6aeedbo5u12","geo_precision":"street","address":"61 W Perry St,A","state":"OH","juris":"PD"},"type":"Feature","geometry":{"type":"Point","coordinates":[-83.178368,41.11568]}},{"properties":{"officer":"JMW","city":"Tiffin","date":{"end_time":"2011/05/25 16:02:55 -0400","original":"5/25/2011 4:02:54 PM","granularity":"sec","time":"2011/05/25 16:02:54 -0400"},"geo_score":0.471,"unit":60,"disposition":"200","zip code":"44883","cfs":14,"call#":11.005096,"id":"a6aeedizo20z","geo_precision":"street","address":"610 S Sandusky St,A","state":"OH","juris":"PD"},"type":"Feature","geometry":{"type":"Point","coordinates":[-83.152097,41.240958]}},{"properties":{"officer":"BRB","city":"Tiffin","date":{"end_time":"2011/06/27 14:30:08 -0400","original":"6/27/2011 2:30:07 PM","granularity":"sec","time":"2011/06/27 14:30:07 -0400"},"geo_score":0.902,"unit":63,"disposition":"200","zip code":"44883","cfs":14,"call#":11.006374,"id":"a6aeedc3jtvx","geo_precision":"range","address":"62 Valleyview Pl","state":"OH","juris":"PD"},"type":"Feature","geometry":{"type":"Point","coordinates":[-83.160763,41.10424]}},{"properties":{"officer":"RJO","city":"Tiffin","date":{"end_time":"2011/10/22 07:56:45 -0400","original":"10/22/2011 7:56:44 AM","granularity":"sec","time":"2011/10/22 07:56:44 -0400"},"geo_score":0.545,"unit":57,"disposition":"200","zip code":"44883","cfs":14,"call#":11.011,"id":"a6aeedjkccn5","geo_precision":"street","address":"64 Augusta Ln","state":"OH","juris":"PD"},"type":"Feature","geometry":{"type":"Point","coordinates":[-83.429469,41.165368]}},{"properties":{"officer":"LMK","city":"Tiffin","date":{"end_time":"2011/08/31 22:03:48 -0400","original":"8/31/2011 10:03:47 PM","granularity":"sec","time":"2011/08/31 22:03:47 -0400"},"geo_score":0.902,"unit":57,"disposition":"200","zip code":"44883","cfs":14,"call#":11.008967,"id":"a6aeedasr9na","geo_precision":"range","address":"65 Noble St","state":"OH","juris":"PD"},"type":"Feature","geometry":{"type":"Point","coordinates":[-83.175208,41.122665]}},{"properties":{"officer":"JPF","city":"Tiffin","date":{"end_time":"2011/01/05 21:29:32 -0500","original":"1/5/2011 9:29:31 PM","granularity":"sec","time":"2011/01/05 21:29:31 -0500"},"geo_score":0.902,"unit":59,"disposition":"500","zip code":"44883","cfs":14,"call#":11.000143,"id":"a6aeedmttqyt","geo_precision":"range","address":"65 Noble St","state":"OH","juris":"PD"},"type":"Feature","geometry":{"type":"Point","coordinates":[-83.175208,41.122665]}},{"properties":{"officer":"JAD","city":"Tiffin","date":{"end_time":"2011/07/02 04:38:12 -0400","original":"7/2/2011 4:38:11 AM","granularity":"sec","time":"2011/07/02 04:38:11 -0400"},"geo_score":0.902,"unit":56,"disposition":"200","zip code":"44883","cfs":14,"call#":11.006583,"id":"a6aeedayrt3w","geo_precision":"range","address":"66 Charlotte St","state":"OH","juris":"PD"},"type":"Feature","geometry":{"type":"Point","coordinates":[-83.178163,41.110346]}},{"properties":{"officer":"DES","city":"Tiffin","date":{"end_time":"2011/04/23 15:13:04 -0400","original":"4/23/2011 3:13:03 PM","granularity":"sec","time":"2011/04/23 15:13:03 -0400"},"geo_score":0.902,"unit":61,"disposition":"400","zip code":"44883","cfs":14,"call#":11.003807,"id":"a6aeed7rjpd0","geo_precision":"range","address":"66 Charlotte St","state":"OH","juris":"PD"},"type":"Feature","geometry":{"type":"Point","coordinates":[-83.178163,41.110346]}},{"properties":{"officer":"FWS","city":"Tiffin","date":{"end_time":"2011/09/01 12:01:42 -0400","original":"9/1/2011 12:01:41 PM","granularity":"sec","time":"2011/09/01 12:01:41 -0400"},"geo_score":0.902,"unit":58,"disposition":"200","zip code":"44883","cfs":14,"call#":11.008988,"id":"a6aeed851hy7","geo_precision":"range","address":"66 E Market St","state":"OH","juris":"PD"},"type":"Feature","geometry":{"type":"Point","coordinates":[-83.177742,41.114486]}},{"properties":{"officer":"RJO","city":"Tiffin","date":{"end_time":"2011/07/07 14:21:41 -0400","original":"7/7/2011 2:21:40 PM","granularity":"sec","time":"2011/07/07 14:21:40 -0400"},"geo_score":0.902,"unit":60,"disposition":"200","zip code":"44883","cfs":14,"call#":11.006779,"id":"a6aeedlifl89","geo_precision":"range","address":"66 Erie St","state":"OH","juris":"PD"},"type":"Feature","geometry":{"type":"Point","coordinates":[-83.17459,41.122564]}},{"properties":{"officer":"RJO","city":"Tiffin","date":{"end_time":"2011/11/20 10:37:08 -0500","original":"11/20/2011 10:37:07 AM","granularity":"sec","time":"2011/11/20 10:37:07 -0500"},"geo_score":0.902,"unit":60,"disposition":"200","zip code":"44883","cfs":14,"call#":11.012187,"id":"a6aeedak5h79","geo_precision":"range","address":"66 Liberty St","state":"OH","juris":"PD"},"type":"Feature","geometry":{"type":"Point","coordinates":[-83.173022,41.117295]}},{"properties":{"officer":"JSC","city":"Tiffin","date":{"end_time":"2011/08/06 04:03:38 -0400","original":"8/6/2011 4:03:37 AM","granularity":"sec","time":"2011/08/06 04:03:37 -0400"},"geo_score":0.718,"unit":58,"disposition":"400","zip code":"44883","cfs":14,"call#":11.007934,"id":"a6aeedl333qw","geo_precision":"street","address":"686 S Sandusky St,1","state":"OH","juris":"PD"},"type":"Feature","geometry":{"type":"Point","coordinates":[-83.182777,41.119569]}},{"properties":{"officer":"JPF","city":"Tiffin","date":{"end_time":"2011/06/01 19:45:32 -0400","original":"6/1/2011 7:45:31 PM","granularity":"sec","time":"2011/06/01 19:45:31 -0400"},"geo_score":0.902,"unit":59,"disposition":"400","zip code":"44883","cfs":14,"call#":11.0054,"id":"a6aeedciot6r","geo_precision":"range","address":"686 S Sandusky St,105","state":"OH","juris":"PD"},"type":"Feature","geometry":{"type":"Point","coordinates":[-83.184493,41.117083]}},{"properties":{"officer":"BAR","city":"Tiffin","date":{"end_time":"2011/12/10 22:16:46 -0500","original":"12/10/2011 10:16:45 PM","granularity":"sec","time":"2011/12/10 22:16:45 -0500"},"geo_score":0.902,"unit":63,"disposition":"400","zip code":"44883","cfs":14,"call#":11.013014,"id":"a6aeedhd5b13","geo_precision":"range","address":"71 E Market St","state":"OH","juris":"PD"},"type":"Feature","geometry":{"type":"Point","coordinates":[-83.177644,41.114498]}},{"properties":{"officer":"BAR","city":"Tiffin","date":{"end_time":"2011/11/27 02:54:20 -0500","original":"11/27/2011 2:54:19 AM","granularity":"sec","time":"2011/11/27 02:54:19 -0500"},"geo_score":0.902,"unit":63,"disposition":"100","zip code":"44883","cfs":14,"call#":11.012465,"id":"a6aeedifnxbr","geo_precision":"range","address":"72 St Clair St","state":"OH","juris":"PD"},"type":"Feature","geometry":{"type":"Point","coordinates":[-83.181225,41.111941]}},{"properties":{"officer":"JAD","city":"Tiffin","date":{"end_time":"2011/01/16 22:34:45 -0500","original":"1/16/2011 10:34:44 PM","granularity":"sec","time":"2011/01/16 22:34:44 -0500"},"geo_score":0.902,"unit":56,"disposition":"200","zip code":"44883","cfs":14,"call#":11.000495,"id":"a6aeed7elti3","geo_precision":"range","address":"747 W Market St","state":"OH","juris":"PD"},"type":"Feature","geometry":{"type":"Point","coordinates":[-83.206231,41.111378]}},{"properties":{"officer":"RJO","city":"Tiffin","date":{"end_time":"2011/12/09 12:46:52 -0500","original":"12/9/2011 12:46:51 PM","granularity":"sec","time":"2011/12/09 12:46:51 -0500"},"geo_score":0.902,"unit":60,"disposition":"200","zip code":"44883","cfs":14,"call#":11.012939,"id":"a6aeed9lqfiw","geo_precision":"range","address":"77 Jefferson St","state":"OH","juris":"PD"},"type":"Feature","geometry":{"type":"Point","coordinates":[-83.17514,41.115976]}},{"properties":{"officer":"GTM","city":"Tiffin","date":{"end_time":"2011/05/14 16:21:04 -0400","original":"5/14/2011 4:21:03 PM","granularity":"sec","time":"2011/05/14 16:21:03 -0400"},"geo_score":0.902,"unit":57,"disposition":"200","zip code":"44883","cfs":14,"call#":11.004708,"id":"a6aeedmv3bpq","geo_precision":"range","address":"78 Grace St","state":"OH","juris":"PD"},"type":"Feature","geometry":{"type":"Point","coordinates":[-83.186038,41.121415]}},{"properties":{"officer":"RLT","city":"Tiffin","date":{"end_time":"2011/12/11 22:17:39 -0500","original":"12/11/2011 10:17:38 PM","granularity":"sec","time":"2011/12/11 22:17:38 -0500"},"geo_score":0.902,"unit":62,"disposition":"200","zip code":"44883","cfs":14,"call#":11.013051,"id":"a6aeedh5ewt5","geo_precision":"range","address":"781 N Water St","state":"OH","juris":"PD"},"type":"Feature","geometry":{"type":"Point","coordinates":[-83.164554,41.133981]}},{"properties":{"officer":"EDA","city":"Tiffin","date":{"end_time":"2011/11/13 18:00:36 -0500","original":"11/13/2011 6:00:35 PM","granularity":"sec","time":"2011/11/13 18:00:35 -0500"},"geo_score":0.78,"unit":62,"disposition":"200","zip code":"44883","cfs":14,"call#":11.01191,"id":"a6aeedc4j7ti","geo_precision":"range","address":"790 W Market St","state":"OH","juris":"PD"},"type":"Feature","geometry":{"type":"Point","coordinates":[-83.207496,41.111156]}},{"properties":{"officer":"JAD","city":"Tiffin","date":{"end_time":"2011/09/03 22:40:11 -0400","original":"9/3/2011 10:40:10 PM","granularity":"sec","time":"2011/09/03 22:40:10 -0400"},"geo_score":0.78,"unit":56,"disposition":"200","zip code":"44883","cfs":14,"call#":11.009099,"id":"a6aeed7ozt7d","geo_precision":"range","address":"790 W Market St","state":"OH","juris":"PD"},"type":"Feature","geometry":{"type":"Point","coordinates":[-83.207496,41.111156]}},{"properties":{"officer":"JAD","city":"Tiffin","date":{"end_time":"2011/06/05 22:23:10 -0400","original":"6/5/2011 10:23:09 PM","granularity":"sec","time":"2011/06/05 22:23:09 -0400"},"geo_score":0.756,"unit":56,"disposition":"200","zip code":"44883","cfs":14,"call#":11.005562,"id":"a6aeed7za6m5","geo_precision":"range","address":"82 First Av","state":"OH","juris":"PD"},"type":"Feature","geometry":{"type":"Point","coordinates":[-83.179518,41.127923]}},{"properties":{"officer":"JPF","city":"Tiffin","date":{"end_time":"2011/01/22 00:29:02 -0500","original":"1/22/2011 12:29:01 AM","granularity":"sec","time":"2011/01/22 00:29:01 -0500"},"geo_score":0.902,"unit":59,"disposition":"400","zip code":"44883","cfs":14,"call#":11.000647,"id":"a6aeedls7oqr","geo_precision":"range","address":"82 Franklin St","state":"OH","juris":"PD"},"type":"Feature","geometry":{"type":"Point","coordinates":[-83.182978,41.117359]}},{"properties":{"officer":"GTM","city":"Tiffin","date":{"end_time":"2011/05/29 12:14:48 -0400","original":"5/29/2011 12:14:47 PM","granularity":"sec","time":"2011/05/29 12:14:47 -0400"},"geo_score":0.756,"unit":57,"disposition":"200","zip code":"44883","cfs":14,"call#":11.005268,"id":"a6aeedf10lqg","geo_precision":"range","address":"82 Second Av","state":"OH","juris":"PD"},"type":"Feature","geometry":{"type":"Point","coordinates":[-83.179223,41.128789]}},{"properties":{"officer":"DES","city":"Tiffin","date":{"end_time":"2011/01/10 09:32:17 -0500","original":"1/10/2011 9:32:16 AM","granularity":"sec","time":"2011/01/10 09:32:16 -0500"},"geo_score":0.902,"unit":61,"disposition":"200","zip code":"44883","cfs":14,"call#":11.000257,"id":"a6aeedml73xs","geo_precision":"range","address":"82X Franklin St","state":"OH","juris":"PD"},"type":"Feature","geometry":{"type":"Point","coordinates":[-83.182978,41.117359]}},{"properties":{"officer":"RMN","city":"Tiffin","date":{"end_time":"2011/06/27 23:50:20 -0400","original":"6/27/2011 11:50:19 PM","granularity":"sec","time":"2011/06/27 23:50:19 -0400"},"geo_score":0.902,"unit":62,"disposition":"200","zip code":"44883","cfs":14,"call#":11.006393,"id":"a6aeedd1cn96","geo_precision":"range","address":"83 Charlotte St","state":"OH","juris":"PD"},"type":"Feature","geometry":{"type":"Point","coordinates":[-83.180544,41.110136]}},{"properties":{"officer":"DES","city":"Tiffin","date":{"end_time":"2011/10/15 15:38:36 -0400","original":"10/15/2011 3:38:35 PM","granularity":"sec","time":"2011/10/15 15:38:35 -0400"},"geo_score":0.415,"unit":58,"disposition":"200","zip code":"44883","cfs":14,"call#":11.010787,"id":"a6aeedhee4rb","geo_precision":"street","address":"84 Dallas St","state":"OH","juris":"PD"},"type":"Feature","geometry":{"type":"Point","coordinates":[-82.562576,41.384496]}},{"properties":{"officer":"BRB","city":"Tiffin","date":{"end_time":"2011/05/22 14:01:37 -0400","original":"5/22/2011 2:01:36 PM","granularity":"sec","time":"2011/05/22 14:01:36 -0400"},"geo_score":0.415,"unit":63,"disposition":"200","zip code":"44883","cfs":14,"call#":11.004996,"id":"a6aeedbte53m","geo_precision":"street","address":"84 Dallas St","state":"OH","juris":"PD"},"type":"Feature","geometry":{"type":"Point","coordinates":[-82.562576,41.384496]}},{"properties":{"officer":"DES","city":"Tiffin","date":{"end_time":"2011/07/23 12:56:35 -0400","original":"7/23/2011 12:56:34 PM","granularity":"sec","time":"2011/07/23 12:56:34 -0400"},"geo_score":0.902,"unit":58,"disposition":"200","zip code":"44883","cfs":14,"call#":11.007378,"id":"a6aeedjgtiem","geo_precision":"range","address":"84 Miami St","state":"OH","juris":"PD"},"type":"Feature","geometry":{"type":"Point","coordinates":[-83.182179,41.117839]}},{"properties":{"officer":"MEM","city":"Tiffin","date":{"end_time":"2011/07/20 14:48:18 -0400","original":"7/20/2011 2:48:17 PM","granularity":"sec","time":"2011/07/20 14:48:17 -0400"},"geo_score":0.902,"unit":61,"disposition":"200","zip code":"44883","cfs":14,"call#":11.007258,"id":"a6aeedboofai","geo_precision":"range","address":"84 Miami St","state":"OH","juris":"PD"},"type":"Feature","geometry":{"type":"Point","coordinates":[-83.182179,41.117839]}},{"properties":{"officer":"JAD","city":"Tiffin","date":{"end_time":"2011/07/17 00:03:05 -0400","original":"7/17/2011 12:03:04 AM","granularity":"sec","time":"2011/07/17 00:03:04 -0400"},"geo_score":0.902,"unit":56,"disposition":"400","zip code":"44883","cfs":14,"call#":11.007154,"id":"a6aeedm4v497","geo_precision":"range","address":"84 N Washington St","state":"OH","juris":"PD"},"type":"Feature","geometry":{"type":"Point","coordinates":[-83.177423,41.120102]}},{"properties":{"officer":"MEM","city":"Tiffin","date":{"end_time":"2011/12/27 22:23:50 -0500","original":"12/27/2011 10:23:49 PM","granularity":"sec","time":"2011/12/27 22:23:49 -0500"},"geo_score":0.902,"unit":58,"disposition":"200","zip code":"44883","cfs":14,"call#":11.013643,"id":"a6aeedncsn02","geo_precision":"range","address":"85 Oil St","state":"OH","juris":"PD"},"type":"Feature","geometry":{"type":"Point","coordinates":[-83.190222,41.112684]}},{"properties":{"officer":"SGN","city":"Tiffin","date":{"end_time":"2011/06/14 13:46:53 -0400","original":"6/14/2011 1:46:52 PM","granularity":"sec","time":"2011/06/14 13:46:52 -0400"},"geo_score":0.902,"unit":59,"disposition":"400","zip code":"44883","cfs":14,"call#":11.005889,"id":"a6aeedf0skgf","geo_precision":"range","address":"859 Miami St,34","state":"OH","juris":"PD"},"type":"Feature","geometry":{"type":"Point","coordinates":[-83.180394,41.117211]}},{"properties":{"officer":"JDW","city":"Tiffin","date":{"end_time":"2011/09/07 12:23:57 -0400","original":"9/7/2011 12:23:56 PM","granularity":"sec","time":"2011/09/07 12:23:56 -0400"},"geo_score":0.902,"unit":60,"disposition":"200","zip code":"44883","cfs":14,"call#":11.009245,"id":"a6aeedgt7t0u","geo_precision":"range","address":"859 Miami St,37","state":"OH","juris":"PD"},"type":"Feature","geometry":{"type":"Point","coordinates":[-83.180469,41.11725]}},{"properties":{"officer":"BRB","city":"Tiffin","date":{"end_time":"2011/12/19 15:53:14 -0500","original":"12/19/2011 3:53:13 PM","granularity":"sec","time":"2011/12/19 15:53:13 -0500"},"geo_score":0.429,"unit":60,"disposition":"200","zip code":"44883","cfs":14,"call#":11.013384,"id":"a6aeedd6nkdq","geo_precision":"street","address":"859 Miami St,O","state":"OH","juris":"PD"},"type":"Feature","geometry":{"type":"Point","coordinates":[-83.181876,41.117677]}},{"properties":{"officer":"MMS","city":"Tiffin","date":{"end_time":"2011/09/26 13:09:45 -0400","original":"9/26/2011 1:09:44 PM","granularity":"sec","time":"2011/09/26 13:09:44 -0400"},"geo_score":0.429,"unit":63,"disposition":"200","zip code":"44883","cfs":14,"call#":11.010023,"id":"a6aeedbriowx","geo_precision":"street","address":"859 Miami St,O","state":"OH","juris":"PD"},"type":"Feature","geometry":{"type":"Point","coordinates":[-83.181876,41.117677]}},{"properties":{"officer":"SMM","city":"Tiffin","date":{"end_time":"2011/12/21 03:44:39 -0500","original":"12/21/2011 3:44:38 AM","granularity":"sec","time":"2011/12/21 03:44:38 -0500"},"geo_score":0.902,"unit":58,"disposition":"200","zip code":"44883","cfs":14,"call#":11.013442,"id":"a6aeedh0uhln","geo_precision":"range","address":"87 Erie St","state":"OH","juris":"PD"},"type":"Feature","geometry":{"type":"Point","coordinates":[-83.174685,41.123166]}},{"properties":{"officer":"RJO","city":"Tiffin","date":{"end_time":"2011/01/02 12:50:20 -0500","original":"1/2/2011 12:50:19 PM","granularity":"sec","time":"2011/01/02 12:50:19 -0500"},"geo_score":0.78,"unit":58,"disposition":"200","zip code":"44883","cfs":14,"call#":11.00006,"id":"a6aeed8q74h6","geo_precision":"range","address":"870 W Market St","state":"OH","juris":"PD"},"type":"Feature","geometry":{"type":"Point","coordinates":[-83.207559,41.111141]}},{"properties":{"officer":"MEM","city":"Tiffin","date":{"end_time":"2011/10/26 19:59:40 -0400","original":"10/26/2011 7:59:39 PM","granularity":"sec","time":"2011/10/26 19:59:39 -0400"},"geo_score":0.902,"unit":58,"disposition":"200","zip code":"44883","cfs":14,"call#":11.011183,"id":"a6aeedkdrw0f","geo_precision":"range","address":"89X Jefferson St","state":"OH","juris":"PD"},"type":"Feature","geometry":{"type":"Point","coordinates":[-83.175026,41.115182]}},{"properties":{"officer":"FWS","city":"Tiffin","date":{"end_time":"2011/04/11 13:35:43 -0400","original":"4/11/2011 1:35:42 PM","granularity":"sec","time":"2011/04/11 13:35:42 -0400"},"geo_score":0.902,"unit":60,"disposition":"200","zip code":"44883","cfs":14,"call#":11.003334,"id":"a6aeedbvfkp9","geo_precision":"range","address":"9 Ann St","state":"OH","juris":"PD"},"type":"Feature","geometry":{"type":"Point","coordinates":[-83.171374,41.112808]}},{"properties":{"officer":"SGN","city":"Tiffin","date":{"end_time":"2011/09/17 23:20:44 -0400","original":"9/17/2011 11:20:43 PM","granularity":"sec","time":"2011/09/17 23:20:43 -0400"},"geo_score":0.902,"unit":244,"disposition":"100","zip code":"44883","cfs":14,"call#":11.009679,"id":"a6aeedg27imz","geo_precision":"range","address":"90 S Washington St","state":"OH","juris":"PD"},"type":"Feature","geometry":{"type":"Point","coordinates":[-83.176636,41.114983]}},{"properties":{"officer":"SMM","city":"Tiffin","date":{"end_time":"2011/04/26 21:35:17 -0400","original":"4/26/2011 9:35:16 PM","granularity":"sec","time":"2011/04/26 21:35:16 -0400"},"geo_score":0.902,"unit":60,"disposition":"200","zip code":"44883","cfs":14,"call#":11.003937,"id":"a6aeedg9oc3a","geo_precision":"range","address":"91 W Market St","state":"OH","juris":"PD"},"type":"Feature","geometry":{"type":"Point","coordinates":[-83.183459,41.113913]}},{"properties":{"officer":"MMS","city":"Tiffin","date":{"end_time":"2011/12/11 01:13:00 -0500","original":"12/11/2011 1:12:00 AM","granularity":"min","time":"2011/12/11 01:12:00 -0500"},"geo_score":0.902,"unit":59,"disposition":"CAN","zip code":"44883","cfs":14,"call#":11.013029,"id":"a6aeedjvhjj5","geo_precision":"range","address":"92 Madison St","state":"OH","juris":"PD"},"type":"Feature","geometry":{"type":"Point","coordinates":[-83.176333,41.113386]}},{"properties":{"officer":"RLT","city":"Tiffin","date":{"end_time":"2011/10/16 01:00:23 -0400","original":"10/16/2011 1:00:22 AM","granularity":"sec","time":"2011/10/16 01:00:22 -0400"},"geo_score":0.902,"unit":62,"disposition":"200","zip code":"44883","cfs":14,"call#":11.010812,"id":"a6aeedn7qrhr","geo_precision":"range","address":"92 Madison St","state":"OH","juris":"PD"},"type":"Feature","geometry":{"type":"Point","coordinates":[-83.176333,41.113386]}},{"properties":{"officer":"MEM","city":"Tiffin","date":{"end_time":"2011/09/29 13:46:27 -0400","original":"9/29/2011 1:46:26 PM","granularity":"sec","time":"2011/09/29 13:46:26 -0400"},"geo_score":0.78,"unit":60,"disposition":"200","zip code":"44883","cfs":14,"call#":11.01014,"id":"a6aeedmt9ewd","geo_precision":"range","address":"928 W Market St","state":"OH","juris":"PD"},"type":"Feature","geometry":{"type":"Point","coordinates":[-83.207604,41.111131]}},{"properties":{"officer":"JDW","city":"Tiffin","date":{"end_time":"2011/08/17 16:36:30 -0400","original":"8/17/2011 4:36:29 PM","granularity":"sec","time":"2011/08/17 16:36:29 -0400"},"geo_score":0.902,"unit":60,"disposition":"200","zip code":"44883","cfs":14,"call#":11.008373,"id":"a6aeednjwm11","geo_precision":"range","address":"94 W Market St","state":"OH","juris":"PD"},"type":"Feature","geometry":{"type":"Point","coordinates":[-83.183702,41.113904]}},{"properties":{"officer":"BAR","city":"Tiffin","date":{"end_time":"2011/08/11 21:03:33 -0400","original":"8/11/2011 9:03:32 PM","granularity":"sec","time":"2011/08/11 21:03:32 -0400"},"geo_score":0.902,"unit":57,"disposition":"200","zip code":"44883","cfs":14,"call#":11.008136,"id":"a6aeedmr9cwx","geo_precision":"range","address":"94 W Market St","state":"OH","juris":"PD"},"type":"Feature","geometry":{"type":"Point","coordinates":[-83.183702,41.113904]}},{"properties":{"officer":"JDW","city":"Tiffin","date":{"end_time":"2011/08/05 16:27:08 -0400","original":"8/5/2011 4:27:07 PM","granularity":"sec","time":"2011/08/05 16:27:07 -0400"},"geo_score":0.902,"unit":57,"disposition":"200","zip code":"44883","cfs":14,"call#":11.007913,"id":"a6aeed79j20i","geo_precision":"range","address":"94 W Market St","state":"OH","juris":"PD"},"type":"Feature","geometry":{"type":"Point","coordinates":[-83.183702,41.113904]}},{"properties":{"officer":"JMW","city":"Tiffin","date":{"end_time":"2011/08/12 16:39:58 -0400","original":"8/12/2011 4:39:57 PM","granularity":"sec","time":"2011/08/12 16:39:57 -0400"},"geo_score":0.902,"unit":60,"disposition":"200","zip code":"44883","cfs":14,"call#":11.008167,"id":"a6aeeddb40q4","geo_precision":"range","address":"95 Hudson St","state":"OH","juris":"PD"},"type":"Feature","geometry":{"type":"Point","coordinates":[-83.18094,41.120111]}},{"properties":{"officer":"BAR","city":"Tiffin","date":{"end_time":"2011/04/23 16:24:27 -0400","original":"4/23/2011 4:24:26 PM","granularity":"sec","time":"2011/04/23 16:24:26 -0400"},"geo_score":0.902,"unit":63,"disposition":"200","zip code":"44883","cfs":14,"call#":11.00381,"id":"a6aeedk5jf4u","geo_precision":"range","address":"95 W Market St","state":"OH","juris":"PD"},"type":"Feature","geometry":{"type":"Point","coordinates":[-83.183702,41.113904]}},{"properties":{"officer":"MEM","city":"Tiffin","date":{"end_time":"2011/08/22 21:04:13 -0400","original":"8/22/2011 9:04:12 PM","granularity":"sec","time":"2011/08/22 21:04:12 -0400"},"geo_score":0.756,"unit":58,"disposition":"200","zip code":"44883","cfs":14,"call#":11.008584,"id":"a6aeed7ndiza","geo_precision":"range","address":"97 First Av","state":"OH","juris":"PD"},"type":"Feature","geometry":{"type":"Point","coordinates":[-83.180681,41.127913]}},{"properties":{"officer":"JPF","city":"Tiffin","date":{"end_time":"2011/12/01 20:30:30 -0500","original":"12/1/2011 8:30:29 PM","granularity":"sec","time":"2011/12/01 20:30:29 -0500"},"geo_score":0.902,"unit":59,"disposition":"200","zip code":"44883","cfs":14,"call#":11.012662,"id":"a6aeedlq51qe","geo_precision":"range","address":"97 W Market St","state":"OH","juris":"PD"},"type":"Feature","geometry":{"type":"Point","coordinates":[-83.183752,41.113898]}},{"properties":{"officer":"FWS","city":"Tiffin","date":{"end_time":"2011/09/22 12:08:30 -0400","original":"9/22/2011 12:08:29 PM","granularity":"sec","time":"2011/09/22 12:08:29 -0400"},"geo_score":0.902,"unit":58,"disposition":"200","zip code":"44883","cfs":14,"call#":11.009845,"id":"a6aeeda30m64","geo_precision":"range","address":"98X S Washington St","state":"OH","juris":"PD"},"type":"Feature","geometry":{"type":"Point","coordinates":[-83.176613,41.114784]}},{"properties":{"officer":"JAD","city":"Tiffin","date":{"end_time":"2011/09/17 23:50:54 -0400","original":"9/17/2011 11:50:53 PM","granularity":"sec","time":"2011/09/17 23:50:53 -0400"},"geo_score":0.857,"unit":56,"disposition":"200","zip code":"44883","cfs":14,"call#":11.009685,"id":"a6aeedlvqs0c","geo_precision":"street","address":"E Perry St/S Washington St","state":"OH","juris":"PD"},"type":"Feature","geometry":{"type":"Point","coordinates":[-83.178368,41.11568]}},{"properties":{"officer":"JAD","city":"Tiffin","date":{"end_time":"2011/08/07 05:19:10 -0400","original":"8/7/2011 5:19:09 AM","granularity":"sec","time":"2011/08/07 05:19:09 -0400"},"geo_score":0.857,"unit":56,"disposition":"200","zip code":"44883","cfs":14,"call#":11.00798,"id":"a6aeeddc53o9","geo_precision":"street","address":"Martin St/W Market St","state":"OH","juris":"PD"},"type":"Feature","geometry":{"type":"Point","coordinates":[-83.189201,41.112873]}},{"properties":{"officer":"EDA","city":"Tiffin","date":{"end_time":"2011/12/13 18:50:40 -0500","original":"12/13/2011 6:50:39 PM","granularity":"sec","time":"2011/12/13 18:50:39 -0500"},"geo_score":0.857,"unit":62,"disposition":"100","zip code":"44883","cfs":14,"call#":11.013147,"id":"a6aeedkrpflo","geo_precision":"street","address":"N Monroe St/Adams St","state":"OH","juris":"PD"},"type":"Feature","geometry":{"type":"Point","coordinates":[-83.178727,41.117967]}},{"properties":{"officer":"JAD","city":"Tiffin","date":{"end_time":"2011/06/21 02:37:17 -0400","original":"6/21/2011 2:37:16 AM","granularity":"sec","time":"2011/06/21 02:37:16 -0400"},"geo_score":0.857,"unit":56,"disposition":"200","zip code":"44883","cfs":14,"call#":11.00615,"id":"a6aeedmw50o7","geo_precision":"street","address":"S Washington St/E Market St","state":"OH","juris":"PD"},"type":"Feature","geometry":{"type":"Point","coordinates":[-83.179559,41.114309]}},{"properties":{"officer":"JDW","city":"Tiffin","date":{"end_time":"2011/03/09 12:06:06 -0500","original":"3/9/2011 12:06:05 PM","granularity":"sec","time":"2011/03/09 12:06:05 -0500"},"geo_score":0.857,"unit":63,"disposition":"200","zip code":"44883","cfs":14,"call#":11.002226,"id":"a6aeed94ta58","geo_precision":"street","address":"S Washington St/E Market St","state":"OH","juris":"PD"},"type":"Feature","geometry":{"type":"Point","coordinates":[-83.179559,41.114309]}},{"properties":{"officer":"MEM","city":"Tiffin","date":{"end_time":"2011/05/07 07:55:00 -0400","original":"5/7/2011 7:54:00 AM","granularity":"min","time":"2011/05/07 07:54:00 -0400"},"geo_score":0.762,"unit":61,"disposition":"400","zip code":"44883","cfs":14,"call#":11.004396,"id":"a6aeedmtk9pr","geo_precision":"street","address":"W Market St/Frost Py","state":"OH","juris":"PD"},"type":"Feature","geometry":{"type":"Point","coordinates":[-83.180549,41.115641]}},{"properties":{"officer":"JAD","city":"Tiffin","date":{"end_time":"2011/10/09 03:29:32 -0400","original":"10/9/2011 3:29:31 AM","granularity":"sec","time":"2011/10/09 03:29:31 -0400"},"geo_score":0.762,"unit":56,"disposition":"200","zip code":"44883","cfs":14,"call#":11.010535,"id":"a6aeedhh45am","geo_precision":"street","address":"W Perry St/Frost Py","state":"OH","juris":"PD"},"type":"Feature","geometry":{"type":"Point","coordinates":[-83.180549,41.115641]}},{"properties":{"officer":"FWS","city":"Tiffin","date":{"end_time":"2011/10/06 14:12:29 -0400","original":"10/6/2011 2:12:28 PM","granularity":"sec","time":"2011/10/06 14:12:28 -0400"},"geo_score":0.857,"unit":62,"disposition":"100","zip code":"44883","cfs":14,"call#":11.010415,"id":"a6aeed7nule6","geo_precision":"street","address":"W Perry St/Melissa St","state":"OH","juris":"PD"},"type":"Feature","geometry":{"type":"Point","coordinates":[-83.183601,41.115173]}}],"is_temporal":true,"author":{"url":"","metadata":null,"contact_name":null,"contact_address":null,"source":null,"contact_phone":null},"source":"","pagination":{"sort":null,"start":0,"total":288,"limit":1000000},"state":"complete","tags":"","published":"2014-08-14T18:50:43-04:00","id":222981}