{"type":"FeatureCollection","data_type":"Dataset","url_type":null,"permissions":[{"permissions":{"download":true,"view":true},"group_id":"everyone"}],"classification":null,"title":"Assault_2009","count":272,"stream_id":222957,"contributor":{"url":"http://geocommons.com/users/42302","name":"hillproject"},"data_attributes":null,"calculation_params":null,"icon_link":null,"link":"http://geocommons.com/overlays/222957.json","extent":[-83.2783,40.9616,-82.5626,41.4553],"geometry_types":["point"],"unique_name":null,"name":"Assault_2009","feature_count":272,"description":"","next_feature":null,"is_raster":false,"short_classification":"Y","stats":{"date":{"max":"2009/12/31 23:07:46 -0500","mean":"2009/07/01 21:59:23 -0400","variance":66394101258358.4,"stdev":8148257.55964785,"min":"2009/01/01 04:09:31 -0500","median":"2009/06/30 22:40:35 -0400"},"unit":{"max":947,"mean":74.4538745387454,"variance":10142.7006423398,"stdev":100.710975778908,"min":56,"median":59},"cfs":{"max":14,"mean":14.0,"variance":0.0,"stdev":0.0,"min":14,"median":14},"call#":{"max":9.012404,"mean":9.00631712132353,"variance":1.10185011475884e-05,"stdev":0.00331941277149865,"min":9.000014,"median":9.006231}},"features":[{"properties":{"officer":"FWS","city":"Tiffin","date":{"end_time":"2009/08/14 20:18:34 -0400","original":"8/14/2009 8:18:33 PM","granularity":"sec","time":"2009/08/14 20:18:33 -0400"},"geo_score":0.683,"unit":57,"disposition":"230","zip code":"44883","cfs":14,"call#":9.007913,"id":"a69nbrwm52vf","geo_precision":"range","address":"1 City Lot 6","state":"OH","juris":"PD"},"type":"Feature","geometry":{"type":"Point","coordinates":[-83.17022,41.029424]}},{"properties":{"officer":"RJO","city":"Tiffin","date":{"end_time":"2009/05/31 13:37:26 -0400","original":"5/31/2009 1:37:25 PM","granularity":"sec","time":"2009/05/31 13:37:25 -0400"},"geo_score":0.637,"unit":57,"disposition":"200","zip code":"44883","cfs":14,"call#":9.005124,"id":"a69nbrux61tu","geo_precision":"street","address":"1 Highland Park","state":"OH","juris":"PD"},"type":"Feature","geometry":{"type":"Point","coordinates":[-83.176302,41.133976]}},{"properties":{"officer":"DES","city":"Tiffin","date":{"end_time":"2009/07/26 13:18:17 -0400","original":"7/26/2009 1:18:16 PM","granularity":"sec","time":"2009/07/26 13:18:16 -0400"},"geo_score":0.72,"unit":63,"disposition":"100","zip code":"44883","cfs":14,"call#":9.007246,"id":"a69nbrjdfn0t","geo_precision":"range","address":"1 Little Hedges Park","state":"OH","juris":"PD"},"type":"Feature","geometry":{"type":"Point","coordinates":[-83.166016,41.116233]}},{"properties":{"officer":"GTM","city":"Tiffin","date":{"end_time":"2009/04/01 20:55:49 -0400","original":"4/1/2009 8:55:48 PM","granularity":"sec","time":"2009/04/01 20:55:48 -0400"},"geo_score":0.546,"unit":57,"disposition":"200","zip code":"44883","cfs":14,"call#":9.00308,"id":"a69nbrh25ji8","geo_precision":"street","address":"1 Oakley Park","state":"OH","juris":"PD"},"type":"Feature","geometry":{"type":"Point","coordinates":[-83.172916,41.112623]}},{"properties":{"officer":"JMW","city":"Tiffin","date":{"end_time":"2009/06/12 17:53:07 -0400","original":"6/12/2009 5:53:06 PM","granularity":"sec","time":"2009/06/12 17:53:06 -0400"},"geo_score":0.78,"unit":60,"disposition":"100","zip code":"44883","cfs":14,"call#":9.00552,"id":"a69nbrnwozgw","geo_precision":"range","address":"1 Seneca County","state":"OH","juris":"PD"},"type":"Feature","geometry":{"type":"Point","coordinates":[-83.160743,41.122079]}},{"properties":{"officer":"RLT","city":"Tiffin","date":{"end_time":"2009/05/18 20:55:13 -0400","original":"5/18/2009 8:55:12 PM","granularity":"sec","time":"2009/05/18 20:55:12 -0400"},"geo_score":0.756,"unit":57,"disposition":"400","zip code":"44883","cfs":14,"call#":9.004675,"id":"a69nbrq8p6dh","geo_precision":"range","address":"100 Second Av","state":"OH","juris":"PD"},"type":"Feature","geometry":{"type":"Point","coordinates":[-83.179703,41.128781]}},{"properties":{"officer":"EDA","city":"Tiffin","date":{"end_time":"2009/11/15 18:56:05 -0500","original":"11/15/2009 6:56:04 PM","granularity":"sec","time":"2009/11/15 18:56:04 -0500"},"geo_score":0.902,"unit":57,"disposition":"400","zip code":"44883","cfs":14,"call#":9.011171,"id":"a69nbrktjwfy","geo_precision":"range","address":"101 Ella St","state":"OH","juris":"PD"},"type":"Feature","geometry":{"type":"Point","coordinates":[-83.183685,41.104226]}},{"properties":{"officer":"JPF","city":"Tiffin","date":{"end_time":"2009/06/19 11:58:10 -0400","original":"6/19/2009 11:58:09 AM","granularity":"sec","time":"2009/06/19 11:58:09 -0400"},"geo_score":0.902,"unit":59,"disposition":"200","zip code":"44883","cfs":14,"call#":9.005796,"id":"a69nbrnehc78","geo_precision":"range","address":"103 E Perry St","state":"OH","juris":"PD"},"type":"Feature","geometry":{"type":"Point","coordinates":[-83.176291,41.115884]}},{"properties":{"officer":"JMW","city":"Tiffin","date":{"end_time":"2009/09/27 21:36:40 -0400","original":"9/27/2009 9:36:39 PM","granularity":"sec","time":"2009/09/27 21:36:39 -0400"},"geo_score":0.902,"unit":57,"disposition":"100","zip code":"44883","cfs":14,"call#":9.009539,"id":"a69nbru84nyn","geo_precision":"range","address":"103 Longfellow Dr","state":"OH","juris":"PD"},"type":"Feature","geometry":{"type":"Point","coordinates":[-83.194252,41.101198]}},{"properties":{"officer":"PJD","city":"Tiffin","date":{"end_time":"2009/12/14 22:14:31 -0500","original":"12/14/2009 10:14:30 PM","granularity":"sec","time":"2009/12/14 22:14:30 -0500"},"geo_score":0.585,"unit":61,"disposition":"200","zip code":"44883","cfs":14,"call#":9.012002,"id":"a69nbrhoqwqq","geo_precision":"zip","address":"103 Shepherd Dr","state":"OH","juris":"PD"},"type":"Feature","geometry":{"type":"Point","coordinates":[-83.225755,41.214776]}},{"properties":{"officer":"JPF","city":"Tiffin","date":{"end_time":"2009/06/27 14:39:27 -0400","original":"6/27/2009 2:39:26 PM","granularity":"sec","time":"2009/06/27 14:39:26 -0400"},"geo_score":0.902,"unit":59,"disposition":"100","zip code":"44883","cfs":14,"call#":9.006101,"id":"a69nbrohv3i6","geo_precision":"range","address":"105 Allen St","state":"OH","juris":"PD"},"type":"Feature","geometry":{"type":"Point","coordinates":[-83.199878,41.115479]}},{"properties":{"officer":"JSC","city":"Tiffin","date":{"end_time":"2009/09/20 01:18:32 -0400","original":"9/20/2009 1:18:31 AM","granularity":"sec","time":"2009/09/20 01:18:31 -0400"},"geo_score":0.902,"unit":59,"disposition":"200","zip code":"44883","cfs":14,"call#":9.009257,"id":"a69nbrx8dau0","geo_precision":"range","address":"106 E Perry St","state":"OH","juris":"PD"},"type":"Feature","geometry":{"type":"Point","coordinates":[-83.176233,41.115891]}},{"properties":{"officer":"JPF","city":"Tiffin","date":{"end_time":"2009/02/22 11:06:40 -0500","original":"2/22/2009 11:06:39 AM","granularity":"sec","time":"2009/02/22 11:06:39 -0500"},"geo_score":0.837,"unit":59,"disposition":"200","zip code":"44883","cfs":14,"call#":9.001825,"id":"a69nbrjgsqov","geo_precision":"range","address":"107X Frost Py","state":"OH","juris":"PD"},"type":"Feature","geometry":{"type":"Point","coordinates":[-83.179348,41.116848]}},{"properties":{"officer":"REB","city":"Tiffin","date":{"end_time":"2009/07/28 11:42:42 -0400","original":"7/28/2009 11:42:41 AM","granularity":"sec","time":"2009/07/28 11:42:41 -0400"},"geo_score":0.902,"unit":58,"disposition":"230","zip code":"44883","cfs":14,"call#":9.007302,"id":"a69nbrhc52e0","geo_precision":"range","address":"111 N Washington St","state":"OH","juris":"PD"},"type":"Feature","geometry":{"type":"Point","coordinates":[-83.177562,41.120903]}},{"properties":{"officer":"AMR","city":"Tiffin","date":{"end_time":"2009/03/22 17:48:52 -0400","original":"3/22/2009 5:48:51 PM","granularity":"sec","time":"2009/03/22 17:48:51 -0400"},"geo_score":0.756,"unit":63,"disposition":"100","zip code":"44883","cfs":14,"call#":9.002705,"id":"a69nbrokbftg","geo_precision":"range","address":"115 Third Av","state":"OH","juris":"PD"},"type":"Feature","geometry":{"type":"Point","coordinates":[-83.179833,41.129639]}},{"properties":{"officer":"SWK","city":"Tiffin","date":{"end_time":"2009/06/16 00:20:45 -0400","original":"6/16/2009 12:20:44 AM","granularity":"sec","time":"2009/06/16 00:20:44 -0400"},"geo_score":0.902,"unit":59,"disposition":"200","zip code":"44883","cfs":14,"call#":9.005638,"id":"a69nbrmpc2t7","geo_precision":"range","address":"115 W Perry St","state":"OH","juris":"PD"},"type":"Feature","geometry":{"type":"Point","coordinates":[-83.184438,41.115091]}},{"properties":{"officer":"SGN","city":"Tiffin","date":{"end_time":"2009/09/10 15:19:04 -0400","original":"9/10/2009 3:19:03 PM","granularity":"sec","time":"2009/09/10 15:19:03 -0400"},"geo_score":0.902,"unit":62,"disposition":"200","zip code":"44883","cfs":14,"call#":9.00891,"id":"a69nbriwttfh","geo_precision":"range","address":"11X S Monroe St","state":"OH","juris":"PD"},"type":"Feature","geometry":{"type":"Point","coordinates":[-83.17843,41.116034]}},{"properties":{"officer":"LMK","city":"Tiffin","date":{"end_time":"2009/10/12 21:40:51 -0400","original":"10/12/2009 9:40:50 PM","granularity":"sec","time":"2009/10/12 21:40:50 -0400"},"geo_score":0.902,"unit":62,"disposition":"200","zip code":"44883","cfs":14,"call#":9.010043,"id":"a69nbrmdorxb","geo_precision":"range","address":"127 Melmore St","state":"OH","juris":"PD"},"type":"Feature","geometry":{"type":"Point","coordinates":[-83.172862,41.106625]}},{"properties":{"officer":"FWS","city":"Tiffin","date":{"end_time":"2009/01/14 18:13:04 -0500","original":"1/14/2009 6:13:03 PM","granularity":"sec","time":"2009/01/14 18:13:03 -0500"},"geo_score":0.902,"unit":57,"disposition":"200","zip code":"44883","cfs":14,"call#":9.000437,"id":"a69nbrpcx1dv","geo_precision":"range","address":"127 Melmore St","state":"OH","juris":"PD"},"type":"Feature","geometry":{"type":"Point","coordinates":[-83.172862,41.106625]}},{"properties":{"officer":"DGH","city":"Tiffin","date":{"end_time":"2009/03/16 12:43:08 -0400","original":"3/16/2009 12:43:07 PM","granularity":"sec","time":"2009/03/16 12:43:07 -0400"},"geo_score":0.902,"unit":59,"disposition":"200","zip code":"44883","cfs":14,"call#":9.002475,"id":"a69nbrhtmzb7","geo_precision":"range","address":"128 Main St","state":"OH","juris":"PD"},"type":"Feature","geometry":{"type":"Point","coordinates":[-83.169933,41.111892]}},{"properties":{"officer":"GTM","city":"Tiffin","date":{"end_time":"2009/05/13 21:36:43 -0400","original":"5/13/2009 9:36:42 PM","granularity":"sec","time":"2009/05/13 21:36:42 -0400"},"geo_score":0.87,"unit":59,"disposition":"200","zip code":"44883","cfs":14,"call#":9.004534,"id":"a69nbrs4d2w0","geo_precision":"range","address":"129 Greeley St","state":"OH","juris":"PD"},"type":"Feature","geometry":{"type":"Point","coordinates":[-83.159463,41.116893]}},{"properties":{"officer":"JAD","city":"Tiffin","date":{"end_time":"2009/12/25 02:11:33 -0500","original":"12/25/2009 2:11:32 AM","granularity":"sec","time":"2009/12/25 02:11:32 -0500"},"geo_score":0.902,"unit":56,"disposition":"230","zip code":"44883","cfs":14,"call#":9.012239,"id":"a69nbrpla69t","geo_precision":"range","address":"129 S Washington St","state":"OH","juris":"PD"},"type":"Feature","geometry":{"type":"Point","coordinates":[-83.176496,41.113983]}},{"properties":{"officer":"MEM","city":"Tiffin","date":{"end_time":"2009/12/18 02:12:59 -0500","original":"12/18/2009 2:12:58 AM","granularity":"sec","time":"2009/12/18 02:12:58 -0500"},"geo_score":0.902,"unit":63,"disposition":"400","zip code":"44883","cfs":14,"call#":9.01209,"id":"a69nbrn40nbg","geo_precision":"range","address":"129 S Washington St","state":"OH","juris":"PD"},"type":"Feature","geometry":{"type":"Point","coordinates":[-83.176496,41.113983]}},{"properties":{"officer":"MEM","city":"Tiffin","date":{"end_time":"2009/09/26 02:36:47 -0400","original":"9/26/2009 2:36:46 AM","granularity":"sec","time":"2009/09/26 02:36:46 -0400"},"geo_score":0.902,"unit":61,"disposition":"100","zip code":"44883","cfs":14,"call#":9.009471,"id":"a69nbrx88osm","geo_precision":"range","address":"129 S Washington St","state":"OH","juris":"PD"},"type":"Feature","geometry":{"type":"Point","coordinates":[-83.176496,41.113983]}},{"properties":{"officer":"JMW","city":"Tiffin","date":{"end_time":"2009/09/26 01:17:26 -0400","original":"9/26/2009 1:17:25 AM","granularity":"sec","time":"2009/09/26 01:17:25 -0400"},"geo_score":0.902,"unit":57,"disposition":"200","zip code":"44883","cfs":14,"call#":9.009464,"id":"a69nbrmedi28","geo_precision":"range","address":"129 S Washington St","state":"OH","juris":"PD"},"type":"Feature","geometry":{"type":"Point","coordinates":[-83.176496,41.113983]}},{"properties":{"officer":"RLT","city":"Tiffin","date":{"end_time":"2009/09/13 00:45:42 -0400","original":"9/13/2009 12:45:41 AM","granularity":"sec","time":"2009/09/13 00:45:41 -0400"},"geo_score":0.902,"unit":58,"disposition":"400","zip code":"44883","cfs":14,"call#":9.009,"id":"a69nbrm3vbkw","geo_precision":"range","address":"129 S Washington St","state":"OH","juris":"PD"},"type":"Feature","geometry":{"type":"Point","coordinates":[-83.176496,41.113983]}},{"properties":{"officer":"MEM","city":"Tiffin","date":{"end_time":"2009/08/09 01:57:00 -0400","original":"8/9/2009 1:56:00 AM","granularity":"min","time":"2009/08/09 01:56:00 -0400"},"geo_score":0.902,"unit":57,"disposition":"100","zip code":"44883","cfs":14,"call#":9.007738,"id":"a69nbro0d0ql","geo_precision":"range","address":"129 S Washington St","state":"OH","juris":"PD"},"type":"Feature","geometry":{"type":"Point","coordinates":[-83.176496,41.113983]}},{"properties":{"officer":null,"city":"Tiffin","date":{"end_time":"2009/04/18 04:02:13 -0400","original":"4/18/2009 4:02:12 AM","granularity":"sec","time":"2009/04/18 04:02:12 -0400"},"geo_score":0.902,"unit":null,"disposition":"CAN","zip code":"44883","cfs":14,"call#":9.003699,"id":"a69nbrqvr1ck","geo_precision":"range","address":"129 S Washington St","state":"OH","juris":"PD"},"type":"Feature","geometry":{"type":"Point","coordinates":[-83.176496,41.113983]}},{"properties":{"officer":"JSC","city":"Tiffin","date":{"end_time":"2009/03/08 03:01:14 -0400","original":"3/8/2009 3:01:13 AM","granularity":"sec","time":"2009/03/08 03:01:13 -0400"},"geo_score":0.902,"unit":59,"disposition":"230","zip code":"44883","cfs":14,"call#":9.002218,"id":"a69nbrxcoqcs","geo_precision":"range","address":"129 S Washington St","state":"OH","juris":"PD"},"type":"Feature","geometry":{"type":"Point","coordinates":[-83.176496,41.113983]}},{"properties":{"officer":"JPF","city":"Tiffin","date":{"end_time":"2009/05/22 12:44:11 -0400","original":"5/22/2009 12:44:10 PM","granularity":"sec","time":"2009/05/22 12:44:10 -0400"},"geo_score":0.902,"unit":59,"disposition":"200","zip code":"44883","cfs":14,"call#":9.00482,"id":"a69nbrhusali","geo_precision":"range","address":"130 E Davis St","state":"OH","juris":"PD"},"type":"Feature","geometry":{"type":"Point","coordinates":[-83.173711,41.126076]}},{"properties":{"officer":"FWS","city":"Tiffin","date":{"end_time":"2009/09/06 00:20:30 -0400","original":"9/6/2009 12:20:29 AM","granularity":"sec","time":"2009/09/06 00:20:29 -0400"},"geo_score":0.902,"unit":58,"disposition":"200","zip code":"44883","cfs":14,"call#":9.008778,"id":"a69nbrsmcspz","geo_precision":"range","address":"130 Huss St","state":"OH","juris":"PD"},"type":"Feature","geometry":{"type":"Point","coordinates":[-83.170132,41.131107]}},{"properties":{"officer":"SGN","city":"Tiffin","date":{"end_time":"2009/08/07 15:55:52 -0400","original":"8/7/2009 3:55:51 PM","granularity":"sec","time":"2009/08/07 15:55:51 -0400"},"geo_score":0.902,"unit":62,"disposition":"100","zip code":"44883","cfs":14,"call#":9.007686,"id":"a69nbrnhd4za","geo_precision":"range","address":"130 Minerva St","state":"OH","juris":"PD"},"type":"Feature","geometry":{"type":"Point","coordinates":[-83.17642,41.124026]}},{"properties":{"officer":"BRB","city":"Tiffin","date":{"end_time":"2009/02/05 19:32:04 -0500","original":"2/5/2009 7:32:03 PM","granularity":"sec","time":"2009/02/05 19:32:03 -0500"},"geo_score":0.902,"unit":59,"disposition":"400","zip code":"44883","cfs":14,"call#":9.00122,"id":"a69nbrttwlfs","geo_precision":"range","address":"130 Minerva St","state":"OH","juris":"PD"},"type":"Feature","geometry":{"type":"Point","coordinates":[-83.17642,41.124026]}},{"properties":{"officer":"DES","city":"Tiffin","date":{"end_time":"2009/03/22 11:30:17 -0400","original":"3/22/2009 11:30:16 AM","granularity":"sec","time":"2009/03/22 11:30:16 -0400"},"geo_score":0.87,"unit":62,"disposition":"200","zip code":"44883","cfs":14,"call#":9.002691,"id":"a69nbrs5q8j5","geo_precision":"range","address":"133 Warren Av","state":"OH","juris":"PD"},"type":"Feature","geometry":{"type":"Point","coordinates":[-83.180748,41.130979]}},{"properties":{"officer":"BRB","city":"Tiffin","date":{"end_time":"2009/01/26 23:56:55 -0500","original":"1/26/2009 11:56:54 PM","granularity":"sec","time":"2009/01/26 23:56:54 -0500"},"geo_score":0.902,"unit":58,"disposition":"100","zip code":"44883","cfs":14,"call#":9.0009,"id":"a69nbrtty8eo","geo_precision":"range","address":"134 S Washington St","state":"OH","juris":"PD"},"type":"Feature","geometry":{"type":"Point","coordinates":[-83.176475,41.113802]}},{"properties":{"officer":"SWK","city":"Tiffin","date":{"end_time":"2009/05/20 17:01:29 -0400","original":"5/20/2009 5:01:28 PM","granularity":"sec","time":"2009/05/20 17:01:28 -0400"},"geo_score":0.873,"unit":61,"disposition":"200","zip code":"44883","cfs":14,"call#":9.004748,"id":"a69nbrl5qb0v","geo_precision":"range","address":"139 Cottage Av","state":"OH","juris":"PD"},"type":"Feature","geometry":{"type":"Point","coordinates":[-83.195803,41.109153]}},{"properties":{"officer":"JSC","city":"Tiffin","date":{"end_time":"2009/07/09 21:42:57 -0400","original":"7/9/2009 9:42:56 PM","granularity":"sec","time":"2009/07/09 21:42:56 -0400"},"geo_score":0.902,"unit":57,"disposition":"200","zip code":"44883","cfs":14,"call#":9.00656,"id":"a69nbrxanox8","geo_precision":"range","address":"14 Schonhardt St","state":"OH","juris":"PD"},"type":"Feature","geometry":{"type":"Point","coordinates":[-83.172954,41.112813]}},{"properties":{"officer":"GTM","city":"Tiffin","date":{"end_time":"2009/07/23 22:54:08 -0400","original":"7/23/2009 10:54:07 PM","granularity":"sec","time":"2009/07/23 22:54:07 -0400"},"geo_score":0.756,"unit":60,"disposition":"200","zip code":"44883","cfs":14,"call#":9.007137,"id":"a69nbrwaxsk8","geo_precision":"range","address":"149 First Av","state":"OH","juris":"PD"},"type":"Feature","geometry":{"type":"Point","coordinates":[-83.18264,41.127893]}},{"properties":{"officer":"DGH","city":"Tiffin","date":{"end_time":"2009/04/23 15:53:02 -0400","original":"4/23/2009 3:53:01 PM","granularity":"sec","time":"2009/04/23 15:53:01 -0400"},"geo_score":0.902,"unit":57,"disposition":"200","zip code":"44883","cfs":14,"call#":9.003869,"id":"a69nbrssw3vi","geo_precision":"range","address":"15 Ann St","state":"OH","juris":"PD"},"type":"Feature","geometry":{"type":"Point","coordinates":[-83.171362,41.112755]}},{"properties":{"officer":"LMK","city":"Tiffin","date":{"end_time":"2009/11/13 21:06:58 -0500","original":"11/13/2009 9:06:57 PM","granularity":"sec","time":"2009/11/13 21:06:57 -0500"},"geo_score":0.902,"unit":62,"disposition":"200","zip code":"44883","cfs":14,"call#":9.011094,"id":"a69nbrn7eafr","geo_precision":"range","address":"15 Frost Pkwy","state":"OH","juris":"PD"},"type":"Feature","geometry":{"type":"Point","coordinates":[-83.180751,41.114633]}},{"properties":{"officer":"JPF","city":"Tiffin","date":{"end_time":"2009/04/12 12:19:28 -0400","original":"4/12/2009 12:19:27 PM","granularity":"sec","time":"2009/04/12 12:19:27 -0400"},"geo_score":0.429,"unit":59,"disposition":"400","zip code":"44883","cfs":14,"call#":9.003499,"id":"a69nbrmzmofo","geo_precision":"street","address":"151 Dallas St,D","state":"OH","juris":"PD"},"type":"Feature","geometry":{"type":"Point","coordinates":[-82.625709,41.436284]}},{"properties":{"officer":"JDW","city":"Tiffin","date":{"end_time":"2009/10/15 17:03:34 -0400","original":"10/15/2009 5:03:33 PM","granularity":"sec","time":"2009/10/15 17:03:33 -0400"},"geo_score":0.756,"unit":648,"disposition":"200","zip code":"44883","cfs":14,"call#":9.010135,"id":"a69nbrmuzzbt","geo_precision":"range","address":"151 Second Av","state":"OH","juris":"PD"},"type":"Feature","geometry":{"type":"Point","coordinates":[-83.18162,41.128757]}},{"properties":{"officer":"SWK","city":"Tiffin","date":{"end_time":"2009/06/29 20:43:38 -0400","original":"6/29/2009 8:43:37 PM","granularity":"sec","time":"2009/06/29 20:43:37 -0400"},"geo_score":0.756,"unit":57,"disposition":"200","zip code":"44883","cfs":14,"call#":9.006196,"id":"a69nbrigrnll","geo_precision":"range","address":"151 Second Av","state":"OH","juris":"PD"},"type":"Feature","geometry":{"type":"Point","coordinates":[-83.18162,41.128757]}},{"properties":{"officer":"JPF","city":"Tiffin","date":{"end_time":"2009/12/07 12:05:00 -0500","original":"12/7/2009 12:04:00 PM","granularity":"min","time":"2009/12/07 12:04:00 -0500"},"geo_score":0.902,"unit":59,"disposition":"100","zip code":"44883","cfs":14,"call#":9.011801,"id":"a69nbrwhph1t","geo_precision":"range","address":"152 Madison St","state":"OH","juris":"PD"},"type":"Feature","geometry":{"type":"Point","coordinates":[-83.174582,41.113535]}},{"properties":{"officer":"RLT","city":"Tiffin","date":{"end_time":"2009/07/10 22:02:39 -0400","original":"7/10/2009 10:02:38 PM","granularity":"sec","time":"2009/07/10 22:02:38 -0400"},"geo_score":0.902,"unit":57,"disposition":"100","zip code":"44883","cfs":14,"call#":9.006604,"id":"a69nbrhqjlci","geo_precision":"range","address":"152 Madison St","state":"OH","juris":"PD"},"type":"Feature","geometry":{"type":"Point","coordinates":[-83.174582,41.113535]}},{"properties":{"officer":"SGN","city":"Tiffin","date":{"end_time":"2009/06/25 16:37:50 -0400","original":"6/25/2009 4:37:49 PM","granularity":"sec","time":"2009/06/25 16:37:49 -0400"},"geo_score":0.902,"unit":62,"disposition":"200","zip code":"44883","cfs":14,"call#":9.006015,"id":"a69nbrr7el76","geo_precision":"range","address":"152 Madison St","state":"OH","juris":"PD"},"type":"Feature","geometry":{"type":"Point","coordinates":[-83.174582,41.113535]}},{"properties":{"officer":"DGH","city":"Tiffin","date":{"end_time":"2009/03/17 16:07:44 -0400","original":"3/17/2009 4:07:43 PM","granularity":"sec","time":"2009/03/17 16:07:43 -0400"},"geo_score":0.902,"unit":58,"disposition":"100","zip code":"44883","cfs":14,"call#":9.00251,"id":"a69nbrp0lnl1","geo_precision":"range","address":"152 Madison St","state":"OH","juris":"PD"},"type":"Feature","geometry":{"type":"Point","coordinates":[-83.174582,41.113535]}},{"properties":{"officer":"AMR","city":"Tiffin","date":{"end_time":"2009/09/10 23:46:03 -0400","original":"9/10/2009 11:46:02 PM","granularity":"sec","time":"2009/09/10 23:46:02 -0400"},"geo_score":0.902,"unit":63,"disposition":"200","zip code":"44883","cfs":14,"call#":9.008922,"id":"a69nbrpoc6jf","geo_precision":"range","address":"154 S Washington St","state":"OH","juris":"PD"},"type":"Feature","geometry":{"type":"Point","coordinates":[-83.176365,41.11326]}},{"properties":{"officer":"BRB","city":"Tiffin","date":{"end_time":"2009/08/11 23:04:58 -0400","original":"8/11/2009 11:04:57 PM","granularity":"sec","time":"2009/08/11 23:04:57 -0400"},"geo_score":0.902,"unit":58,"disposition":"400","zip code":"44883","cfs":14,"call#":9.007809,"id":"a69nbrtquz93","geo_precision":"range","address":"154 S Washington St","state":"OH","juris":"PD"},"type":"Feature","geometry":{"type":"Point","coordinates":[-83.176365,41.11326]}},{"properties":{"officer":"BRB","city":"Tiffin","date":{"end_time":"2009/03/03 03:20:20 -0500","original":"3/3/2009 3:20:19 AM","granularity":"sec","time":"2009/03/03 03:20:19 -0500"},"geo_score":0.902,"unit":58,"disposition":"200","zip code":"44883","cfs":14,"call#":9.002064,"id":"a69nbrhi58dh","geo_precision":"range","address":"154 S Washington St","state":"OH","juris":"PD"},"type":"Feature","geometry":{"type":"Point","coordinates":[-83.176365,41.11326]}},{"properties":{"officer":"JPF","city":"Tiffin","date":{"end_time":"2009/11/29 16:04:30 -0500","original":"11/29/2009 4:04:29 PM","granularity":"sec","time":"2009/11/29 16:04:29 -0500"},"geo_score":0.861,"unit":947,"disposition":"400","zip code":"44883","cfs":14,"call#":9.011572,"id":"a69nbrutwwb4","geo_precision":"range","address":"156 Ohio Av","state":"OH","juris":"PD"},"type":"Feature","geometry":{"type":"Point","coordinates":[-83.165485,41.123201]}},{"properties":{"officer":"JPF","city":"Tiffin","date":{"end_time":"2009/07/04 14:47:09 -0400","original":"7/4/2009 2:47:08 PM","granularity":"sec","time":"2009/07/04 14:47:08 -0400"},"geo_score":0.537,"unit":59,"disposition":"400","zip code":"44883","cfs":14,"call#":9.006364,"id":"a69nbrtun16x","geo_precision":"street","address":"159 Dallas St","state":"OH","juris":"PD"},"type":"Feature","geometry":{"type":"Point","coordinates":[-82.562576,41.384496]}},{"properties":{"officer":"RAG","city":"Tiffin","date":{"end_time":"2009/07/09 02:56:41 -0400","original":"7/9/2009 2:56:40 AM","granularity":"sec","time":"2009/07/09 02:56:40 -0400"},"geo_score":0.902,"unit":58,"disposition":"200","zip code":"44883","cfs":14,"call#":9.006539,"id":"a69nbrm43xz0","geo_precision":"range","address":"16 Crayon St","state":"OH","juris":"PD"},"type":"Feature","geometry":{"type":"Point","coordinates":[-83.156987,41.114737]}},{"properties":{"officer":"JAD","city":"Tiffin","date":{"end_time":"2009/02/01 03:54:51 -0500","original":"2/1/2009 3:54:50 AM","granularity":"sec","time":"2009/02/01 03:54:50 -0500"},"geo_score":0.902,"unit":56,"disposition":"400","zip code":"44883","cfs":14,"call#":9.001087,"id":"a69nbrk4mdja","geo_precision":"range","address":"161X S Sandusky St","state":"OH","juris":"PD"},"type":"Feature","geometry":{"type":"Point","coordinates":[-83.185238,41.115656]}},{"properties":{"officer":"RLT","city":"Tiffin","date":{"end_time":"2009/02/06 22:36:08 -0500","original":"2/6/2009 10:36:07 PM","granularity":"sec","time":"2009/02/06 22:36:07 -0500"},"geo_score":0.902,"unit":57,"disposition":"200","zip code":"44883","cfs":14,"call#":9.001259,"id":"a69nbrm2vhyo","geo_precision":"range","address":"164 Hall St","state":"OH","juris":"PD"},"type":"Feature","geometry":{"type":"Point","coordinates":[-83.182993,41.122848]}},{"properties":{"officer":"RJO","city":"Tiffin","date":{"end_time":"2009/06/08 11:35:35 -0400","original":"6/8/2009 11:35:34 AM","granularity":"sec","time":"2009/06/08 11:35:34 -0400"},"geo_score":0.873,"unit":57,"disposition":"200","zip code":"44883","cfs":14,"call#":9.00539,"id":"a69nbrh1mbk5","geo_precision":"range","address":"167 Cottage Av","state":"OH","juris":"PD"},"type":"Feature","geometry":{"type":"Point","coordinates":[-83.19698,41.109602]}},{"properties":{"officer":"JMW","city":"Tiffin","date":{"end_time":"2009/03/09 12:22:25 -0400","original":"3/9/2009 12:22:24 PM","granularity":"sec","time":"2009/03/09 12:22:24 -0400"},"geo_score":0.902,"unit":60,"disposition":"400","zip code":"44883","cfs":14,"call#":9.002243,"id":"a69nbrwhasce","geo_precision":"range","address":"167 Minerva St","state":"OH","juris":"PD"},"type":"Feature","geometry":{"type":"Point","coordinates":[-83.176594,41.125227]}},{"properties":{"officer":"JPF","city":"Tiffin","date":{"end_time":"2009/08/29 16:08:05 -0400","original":"8/29/2009 4:08:04 PM","granularity":"sec","time":"2009/08/29 16:08:04 -0400"},"geo_score":0.902,"unit":59,"disposition":"200","zip code":"44883","cfs":14,"call#":9.008476,"id":"a69nbrqppik7","geo_precision":"range","address":"168 Rosa St","state":"OH","juris":"PD"},"type":"Feature","geometry":{"type":"Point","coordinates":[-83.165939,41.106378]}},{"properties":{"officer":"SGN","city":"Tiffin","date":{"end_time":"2009/02/19 15:50:32 -0500","original":"2/19/2009 3:50:31 PM","granularity":"sec","time":"2009/02/19 15:50:31 -0500"},"geo_score":0.902,"unit":62,"disposition":"200","zip code":"44883","cfs":14,"call#":9.001716,"id":"a69nbrkyz8rp","geo_precision":"range","address":"168 Westwood Dr","state":"OH","juris":"PD"},"type":"Feature","geometry":{"type":"Point","coordinates":[-83.211281,41.11534]}},{"properties":{"officer":"JSC","city":"Tiffin","date":{"end_time":"2009/12/13 18:44:49 -0500","original":"12/13/2009 6:44:48 PM","granularity":"sec","time":"2009/12/13 18:44:48 -0500"},"geo_score":0.902,"unit":59,"disposition":"230","zip code":"44883","cfs":14,"call#":9.011972,"id":"a69nbrrncbev","geo_precision":"range","address":"169 Jefferson St,1","state":"OH","juris":"PD"},"type":"Feature","geometry":{"type":"Point","coordinates":[-83.175816,41.117579]}},{"properties":{"officer":"GTM","city":"Tiffin","date":{"end_time":"2009/07/25 03:13:16 -0400","original":"7/25/2009 3:13:15 AM","granularity":"sec","time":"2009/07/25 03:13:15 -0400"},"geo_score":0.902,"unit":57,"disposition":"200","zip code":"44883","cfs":14,"call#":9.007185,"id":"a69nbrlt3ibu","geo_precision":"range","address":"1692 W Market St","state":"OH","juris":"PD"},"type":"Feature","geometry":{"type":"Point","coordinates":[-83.202702,41.109597]}},{"properties":{"officer":"MAM","city":"Tiffin","date":{"end_time":"2009/12/05 14:10:00 -0500","original":"12/5/2009 2:09:00 PM","granularity":"min","time":"2009/12/05 14:09:00 -0500"},"geo_score":0.902,"unit":58,"disposition":"100","zip code":"44883","cfs":14,"call#":9.011734,"id":"a69nbrpof94o","geo_precision":"range","address":"1692 W Market St,56","state":"OH","juris":"PD"},"type":"Feature","geometry":{"type":"Point","coordinates":[-83.182187,41.114033]}},{"properties":{"officer":"AMR","city":"Tiffin","date":{"end_time":"2009/05/23 12:01:27 -0400","original":"5/23/2009 12:01:26 PM","granularity":"sec","time":"2009/05/23 12:01:26 -0400"},"geo_score":0.902,"unit":63,"disposition":"200","zip code":"44883","cfs":14,"call#":9.004859,"id":"a69nbri9ug5g","geo_precision":"range","address":"1692 W Market St,58","state":"OH","juris":"PD"},"type":"Feature","geometry":{"type":"Point","coordinates":[-83.182233,41.114027]}},{"properties":{"officer":"GTM","city":"Tiffin","date":{"end_time":"2009/05/27 04:29:09 -0400","original":"5/27/2009 4:29:08 AM","granularity":"sec","time":"2009/05/27 04:29:08 -0400"},"geo_score":0.837,"unit":62,"disposition":"400","zip code":"44883","cfs":14,"call#":9.004983,"id":"a69nbrr1bkqn","geo_precision":"range","address":"17 Frost Py","state":"OH","juris":"PD"},"type":"Feature","geometry":{"type":"Point","coordinates":[-83.180758,41.114695]}},{"properties":{"officer":"SWK","city":"Tiffin","date":{"end_time":"2009/07/05 20:06:34 -0400","original":"7/5/2009 8:06:33 PM","granularity":"sec","time":"2009/07/05 20:06:33 -0400"},"geo_score":0.756,"unit":57,"disposition":"200","zip code":"44883","cfs":14,"call#":9.006417,"id":"a69nbrvp9l5p","geo_precision":"range","address":"170 Fourth Av","state":"OH","juris":"PD"},"type":"Feature","geometry":{"type":"Point","coordinates":[-83.181199,41.130482]}},{"properties":{"officer":null,"city":"Tiffin","date":{"end_time":"2009/05/28 15:42:18 -0400","original":"5/28/2009 3:42:17 PM","granularity":"sec","time":"2009/05/28 15:42:17 -0400"},"geo_score":0.476,"unit":648,"disposition":"700","zip code":"44883","cfs":14,"call#":9.005028,"id":"a69nbrk8kqw9","geo_precision":"street","address":"1734 W Market St,E","state":"OH","juris":"PD"},"type":"Feature","geometry":{"type":"Point","coordinates":[-83.181592,41.114111]}},{"properties":{"officer":"RLT","city":"Tiffin","date":{"end_time":"2009/02/09 00:24:45 -0500","original":"2/9/2009 12:24:44 AM","granularity":"sec","time":"2009/02/09 00:24:44 -0500"},"geo_score":0.902,"unit":58,"disposition":"200","zip code":"44883","cfs":14,"call#":9.001349,"id":"a69nbroue0xv","geo_precision":"range","address":"175 Jefferson St","state":"OH","juris":"PD"},"type":"Feature","geometry":{"type":"Point","coordinates":[-83.174644,41.112704]}},{"properties":{"officer":"SGN","city":"Tiffin","date":{"end_time":"2009/02/20 13:25:19 -0500","original":"2/20/2009 1:25:18 PM","granularity":"sec","time":"2009/02/20 13:25:18 -0500"},"geo_score":0.902,"unit":62,"disposition":"200","zip code":"44883","cfs":14,"call#":9.001735,"id":"a69nbrhiwvnf","geo_precision":"range","address":"175 Jefferson St,4","state":"OH","juris":"PD"},"type":"Feature","geometry":{"type":"Point","coordinates":[-83.175798,41.117537]}},{"properties":{"officer":"AMR","city":"Tiffin","date":{"end_time":"2009/12/08 16:28:57 -0500","original":"12/8/2009 4:28:56 PM","granularity":"sec","time":"2009/12/08 16:28:56 -0500"},"geo_score":0.756,"unit":63,"disposition":"400","zip code":"44883","cfs":14,"call#":9.011829,"id":"a69nbrjhsoba","geo_precision":"range","address":"177 First Av","state":"OH","juris":"PD"},"type":"Feature","geometry":{"type":"Point","coordinates":[-83.183201,41.127886]}},{"properties":{"officer":"MAM","city":"Tiffin","date":{"end_time":"2009/06/27 09:16:39 -0400","original":"6/27/2009 9:16:38 AM","granularity":"sec","time":"2009/06/27 09:16:38 -0400"},"geo_score":0.756,"unit":58,"disposition":"200","zip code":"44883","cfs":14,"call#":9.006095,"id":"a69nbriy6kku","geo_precision":"range","address":"177 Second Av","state":"OH","juris":"PD"},"type":"Feature","geometry":{"type":"Point","coordinates":[-83.182826,41.128745]}},{"properties":{"officer":"MEM","city":"Tiffin","date":{"end_time":"2009/12/31 23:07:47 -0500","original":"12/31/2009 11:07:46 PM","granularity":"sec","time":"2009/12/31 23:07:46 -0500"},"geo_score":0.902,"unit":61,"disposition":"200","zip code":"44883","cfs":14,"call#":9.012404,"id":"a69nbrkzgvzp","geo_precision":"range","address":"179 Charlotte St","state":"OH","juris":"PD"},"type":"Feature","geometry":{"type":"Point","coordinates":[-83.183018,41.109886]}},{"properties":{"officer":"MAM","city":"Tiffin","date":{"end_time":"2009/05/21 16:17:20 -0400","original":"5/21/2009 4:17:19 PM","granularity":"sec","time":"2009/05/21 16:17:19 -0400"},"geo_score":0.902,"unit":58,"disposition":"450","zip code":"44883","cfs":14,"call#":9.004786,"id":"a69nbrw13jbe","geo_precision":"range","address":"179 Minerva St","state":"OH","juris":"PD"},"type":"Feature","geometry":{"type":"Point","coordinates":[-83.176644,41.125631]}},{"properties":{"officer":"AMR","city":"Tiffin","date":{"end_time":"2009/03/23 19:08:42 -0400","original":"3/23/2009 7:08:41 PM","granularity":"sec","time":"2009/03/23 19:08:41 -0400"},"geo_score":0.902,"unit":63,"disposition":"400","zip code":"44883","cfs":14,"call#":9.00274,"id":"a69nbrjrowvs","geo_precision":"range","address":"179 N Washington St","state":"OH","juris":"PD"},"type":"Feature","geometry":{"type":"Point","coordinates":[-83.17783,41.122661]}},{"properties":{"officer":"GTM","city":"Tiffin","date":{"end_time":"2009/12/16 22:03:28 -0500","original":"12/16/2009 10:03:27 PM","granularity":"sec","time":"2009/12/16 22:03:27 -0500"},"geo_score":0.902,"unit":61,"disposition":"200","zip code":"44883","cfs":14,"call#":9.01206,"id":"a69nbroa2uhv","geo_precision":"range","address":"18 Madison St","state":"OH","juris":"PD"},"type":"Feature","geometry":{"type":"Point","coordinates":[-83.178501,41.113184]}},{"properties":{"officer":"EDA","city":"Tiffin","date":{"end_time":"2009/11/05 21:55:38 -0500","original":"11/5/2009 9:55:37 PM","granularity":"sec","time":"2009/11/05 21:55:37 -0500"},"geo_score":0.902,"unit":57,"disposition":"200","zip code":"44883","cfs":14,"call#":9.010857,"id":"a69nbrpoukh1","geo_precision":"range","address":"18 Madison St","state":"OH","juris":"PD"},"type":"Feature","geometry":{"type":"Point","coordinates":[-83.178501,41.113184]}},{"properties":{"officer":"DES","city":"Tiffin","date":{"end_time":"2009/04/27 08:27:00 -0400","original":"4/27/2009 8:26:00 AM","granularity":"min","time":"2009/04/27 08:26:00 -0400"},"geo_score":0.902,"unit":62,"disposition":"200","zip code":"44883","cfs":14,"call#":9.004,"id":"a69nbrrnjt7s","geo_precision":"range","address":"182 E Market St,117","state":"OH","juris":"PD"},"type":"Feature","geometry":{"type":"Point","coordinates":[-83.17587,41.11467]}},{"properties":{"officer":"AMR","city":"Tiffin","date":{"end_time":"2009/01/14 20:38:42 -0500","original":"1/14/2009 8:38:41 PM","granularity":"sec","time":"2009/01/14 20:38:41 -0500"},"geo_score":0.902,"unit":63,"disposition":"200","zip code":"44883","cfs":14,"call#":9.000444,"id":"a69nbroglre6","geo_precision":"range","address":"182 E Market St,117","state":"OH","juris":"PD"},"type":"Feature","geometry":{"type":"Point","coordinates":[-83.17587,41.11467]}},{"properties":{"officer":"JAD","city":"Tiffin","date":{"end_time":"2009/09/04 01:19:21 -0400","original":"9/4/2009 1:19:20 AM","granularity":"sec","time":"2009/09/04 01:19:20 -0400"},"geo_score":0.902,"unit":56,"disposition":"400","zip code":"44883","cfs":14,"call#":9.008682,"id":"a69nbrmtu8aa","geo_precision":"range","address":"182 E Market St,214","state":"OH","juris":"PD"},"type":"Feature","geometry":{"type":"Point","coordinates":[-83.172003,41.115001]}},{"properties":{"officer":"BRB","city":"Tiffin","date":{"end_time":"2009/08/19 20:10:15 -0400","original":"8/19/2009 8:10:14 PM","granularity":"sec","time":"2009/08/19 20:10:14 -0400"},"geo_score":0.902,"unit":58,"disposition":"200","zip code":"44883","cfs":14,"call#":9.008074,"id":"a69nbrhs6jim","geo_precision":"range","address":"183 Charlotte St","state":"OH","juris":"PD"},"type":"Feature","geometry":{"type":"Point","coordinates":[-83.183076,41.109879]}},{"properties":{"officer":"LMK","city":"Tiffin","date":{"end_time":"2009/08/05 03:54:33 -0400","original":"8/5/2009 3:54:32 AM","granularity":"sec","time":"2009/08/05 03:54:32 -0400"},"geo_score":0.902,"unit":62,"disposition":"200","zip code":"44883","cfs":14,"call#":9.007589,"id":"a69nbrx7fwpz","geo_precision":"range","address":"184X S Washington St","state":"OH","juris":"PD"},"type":"Feature","geometry":{"type":"Point","coordinates":[-83.17625,41.112349]}},{"properties":{"officer":"AMR","city":"Tiffin","date":{"end_time":"2009/09/15 18:49:51 -0400","original":"9/15/2009 6:49:50 PM","granularity":"sec","time":"2009/09/15 18:49:50 -0400"},"geo_score":0.902,"unit":63,"disposition":"100","zip code":"44883","cfs":14,"call#":9.009075,"id":"a69nbrn4ctip","geo_precision":"range","address":"188X S Washington St","state":"OH","juris":"PD"},"type":"Feature","geometry":{"type":"Point","coordinates":[-83.176235,41.112228]}},{"properties":{"officer":"REB","city":"Tiffin","date":{"end_time":"2009/08/30 09:19:13 -0400","original":"8/30/2009 9:19:12 AM","granularity":"sec","time":"2009/08/30 09:19:12 -0400"},"geo_score":0.902,"unit":62,"disposition":"200","zip code":"44883","cfs":14,"call#":9.008521,"id":"a69nbrtbj6k0","geo_precision":"range","address":"19 Harvest Ln","state":"OH","juris":"PD"},"type":"Feature","geometry":{"type":"Point","coordinates":[-83.181647,41.09817]}},{"properties":{"officer":"BRB","city":"Tiffin","date":{"end_time":"2009/07/09 00:48:08 -0400","original":"7/9/2009 12:48:07 AM","granularity":"sec","time":"2009/07/09 00:48:07 -0400"},"geo_score":0.902,"unit":59,"disposition":"450","zip code":"44883","cfs":14,"call#":9.006535,"id":"a69nbrmidzcz","geo_precision":"range","address":"192 Hall St","state":"OH","juris":"PD"},"type":"Feature","geometry":{"type":"Point","coordinates":[-83.183715,41.123224]}},{"properties":{"officer":"BAR","city":"Tiffin","date":{"end_time":"2009/01/31 00:30:07 -0500","original":"1/31/2009 12:30:06 AM","granularity":"sec","time":"2009/01/31 00:30:06 -0500"},"geo_score":0.902,"unit":63,"disposition":"200","zip code":"44883","cfs":14,"call#":9.001036,"id":"a69nbrhrgbmx","geo_precision":"range","address":"193 N Washington St","state":"OH","juris":"PD"},"type":"Feature","geometry":{"type":"Point","coordinates":[-83.177889,41.123172]}},{"properties":{"officer":"MAM","city":"Tiffin","date":{"end_time":"2009/08/20 10:46:30 -0400","original":"8/20/2009 10:46:29 AM","granularity":"sec","time":"2009/08/20 10:46:29 -0400"},"geo_score":0.902,"unit":58,"disposition":"200","zip code":"44883","cfs":14,"call#":9.008094,"id":"a69nbrwlm1pi","geo_precision":"range","address":"194 E Perry St","state":"OH","juris":"PD"},"type":"Feature","geometry":{"type":"Point","coordinates":[-83.172463,41.116218]}},{"properties":{"officer":"RLT","city":"Tiffin","date":{"end_time":"2009/04/24 23:24:36 -0400","original":"4/24/2009 11:24:35 PM","granularity":"sec","time":"2009/04/24 23:24:35 -0400"},"geo_score":0.902,"unit":61,"disposition":"200","zip code":"44883","cfs":14,"call#":9.003914,"id":"a69nbrqsncez","geo_precision":"range","address":"196 Hudson St","state":"OH","juris":"PD"},"type":"Feature","geometry":{"type":"Point","coordinates":[-83.183927,41.121605]}},{"properties":{"officer":"SMM","city":"Tiffin","date":{"end_time":"2009/06/19 19:51:51 -0400","original":"6/19/2009 7:51:50 PM","granularity":"sec","time":"2009/06/19 19:51:50 -0400"},"geo_score":0.902,"unit":58,"disposition":"400","zip code":"44883","cfs":14,"call#":9.005812,"id":"a69nbrsmqkf3","geo_precision":"range","address":"196X Jefferson St","state":"OH","juris":"PD"},"type":"Feature","geometry":{"type":"Point","coordinates":[-83.174566,41.112085]}},{"properties":{"officer":"DES","city":"Tiffin","date":{"end_time":"2009/02/23 11:43:08 -0500","original":"2/23/2009 11:43:07 AM","granularity":"sec","time":"2009/02/23 11:43:07 -0500"},"geo_score":0.902,"unit":62,"disposition":"200","zip code":"44883","cfs":14,"call#":9.001842,"id":"a69nbrw6zymo","geo_precision":"range","address":"2 Main St","state":"OH","juris":"PD"},"type":"Feature","geometry":{"type":"Point","coordinates":[-83.176035,41.111318]}},{"properties":{"officer":"BRB","city":"Tiffin","date":{"end_time":"2009/01/19 20:29:40 -0500","original":"1/19/2009 8:29:39 PM","granularity":"sec","time":"2009/01/19 20:29:39 -0500"},"geo_score":0.88,"unit":59,"disposition":"400","zip code":"44883","cfs":14,"call#":9.000622,"id":"a69nbrichuav","geo_precision":"range","address":"20 Kensington Av","state":"OH","juris":"PD"},"type":"Feature","geometry":{"type":"Point","coordinates":[-83.191975,41.116488]}},{"properties":{"officer":"REB","city":"Tiffin","date":{"end_time":"2009/09/28 12:57:27 -0400","original":"9/28/2009 12:57:26 PM","granularity":"sec","time":"2009/09/28 12:57:26 -0400"},"geo_score":0.902,"unit":63,"disposition":"100","zip code":"44883","cfs":14,"call#":9.009564,"id":"a69nbrr34e09","geo_precision":"range","address":"20 Sycamore St","state":"OH","juris":"PD"},"type":"Feature","geometry":{"type":"Point","coordinates":[-83.176099,41.109122]}},{"properties":{"officer":"AMR","city":"Tiffin","date":{"end_time":"2009/01/05 21:54:39 -0500","original":"1/5/2009 9:54:38 PM","granularity":"sec","time":"2009/01/05 21:54:38 -0500"},"geo_score":0.571,"unit":63,"disposition":"400","zip code":"44883","cfs":14,"call#":9.000173,"id":"a69nbrw1mbts","geo_precision":"street","address":"20 Towne &amp; Country Dr","state":"OH","juris":"PD"},"type":"Feature","geometry":{"type":"Point","coordinates":[-82.848818,40.961585]}},{"properties":{"officer":"JAD","city":"Tiffin","date":{"end_time":"2009/06/26 23:40:52 -0400","original":"6/26/2009 11:40:51 PM","granularity":"sec","time":"2009/06/26 23:40:51 -0400"},"geo_score":0.902,"unit":56,"disposition":"100","zip code":"44883","cfs":14,"call#":9.006077,"id":"a69nbrmwpgj4","geo_precision":"range","address":"200 E Market St","state":"OH","juris":"PD"},"type":"Feature","geometry":{"type":"Point","coordinates":[-83.172475,41.114966]}},{"properties":{"officer":"RLT","city":"Tiffin","date":{"end_time":"2009/08/16 00:22:55 -0400","original":"8/16/2009 12:22:54 AM","granularity":"sec","time":"2009/08/16 00:22:54 -0400"},"geo_score":0.902,"unit":59,"disposition":"200","zip code":"44883","cfs":14,"call#":9.00796,"id":"a69nbro2gh0o","geo_precision":"range","address":"200 E Market St,253","state":"OH","juris":"PD"},"type":"Feature","geometry":{"type":"Point","coordinates":[-83.171002,41.115217]}},{"properties":{"officer":"JAD","city":"Tiffin","date":{"end_time":"2009/06/26 22:54:54 -0400","original":"6/26/2009 10:54:53 PM","granularity":"sec","time":"2009/06/26 22:54:53 -0400"},"geo_score":0.902,"unit":56,"disposition":"200","zip code":"44883","cfs":14,"call#":9.006076,"id":"a69nbrq7x6c9","geo_precision":"range","address":"200 E Market St,352","state":"OH","juris":"PD"},"type":"Feature","geometry":{"type":"Point","coordinates":[-83.168074,41.117148]}},{"properties":{"officer":"JMW","city":"Tiffin","date":{"end_time":"2009/05/16 19:11:28 -0400","original":"5/16/2009 7:11:27 PM","granularity":"sec","time":"2009/05/16 19:11:27 -0400"},"geo_score":0.902,"unit":60,"disposition":"200","zip code":"44883","cfs":14,"call#":9.00461,"id":"a69nbrtmrxko","geo_precision":"range","address":"200 E Market St,352","state":"OH","juris":"PD"},"type":"Feature","geometry":{"type":"Point","coordinates":[-83.168074,41.117148]}},{"properties":{"officer":"JSC","city":"Tiffin","date":{"end_time":"2009/04/13 18:18:50 -0400","original":"4/13/2009 6:18:49 PM","granularity":"sec","time":"2009/04/13 18:18:49 -0400"},"geo_score":0.756,"unit":59,"disposition":"200","zip code":"44883","cfs":14,"call#":9.003535,"id":"a69nbrru98nh","geo_precision":"range","address":"200 Third Av","state":"OH","juris":"PD"},"type":"Feature","geometry":{"type":"Point","coordinates":[-83.182999,41.129595]}},{"properties":{"officer":"BAR","city":"Tiffin","date":{"end_time":"2009/03/14 17:09:58 -0400","original":"3/14/2009 5:09:57 PM","granularity":"sec","time":"2009/03/14 17:09:57 -0400"},"geo_score":0.902,"unit":63,"disposition":"200","zip code":"44883","cfs":14,"call#":9.002411,"id":"a69nbrukdvd0","geo_precision":"range","address":"201 Jefferson St","state":"OH","juris":"PD"},"type":"Feature","geometry":{"type":"Point","coordinates":[-83.174543,41.111899]}},{"properties":{"officer":"JSC","city":"Tiffin","date":{"end_time":"2009/02/09 20:50:00 -0500","original":"2/9/2009 8:49:00 PM","granularity":"min","time":"2009/02/09 20:49:00 -0500"},"geo_score":0.756,"unit":59,"disposition":"400","zip code":"44883","cfs":14,"call#":9.001373,"id":"a69nbrx6j63n","geo_precision":"range","address":"203 First Av","state":"OH","juris":"PD"},"type":"Feature","geometry":{"type":"Point","coordinates":[-83.183722,41.127879]}},{"properties":{"officer":"JMW","city":"Tiffin","date":{"end_time":"2009/11/01 00:37:05 -0400","original":"11/1/2009 12:37:04 AM","granularity":"sec","time":"2009/11/01 00:37:04 -0400"},"geo_score":0.902,"unit":57,"disposition":"200","zip code":"44883","cfs":14,"call#":9.010704,"id":"a69nbrh2fqa5","geo_precision":"range","address":"204 E Market St,143","state":"OH","juris":"PD"},"type":"Feature","geometry":{"type":"Point","coordinates":[-83.174663,41.114767]}},{"properties":{"officer":"JPF","city":"Tiffin","date":{"end_time":"2009/01/11 14:25:00 -0500","original":"1/11/2009 2:24:00 PM","granularity":"min","time":"2009/01/11 14:24:00 -0500"},"geo_score":0.902,"unit":59,"disposition":"200","zip code":"44883","cfs":14,"call#":9.000347,"id":"a69nbrp6277j","geo_precision":"range","address":"208 S Washington St","state":"OH","juris":"PD"},"type":"Feature","geometry":{"type":"Point","coordinates":[-83.176158,41.111621]}},{"properties":{"officer":"SWK","city":"Tiffin","date":{"end_time":"2009/09/13 19:05:04 -0400","original":"9/13/2009 7:05:03 PM","granularity":"sec","time":"2009/09/13 19:05:03 -0400"},"geo_score":0.902,"unit":61,"disposition":"200","zip code":"44883","cfs":14,"call#":9.009016,"id":"a69nbrpax7mp","geo_precision":"range","address":"208 Walker St","state":"OH","juris":"PD"},"type":"Feature","geometry":{"type":"Point","coordinates":[-83.165544,41.111289]}},{"properties":{"officer":"AMR","city":"Tiffin","date":{"end_time":"2009/03/15 20:56:34 -0400","original":"3/15/2009 8:56:33 PM","granularity":"sec","time":"2009/03/15 20:56:33 -0400"},"geo_score":0.902,"unit":63,"disposition":"400","zip code":"44883","cfs":14,"call#":9.002458,"id":"a69nbrn41z9l","geo_precision":"range","address":"209 W Perry St","state":"OH","juris":"PD"},"type":"Feature","geometry":{"type":"Point","coordinates":[-83.187696,41.115119]}},{"properties":{"officer":"MAM","city":"Tiffin","date":{"end_time":"2009/01/29 15:42:49 -0500","original":"1/29/2009 3:42:48 PM","granularity":"sec","time":"2009/01/29 15:42:48 -0500"},"geo_score":0.902,"unit":58,"disposition":"200","zip code":"44883","cfs":14,"call#":9.000977,"id":"a69nbriiiz7n","geo_precision":"range","address":"21 Adams St","state":"OH","juris":"PD"},"type":"Feature","geometry":{"type":"Point","coordinates":[-83.178848,41.118031]}},{"properties":{"officer":"JSC","city":"Tiffin","date":{"end_time":"2009/09/28 21:33:48 -0400","original":"9/28/2009 9:33:47 PM","granularity":"sec","time":"2009/09/28 21:33:47 -0400"},"geo_score":0.902,"unit":59,"disposition":"200","zip code":"44883","cfs":14,"call#":9.009577,"id":"a69nbrsu8dgk","geo_precision":"range","address":"21 Ash St","state":"OH","juris":"PD"},"type":"Feature","geometry":{"type":"Point","coordinates":[-83.186046,41.12271]}},{"properties":{"officer":"SMM","city":"Tiffin","date":{"end_time":"2009/11/12 22:24:56 -0500","original":"11/12/2009 10:24:55 PM","granularity":"sec","time":"2009/11/12 22:24:55 -0500"},"geo_score":0.514,"unit":58,"disposition":"400","zip code":"44883","cfs":14,"call#":9.011058,"id":"a69nbrwx41co","geo_precision":"street","address":"21 Elm Av,C","state":"OH","juris":"PD"},"type":"Feature","geometry":{"type":"Point","coordinates":[-83.174672,41.108987]}},{"properties":{"officer":"RLT","city":"Tiffin","date":{"end_time":"2009/07/27 06:36:41 -0400","original":"7/27/2009 6:36:40 AM","granularity":"sec","time":"2009/07/27 06:36:40 -0400"},"geo_score":0.902,"unit":58,"disposition":"200","zip code":"44883","cfs":14,"call#":9.007262,"id":"a69nbrhhqsc0","geo_precision":"range","address":"211 S Monroe St","state":"OH","juris":"PD"},"type":"Feature","geometry":{"type":"Point","coordinates":[-83.177595,41.110724]}},{"properties":{"officer":"MEM","city":"Tiffin","date":{"end_time":"2009/11/05 21:40:16 -0500","original":"11/5/2009 9:40:15 PM","granularity":"sec","time":"2009/11/05 21:40:15 -0500"},"geo_score":0.902,"unit":61,"disposition":"200","zip code":"44883","cfs":14,"call#":9.010856,"id":"a69nbropc5jo","geo_precision":"range","address":"213 E Market St","state":"OH","juris":"PD"},"type":"Feature","geometry":{"type":"Point","coordinates":[-83.17201,41.115]}},{"properties":{"officer":"DES","city":"Tiffin","date":{"end_time":"2009/09/24 12:44:33 -0400","original":"9/24/2009 12:44:32 PM","granularity":"sec","time":"2009/09/24 12:44:32 -0400"},"geo_score":0.902,"unit":61,"disposition":"200","zip code":"44883","cfs":14,"call#":9.009407,"id":"a69nbrr4qp8w","geo_precision":"range","address":"219 Walker St","state":"OH","juris":"PD"},"type":"Feature","geometry":{"type":"Point","coordinates":[-83.165319,41.111315]}},{"properties":{"officer":"REB","city":"Tiffin","date":{"end_time":"2009/09/08 09:44:15 -0400","original":"9/8/2009 9:44:14 AM","granularity":"sec","time":"2009/09/08 09:44:14 -0400"},"geo_score":0.902,"unit":61,"disposition":"200","zip code":"44883","cfs":14,"call#":9.008842,"id":"a69nbrq8fhna","geo_precision":"range","address":"219 Walker St","state":"OH","juris":"PD"},"type":"Feature","geometry":{"type":"Point","coordinates":[-83.165319,41.111315]}},{"properties":{"officer":"JPF","city":"Tiffin","date":{"end_time":"2009/06/27 10:52:50 -0400","original":"6/27/2009 10:52:49 AM","granularity":"sec","time":"2009/06/27 10:52:49 -0400"},"geo_score":0.902,"unit":59,"disposition":"200","zip code":"44883","cfs":14,"call#":9.006096,"id":"a69nbrncr5l8","geo_precision":"range","address":"219 Walker St","state":"OH","juris":"PD"},"type":"Feature","geometry":{"type":"Point","coordinates":[-83.165319,41.111315]}},{"properties":{"officer":"AMR","city":"Tiffin","date":{"end_time":"2009/06/08 18:30:52 -0400","original":"6/8/2009 6:30:51 PM","granularity":"sec","time":"2009/06/08 18:30:51 -0400"},"geo_score":0.902,"unit":58,"disposition":"200","zip code":"44883","cfs":14,"call#":9.005405,"id":"a69nbrutix55","geo_precision":"range","address":"22 Rebecca St","state":"OH","juris":"PD"},"type":"Feature","geometry":{"type":"Point","coordinates":[-83.170488,41.11302]}},{"properties":{"officer":"LMK","city":"Tiffin","date":{"end_time":"2009/08/24 04:24:48 -0400","original":"8/24/2009 4:24:47 AM","granularity":"sec","time":"2009/08/24 04:24:47 -0400"},"geo_score":0.902,"unit":59,"disposition":"200","zip code":"44883","cfs":14,"call#":9.008258,"id":"a69nbrltcg3e","geo_precision":"range","address":"22 Schonhardt St","state":"OH","juris":"PD"},"type":"Feature","geometry":{"type":"Point","coordinates":[-83.172936,41.112661]}},{"properties":{"officer":"LMK","city":"Tiffin","date":{"end_time":"2009/05/31 21:15:49 -0400","original":"5/31/2009 9:15:48 PM","granularity":"sec","time":"2009/05/31 21:15:48 -0400"},"geo_score":0.902,"unit":62,"disposition":"200","zip code":"44883","cfs":14,"call#":9.005137,"id":"a69nbrrwmj4t","geo_precision":"range","address":"22 Sycamore St","state":"OH","juris":"PD"},"type":"Feature","geometry":{"type":"Point","coordinates":[-83.176134,41.109068]}},{"properties":{"officer":"JSC","city":"Tiffin","date":{"end_time":"2009/11/03 16:38:21 -0500","original":"11/3/2009 4:38:20 PM","granularity":"sec","time":"2009/11/03 16:38:20 -0500"},"geo_score":0.756,"unit":57,"disposition":"400","zip code":"44883","cfs":14,"call#":9.010781,"id":"a69nbrw56h93","geo_precision":"range","address":"222 Second Av","state":"OH","juris":"PD"},"type":"Feature","geometry":{"type":"Point","coordinates":[-83.184046,41.128726]}},{"properties":{"officer":"REB","city":"Tiffin","date":{"end_time":"2009/06/30 07:47:58 -0400","original":"6/30/2009 7:47:57 AM","granularity":"sec","time":"2009/06/30 07:47:57 -0400"},"geo_score":0.756,"unit":62,"disposition":"200","zip code":"44883","cfs":14,"call#":9.006202,"id":"a69nbrljwtdu","geo_precision":"range","address":"222 Second Av","state":"OH","juris":"PD"},"type":"Feature","geometry":{"type":"Point","coordinates":[-83.184046,41.128726]}},{"properties":{"officer":"BRB","city":"Tiffin","date":{"end_time":"2009/06/23 03:41:54 -0400","original":"6/23/2009 3:41:53 AM","granularity":"sec","time":"2009/06/23 03:41:53 -0400"},"geo_score":0.756,"unit":59,"disposition":"100","zip code":"44883","cfs":14,"call#":9.005933,"id":"a69nbrrhy6q5","geo_precision":"range","address":"222 Second Av","state":"OH","juris":"PD"},"type":"Feature","geometry":{"type":"Point","coordinates":[-83.184046,41.128726]}},{"properties":{"officer":"RLT","city":"Tiffin","date":{"end_time":"2009/05/17 21:49:17 -0400","original":"5/17/2009 9:49:16 PM","granularity":"sec","time":"2009/05/17 21:49:16 -0400"},"geo_score":0.902,"unit":59,"disposition":"400","zip code":"44883","cfs":14,"call#":9.004648,"id":"a69nbrq391zq","geo_precision":"range","address":"232 Main St","state":"OH","juris":"PD"},"type":"Feature","geometry":{"type":"Point","coordinates":[-83.166351,41.112209]}},{"properties":{"officer":"JSC","city":"Tiffin","date":{"end_time":"2009/03/08 01:53:00 -0500","original":"3/8/2009 1:52:00 AM","granularity":"min","time":"2009/03/08 01:52:00 -0500"},"geo_score":0.805,"unit":59,"disposition":"500","zip code":"44883","cfs":14,"call#":9.002217,"id":"a69nbrjnkn0p","geo_precision":"street","address":"234 Charlotte St","state":"OH","juris":"PD"},"type":"Feature","geometry":{"type":"Point","coordinates":[-83.185228,41.109725]}},{"properties":{"officer":"SGN","city":"Tiffin","date":{"end_time":"2009/09/03 14:55:02 -0400","original":"9/3/2009 2:55:01 PM","granularity":"sec","time":"2009/09/03 14:55:01 -0400"},"geo_score":0.902,"unit":62,"disposition":"200","zip code":"44883","cfs":14,"call#":9.008656,"id":"a69nbrl0clzc","geo_precision":"range","address":"236 S Washington St","state":"OH","juris":"PD"},"type":"Feature","geometry":{"type":"Point","coordinates":[-83.175978,41.110874]}},{"properties":{"officer":"LMK","city":"Tiffin","date":{"end_time":"2009/05/18 22:54:23 -0400","original":"5/18/2009 10:54:22 PM","granularity":"sec","time":"2009/05/18 22:54:22 -0400"},"geo_score":0.902,"unit":62,"disposition":"400","zip code":"44883","cfs":14,"call#":9.004678,"id":"a69nbrvkk6b1","geo_precision":"range","address":"24 Miami St","state":"OH","juris":"PD"},"type":"Feature","geometry":{"type":"Point","coordinates":[-83.180098,41.117058]}},{"properties":{"officer":"LMK","city":"Tiffin","date":{"end_time":"2009/03/17 23:53:29 -0400","original":"3/17/2009 11:53:28 PM","granularity":"sec","time":"2009/03/17 23:53:28 -0400"},"geo_score":0.902,"unit":60,"disposition":"200","zip code":"44883","cfs":14,"call#":9.002526,"id":"a69nbrpvfkca","geo_precision":"range","address":"24 Miami St","state":"OH","juris":"PD"},"type":"Feature","geometry":{"type":"Point","coordinates":[-83.180098,41.117058]}},{"properties":{"officer":"REB","city":"Tiffin","date":{"end_time":"2009/07/26 13:21:17 -0400","original":"7/26/2009 1:21:16 PM","granularity":"sec","time":"2009/07/26 13:21:16 -0400"},"geo_score":0.902,"unit":62,"disposition":"200","zip code":"44883","cfs":14,"call#":9.007247,"id":"a69nbru69c12","geo_precision":"range","address":"24 Minerva St","state":"OH","juris":"PD"},"type":"Feature","geometry":{"type":"Point","coordinates":[-83.175974,41.121147]}},{"properties":{"officer":"GTM","city":"Tiffin","date":{"end_time":"2009/04/30 21:37:12 -0400","original":"4/30/2009 9:37:11 PM","granularity":"sec","time":"2009/04/30 21:37:11 -0400"},"geo_score":0.756,"unit":62,"disposition":"200","zip code":"44883","cfs":14,"call#":9.004113,"id":"a69nbrq3kw6v","geo_precision":"range","address":"241 Seventh Av","state":"OH","juris":"PD"},"type":"Feature","geometry":{"type":"Point","coordinates":[-83.181773,41.133047]}},{"properties":{"officer":"MAM","city":"Tiffin","date":{"end_time":"2009/08/29 14:43:05 -0400","original":"8/29/2009 2:43:04 PM","granularity":"sec","time":"2009/08/29 14:43:04 -0400"},"geo_score":0.902,"unit":58,"disposition":"400","zip code":"44883","cfs":14,"call#":9.008475,"id":"a69nbrpwmypn","geo_precision":"range","address":"249 E Market St","state":"OH","juris":"PD"},"type":"Feature","geometry":{"type":"Point","coordinates":[-83.171094,41.115194]}},{"properties":{"officer":"JPF","city":"Tiffin","date":{"end_time":"2009/06/26 09:12:03 -0400","original":"6/26/2009 9:12:02 AM","granularity":"sec","time":"2009/06/26 09:12:02 -0400"},"geo_score":0.902,"unit":57,"disposition":"200","zip code":"44883","cfs":14,"call#":9.00604,"id":"a69nbrmdz5wx","geo_precision":"range","address":"24X Miami St","state":"OH","juris":"PD"},"type":"Feature","geometry":{"type":"Point","coordinates":[-83.180098,41.117058]}},{"properties":{"officer":"GTM","city":"Tiffin","date":{"end_time":"2009/11/06 23:14:58 -0500","original":"11/6/2009 11:14:57 PM","granularity":"sec","time":"2009/11/06 23:14:57 -0500"},"geo_score":0.902,"unit":62,"disposition":"400","zip code":"44883","cfs":14,"call#":9.010883,"id":"a69nbrps6ra0","geo_precision":"range","address":"25 E Market St","state":"OH","juris":"PD"},"type":"Feature","geometry":{"type":"Point","coordinates":[-83.179017,41.114372]}},{"properties":{"officer":"JMW","city":"Tiffin","date":{"end_time":"2009/10/10 20:27:37 -0400","original":"10/10/2009 8:27:36 PM","granularity":"sec","time":"2009/10/10 20:27:36 -0400"},"geo_score":0.902,"unit":59,"disposition":"230","zip code":"44883","cfs":14,"call#":9.009987,"id":"a69nbrqf0kle","geo_precision":"range","address":"25 E Market St","state":"OH","juris":"PD"},"type":"Feature","geometry":{"type":"Point","coordinates":[-83.179017,41.114372]}},{"properties":{"officer":"REB","city":"Tiffin","date":{"end_time":"2009/06/23 15:37:41 -0400","original":"6/23/2009 3:37:40 PM","granularity":"sec","time":"2009/06/23 15:37:40 -0400"},"geo_score":0.902,"unit":62,"disposition":"400","zip code":"44883","cfs":14,"call#":9.005949,"id":"a69nbrhip59f","geo_precision":"range","address":"25 E Market St","state":"OH","juris":"PD"},"type":"Feature","geometry":{"type":"Point","coordinates":[-83.179017,41.114372]}},{"properties":{"officer":"BRB","city":"Tiffin","date":{"end_time":"2009/02/19 21:14:43 -0500","original":"2/19/2009 9:14:42 PM","granularity":"sec","time":"2009/02/19 21:14:42 -0500"},"geo_score":0.902,"unit":59,"disposition":"200","zip code":"44883","cfs":14,"call#":9.001719,"id":"a69nbri5nhin","geo_precision":"range","address":"25 E Market St","state":"OH","juris":"PD"},"type":"Feature","geometry":{"type":"Point","coordinates":[-83.179017,41.114372]}},{"properties":{"officer":"RLT","city":"Tiffin","date":{"end_time":"2009/04/12 21:48:50 -0400","original":"4/12/2009 9:48:49 PM","granularity":"sec","time":"2009/04/12 21:48:49 -0400"},"geo_score":0.902,"unit":58,"disposition":"200","zip code":"44883","cfs":14,"call#":9.003508,"id":"a69nbroe8e0y","geo_precision":"range","address":"25 E Market St,22","state":"OH","juris":"PD"},"type":"Feature","geometry":{"type":"Point","coordinates":[-83.179086,41.114364]}},{"properties":{"officer":"DES","city":"Tiffin","date":{"end_time":"2009/06/25 15:36:16 -0400","original":"6/25/2009 3:36:15 PM","granularity":"sec","time":"2009/06/25 15:36:15 -0400"},"geo_score":0.902,"unit":59,"disposition":"200","zip code":"44883","cfs":14,"call#":9.006014,"id":"a69nbrja0lev","geo_precision":"range","address":"25 Rebecca St","state":"OH","juris":"PD"},"type":"Feature","geometry":{"type":"Point","coordinates":[-83.170376,41.113034]}},{"properties":{"officer":"MEM","city":"Tiffin","date":{"end_time":"2009/07/22 21:33:18 -0400","original":"7/22/2009 9:33:17 PM","granularity":"sec","time":"2009/07/22 21:33:17 -0400"},"geo_score":0.902,"unit":62,"disposition":"200","zip code":"44883","cfs":14,"call#":9.007107,"id":"a69nbrgvdupq","geo_precision":"range","address":"25 St Clair St","state":"OH","juris":"PD"},"type":"Feature","geometry":{"type":"Point","coordinates":[-83.18157,41.113939]}},{"properties":{"officer":"MAM","city":"Tiffin","date":{"end_time":"2009/12/12 12:23:16 -0500","original":"12/12/2009 12:23:15 PM","granularity":"sec","time":"2009/12/12 12:23:15 -0500"},"geo_score":0.902,"unit":63,"disposition":"200","zip code":"44883","cfs":14,"call#":9.011927,"id":"a69nbrmb4w2p","geo_precision":"range","address":"250 Riverside Dr","state":"OH","juris":"PD"},"type":"Feature","geometry":{"type":"Point","coordinates":[-83.171637,41.122481]}},{"properties":{"officer":"EDA","city":"Tiffin","date":{"end_time":"2009/03/01 17:26:34 -0500","original":"3/1/2009 5:26:33 PM","granularity":"sec","time":"2009/03/01 17:26:33 -0500"},"geo_score":0.756,"unit":60,"disposition":"200","zip code":"44883","cfs":14,"call#":9.002023,"id":"a69nbrslumf4","geo_precision":"range","address":"253 Fourth Av","state":"OH","juris":"PD"},"type":"Feature","geometry":{"type":"Point","coordinates":[-83.183979,41.130447]}},{"properties":{"officer":"JAD","city":"Tiffin","date":{"end_time":"2009/11/22 00:23:03 -0500","original":"11/22/2009 12:23:02 AM","granularity":"sec","time":"2009/11/22 00:23:02 -0500"},"geo_score":0.756,"unit":56,"disposition":"400","zip code":"44883","cfs":14,"call#":9.011339,"id":"a69nbrve81ep","geo_precision":"range","address":"255 Second Av","state":"OH","juris":"PD"},"type":"Feature","geometry":{"type":"Point","coordinates":[-83.185276,41.128714]}},{"properties":{"officer":"JPF","city":"Tiffin","date":{"end_time":"2009/12/20 14:40:43 -0500","original":"12/20/2009 2:40:42 PM","granularity":"sec","time":"2009/12/20 14:40:42 -0500"},"geo_score":0.805,"unit":63,"disposition":"200","zip code":"44883","cfs":14,"call#":9.012138,"id":"a69nbrtqgv13","geo_precision":"street","address":"255 W Market St","state":"OH","juris":"PD"},"type":"Feature","geometry":{"type":"Point","coordinates":[-83.189461,41.113339]}},{"properties":{"officer":"SMM","city":"Tiffin","date":{"end_time":"2009/10/07 16:51:10 -0400","original":"10/7/2009 4:51:09 PM","granularity":"sec","time":"2009/10/07 16:51:09 -0400"},"geo_score":0.902,"unit":58,"disposition":"200","zip code":"44883","cfs":14,"call#":9.009873,"id":"a69nbrmqgyem","geo_precision":"range","address":"25X Rebecca St","state":"OH","juris":"PD"},"type":"Feature","geometry":{"type":"Point","coordinates":[-83.170376,41.113034]}},{"properties":{"officer":"EDA","city":"Tiffin","date":{"end_time":"2009/08/30 02:41:31 -0400","original":"8/30/2009 2:41:30 AM","granularity":"sec","time":"2009/08/30 02:41:30 -0400"},"geo_score":0.902,"unit":59,"disposition":"230","zip code":"44883","cfs":14,"call#":9.008515,"id":"a69nbrrw0ovt","geo_precision":"range","address":"25X Rebecca St","state":"OH","juris":"PD"},"type":"Feature","geometry":{"type":"Point","coordinates":[-83.170376,41.113034]}},{"properties":{"officer":"DGH","city":"Tiffin","date":{"end_time":"2009/03/16 16:38:19 -0400","original":"3/16/2009 4:38:18 PM","granularity":"sec","time":"2009/03/16 16:38:18 -0400"},"geo_score":0.902,"unit":59,"disposition":"200","zip code":"44883","cfs":14,"call#":9.002486,"id":"a69nbrtsql6n","geo_precision":"range","address":"26 Rebecca St","state":"OH","juris":"PD"},"type":"Feature","geometry":{"type":"Point","coordinates":[-83.170309,41.113041]}},{"properties":{"officer":"AMR","city":"Tiffin","date":{"end_time":"2009/12/02 16:33:49 -0500","original":"12/2/2009 4:33:48 PM","granularity":"sec","time":"2009/12/02 16:33:48 -0500"},"geo_score":0.902,"unit":63,"disposition":"200","zip code":"44883","cfs":14,"call#":9.011653,"id":"a69nbrwqry69","geo_precision":"range","address":"26 Tomb St","state":"OH","juris":"PD"},"type":"Feature","geometry":{"type":"Point","coordinates":[-83.1752,41.128735]}},{"properties":{"officer":"SWK","city":"Tiffin","date":{"end_time":"2009/06/11 02:21:51 -0400","original":"6/11/2009 2:21:50 AM","granularity":"sec","time":"2009/06/11 02:21:50 -0400"},"geo_score":0.902,"unit":61,"disposition":"200","zip code":"44883","cfs":14,"call#":9.005464,"id":"a69nbrjfdjng","geo_precision":"range","address":"266 S Washington St","state":"OH","juris":"PD"},"type":"Feature","geometry":{"type":"Point","coordinates":[-83.175874,41.11022]}},{"properties":{"officer":"JSC","city":"Tiffin","date":{"end_time":"2009/01/04 20:16:03 -0500","original":"1/4/2009 8:16:02 PM","granularity":"sec","time":"2009/01/04 20:16:02 -0500"},"geo_score":0.902,"unit":62,"disposition":"200","zip code":"44883","cfs":14,"call#":9.000137,"id":"a69nbro0p1oa","geo_precision":"range","address":"267 Circular St","state":"OH","juris":"PD"},"type":"Feature","geometry":{"type":"Point","coordinates":[-83.170195,41.108327]}},{"properties":{"officer":"REB","city":"Tiffin","date":{"end_time":"2009/07/20 12:30:02 -0400","original":"7/20/2009 12:30:01 PM","granularity":"sec","time":"2009/07/20 12:30:01 -0400"},"geo_score":0.717,"unit":62,"disposition":"400","zip code":"44883","cfs":14,"call#":9.007016,"id":"a69nbrn317h2","geo_precision":"street","address":"269 S Washington St,1","state":"OH","juris":"PD"},"type":"Feature","geometry":{"type":"Point","coordinates":[-83.176943,41.117025]}},{"properties":{"officer":"RLT","city":"Tiffin","date":{"end_time":"2009/07/20 01:11:44 -0400","original":"7/20/2009 1:11:43 AM","granularity":"sec","time":"2009/07/20 01:11:43 -0400"},"geo_score":0.717,"unit":58,"disposition":"400","zip code":"44883","cfs":14,"call#":9.007003,"id":"a69nbriai4da","geo_precision":"street","address":"269 S Washington St,1","state":"OH","juris":"PD"},"type":"Feature","geometry":{"type":"Point","coordinates":[-83.176943,41.117025]}},{"properties":{"officer":"JPF","city":"Tiffin","date":{"end_time":"2009/07/17 16:29:47 -0400","original":"7/17/2009 4:29:46 PM","granularity":"sec","time":"2009/07/17 16:29:46 -0400"},"geo_score":0.902,"unit":59,"disposition":"400","zip code":"44883","cfs":14,"call#":9.006882,"id":"a69nbrl2rpzg","geo_precision":"range","address":"27 St Clair St","state":"OH","juris":"PD"},"type":"Feature","geometry":{"type":"Point","coordinates":[-83.181559,41.113853]}},{"properties":{"officer":"DES","city":"Tiffin","date":{"end_time":"2009/07/26 15:26:14 -0400","original":"7/26/2009 3:26:13 PM","granularity":"sec","time":"2009/07/26 15:26:13 -0400"},"geo_score":0.902,"unit":63,"disposition":"200","zip code":"44883","cfs":14,"call#":9.007249,"id":"a69nbrv7qjhj","geo_precision":"range","address":"271 S Sandusky St","state":"OH","juris":"PD"},"type":"Feature","geometry":{"type":"Point","coordinates":[-83.18747,41.112579]}},{"properties":{"officer":"MAM","city":"Tiffin","date":{"end_time":"2009/08/07 07:21:16 -0400","original":"8/7/2009 7:21:15 AM","granularity":"sec","time":"2009/08/07 07:21:15 -0400"},"geo_score":0.902,"unit":58,"disposition":"200","zip code":"44883","cfs":14,"call#":9.007662,"id":"a69nbrokvmpn","geo_precision":"range","address":"274 W Perry St","state":"OH","juris":"PD"},"type":"Feature","geometry":{"type":"Point","coordinates":[-83.190005,41.114982]}},{"properties":{"officer":"BRB","city":"Tiffin","date":{"end_time":"2009/06/25 22:53:03 -0400","original":"6/25/2009 10:53:02 PM","granularity":"sec","time":"2009/06/25 22:53:02 -0400"},"geo_score":0.902,"unit":62,"disposition":"200","zip code":"44883","cfs":14,"call#":9.006027,"id":"a69nbrl6cxc7","geo_precision":"range","address":"28 Rebecca St","state":"OH","juris":"PD"},"type":"Feature","geometry":{"type":"Point","coordinates":[-83.170219,41.113052]}},{"properties":{"officer":"GTM","city":"Tiffin","date":{"end_time":"2009/12/22 20:37:05 -0500","original":"12/22/2009 8:37:04 PM","granularity":"sec","time":"2009/12/22 20:37:04 -0500"},"geo_score":0.582,"unit":62,"disposition":"200","zip code":"44883","cfs":14,"call#":9.012198,"id":"a69nbrm5b1j7","geo_precision":"street","address":"2801 W Sr 18","state":"OH","juris":"PD"},"type":"Feature","geometry":{"type":"Point","coordinates":[-83.278292,41.108823]}},{"properties":{"officer":"EDA","city":"Tiffin","date":{"end_time":"2009/08/13 19:30:13 -0400","original":"8/13/2009 7:30:12 PM","granularity":"sec","time":"2009/08/13 19:30:12 -0400"},"geo_score":0.582,"unit":59,"disposition":"100","zip code":"44883","cfs":14,"call#":9.007875,"id":"a69nbrl8ipb1","geo_precision":"street","address":"2801 W Sr 18","state":"OH","juris":"PD"},"type":"Feature","geometry":{"type":"Point","coordinates":[-83.278292,41.108823]}},{"properties":{"officer":"SWK","city":"Tiffin","date":{"end_time":"2009/08/05 18:35:00 -0400","original":"8/5/2009 6:34:59 PM","granularity":"sec","time":"2009/08/05 18:34:59 -0400"},"geo_score":0.582,"unit":58,"disposition":"200","zip code":"44883","cfs":14,"call#":9.007619,"id":"a69nbrhdol6s","geo_precision":"street","address":"2801 W Sr 18","state":"OH","juris":"PD"},"type":"Feature","geometry":{"type":"Point","coordinates":[-83.278292,41.108823]}},{"properties":{"officer":"JAD","city":"Tiffin","date":{"end_time":"2009/07/26 03:36:39 -0400","original":"7/26/2009 3:36:38 AM","granularity":"sec","time":"2009/07/26 03:36:38 -0400"},"geo_score":0.582,"unit":56,"disposition":"200","zip code":"44883","cfs":14,"call#":9.007235,"id":"a69nbrlsdlet","geo_precision":"street","address":"2801 W Sr 18","state":"OH","juris":"PD"},"type":"Feature","geometry":{"type":"Point","coordinates":[-83.278292,41.108823]}},{"properties":{"officer":"JMW","city":"Tiffin","date":{"end_time":"2009/01/30 11:31:07 -0500","original":"1/30/2009 11:31:06 AM","granularity":"sec","time":"2009/01/30 11:31:06 -0500"},"geo_score":0.902,"unit":60,"disposition":"200","zip code":"44883","cfs":14,"call#":9.001005,"id":"a69nbrj0m9jp","geo_precision":"range","address":"285 Clay St","state":"OH","juris":"PD"},"type":"Feature","geometry":{"type":"Point","coordinates":[-83.189444,41.119269]}},{"properties":{"officer":"LMK","city":"Tiffin","date":{"end_time":"2009/08/18 22:42:16 -0400","original":"8/18/2009 10:42:15 PM","granularity":"sec","time":"2009/08/18 22:42:15 -0400"},"geo_score":0.902,"unit":63,"disposition":"200","zip code":"44883","cfs":14,"call#":9.00804,"id":"a69nbrx1zw6f","geo_precision":"range","address":"286 Jefferson St","state":"OH","juris":"PD"},"type":"Feature","geometry":{"type":"Point","coordinates":[-83.174235,41.110397]}},{"properties":{"officer":"DGH","city":"Tiffin","date":{"end_time":"2009/12/28 15:01:12 -0500","original":"12/28/2009 3:01:11 PM","granularity":"sec","time":"2009/12/28 15:01:11 -0500"},"geo_score":0.902,"unit":63,"disposition":"200","zip code":"44883","cfs":14,"call#":9.012317,"id":"a69nbron108a","geo_precision":"range","address":"288 N Sandusky St","state":"OH","juris":"PD"},"type":"Feature","geometry":{"type":"Point","coordinates":[-83.178158,41.126199]}},{"properties":{"officer":"BRB","city":"Tiffin","date":{"end_time":"2009/06/08 21:17:07 -0400","original":"6/8/2009 9:17:06 PM","granularity":"sec","time":"2009/06/08 21:17:06 -0400"},"geo_score":0.902,"unit":57,"disposition":"200","zip code":"44883","cfs":14,"call#":9.005409,"id":"a69nbrhtmesl","geo_precision":"range","address":"28X Main St","state":"OH","juris":"PD"},"type":"Feature","geometry":{"type":"Point","coordinates":[-83.173757,41.11154]}},{"properties":{"officer":"RJO","city":"Tiffin","date":{"end_time":"2009/04/07 14:50:14 -0400","original":"4/7/2009 2:50:13 PM","granularity":"sec","time":"2009/04/07 14:50:13 -0400"},"geo_score":0.902,"unit":57,"disposition":"200","zip code":"44883","cfs":14,"call#":9.003312,"id":"a69nbrtf7mx5","geo_precision":"range","address":"29 Webster St","state":"OH","juris":"PD"},"type":"Feature","geometry":{"type":"Point","coordinates":[-83.173861,41.123829]}},{"properties":{"officer":"GTM","city":"Tiffin","date":{"end_time":"2009/06/25 01:17:19 -0400","original":"6/25/2009 1:17:18 AM","granularity":"sec","time":"2009/06/25 01:17:18 -0400"},"geo_score":0.902,"unit":62,"disposition":"100","zip code":"44883","cfs":14,"call#":9.005997,"id":"a69nbrirtwvj","geo_precision":"range","address":"295 Vine St","state":"OH","juris":"PD"},"type":"Feature","geometry":{"type":"Point","coordinates":[-83.182752,41.132866]}},{"properties":{"officer":"JPF","city":"Tiffin","date":{"end_time":"2009/04/30 09:11:42 -0400","original":"4/30/2009 9:11:41 AM","granularity":"sec","time":"2009/04/30 09:11:41 -0400"},"geo_score":0.902,"unit":59,"disposition":"200","zip code":"44883","cfs":14,"call#":9.004093,"id":"a69nbrkqmxyc","geo_precision":"range","address":"295 Vine St","state":"OH","juris":"PD"},"type":"Feature","geometry":{"type":"Point","coordinates":[-83.182752,41.132866]}},{"properties":{"officer":"SGN","city":"Tiffin","date":{"end_time":"2009/04/30 12:38:59 -0400","original":"4/30/2009 12:38:58 PM","granularity":"sec","time":"2009/04/30 12:38:58 -0400"},"geo_score":0.902,"unit":62,"disposition":"200","zip code":"44883","cfs":14,"call#":9.004099,"id":"a69nbrs1c72f","geo_precision":"range","address":"2X Sycamore St","state":"OH","juris":"PD"},"type":"Feature","geometry":{"type":"Point","coordinates":[-83.175766,41.109603]}},{"properties":{"officer":"REB","city":"Tiffin","date":{"end_time":"2009/07/11 11:38:11 -0400","original":"7/11/2009 11:38:10 AM","granularity":"sec","time":"2009/07/11 11:38:10 -0400"},"geo_score":0.902,"unit":58,"disposition":"450","zip code":"44883","cfs":14,"call#":9.006634,"id":"a69nbrwso6lu","geo_precision":"range","address":"300 Noble St","state":"OH","juris":"PD"},"type":"Feature","geometry":{"type":"Point","coordinates":[-83.183769,41.123902]}},{"properties":{"officer":null,"city":"Tiffin","date":{"end_time":"2009/09/18 10:00:00 -0400","original":"9/18/2009 9:00:00 AM","granularity":"hour","time":"2009/09/18 09:00:00 -0400"},"geo_score":0.902,"unit":648,"disposition":"200","zip code":"44883","cfs":14,"call#":9.009363,"id":"a69nbrjn7gna","geo_precision":"range","address":"300 S Monroe St","state":"OH","juris":"PD"},"type":"Feature","geometry":{"type":"Point","coordinates":[-83.177173,41.107991]}},{"properties":{"officer":"SGN","city":"Tiffin","date":{"end_time":"2009/04/17 13:09:45 -0400","original":"4/17/2009 1:09:44 PM","granularity":"sec","time":"2009/04/17 13:09:44 -0400"},"geo_score":0.902,"unit":62,"disposition":"450","zip code":"44883","cfs":14,"call#":9.003667,"id":"a69nbrnzuymn","geo_precision":"range","address":"300 S Monroe St","state":"OH","juris":"PD"},"type":"Feature","geometry":{"type":"Point","coordinates":[-83.177173,41.107991]}},{"properties":{"officer":"RJO","city":"Tiffin","date":{"end_time":"2009/04/13 09:46:08 -0400","original":"4/13/2009 9:46:07 AM","granularity":"sec","time":"2009/04/13 09:46:07 -0400"},"geo_score":0.902,"unit":57,"disposition":"200","zip code":"44883","cfs":14,"call#":9.003519,"id":"a69nbrrfqxg3","geo_precision":"range","address":"300 S Monroe St","state":"OH","juris":"PD"},"type":"Feature","geometry":{"type":"Point","coordinates":[-83.177173,41.107991]}},{"properties":{"officer":"RLT","city":"Tiffin","date":{"end_time":"2009/10/19 21:19:18 -0400","original":"10/19/2009 9:19:17 PM","granularity":"sec","time":"2009/10/19 21:19:17 -0400"},"geo_score":0.902,"unit":59,"disposition":"400","zip code":"44883","cfs":14,"call#":9.010276,"id":"a69nbrsnw3vp","geo_precision":"range","address":"306 Water St","state":"OH","juris":"PD"},"type":"Feature","geometry":{"type":"Point","coordinates":[-83.174239,41.120946]}},{"properties":{"officer":"JSC","city":"Tiffin","date":{"end_time":"2009/09/22 16:52:08 -0400","original":"9/22/2009 4:52:07 PM","granularity":"sec","time":"2009/09/22 16:52:07 -0400"},"geo_score":0.902,"unit":59,"disposition":"100","zip code":"44883","cfs":14,"call#":9.009346,"id":"a69nbrkpao7z","geo_precision":"range","address":"31 Seneca St","state":"OH","juris":"PD"},"type":"Feature","geometry":{"type":"Point","coordinates":[-83.161145,41.12252]}},{"properties":{"officer":"MEM","city":"Tiffin","date":{"end_time":"2009/10/04 03:20:22 -0400","original":"10/4/2009 3:20:21 AM","granularity":"sec","time":"2009/10/04 03:20:21 -0400"},"geo_score":0.902,"unit":61,"disposition":"200","zip code":"44883","cfs":14,"call#":9.009766,"id":"a69nbrslw4d7","geo_precision":"range","address":"315 W Market St","state":"OH","juris":"PD"},"type":"Feature","geometry":{"type":"Point","coordinates":[-83.191142,41.113162]}},{"properties":{"officer":"BRB","city":"Tiffin","date":{"end_time":"2009/09/09 22:04:13 -0400","original":"9/9/2009 10:04:12 PM","granularity":"sec","time":"2009/09/09 22:04:12 -0400"},"geo_score":0.902,"unit":58,"disposition":"200","zip code":"44883","cfs":14,"call#":9.008882,"id":"a69nbrrd6q8n","geo_precision":"range","address":"316 Benner St","state":"OH","juris":"PD"},"type":"Feature","geometry":{"type":"Point","coordinates":[-83.185922,41.112896]}},{"properties":{"officer":"MAM","city":"Tiffin","date":{"end_time":"2009/09/17 11:16:08 -0400","original":"9/17/2009 11:16:07 AM","granularity":"sec","time":"2009/09/17 11:16:07 -0400"},"geo_score":0.902,"unit":58,"disposition":"200","zip code":"44883","cfs":14,"call#":9.009136,"id":"a69nbrwh5gbd","geo_precision":"range","address":"317 W Perry St","state":"OH","juris":"PD"},"type":"Feature","geometry":{"type":"Point","coordinates":[-83.191422,41.114723]}},{"properties":{"officer":"BAR","city":"Tiffin","date":{"end_time":"2009/02/28 18:41:57 -0500","original":"2/28/2009 6:41:56 PM","granularity":"sec","time":"2009/02/28 18:41:56 -0500"},"geo_score":0.902,"unit":63,"disposition":"400","zip code":"44883","cfs":14,"call#":9.001994,"id":"a69nbrn5j33n","geo_precision":"range","address":"319 N Sandusky St","state":"OH","juris":"PD"},"type":"Feature","geometry":{"type":"Point","coordinates":[-83.177161,41.127493]}},{"properties":{"officer":"LMK","city":"Tiffin","date":{"end_time":"2009/09/22 22:00:17 -0400","original":"9/22/2009 10:00:16 PM","granularity":"sec","time":"2009/09/22 22:00:16 -0400"},"geo_score":0.902,"unit":850,"disposition":"200","zip code":"44883","cfs":14,"call#":9.009354,"id":"a69nbro6sler","geo_precision":"range","address":"32 Short St","state":"OH","juris":"PD"},"type":"Feature","geometry":{"type":"Point","coordinates":[-83.179462,41.126504]}},{"properties":{"officer":"JAD","city":"Tiffin","date":{"end_time":"2009/08/22 02:35:15 -0400","original":"8/22/2009 2:35:14 AM","granularity":"sec","time":"2009/08/22 02:35:14 -0400"},"geo_score":0.902,"unit":56,"disposition":"400","zip code":"44883","cfs":14,"call#":9.008176,"id":"a69nbrvspd73","geo_precision":"range","address":"321 E Perry St","state":"OH","juris":"PD"},"type":"Feature","geometry":{"type":"Point","coordinates":[-83.167735,41.116985]}},{"properties":{"officer":"EDA","city":"Tiffin","date":{"end_time":"2009/02/01 19:25:04 -0500","original":"2/1/2009 7:25:03 PM","granularity":"sec","time":"2009/02/01 19:25:03 -0500"},"geo_score":0.902,"unit":60,"disposition":"400","zip code":"44883","cfs":14,"call#":9.001102,"id":"a69nbrts4nam","geo_precision":"range","address":"321 E Perry St","state":"OH","juris":"PD"},"type":"Feature","geometry":{"type":"Point","coordinates":[-83.167735,41.116985]}},{"properties":{"officer":"JMW","city":"Tiffin","date":{"end_time":"2009/01/19 15:49:31 -0500","original":"1/19/2009 3:49:30 PM","granularity":"sec","time":"2009/01/19 15:49:30 -0500"},"geo_score":0.902,"unit":60,"disposition":"200","zip code":"44883","cfs":14,"call#":9.000612,"id":"a69nbrlhaj0w","geo_precision":"range","address":"33 Erie St","state":"OH","juris":"PD"},"type":"Feature","geometry":{"type":"Point","coordinates":[-83.174441,41.121651]}},{"properties":{"officer":"DES","city":"Tiffin","date":{"end_time":"2009/12/27 16:17:44 -0500","original":"12/27/2009 4:17:43 PM","granularity":"sec","time":"2009/12/27 16:17:43 -0500"},"geo_score":0.902,"unit":61,"disposition":"200","zip code":"44883","cfs":14,"call#":9.012301,"id":"a69nbrwyjyt2","geo_precision":"range","address":"337 Wall St","state":"OH","juris":"PD"},"type":"Feature","geometry":{"type":"Point","coordinates":[-83.186776,41.124216]}},{"properties":{"officer":"MEM","city":"Tiffin","date":{"end_time":"2009/01/01 04:09:32 -0500","original":"1/1/2009 4:09:31 AM","granularity":"sec","time":"2009/01/01 04:09:31 -0500"},"geo_score":0.902,"unit":57,"disposition":"200","zip code":"44883","cfs":14,"call#":9.000014,"id":"a69nbro8hzfo","geo_precision":"range","address":"35 Huss St","state":"OH","juris":"PD"},"type":"Feature","geometry":{"type":"Point","coordinates":[-83.167585,41.131124]}},{"properties":{"officer":"SMM","city":"Tiffin","date":{"end_time":"2009/05/14 16:54:25 -0400","original":"5/14/2009 4:54:24 PM","granularity":"sec","time":"2009/05/14 16:54:24 -0400"},"geo_score":0.876,"unit":58,"disposition":"200","zip code":"44883","cfs":14,"call#":9.004556,"id":"a69nbrt0u2r2","geo_precision":"range","address":"35 Virginia Av","state":"OH","juris":"PD"},"type":"Feature","geometry":{"type":"Point","coordinates":[-83.191749,41.115621]}},{"properties":{"officer":"JAD","city":"Tiffin","date":{"end_time":"2009/01/17 01:17:47 -0500","original":"1/17/2009 1:17:46 AM","granularity":"sec","time":"2009/01/17 01:17:46 -0500"},"geo_score":0.902,"unit":56,"disposition":"200","zip code":"44883","cfs":14,"call#":9.000529,"id":"a69nbrmej9mi","geo_precision":"range","address":"366 Main St","state":"OH","juris":"PD"},"type":"Feature","geometry":{"type":"Point","coordinates":[-83.161278,41.112618]}},{"properties":{"officer":"REB","city":"Tiffin","date":{"end_time":"2009/07/07 12:19:06 -0400","original":"7/7/2009 12:19:05 PM","granularity":"sec","time":"2009/07/07 12:19:05 -0400"},"geo_score":0.902,"unit":62,"disposition":"200","zip code":"44883","cfs":14,"call#":9.006478,"id":"a69nbrot97vk","geo_precision":"range","address":"37 Apple St","state":"OH","juris":"PD"},"type":"Feature","geometry":{"type":"Point","coordinates":[-83.180411,41.124835]}},{"properties":{"officer":"MAM","city":"Tiffin","date":{"end_time":"2009/07/22 18:06:40 -0400","original":"7/22/2009 6:06:39 PM","granularity":"sec","time":"2009/07/22 18:06:39 -0400"},"geo_score":0.902,"unit":58,"disposition":"200","zip code":"44883","cfs":14,"call#":9.007104,"id":"a69nbrlzq3b1","geo_precision":"range","address":"375 Melmore St","state":"OH","juris":"PD"},"type":"Feature","geometry":{"type":"Point","coordinates":[-83.167295,41.101198]}},{"properties":{"officer":"SWK","city":"Tiffin","date":{"end_time":"2009/04/22 17:52:05 -0400","original":"4/22/2009 5:52:04 PM","granularity":"sec","time":"2009/04/22 17:52:04 -0400"},"geo_score":0.902,"unit":61,"disposition":"200","zip code":"44883","cfs":14,"call#":9.003839,"id":"a69nbrl49bgd","geo_precision":"range","address":"377X W Perry St","state":"OH","juris":"PD"},"type":"Feature","geometry":{"type":"Point","coordinates":[-83.193841,41.114359]}},{"properties":{"officer":"MEM","city":"Tiffin","date":{"end_time":"2009/09/12 01:43:49 -0400","original":"9/12/2009 1:43:48 AM","granularity":"sec","time":"2009/09/12 01:43:48 -0400"},"geo_score":0.462,"unit":62,"disposition":"400","zip code":"44883","cfs":14,"call#":9.008964,"id":"a69nbrh5hcju","geo_precision":"street","address":"388 S Washington St,A","state":"OH","juris":"PD"},"type":"Feature","geometry":{"type":"Point","coordinates":[-83.177111,41.118089]}},{"properties":{"officer":"FWS","city":"Tiffin","date":{"end_time":"2009/06/10 20:23:35 -0400","original":"6/10/2009 8:23:34 PM","granularity":"sec","time":"2009/06/10 20:23:34 -0400"},"geo_score":0.902,"unit":57,"disposition":"100","zip code":"44883","cfs":14,"call#":9.005458,"id":"a69nbroixfqv","geo_precision":"range","address":"39 W Perry St","state":"OH","juris":"PD"},"type":"Feature","geometry":{"type":"Point","coordinates":[-83.181554,41.115354]}},{"properties":{"officer":"GTM","city":"Tiffin","date":{"end_time":"2009/04/03 23:17:43 -0400","original":"4/3/2009 11:17:42 PM","granularity":"sec","time":"2009/04/03 23:17:42 -0400"},"geo_score":0.902,"unit":59,"disposition":"200","zip code":"44883","cfs":14,"call#":9.003172,"id":"a69nbrnvigrc","geo_precision":"range","address":"395X E Market St","state":"OH","juris":"PD"},"type":"Feature","geometry":{"type":"Point","coordinates":[-83.166591,41.118113]}},{"properties":{"officer":"MEM","city":"Tiffin","date":{"end_time":"2009/07/18 01:29:59 -0400","original":"7/18/2009 1:29:58 AM","granularity":"sec","time":"2009/07/18 01:29:58 -0400"},"geo_score":0.902,"unit":62,"disposition":"230","zip code":"44883","cfs":14,"call#":9.006912,"id":"a69nbrpdj070","geo_precision":"range","address":"410 E Perry St","state":"OH","juris":"PD"},"type":"Feature","geometry":{"type":"Point","coordinates":[-83.164506,41.117788]}},{"properties":{"officer":"DES","city":"Tiffin","date":{"end_time":"2009/08/02 15:07:35 -0400","original":"8/2/2009 3:07:34 PM","granularity":"sec","time":"2009/08/02 15:07:34 -0400"},"geo_score":0.902,"unit":63,"disposition":"200","zip code":"44883","cfs":14,"call#":9.007502,"id":"a69nbriesuso","geo_precision":"range","address":"42 Jefferson St","state":"OH","juris":"PD"},"type":"Feature","geometry":{"type":"Point","coordinates":[-83.175456,41.116735]}},{"properties":{"officer":"RJO","city":"Tiffin","date":{"end_time":"2009/11/29 15:50:43 -0500","original":"11/29/2009 3:50:42 PM","granularity":"sec","time":"2009/11/29 15:50:42 -0500"},"geo_score":0.902,"unit":57,"disposition":"200","zip code":"44883","cfs":14,"call#":9.011571,"id":"a69nbriwkoag","geo_precision":"range","address":"42 Jefferson St,4","state":"OH","juris":"PD"},"type":"Feature","geometry":{"type":"Point","coordinates":[-83.175798,41.117537]}},{"properties":{"officer":"SMM","city":"Tiffin","date":{"end_time":"2009/05/14 18:05:48 -0400","original":"5/14/2009 6:05:47 PM","granularity":"sec","time":"2009/05/14 18:05:47 -0400"},"geo_score":0.902,"unit":58,"disposition":"230","zip code":"44883","cfs":14,"call#":9.004558,"id":"a69nbrms91wl","geo_precision":"range","address":"420 Water St","state":"OH","juris":"PD"},"type":"Feature","geometry":{"type":"Point","coordinates":[-83.172628,41.124067]}},{"properties":{"officer":"SWK","city":"Tiffin","date":{"end_time":"2009/03/17 20:30:30 -0400","original":"3/17/2009 8:30:29 PM","granularity":"sec","time":"2009/03/17 20:30:29 -0400"},"geo_score":0.902,"unit":61,"disposition":"200","zip code":"44883","cfs":14,"call#":9.002521,"id":"a69nbruxwkop","geo_precision":"range","address":"43 Linwood Rd","state":"OH","juris":"PD"},"type":"Feature","geometry":{"type":"Point","coordinates":[-83.161979,41.099917]}},{"properties":{"officer":"SMM","city":"Tiffin","date":{"end_time":"2009/05/15 22:25:47 -0400","original":"5/15/2009 10:25:46 PM","granularity":"sec","time":"2009/05/15 22:25:46 -0400"},"geo_score":0.902,"unit":58,"disposition":"230","zip code":"44883","cfs":14,"call#":9.004591,"id":"a69nbrk32ya9","geo_precision":"range","address":"430 W Market St","state":"OH","juris":"PD"},"type":"Feature","geometry":{"type":"Point","coordinates":[-83.194902,41.112781]}},{"properties":{"officer":"JSC","city":"Tiffin","date":{"end_time":"2009/04/20 17:28:28 -0400","original":"4/20/2009 5:28:27 PM","granularity":"sec","time":"2009/04/20 17:28:27 -0400"},"geo_score":0.902,"unit":59,"disposition":"200","zip code":"44883","cfs":14,"call#":9.003789,"id":"a69nbrksridd","geo_precision":"range","address":"431 Water St","state":"OH","juris":"PD"},"type":"Feature","geometry":{"type":"Point","coordinates":[-83.172503,41.12425]}},{"properties":{"officer":"SGN","city":"Tiffin","date":{"end_time":"2009/08/27 14:20:53 -0400","original":"8/27/2009 2:20:52 PM","granularity":"sec","time":"2009/08/27 14:20:52 -0400"},"geo_score":0.902,"unit":62,"disposition":"200","zip code":"44883","cfs":14,"call#":9.008387,"id":"a69nbrqf43tw","geo_precision":"range","address":"44 Adams St","state":"OH","juris":"PD"},"type":"Feature","geometry":{"type":"Point","coordinates":[-83.179313,41.118278]}},{"properties":{"officer":"JPF","city":"Tiffin","date":{"end_time":"2009/09/05 11:19:17 -0400","original":"9/5/2009 11:19:16 AM","granularity":"sec","time":"2009/09/05 11:19:16 -0400"},"geo_score":0.902,"unit":59,"disposition":"200","zip code":"44883","cfs":14,"call#":9.008748,"id":"a69nbrgvqc2h","geo_precision":"range","address":"44 Fostoria St","state":"OH","juris":"PD"},"type":"Feature","geometry":{"type":"Point","coordinates":[-83.197879,41.114648]}},{"properties":{"officer":"MAM","city":"Tiffin","date":{"end_time":"2009/08/21 12:26:03 -0400","original":"8/21/2009 12:26:02 PM","granularity":"sec","time":"2009/08/21 12:26:02 -0400"},"geo_score":0.902,"unit":58,"disposition":"200","zip code":"44883","cfs":14,"call#":9.008136,"id":"a69nbrrr6k19","geo_precision":"range","address":"44 Fostoria St","state":"OH","juris":"PD"},"type":"Feature","geometry":{"type":"Point","coordinates":[-83.197879,41.114648]}},{"properties":{"officer":"JPF","city":"Tiffin","date":{"end_time":"2009/11/20 14:26:07 -0500","original":"11/20/2009 2:26:06 PM","granularity":"sec","time":"2009/11/20 14:26:06 -0500"},"geo_score":0.902,"unit":59,"disposition":"200","zip code":"44883","cfs":14,"call#":9.011286,"id":"a69nbrt00bvp","geo_precision":"range","address":"44X S Monroe St","state":"OH","juris":"PD"},"type":"Feature","geometry":{"type":"Point","coordinates":[-83.17834,41.115438]}},{"properties":{"officer":"JPF","city":"Tiffin","date":{"end_time":"2009/10/26 14:19:30 -0400","original":"10/26/2009 2:19:29 PM","granularity":"sec","time":"2009/10/26 14:19:29 -0400"},"geo_score":0.902,"unit":59,"disposition":"200","zip code":"44883","cfs":14,"call#":9.010521,"id":"a69nbrkm5xpp","geo_precision":"range","address":"44X S Monroe St","state":"OH","juris":"PD"},"type":"Feature","geometry":{"type":"Point","coordinates":[-83.17834,41.115438]}},{"properties":{"officer":"JPF","city":"Tiffin","date":{"end_time":"2009/10/25 14:30:39 -0400","original":"10/25/2009 2:30:38 PM","granularity":"sec","time":"2009/10/25 14:30:38 -0400"},"geo_score":0.516,"unit":59,"disposition":"200","zip code":"44883","cfs":14,"call#":9.0105,"id":"a69nbrm3eqen","geo_precision":"street","address":"45 St Lawrence Dr","state":"OH","juris":"PD"},"type":"Feature","geometry":{"type":"Point","coordinates":[-82.718729,41.455282]}},{"properties":{"officer":"AMR","city":"Tiffin","date":{"end_time":"2009/08/23 22:36:32 -0400","original":"8/23/2009 10:36:31 PM","granularity":"sec","time":"2009/08/23 22:36:31 -0400"},"geo_score":0.516,"unit":63,"disposition":"400","zip code":"44883","cfs":14,"call#":9.008253,"id":"a69nbrue5e5w","geo_precision":"street","address":"45 St Lawrence Dr","state":"OH","juris":"PD"},"type":"Feature","geometry":{"type":"Point","coordinates":[-82.718729,41.455282]}},{"properties":{"officer":"EDA","city":"Tiffin","date":{"end_time":"2009/07/10 17:16:00 -0400","original":"7/10/2009 5:15:00 PM","granularity":"min","time":"2009/07/10 17:15:00 -0400"},"geo_score":0.516,"unit":59,"disposition":"100","zip code":"44883","cfs":14,"call#":9.006594,"id":"a69nbri8nudw","geo_precision":"street","address":"45 St Lawrence Dr","state":"OH","juris":"PD"},"type":"Feature","geometry":{"type":"Point","coordinates":[-82.718729,41.455282]}},{"properties":{"officer":null,"city":"Tiffin","date":{"end_time":"2009/02/10 13:00:00 -0500","original":"2/10/2009 12:00:00 PM","granularity":"hour","time":"2009/02/10 12:00:00 -0500"},"geo_score":0.516,"unit":648,"disposition":"700","zip code":"44883","cfs":14,"call#":9.001431,"id":"a69nbrletium","geo_precision":"street","address":"45 St Lawrence Dr","state":"OH","juris":"PD"},"type":"Feature","geometry":{"type":"Point","coordinates":[-82.718729,41.455282]}},{"properties":{"officer":"RLT","city":"Tiffin","date":{"end_time":"2009/01/27 01:03:05 -0500","original":"1/27/2009 1:03:04 AM","granularity":"sec","time":"2009/01/27 01:03:04 -0500"},"geo_score":0.516,"unit":57,"disposition":"100","zip code":"44883","cfs":14,"call#":9.000902,"id":"a69nbrnj6ep0","geo_precision":"street","address":"45 St Lawrence Dr","state":"OH","juris":"PD"},"type":"Feature","geometry":{"type":"Point","coordinates":[-82.718729,41.455282]}},{"properties":{"officer":"MEM","city":"Tiffin","date":{"end_time":"2009/04/01 21:08:28 -0400","original":"4/1/2009 9:08:27 PM","granularity":"sec","time":"2009/04/01 21:08:27 -0400"},"geo_score":0.902,"unit":62,"disposition":"200","zip code":"44883","cfs":14,"call#":9.003081,"id":"a69nbrw3t9f5","geo_precision":"range","address":"45 Thomas St","state":"OH","juris":"PD"},"type":"Feature","geometry":{"type":"Point","coordinates":[-83.175045,41.129855]}},{"properties":{"officer":"DES","city":"Tiffin","date":{"end_time":"2009/08/14 12:01:07 -0400","original":"8/14/2009 12:01:06 PM","granularity":"sec","time":"2009/08/14 12:01:06 -0400"},"geo_score":0.756,"unit":62,"disposition":"200","zip code":"44883","cfs":14,"call#":9.007897,"id":"a69nbrs7ys9l","geo_precision":"range","address":"458 Second Av","state":"OH","juris":"PD"},"type":"Feature","geometry":{"type":"Point","coordinates":[-83.193074,41.128682]}},{"properties":{"officer":"RJO","city":"Tiffin","date":{"end_time":"2009/05/19 15:03:50 -0400","original":"5/19/2009 3:03:49 PM","granularity":"sec","time":"2009/05/19 15:03:49 -0400"},"geo_score":0.902,"unit":57,"disposition":"400","zip code":"44883","cfs":14,"call#":9.0047,"id":"a69nbrnbqdit","geo_precision":"range","address":"46 E Davis St","state":"OH","juris":"PD"},"type":"Feature","geometry":{"type":"Point","coordinates":[-83.176545,41.125913]}},{"properties":{"officer":"RLT","city":"Tiffin","date":{"end_time":"2009/11/22 05:07:34 -0500","original":"11/22/2009 5:07:33 AM","granularity":"sec","time":"2009/11/22 05:07:33 -0500"},"geo_score":0.429,"unit":61,"disposition":"200","zip code":"44883","cfs":14,"call#":9.01135,"id":"a69nbrh96tek","geo_precision":"street","address":"47 N Monroe St,B","state":"OH","juris":"PD"},"type":"Feature","geometry":{"type":"Point","coordinates":[-83.178368,41.11568]}},{"properties":{"officer":"GTM","city":"Tiffin","date":{"end_time":"2009/06/30 22:40:36 -0400","original":"6/30/2009 10:40:35 PM","granularity":"sec","time":"2009/06/30 22:40:35 -0400"},"geo_score":0.902,"unit":62,"disposition":"200","zip code":"44883","cfs":14,"call#":9.006231,"id":"a69nbrvflx7u","geo_precision":"range","address":"47 S Washington St","state":"OH","juris":"PD"},"type":"Feature","geometry":{"type":"Point","coordinates":[-83.17685,41.116247]}},{"properties":{"officer":"JSC","city":"Tiffin","date":{"end_time":"2009/09/15 17:32:00 -0400","original":"9/15/2009 5:31:59 PM","granularity":"sec","time":"2009/09/15 17:31:59 -0400"},"geo_score":0.902,"unit":59,"disposition":"200","zip code":"44883","cfs":14,"call#":9.009071,"id":"a69nbrs04ufe","geo_precision":"range","address":"483 Circular St","state":"OH","juris":"PD"},"type":"Feature","geometry":{"type":"Point","coordinates":[-83.175941,41.105424]}},{"properties":{"officer":"JSC","city":"Tiffin","date":{"end_time":"2009/09/17 19:47:43 -0400","original":"9/17/2009 7:47:42 PM","granularity":"sec","time":"2009/09/17 19:47:42 -0400"},"geo_score":0.902,"unit":59,"disposition":"200","zip code":"44883","cfs":14,"call#":9.009158,"id":"a69nbrpnl6sa","geo_precision":"range","address":"491 Coe St","state":"OH","juris":"PD"},"type":"Feature","geometry":{"type":"Point","coordinates":[-83.160385,41.102667]}},{"properties":{"officer":"REB","city":"Tiffin","date":{"end_time":"2009/09/05 13:18:07 -0400","original":"9/5/2009 1:18:06 PM","granularity":"sec","time":"2009/09/05 13:18:06 -0400"},"geo_score":0.902,"unit":63,"disposition":"200","zip code":"44883","cfs":14,"call#":9.00875,"id":"a69nbrmd0xb2","geo_precision":"range","address":"50 Longfellow Dr","state":"OH","juris":"PD"},"type":"Feature","geometry":{"type":"Point","coordinates":[-83.193728,41.102552]}},{"properties":{"officer":"BRB","city":"Tiffin","date":{"end_time":"2009/08/19 22:38:19 -0400","original":"8/19/2009 10:38:18 PM","granularity":"sec","time":"2009/08/19 22:38:18 -0400"},"geo_score":0.902,"unit":58,"disposition":"400","zip code":"44883","cfs":14,"call#":9.008083,"id":"a69nbrw9zvm9","geo_precision":"range","address":"500 Melmore St","state":"OH","juris":"PD"},"type":"Feature","geometry":{"type":"Point","coordinates":[-83.165063,41.097876]}},{"properties":{"officer":"SGN","city":"Tiffin","date":{"end_time":"2009/11/04 13:59:42 -0500","original":"11/4/2009 1:59:41 PM","granularity":"sec","time":"2009/11/04 13:59:41 -0500"},"geo_score":0.902,"unit":62,"disposition":"200","zip code":"44883","cfs":14,"call#":9.010808,"id":"a69nbrsa8on4","geo_precision":"range","address":"505 E Market St","state":"OH","juris":"PD"},"type":"Feature","geometry":{"type":"Point","coordinates":[-83.163219,41.120385]}},{"properties":{"officer":"EDA","city":"Tiffin","date":{"end_time":"2009/10/30 21:29:24 -0400","original":"10/30/2009 9:29:23 PM","granularity":"sec","time":"2009/10/30 21:29:23 -0400"},"geo_score":0.902,"unit":63,"disposition":"100","zip code":"44883","cfs":14,"call#":9.010656,"id":"a69nbrm7nkwu","geo_precision":"range","address":"51 W Perry St","state":"OH","juris":"PD"},"type":"Feature","geometry":{"type":"Point","coordinates":[-83.18199,41.115297]}},{"properties":{"officer":"REB","city":"Tiffin","date":{"end_time":"2009/09/06 12:00:50 -0400","original":"9/6/2009 12:00:49 PM","granularity":"sec","time":"2009/09/06 12:00:49 -0400"},"geo_score":0.902,"unit":59,"disposition":"200","zip code":"44883","cfs":14,"call#":9.008791,"id":"a69nbrvs47ur","geo_precision":"range","address":"51 W Perry St","state":"OH","juris":"PD"},"type":"Feature","geometry":{"type":"Point","coordinates":[-83.18199,41.115297]}},{"properties":{"officer":"SGN","city":"Tiffin","date":{"end_time":"2009/08/11 10:53:46 -0400","original":"8/11/2009 10:53:45 AM","granularity":"sec","time":"2009/08/11 10:53:45 -0400"},"geo_score":0.902,"unit":62,"disposition":"200","zip code":"44883","cfs":14,"call#":9.007792,"id":"a69nbrjkadly","geo_precision":"range","address":"51 W Perry St","state":"OH","juris":"PD"},"type":"Feature","geometry":{"type":"Point","coordinates":[-83.18199,41.115297]}},{"properties":{"officer":"FWS","city":"Tiffin","date":{"end_time":"2009/05/14 20:33:21 -0400","original":"5/14/2009 8:33:20 PM","granularity":"sec","time":"2009/05/14 20:33:20 -0400"},"geo_score":0.902,"unit":57,"disposition":"200","zip code":"44883","cfs":14,"call#":9.004564,"id":"a69nbroldw6n","geo_precision":"range","address":"511 S Sandusky St","state":"OH","juris":"PD"},"type":"Feature","geometry":{"type":"Point","coordinates":[-83.191912,41.107217]}},{"properties":{"officer":"JPF","city":"Tiffin","date":{"end_time":"2009/06/12 10:12:00 -0400","original":"6/12/2009 10:11:00 AM","granularity":"min","time":"2009/06/12 10:11:00 -0400"},"geo_score":0.87,"unit":58,"disposition":"200","zip code":"44883","cfs":14,"call#":9.005502,"id":"a69nbrsoj45j","geo_precision":"range","address":"55 Howard Av","state":"OH","juris":"PD"},"type":"Feature","geometry":{"type":"Point","coordinates":[-83.198498,41.1161]}},{"properties":{"officer":"RJO","city":"Tiffin","date":{"end_time":"2009/12/14 07:09:05 -0500","original":"12/14/2009 7:09:04 AM","granularity":"sec","time":"2009/12/14 07:09:04 -0500"},"geo_score":0.902,"unit":57,"disposition":"400","zip code":"44883","cfs":14,"call#":9.011977,"id":"a69nbrpvc7w6","geo_precision":"range","address":"57 Grace St","state":"OH","juris":"PD"},"type":"Feature","geometry":{"type":"Point","coordinates":[-83.184982,41.121009]}},{"properties":{"officer":"FWS","city":"Tiffin","date":{"end_time":"2009/04/22 17:40:14 -0400","original":"4/22/2009 5:40:13 PM","granularity":"sec","time":"2009/04/22 17:40:13 -0400"},"geo_score":0.902,"unit":57,"disposition":"100","zip code":"44883","cfs":14,"call#":9.003837,"id":"a69nbrm0j5un","geo_precision":"range","address":"59 W Market St","state":"OH","juris":"PD"},"type":"Feature","geometry":{"type":"Point","coordinates":[-83.182262,41.114023]}},{"properties":{"officer":"JSC","city":"Tiffin","date":{"end_time":"2009/07/23 19:09:35 -0400","original":"7/23/2009 7:09:34 PM","granularity":"sec","time":"2009/07/23 19:09:34 -0400"},"geo_score":0.902,"unit":59,"disposition":"200","zip code":"44883","cfs":14,"call#":9.007127,"id":"a69nbrpkste6","geo_precision":"range","address":"6 Rebecca St","state":"OH","juris":"PD"},"type":"Feature","geometry":{"type":"Point","coordinates":[-83.171207,41.112936]}},{"properties":{"officer":"RLT","city":"Tiffin","date":{"end_time":"2009/11/21 21:44:04 -0500","original":"11/21/2009 9:44:03 PM","granularity":"sec","time":"2009/11/21 21:44:03 -0500"},"geo_score":0.902,"unit":61,"disposition":"400","zip code":"44883","cfs":14,"call#":9.011334,"id":"a69nbrw4lvq9","geo_precision":"range","address":"61X Clay St","state":"OH","juris":"PD"},"type":"Feature","geometry":{"type":"Point","coordinates":[-83.181758,41.116282]}},{"properties":{"officer":"RLT","city":"Tiffin","date":{"end_time":"2009/04/26 04:17:02 -0400","original":"4/26/2009 4:17:01 AM","granularity":"sec","time":"2009/04/26 04:17:01 -0400"},"geo_score":0.429,"unit":62,"disposition":"230","zip code":"44883","cfs":14,"call#":9.003972,"id":"a69nbroqwt1o","geo_precision":"street","address":"630 S Sandusky St,H","state":"OH","juris":"PD"},"type":"Feature","geometry":{"type":"Point","coordinates":[-83.183613,41.118373]}},{"properties":{"officer":"JSC","city":"Tiffin","date":{"end_time":"2009/08/03 00:03:44 -0400","original":"8/3/2009 12:03:43 AM","granularity":"sec","time":"2009/08/03 00:03:43 -0400"},"geo_score":0.902,"unit":59,"disposition":"200","zip code":"44883","cfs":14,"call#":9.00752,"id":"a69nbrlb4lyr","geo_precision":"range","address":"64 W Market St","state":"OH","juris":"PD"},"type":"Feature","geometry":{"type":"Point","coordinates":[-83.18237,41.114009]}},{"properties":{"officer":"DGH","city":"Tiffin","date":{"end_time":"2009/02/26 15:29:59 -0500","original":"2/26/2009 3:29:58 PM","granularity":"sec","time":"2009/02/26 15:29:58 -0500"},"geo_score":0.902,"unit":59,"disposition":"200","zip code":"44883","cfs":14,"call#":9.001925,"id":"a69nbrmkt0xr","geo_precision":"range","address":"643 S Sandusky St","state":"OH","juris":"PD"},"type":"Feature","geometry":{"type":"Point","coordinates":[-83.194468,41.104242]}},{"properties":{"officer":"EDA","city":"Tiffin","date":{"end_time":"2009/10/31 22:51:31 -0400","original":"10/31/2009 10:51:30 PM","granularity":"sec","time":"2009/10/31 22:51:30 -0400"},"geo_score":0.837,"unit":63,"disposition":"400","zip code":"44883","cfs":14,"call#":9.010701,"id":"a69nbrgyfm7c","geo_precision":"range","address":"67 Frost Py","state":"OH","juris":"PD"},"type":"Feature","geometry":{"type":"Point","coordinates":[-83.180228,41.116121]}},{"properties":{"officer":"JPF","city":"Tiffin","date":{"end_time":"2009/06/12 14:08:37 -0400","original":"6/12/2009 2:08:36 PM","granularity":"sec","time":"2009/06/12 14:08:36 -0400"},"geo_score":0.902,"unit":59,"disposition":"450","zip code":"44883","cfs":14,"call#":9.005508,"id":"a69nbrlbzspg","geo_precision":"range","address":"686 S Sandusky St,28","state":"OH","juris":"PD"},"type":"Feature","geometry":{"type":"Point","coordinates":[-83.182974,41.119195]}},{"properties":{"officer":"FWS","city":"Tiffin","date":{"end_time":"2009/06/06 21:58:53 -0400","original":"6/6/2009 9:58:52 PM","granularity":"sec","time":"2009/06/06 21:58:52 -0400"},"geo_score":0.721,"unit":57,"disposition":"200","zip code":"44883","cfs":14,"call#":9.005329,"id":"a69nbrl42qdq","geo_precision":"street","address":"686 S Sandusky St,4","state":"OH","juris":"PD"},"type":"Feature","geometry":{"type":"Point","coordinates":[-83.182777,41.119569]}},{"properties":{"officer":"FWS","city":"Tiffin","date":{"end_time":"2009/06/05 02:42:39 -0400","original":"6/5/2009 2:42:38 AM","granularity":"sec","time":"2009/06/05 02:42:38 -0400"},"geo_score":0.902,"unit":57,"disposition":"200","zip code":"44883","cfs":14,"call#":9.005255,"id":"a69nbrv9fvkm","geo_precision":"range","address":"686 S Sandusky St,61","state":"OH","juris":"PD"},"type":"Feature","geometry":{"type":"Point","coordinates":[-83.183743,41.118125]}},{"properties":{"officer":"SWK","city":"Tiffin","date":{"end_time":"2009/03/30 19:49:39 -0400","original":"3/30/2009 7:49:38 PM","granularity":"sec","time":"2009/03/30 19:49:38 -0400"},"geo_score":0.724,"unit":61,"disposition":"200","zip code":"44883","cfs":14,"call#":9.003022,"id":"a69nbrkg4nse","geo_precision":"street","address":"686 S Sandusky St,7","state":"OH","juris":"PD"},"type":"Feature","geometry":{"type":"Point","coordinates":[-83.182777,41.119569]}},{"properties":{"officer":"JMW","city":"Tiffin","date":{"end_time":"2009/06/19 20:24:49 -0400","original":"6/19/2009 8:24:48 PM","granularity":"sec","time":"2009/06/19 20:24:48 -0400"},"geo_score":0.902,"unit":60,"disposition":"100","zip code":"44883","cfs":14,"call#":9.005814,"id":"a69nbrsbrw1b","geo_precision":"range","address":"686 S Sandusky St,71","state":"OH","juris":"PD"},"type":"Feature","geometry":{"type":"Point","coordinates":[-83.183873,41.117878]}},{"properties":{"officer":"JAD","city":"Tiffin","date":{"end_time":"2009/02/09 03:01:40 -0500","original":"2/9/2009 3:01:39 AM","granularity":"sec","time":"2009/02/09 03:01:39 -0500"},"geo_score":0.712,"unit":56,"disposition":"200","zip code":"44883","cfs":14,"call#":9.00135,"id":"a69nbrtslqaq","geo_precision":"street","address":"7 Beechwood Dr,305","state":"OH","juris":"PD"},"type":"Feature","geometry":{"type":"Point","coordinates":[-83.208547,41.11647]}},{"properties":{"officer":"FWS","city":"Tiffin","date":{"end_time":"2009/06/28 00:34:54 -0400","original":"6/28/2009 12:34:53 AM","granularity":"sec","time":"2009/06/28 00:34:53 -0400"},"geo_score":0.902,"unit":57,"disposition":"230","zip code":"44883","cfs":14,"call#":9.006127,"id":"a69nbrjwse5p","geo_precision":"range","address":"71 E Market St","state":"OH","juris":"PD"},"type":"Feature","geometry":{"type":"Point","coordinates":[-83.177644,41.114498]}},{"properties":{"officer":"EDA","city":"Tiffin","date":{"end_time":"2009/03/15 01:13:37 -0400","original":"3/15/2009 1:13:36 AM","granularity":"sec","time":"2009/03/15 01:13:36 -0400"},"geo_score":0.902,"unit":59,"disposition":"200","zip code":"44883","cfs":14,"call#":9.002436,"id":"a69nbrna0t9g","geo_precision":"range","address":"71 E Market St","state":"OH","juris":"PD"},"type":"Feature","geometry":{"type":"Point","coordinates":[-83.177644,41.114498]}},{"properties":{"officer":"RLT","city":"Tiffin","date":{"end_time":"2009/09/28 21:19:24 -0400","original":"9/28/2009 9:19:23 PM","granularity":"sec","time":"2009/09/28 21:19:23 -0400"},"geo_score":0.902,"unit":63,"disposition":"400","zip code":"44883","cfs":14,"call#":9.009575,"id":"a69nbrqjtf0s","geo_precision":"range","address":"711 N Water St","state":"OH","juris":"PD"},"type":"Feature","geometry":{"type":"Point","coordinates":[-83.165472,41.132811]}},{"properties":{"officer":"JSC","city":"Tiffin","date":{"end_time":"2009/03/30 17:31:33 -0400","original":"3/30/2009 5:31:32 PM","granularity":"sec","time":"2009/03/30 17:31:32 -0400"},"geo_score":0.78,"unit":59,"disposition":"200","zip code":"44883","cfs":14,"call#":9.003019,"id":"a69nbrvnbfsm","geo_precision":"range","address":"716 W Market St","state":"OH","juris":"PD"},"type":"Feature","geometry":{"type":"Point","coordinates":[-83.204946,41.111602]}},{"properties":{"officer":"REB","city":"Tiffin","date":{"end_time":"2009/10/25 06:54:49 -0400","original":"10/25/2009 6:54:48 AM","granularity":"sec","time":"2009/10/25 06:54:48 -0400"},"geo_score":0.902,"unit":57,"disposition":"200","zip code":"44883","cfs":14,"call#":9.010493,"id":"a69nbrps5dku","geo_precision":"range","address":"72 Schonhardt St","state":"OH","juris":"PD"},"type":"Feature","geometry":{"type":"Point","coordinates":[-83.172695,41.111093]}},{"properties":{"officer":"FWS","city":"Tiffin","date":{"end_time":"2009/01/23 18:18:11 -0500","original":"1/23/2009 6:18:10 PM","granularity":"sec","time":"2009/01/23 18:18:10 -0500"},"geo_score":0.902,"unit":57,"disposition":"200","zip code":"44883","cfs":14,"call#":9.000746,"id":"a69nbrr3pxf9","geo_precision":"range","address":"72 Schonhardt St","state":"OH","juris":"PD"},"type":"Feature","geometry":{"type":"Point","coordinates":[-83.172695,41.111093]}},{"properties":{"officer":"SWK","city":"Tiffin","date":{"end_time":"2009/02/25 20:06:04 -0500","original":"2/25/2009 8:06:03 PM","granularity":"sec","time":"2009/02/25 20:06:03 -0500"},"geo_score":0.902,"unit":61,"disposition":"200","zip code":"44883","cfs":14,"call#":9.0019,"id":"a69nbrqp3s6b","geo_precision":"range","address":"72Y E Market St","state":"OH","juris":"PD"},"type":"Feature","geometry":{"type":"Point","coordinates":[-83.177596,41.114504]}},{"properties":{"officer":"JPF","city":"Tiffin","date":{"end_time":"2009/07/13 12:05:22 -0400","original":"7/13/2009 12:05:21 PM","granularity":"sec","time":"2009/07/13 12:05:21 -0400"},"geo_score":0.902,"unit":59,"disposition":"200","zip code":"44883","cfs":14,"call#":9.006716,"id":"a69nbrmfqsuo","geo_precision":"range","address":"73 St Clair St","state":"OH","juris":"PD"},"type":"Feature","geometry":{"type":"Point","coordinates":[-83.181212,41.111841]}},{"properties":{"officer":"DES","city":"Tiffin","date":{"end_time":"2009/05/10 12:11:14 -0400","original":"5/10/2009 12:11:13 PM","granularity":"sec","time":"2009/05/10 12:11:13 -0400"},"geo_score":0.902,"unit":62,"disposition":"200","zip code":"44883","cfs":14,"call#":9.004441,"id":"a69nbrlzzfb1","geo_precision":"range","address":"73 St Clair St","state":"OH","juris":"PD"},"type":"Feature","geometry":{"type":"Point","coordinates":[-83.181212,41.111841]}},{"properties":{"officer":"JMW","city":"Tiffin","date":{"end_time":"2009/06/07 02:20:39 -0400","original":"6/7/2009 2:20:38 AM","granularity":"sec","time":"2009/06/07 02:20:38 -0400"},"geo_score":0.902,"unit":60,"disposition":"200","zip code":"44883","cfs":14,"call#":9.005344,"id":"a69nbrnuahsm","geo_precision":"range","address":"74 Bobb St","state":"OH","juris":"PD"},"type":"Feature","geometry":{"type":"Point","coordinates":[-83.16072,41.125714]}},{"properties":{"officer":"JAD","city":"Tiffin","date":{"end_time":"2009/06/06 20:05:30 -0400","original":"6/6/2009 8:05:29 PM","granularity":"sec","time":"2009/06/06 20:05:29 -0400"},"geo_score":0.902,"unit":56,"disposition":"200","zip code":"44883","cfs":14,"call#":9.005325,"id":"a69nbrxbzm2e","geo_precision":"range","address":"75 S Sandusky St","state":"OH","juris":"PD"},"type":"Feature","geometry":{"type":"Point","coordinates":[-83.183925,41.117779]}},{"properties":{"officer":"RLT","city":"Tiffin","date":{"end_time":"2009/03/15 23:48:33 -0400","original":"3/15/2009 11:48:32 PM","granularity":"sec","time":"2009/03/15 23:48:32 -0400"},"geo_score":0.902,"unit":58,"disposition":"200","zip code":"44883","cfs":14,"call#":9.002461,"id":"a69nbrhjrtvd","geo_precision":"range","address":"76 St Clair St","state":"OH","juris":"PD"},"type":"Feature","geometry":{"type":"Point","coordinates":[-83.181208,41.111808]}},{"properties":{"officer":"JAD","city":"Tiffin","date":{"end_time":"2009/07/12 00:13:35 -0400","original":"7/12/2009 12:13:34 AM","granularity":"sec","time":"2009/07/12 00:13:34 -0400"},"geo_score":0.902,"unit":56,"disposition":"200","zip code":"44883","cfs":14,"call#":9.006656,"id":"a69nbrphb8md","geo_precision":"range","address":"77 Huss St","state":"OH","juris":"PD"},"type":"Feature","geometry":{"type":"Point","coordinates":[-83.168485,41.131115]}},{"properties":{"officer":"SGN","city":"Tiffin","date":{"end_time":"2009/05/08 15:15:57 -0400","original":"5/8/2009 3:15:56 PM","granularity":"sec","time":"2009/05/08 15:15:56 -0400"},"geo_score":0.78,"unit":62,"disposition":"100","zip code":"44883","cfs":14,"call#":9.004367,"id":"a69nbrn4qf9j","geo_precision":"range","address":"790 W Market St","state":"OH","juris":"PD"},"type":"Feature","geometry":{"type":"Point","coordinates":[-83.207496,41.111156]}},{"properties":{"officer":"RLT","city":"Tiffin","date":{"end_time":"2009/07/11 21:20:54 -0400","original":"7/11/2009 9:20:53 PM","granularity":"sec","time":"2009/07/11 21:20:53 -0400"},"geo_score":0.902,"unit":58,"disposition":"200","zip code":"44883","cfs":14,"call#":9.006649,"id":"a69nbrwj3jv6","geo_precision":"range","address":"7X Walker St","state":"OH","juris":"PD"},"type":"Feature","geometry":{"type":"Point","coordinates":[-83.172459,41.110666]}},{"properties":{"officer":"FWS","city":"Tiffin","date":{"end_time":"2009/03/06 17:48:29 -0500","original":"3/6/2009 5:48:28 PM","granularity":"sec","time":"2009/03/06 17:48:28 -0500"},"geo_score":0.78,"unit":57,"disposition":"400","zip code":"44883","cfs":14,"call#":9.002165,"id":"a69nbrlga9zu","geo_precision":"range","address":"806 W Market St","state":"OH","juris":"PD"},"type":"Feature","geometry":{"type":"Point","coordinates":[-83.207509,41.111153]}},{"properties":{"officer":"FWS","city":"Tiffin","date":{"end_time":"2009/01/30 20:36:38 -0500","original":"1/30/2009 8:36:37 PM","granularity":"sec","time":"2009/01/30 20:36:37 -0500"},"geo_score":0.78,"unit":57,"disposition":"200","zip code":"44883","cfs":14,"call#":9.001021,"id":"a69nbrto4v5c","geo_precision":"range","address":"806 W Market St","state":"OH","juris":"PD"},"type":"Feature","geometry":{"type":"Point","coordinates":[-83.207509,41.111153]}},{"properties":{"officer":"DES","city":"Tiffin","date":{"end_time":"2009/03/14 13:39:12 -0400","original":"3/14/2009 1:39:11 PM","granularity":"sec","time":"2009/03/14 13:39:11 -0400"},"geo_score":0.876,"unit":62,"disposition":"400","zip code":"44883","cfs":14,"call#":9.002403,"id":"a69nbrs4f4qs","geo_precision":"range","address":"81 Virginia Av","state":"OH","juris":"PD"},"type":"Feature","geometry":{"type":"Point","coordinates":[-83.19008,41.116076]}},{"properties":{"officer":"JMW","city":"Tiffin","date":{"end_time":"2009/07/10 23:33:07 -0400","original":"7/10/2009 11:33:06 PM","granularity":"sec","time":"2009/07/10 23:33:06 -0400"},"geo_score":0.756,"unit":60,"disposition":"400","zip code":"44883","cfs":14,"call#":9.00661,"id":"a69nbrmrhbp9","geo_precision":"range","address":"82 First Av","state":"OH","juris":"PD"},"type":"Feature","geometry":{"type":"Point","coordinates":[-83.179518,41.127923]}},{"properties":{"officer":"SWK","city":"Tiffin","date":{"end_time":"2009/06/08 18:12:45 -0400","original":"6/8/2009 6:12:44 PM","granularity":"sec","time":"2009/06/08 18:12:44 -0400"},"geo_score":0.756,"unit":61,"disposition":"200","zip code":"44883","cfs":14,"call#":9.005401,"id":"a69nbrl2e5g8","geo_precision":"range","address":"82X Second Av","state":"OH","juris":"PD"},"type":"Feature","geometry":{"type":"Point","coordinates":[-83.179223,41.128789]}},{"properties":{"officer":"JMW","city":"Tiffin","date":{"end_time":"2009/04/19 12:03:47 -0400","original":"4/19/2009 12:03:46 PM","granularity":"sec","time":"2009/04/19 12:03:46 -0400"},"geo_score":0.902,"unit":60,"disposition":"200","zip code":"44883","cfs":14,"call#":9.003751,"id":"a69nbrkha9rt","geo_precision":"range","address":"83 Minerva St","state":"OH","juris":"PD"},"type":"Feature","geometry":{"type":"Point","coordinates":[-83.176212,41.122644]}},{"properties":{"officer":"FWS","city":"Tiffin","date":{"end_time":"2009/08/13 18:41:24 -0400","original":"8/13/2009 6:41:23 PM","granularity":"sec","time":"2009/08/13 18:41:23 -0400"},"geo_score":0.902,"unit":57,"disposition":"200","zip code":"44883","cfs":14,"call#":9.007871,"id":"a69nbrirqhqu","geo_precision":"range","address":"84 N Washington St","state":"OH","juris":"PD"},"type":"Feature","geometry":{"type":"Point","coordinates":[-83.177423,41.120102]}},{"properties":{"officer":"JPF","city":"Tiffin","date":{"end_time":"2009/05/25 07:24:18 -0400","original":"5/25/2009 7:24:17 AM","granularity":"sec","time":"2009/05/25 07:24:17 -0400"},"geo_score":0.902,"unit":59,"disposition":"200","zip code":"44883","cfs":14,"call#":9.004929,"id":"a69nbrshnyn2","geo_precision":"range","address":"859 Miami St,10","state":"OH","juris":"PD"},"type":"Feature","geometry":{"type":"Point","coordinates":[-83.179684,41.116844]}},{"properties":{"officer":"JAD","city":"Tiffin","date":{"end_time":"2009/01/02 22:03:51 -0500","original":"1/2/2009 10:03:50 PM","granularity":"sec","time":"2009/01/02 22:03:50 -0500"},"geo_score":0.902,"unit":56,"disposition":"200","zip code":"44883","cfs":14,"call#":9.000059,"id":"a69nbrkbzlgq","geo_precision":"range","address":"859 Miami St,49","state":"OH","juris":"PD"},"type":"Feature","geometry":{"type":"Point","coordinates":[-83.18081,41.117427]}},{"properties":{"officer":"GTM","city":"Tiffin","date":{"end_time":"2009/07/18 12:28:30 -0400","original":"7/18/2009 12:28:29 PM","granularity":"sec","time":"2009/07/18 12:28:29 -0400"},"geo_score":0.429,"unit":62,"disposition":"400","zip code":"44883","cfs":14,"call#":9.006932,"id":"a69nbrp6ibch","geo_precision":"street","address":"859 Miami St,O","state":"OH","juris":"PD"},"type":"Feature","geometry":{"type":"Point","coordinates":[-83.181876,41.117677]}},{"properties":{"officer":"LMK","city":"Tiffin","date":{"end_time":"2009/06/14 20:56:14 -0400","original":"6/14/2009 8:56:13 PM","granularity":"sec","time":"2009/06/14 20:56:13 -0400"},"geo_score":0.902,"unit":62,"disposition":"200","zip code":"44883","cfs":14,"call#":9.005599,"id":"a69nbrwhzqtr","geo_precision":"range","address":"87 W Market St","state":"OH","juris":"PD"},"type":"Feature","geometry":{"type":"Point","coordinates":[-83.183325,41.11393]}},{"properties":{"officer":"MEM","city":"Tiffin","date":{"end_time":"2009/08/27 06:22:45 -0400","original":"8/27/2009 6:22:44 AM","granularity":"sec","time":"2009/08/27 06:22:44 -0400"},"geo_score":0.902,"unit":62,"disposition":"200","zip code":"44883","cfs":14,"call#":9.008367,"id":"a69nbroadpxe","geo_precision":"range","address":"88 Tomb St","state":"OH","juris":"PD"},"type":"Feature","geometry":{"type":"Point","coordinates":[-83.172904,41.128761]}},{"properties":{"officer":"REB","city":"Tiffin","date":{"end_time":"2009/11/09 09:10:33 -0500","original":"11/9/2009 9:10:32 AM","granularity":"sec","time":"2009/11/09 09:10:32 -0500"},"geo_score":0.902,"unit":61,"disposition":"200","zip code":"44883","cfs":14,"call#":9.01095,"id":"a69nbruzq216","geo_precision":"range","address":"88 W Market St","state":"OH","juris":"PD"},"type":"Feature","geometry":{"type":"Point","coordinates":[-83.183373,41.113924]}},{"properties":{"officer":"JAD","city":"Tiffin","date":{"end_time":"2009/04/19 01:28:11 -0400","original":"4/19/2009 1:28:10 AM","granularity":"sec","time":"2009/04/19 01:28:10 -0400"},"geo_score":0.902,"unit":56,"disposition":"200","zip code":"44883","cfs":14,"call#":9.003739,"id":"a69nbrq3j89e","geo_precision":"range","address":"9 Rosewood Dr","state":"OH","juris":"PD"},"type":"Feature","geometry":{"type":"Point","coordinates":[-83.203175,41.116272]}},{"properties":{"officer":"MEM","city":"Tiffin","date":{"end_time":"2009/06/12 02:46:05 -0400","original":"6/12/2009 2:46:04 AM","granularity":"sec","time":"2009/06/12 02:46:04 -0400"},"geo_score":0.902,"unit":62,"disposition":"400","zip code":"44883","cfs":14,"call#":9.005494,"id":"a69nbrtkw51e","geo_precision":"range","address":"92 Duchess Ln","state":"OH","juris":"PD"},"type":"Feature","geometry":{"type":"Point","coordinates":[-83.191515,41.101541]}},{"properties":{"officer":"RLT","city":"Tiffin","date":{"end_time":"2009/12/01 02:35:02 -0500","original":"12/1/2009 2:35:01 AM","granularity":"sec","time":"2009/12/01 02:35:01 -0500"},"geo_score":0.902,"unit":59,"disposition":"400","zip code":"44883","cfs":14,"call#":9.011609,"id":"a69nbrteflxk","geo_precision":"range","address":"92 Madison St","state":"OH","juris":"PD"},"type":"Feature","geometry":{"type":"Point","coordinates":[-83.176333,41.113386]}},{"properties":{"officer":"RLT","city":"Tiffin","date":{"end_time":"2009/10/25 01:22:11 -0400","original":"10/25/2009 1:22:10 AM","granularity":"sec","time":"2009/10/25 01:22:10 -0400"},"geo_score":0.902,"unit":61,"disposition":"200","zip code":"44883","cfs":14,"call#":9.010485,"id":"a69nbrvjho8s","geo_precision":"range","address":"92 Madison St","state":"OH","juris":"PD"},"type":"Feature","geometry":{"type":"Point","coordinates":[-83.176333,41.113386]}},{"properties":{"officer":"SWK","city":"Tiffin","date":{"end_time":"2009/10/16 02:30:46 -0400","original":"10/16/2009 2:30:45 AM","granularity":"sec","time":"2009/10/16 02:30:45 -0400"},"geo_score":0.902,"unit":61,"disposition":"200","zip code":"44883","cfs":14,"call#":9.010156,"id":"a69nbro711g2","geo_precision":"range","address":"92 Madison St","state":"OH","juris":"PD"},"type":"Feature","geometry":{"type":"Point","coordinates":[-83.176333,41.113386]}},{"properties":{"officer":"JAD","city":"Tiffin","date":{"end_time":"2009/06/12 01:30:57 -0400","original":"6/12/2009 1:30:56 AM","granularity":"sec","time":"2009/06/12 01:30:56 -0400"},"geo_score":0.902,"unit":56,"disposition":"100","zip code":"44883","cfs":14,"call#":9.005492,"id":"a69nbrx7m2cl","geo_precision":"range","address":"92 Madison St","state":"OH","juris":"PD"},"type":"Feature","geometry":{"type":"Point","coordinates":[-83.176333,41.113386]}},{"properties":{"officer":"FWS","city":"Tiffin","date":{"end_time":"2009/02/21 01:32:49 -0500","original":"2/21/2009 1:32:48 AM","granularity":"sec","time":"2009/02/21 01:32:48 -0500"},"geo_score":0.902,"unit":57,"disposition":"230","zip code":"44883","cfs":14,"call#":9.001763,"id":"a69nbrjd4jfp","geo_precision":"range","address":"92 Madison St","state":"OH","juris":"PD"},"type":"Feature","geometry":{"type":"Point","coordinates":[-83.176333,41.113386]}},{"properties":{"officer":"JSC","city":"Tiffin","date":{"end_time":"2009/11/08 04:03:14 -0500","original":"11/8/2009 4:03:13 AM","granularity":"sec","time":"2009/11/08 04:03:13 -0500"},"geo_score":0.902,"unit":63,"disposition":"200","zip code":"44883","cfs":14,"call#":9.010932,"id":"a69nbrwox7ep","geo_precision":"range","address":"94 Main St","state":"OH","juris":"PD"},"type":"Feature","geometry":{"type":"Point","coordinates":[-83.17091,41.111776]}},{"properties":{"officer":"EDA","city":"Tiffin","date":{"end_time":"2009/08/09 00:32:04 -0400","original":"8/9/2009 12:32:03 AM","granularity":"sec","time":"2009/08/09 00:32:03 -0400"},"geo_score":0.837,"unit":63,"disposition":"400","zip code":"44883","cfs":14,"call#":9.007736,"id":"a69nbrkl2rx6","geo_precision":"range","address":"99 Frost Py","state":"OH","juris":"PD"},"type":"Feature","geometry":{"type":"Point","coordinates":[-83.179448,41.116721]}},{"properties":{"officer":"JSC","city":"Tiffin","date":{"end_time":"2009/07/10 23:07:08 -0400","original":"7/10/2009 11:07:07 PM","granularity":"sec","time":"2009/07/10 23:07:07 -0400"},"geo_score":0.902,"unit":59,"disposition":"200","zip code":"44883","cfs":14,"call#":9.006608,"id":"a69nbrl0jqn7","geo_precision":"range","address":"99 W Market St","state":"OH","juris":"PD"},"type":"Feature","geometry":{"type":"Point","coordinates":[-83.183802,41.113891]}},{"properties":{"officer":"EDA","city":"Tiffin","date":{"end_time":"2009/10/27 16:48:31 -0400","original":"10/27/2009 4:48:30 PM","granularity":"sec","time":"2009/10/27 16:48:30 -0400"},"geo_score":0.857,"unit":59,"disposition":"200","zip code":"44883","cfs":14,"call#":9.01056,"id":"a69nbrogyqrs","geo_precision":"street","address":"Charlotte St/S Monroe St","state":"OH","juris":"PD"},"type":"Feature","geometry":{"type":"Point","coordinates":[-83.178368,41.11568]}},{"properties":{"officer":"BAR","city":"Tiffin","date":{"end_time":"2009/04/28 00:27:29 -0400","original":"4/28/2009 12:27:28 AM","granularity":"sec","time":"2009/04/28 00:27:28 -0400"},"geo_score":0.857,"unit":57,"disposition":"200","zip code":"44883","cfs":14,"call#":9.004033,"id":"a69nbrk4w3ub","geo_precision":"street","address":"Melmore St/Circular St","state":"OH","juris":"PD"},"type":"Feature","geometry":{"type":"Point","coordinates":[-83.173301,41.107198]}},{"properties":{"officer":"BRB","city":"Tiffin","date":{"end_time":"2009/06/18 21:40:34 -0400","original":"6/18/2009 9:40:33 PM","granularity":"sec","time":"2009/06/18 21:40:33 -0400"},"geo_score":0.857,"unit":62,"disposition":"200","zip code":"44883","cfs":14,"call#":9.005759,"id":"a69nbrx54ja2","geo_precision":"street","address":"Minerva St/Harrison St","state":"OH","juris":"PD"},"type":"Feature","geometry":{"type":"Point","coordinates":[-83.175874,41.120489]}},{"properties":{"officer":"FWS","city":"Tiffin","date":{"end_time":"2009/03/13 23:57:28 -0400","original":"3/13/2009 11:57:27 PM","granularity":"sec","time":"2009/03/13 23:57:27 -0400"},"geo_score":0.857,"unit":62,"disposition":"100","zip code":"44883","cfs":14,"call#":9.002385,"id":"a69nbrplxkni","geo_precision":"street","address":"S Monroe St/E Market St","state":"OH","juris":"PD"},"type":"Feature","geometry":{"type":"Point","coordinates":[-83.178368,41.11568]}}],"is_temporal":true,"author":{"url":"","metadata":null,"contact_name":null,"contact_address":null,"source":null,"contact_phone":null},"source":"","pagination":{"sort":null,"start":0,"total":272,"limit":1000000},"state":"complete","tags":"","published":"2014-08-14T18:48:57-04:00","id":222957}