{"type":"FeatureCollection","data_type":"Dataset","url_type":null,"permissions":[{"permissions":{"download":true,"view":true},"group_id":"everyone"}],"classification":null,"title":"lsr 201202021200 201202040659","count":398,"stream_id":223590,"contributor":{"url":"http://geocommons.com/users/28467","name":"bheberto"},"data_attributes":null,"calculation_params":null,"icon_link":null,"link":"http://geocommons.com/overlays/223590.json","extent":[-109.93,37.01,-98.41,40.99],"geometry_types":["point"],"unique_name":null,"name":"lsr 201202021200 201202040659","feature_count":398,"description":"","next_feature":null,"is_raster":false,"short_classification":"Y","stats":{"MAG":{"max":48.0,"mean":11.2987688442211,"variance":70.4821780774147,"stdev":8.39536646474796,"min":0.75,"median":9.1},"VALID":{"max":201202040658,"mean":201202032527.211,"variance":13177421.1694492,"stdev":3630.07178571571,"min":201202021330,"median":201202031518}},"features":[{"properties":{"CITY":"1 Sse Wolf Creek Pass","TYPETEXT":"SNOW","TYPECODE":"S","WFO":"PUB","REMARK":"reported by ski patrol in past 24 hours.","MAG":2.0,"id":"a66a1cor8n6k","SOURCE":"public","COUNTY":"Mineral","VALID":201202021330},"type":"Feature","geometry":{"type":"Point","coordinates":[-106.79,37.47]}},{"properties":{"CITY":"1 Sw Woodland Park","TYPETEXT":"SNOW","TYPECODE":"S","WFO":"PUB","REMARK":null,"MAG":2.0,"id":"a66a1cb0wcbc","SOURCE":"trained spotter","COUNTY":"Teller","VALID":201202021804},"type":"Feature","geometry":{"type":"Point","coordinates":[-105.06,38.99]}},{"properties":{"CITY":"3 W Ellicott","TYPETEXT":"SNOW","TYPECODE":"S","WFO":"PUB","REMARK":"peyton highway and colorado 94","MAG":2.0,"id":"a66a1cqerpsq","SOURCE":"broadcast media","COUNTY":"El Paso","VALID":201202022336},"type":"Feature","geometry":{"type":"Point","coordinates":[-104.45,38.84]}},{"properties":{"CITY":"6 W Pagosa Springs","TYPETEXT":"SNOW","TYPECODE":"S","WFO":"GJT","REMARK":"since 0730 am","MAG":4.0,"id":"a66a1cf74664","SOURCE":"trained spotter","COUNTY":"Archuleta","VALID":201202022343},"type":"Feature","geometry":{"type":"Point","coordinates":[-107.13,37.27]}},{"properties":{"CITY":"Rush","TYPETEXT":"SNOW","TYPECODE":"S","WFO":"PUB","REMARK":"3 to 4 inches since 1200 pm","MAG":3.0,"id":"a66a1cbmzds0","SOURCE":"broadcast media","COUNTY":"El Paso","VALID":201202022350},"type":"Feature","geometry":{"type":"Point","coordinates":[-104.1,38.84]}},{"properties":{"CITY":"1 S Calhan","TYPETEXT":"SNOW","TYPECODE":"S","WFO":"PUB","REMARK":"start time not available","MAG":5.0,"id":"a66a1cajaqoy","SOURCE":"broadcast media","COUNTY":"El Paso","VALID":201202022350},"type":"Feature","geometry":{"type":"Point","coordinates":[-104.3,39.02]}},{"properties":{"CITY":"2 Nne Falcon","TYPETEXT":"SNOW","TYPECODE":"S","WFO":"PUB","REMARK":"since 1340 this afternoon","MAG":2.5,"id":"a66a1cpr136t","SOURCE":"trained spotter","COUNTY":"El Paso","VALID":201202022351},"type":"Feature","geometry":{"type":"Point","coordinates":[-104.6,38.96]}},{"properties":{"CITY":"5 Ne Calhan","TYPETEXT":"SNOW","TYPECODE":"S","WFO":"PUB","REMARK":"since 1340 this afternoon","MAG":2.5,"id":"a66a1cdpdcyn","SOURCE":"trained spotter","COUNTY":"El Paso","VALID":201202022351},"type":"Feature","geometry":{"type":"Point","coordinates":[-104.23,39.09]}},{"properties":{"CITY":"Ellicott","TYPETEXT":"SNOW","TYPECODE":"S","WFO":"PUB","REMARK":"start time not available","MAG":2.0,"id":"a66a1coda0vl","SOURCE":"broadcast media","COUNTY":"El Paso","VALID":201202022353},"type":"Feature","geometry":{"type":"Point","coordinates":[-104.39,38.84]}},{"properties":{"CITY":"2 Se Fountain","TYPETEXT":"SNOW","TYPECODE":"S","WFO":"PUB","REMARK":null,"MAG":3.3,"id":"a66a1clki94m","SOURCE":"trained spotter","COUNTY":"El Paso","VALID":201202030040},"type":"Feature","geometry":{"type":"Point","coordinates":[-104.68,38.67]}},{"properties":{"CITY":"Valley Of The Gods","TYPETEXT":"SNOW","TYPECODE":"S","WFO":"GJT","REMARK":"24hr snowfall","MAG":3.0,"id":"a66a1cicnqvw","SOURCE":"trained spotter","COUNTY":"San Juan","VALID":201202030100},"type":"Feature","geometry":{"type":"Point","coordinates":[-109.93,37.27]}},{"properties":{"CITY":"2 Wsw Rosita","TYPETEXT":"SNOW","TYPECODE":"S","WFO":"PUB","REMARK":"since 1030 am","MAG":1.2,"id":"a66a1cfzlvsi","SOURCE":"trained spotter","COUNTY":"Custer","VALID":201202030129},"type":"Feature","geometry":{"type":"Point","coordinates":[-105.36,38.09]}},{"properties":{"CITY":"3 E Falcon","TYPETEXT":"SNOW","TYPECODE":"S","WFO":"PUB","REMARK":"start time not available","MAG":4.5,"id":"a66a1ck9t5ev","SOURCE":"broadcast media","COUNTY":"El Paso","VALID":201202030132},"type":"Feature","geometry":{"type":"Point","coordinates":[-104.56,38.93]}},{"properties":{"CITY":"5 Sse Crestone","TYPETEXT":"SNOW","TYPECODE":"S","WFO":"PUB","REMARK":"since noon","MAG":1.0,"id":"a66a1camom7i","SOURCE":"trained spotter","COUNTY":"Saguache","VALID":201202030138},"type":"Feature","geometry":{"type":"Point","coordinates":[-105.67,37.93]}},{"properties":{"CITY":"3 Nw Peyton","TYPETEXT":"SNOW","TYPECODE":"S","WFO":"PUB","REMARK":"since 1530 this afternoon","MAG":5.0,"id":"a66a1chnmp0c","SOURCE":"broadcast media","COUNTY":"El Paso","VALID":201202030143},"type":"Feature","geometry":{"type":"Point","coordinates":[-104.52,39.06]}},{"properties":{"CITY":"4 Sw Pueblo","TYPETEXT":"SNOW","TYPECODE":"S","WFO":"PUB","REMARK":null,"MAG":1.5,"id":"a66a1cmorvdl","SOURCE":"trained spotter","COUNTY":"Pueblo","VALID":201202030145},"type":"Feature","geometry":{"type":"Point","coordinates":[-104.67,38.24]}},{"properties":{"CITY":"7 E Fountain","TYPETEXT":"SNOW","TYPECODE":"S","WFO":"PUB","REMARK":"start time not available","MAG":7.0,"id":"a66a1civos50","SOURCE":"broadcast media","COUNTY":"El Paso","VALID":201202030146},"type":"Feature","geometry":{"type":"Point","coordinates":[-104.57,38.68]}},{"properties":{"CITY":"2 W South Fork","TYPETEXT":"SNOW","TYPECODE":"S","WFO":"PUB","REMARK":null,"MAG":2.0,"id":"a66a1ca80xjo","SOURCE":"trained spotter","COUNTY":"Rio Grande","VALID":201202030150},"type":"Feature","geometry":{"type":"Point","coordinates":[-106.65,37.67]}},{"properties":{"CITY":"2 Nne Falcon","TYPETEXT":"SNOW","TYPECODE":"S","WFO":"PUB","REMARK":"4.25 inches in last 2 hours","MAG":6.8,"id":"a66a1cpb6asx","SOURCE":"trained spotter","COUNTY":"El Paso","VALID":201202030155},"type":"Feature","geometry":{"type":"Point","coordinates":[-104.6,38.96]}},{"properties":{"CITY":"5 Ne Calhan","TYPETEXT":"SNOW","TYPECODE":"S","WFO":"PUB","REMARK":"4.25 inches in last 2 hours","MAG":6.8,"id":"a66a1cbjsyy7","SOURCE":"trained spotter","COUNTY":"El Paso","VALID":201202030155},"type":"Feature","geometry":{"type":"Point","coordinates":[-104.23,39.09]}},{"properties":{"CITY":"2 N Black Forest","TYPETEXT":"SNOW","TYPECODE":"S","WFO":"PUB","REMARK":null,"MAG":1.0,"id":"a66a1ch0x9nr","SOURCE":"trained spotter","COUNTY":"El Paso","VALID":201202030200},"type":"Feature","geometry":{"type":"Point","coordinates":[-104.71,39.05]}},{"properties":{"CITY":"Black Forest","TYPETEXT":"SNOW","TYPECODE":"S","WFO":"PUB","REMARK":"since 1700 this afternoon","MAG":4.0,"id":"a66a1cmdhpxs","SOURCE":"broadcast media","COUNTY":"El Paso","VALID":201202030203},"type":"Feature","geometry":{"type":"Point","coordinates":[-104.7,39.02]}},{"properties":{"CITY":"5 N Peyton","TYPETEXT":"SNOW","TYPECODE":"S","WFO":"PUB","REMARK":"bijou basin north of peyton","MAG":8.0,"id":"a66a1cocqoog","SOURCE":"broadcast media","COUNTY":"El Paso","VALID":201202030206},"type":"Feature","geometry":{"type":"Point","coordinates":[-104.48,39.1]}},{"properties":{"CITY":"Peyton","TYPETEXT":"SNOW","TYPECODE":"S","WFO":"PUB","REMARK":"bijou basin north of peyton","MAG":8.0,"id":"a66a1cik5pxi","SOURCE":"broadcast media","COUNTY":"El Paso","VALID":201202030206},"type":"Feature","geometry":{"type":"Point","coordinates":[-104.48,39.03]}},{"properties":{"CITY":"3 N Pueblo Reservoir","TYPETEXT":"SNOW","TYPECODE":"S","WFO":"PUB","REMARK":null,"MAG":2.0,"id":"a66a1cn8jepi","SOURCE":"trained spotter","COUNTY":"Pueblo","VALID":201202030210},"type":"Feature","geometry":{"type":"Point","coordinates":[-104.75,38.3]}},{"properties":{"CITY":"10 Ese Calhan","TYPETEXT":"SNOW","TYPECODE":"S","WFO":"PUB","REMARK":"on funk road","MAG":6.0,"id":"a66a1ccper56","SOURCE":"broadcast media","COUNTY":"El Paso","VALID":201202030211},"type":"Feature","geometry":{"type":"Point","coordinates":[-104.13,38.98]}},{"properties":{"CITY":"7 Se Calhan","TYPETEXT":"SNOW","TYPECODE":"S","WFO":"PUB","REMARK":"on funk road","MAG":6.0,"id":"a66a1cflicsk","SOURCE":"broadcast media","COUNTY":"El Paso","VALID":201202030211},"type":"Feature","geometry":{"type":"Point","coordinates":[-104.21,38.96]}},{"properties":{"CITY":"2 Se Penrose","TYPETEXT":"SNOW","TYPECODE":"S","WFO":"PUB","REMARK":"started at 1400 this afternoon","MAG":1.0,"id":"a66a1cjl9a7n","SOURCE":"trained spotter","COUNTY":"Fremont","VALID":201202030214},"type":"Feature","geometry":{"type":"Point","coordinates":[-104.99,38.41]}},{"properties":{"CITY":"Truckton","TYPETEXT":"SNOW","TYPECODE":"S","WFO":"PUB","REMARK":"start time not available","MAG":7.0,"id":"a66a1cjn8tvq","SOURCE":"broadcast media","COUNTY":"El Paso","VALID":201202030233},"type":"Feature","geometry":{"type":"Point","coordinates":[-104.18,38.73]}},{"properties":{"CITY":"2 S Ellicott","TYPETEXT":"SNOW","TYPECODE":"S","WFO":"PUB","REMARK":"start time not available","MAG":9.5,"id":"a66a1clazrrn","SOURCE":"broadcast media","COUNTY":"El Paso","VALID":201202030233},"type":"Feature","geometry":{"type":"Point","coordinates":[-104.39,38.81]}},{"properties":{"CITY":"6 Ssw Calhan","TYPETEXT":"SNOW","TYPECODE":"S","WFO":"PUB","REMARK":"started at 1240 pm","MAG":6.8,"id":"a66a1ch1nepr","SOURCE":"trained spotter","COUNTY":"El Paso","VALID":201202030315},"type":"Feature","geometry":{"type":"Point","coordinates":[-104.34,38.95]}},{"properties":{"CITY":"13 Se Calhan","TYPETEXT":"SNOW","TYPECODE":"S","WFO":"PUB","REMARK":"start time not available","MAG":9.0,"id":"a66a1cbvpkkh","SOURCE":"broadcast media","COUNTY":"El Paso","VALID":201202030324},"type":"Feature","geometry":{"type":"Point","coordinates":[-104.13,38.9]}},{"properties":{"CITY":"1 Nne Strasburg","TYPETEXT":"SNOW","TYPECODE":"S","WFO":"BOU","REMARK":null,"MAG":3.5,"id":"a66a1cmqv2zh","SOURCE":"trained spotter","COUNTY":"Adams","VALID":201202030328},"type":"Feature","geometry":{"type":"Point","coordinates":[-104.29,39.75]}},{"properties":{"CITY":"Strasburg","TYPETEXT":"SNOW","TYPECODE":"S","WFO":"BOU","REMARK":null,"MAG":4.0,"id":"a66a1cjv3h7e","SOURCE":"trained spotter","COUNTY":"Arapahoe","VALID":201202030342},"type":"Feature","geometry":{"type":"Point","coordinates":[-104.3,39.74]}},{"properties":{"CITY":"Deer Trail","TYPETEXT":"SNOW","TYPECODE":"S","WFO":"BOU","REMARK":null,"MAG":5.0,"id":"a66a1cc6zkuf","SOURCE":"public","COUNTY":"Arapahoe","VALID":201202030346},"type":"Feature","geometry":{"type":"Point","coordinates":[-104.04,39.62]}},{"properties":{"CITY":"1 Sw Rye","TYPETEXT":"NON-TSTM WND GST","TYPECODE":"N","WFO":"PUB","REMARK":"0.10 liquid equivalent and 6 inches on the ground","MAG":2.0,"id":"a66a1cb8gcli","SOURCE":"co-op observer","COUNTY":"Pueblo","VALID":201202030400},"type":"Feature","geometry":{"type":"Point","coordinates":[-104.94,37.91]}},{"properties":{"CITY":"1 Sw Rye","TYPETEXT":"SNOW","TYPECODE":"S","WFO":"PUB","REMARK":"0.10 liquid equivalent and 6 inches on the ground","MAG":2.0,"id":"a66a1cm0ey30","SOURCE":"co-op observer","COUNTY":"Pueblo","VALID":201202030400},"type":"Feature","geometry":{"type":"Point","coordinates":[-104.94,37.91]}},{"properties":{"CITY":"4 Nw Peyton","TYPETEXT":"SNOW","TYPECODE":"S","WFO":"PUB","REMARK":"0.32 liquid equivalent","MAG":3.9,"id":"a66a1catg2tk","SOURCE":"co-op observer","COUNTY":"El Paso","VALID":201202030400},"type":"Feature","geometry":{"type":"Point","coordinates":[-104.53,39.07]}},{"properties":{"CITY":"4 N Peyton","TYPETEXT":"SNOW","TYPECODE":"S","WFO":"PUB","REMARK":"start time not available","MAG":5.0,"id":"a66a1cdbbhoq","SOURCE":"trained spotter","COUNTY":"El Paso","VALID":201202030408},"type":"Feature","geometry":{"type":"Point","coordinates":[-104.48,39.09]}},{"properties":{"CITY":"5 Ne Calhan","TYPETEXT":"HEAVY SNOW","TYPECODE":"S","WFO":"PUB","REMARK":"winds 30 mph with blowing snow. starting to drift.","MAG":14.6,"id":"a66a1cc8b2u2","SOURCE":"trained spotter","COUNTY":"El Paso","VALID":201202030410},"type":"Feature","geometry":{"type":"Point","coordinates":[-104.23,39.09]}},{"properties":{"CITY":"Castle Rock","TYPETEXT":"SNOW","TYPECODE":"S","WFO":"BOU","REMARK":"snowfall rate 1 inch per hour","MAG":3.0,"id":"a66a1ceps9o7","SOURCE":"trained spotter","COUNTY":"Douglas","VALID":201202030411},"type":"Feature","geometry":{"type":"Point","coordinates":[-104.85,39.38]}},{"properties":{"CITY":"3 N Black Hawk","TYPETEXT":"SNOW","TYPECODE":"S","WFO":"BOU","REMARK":null,"MAG":2.3,"id":"a66a1cpujf5p","SOURCE":"trained spotter","COUNTY":"Gilpin","VALID":201202030424},"type":"Feature","geometry":{"type":"Point","coordinates":[-105.49,39.84]}},{"properties":{"CITY":"5 Nnw Pinon","TYPETEXT":"SNOW","TYPECODE":"S","WFO":"PUB","REMARK":"starting time not available","MAG":5.0,"id":"a66a1co04o2p","SOURCE":"trained spotter","COUNTY":"Pueblo","VALID":201202030424},"type":"Feature","geometry":{"type":"Point","coordinates":[-104.65,38.52]}},{"properties":{"CITY":"1 Nne Strasburg","TYPETEXT":"HEAVY SNOW","TYPECODE":"S","WFO":"BOU","REMARK":"snowfall rate 2.25 in last hour","MAG":5.8,"id":"a66a1cowi00o","SOURCE":"trained spotter","COUNTY":"Adams","VALID":201202030430},"type":"Feature","geometry":{"type":"Point","coordinates":[-104.29,39.75]}},{"properties":{"CITY":"3 W Jamestown","TYPETEXT":"SNOW","TYPECODE":"S","WFO":"BOU","REMARK":"snowfall rate of 1 inch per hour","MAG":2.6,"id":"a66a1cbwfafn","SOURCE":"trained spotter","COUNTY":"Boulder","VALID":201202030439},"type":"Feature","geometry":{"type":"Point","coordinates":[-105.44,40.11]}},{"properties":{"CITY":"1 Ssw Lafayette","TYPETEXT":"SNOW","TYPECODE":"S","WFO":"BOU","REMARK":null,"MAG":1.3,"id":"a66a1cjixgqi","SOURCE":"trained spotter","COUNTY":"Boulder","VALID":201202030442},"type":"Feature","geometry":{"type":"Point","coordinates":[-105.1,39.99]}},{"properties":{"CITY":"5 Ne Hardtner","TYPETEXT":"HAIL","TYPECODE":"H","WFO":"DDC","REMARK":null,"MAG":0.88,"id":"a66a1cmoa5y5","SOURCE":"public","COUNTY":"Barber","VALID":201202030445},"type":"Feature","geometry":{"type":"Point","coordinates":[-98.58,37.07]}},{"properties":{"CITY":"5 Ne Air Force Academy","TYPETEXT":"SNOW","TYPECODE":"S","WFO":"PUB","REMARK":null,"MAG":1.8,"id":"a66a1ck2obe1","SOURCE":"trained spotter","COUNTY":"El Paso","VALID":201202030445},"type":"Feature","geometry":{"type":"Point","coordinates":[-104.8,39.03]}},{"properties":{"CITY":"1 N Ellicott","TYPETEXT":"SNOW","TYPECODE":"S","WFO":"PUB","REMARK":null,"MAG":8.0,"id":"a66a1cncmmsx","SOURCE":"amateur radio","COUNTY":"El Paso","VALID":201202030445},"type":"Feature","geometry":{"type":"Point","coordinates":[-104.39,38.85]}},{"properties":{"CITY":"2 Wnw Penrose","TYPETEXT":"SNOW","TYPECODE":"S","WFO":"PUB","REMARK":"snow began about 2 pm mst. light snow continues.","MAG":2.0,"id":"a66a1cbbeu3b","SOURCE":"trained spotter","COUNTY":"Fremont","VALID":201202030450},"type":"Feature","geometry":{"type":"Point","coordinates":[-105.04,38.44]}},{"properties":{"CITY":"1 Sw Woodland Park","TYPETEXT":"SNOW","TYPECODE":"S","WFO":"PUB","REMARK":"snowing off and on since noon","MAG":1.0,"id":"a66a1cjodheh","SOURCE":"trained spotter","COUNTY":"Teller","VALID":201202030451},"type":"Feature","geometry":{"type":"Point","coordinates":[-105.06,38.99]}},{"properties":{"CITY":"3 S Sharon","TYPETEXT":"HAIL","TYPECODE":"H","WFO":"DDC","REMARK":"pea to penny-sized hail covered the ground.","MAG":0.75,"id":"a66a1cmllr6b","SOURCE":"public","COUNTY":"Barber","VALID":201202030456},"type":"Feature","geometry":{"type":"Point","coordinates":[-98.41,37.2]}},{"properties":{"CITY":"5 E Boulder","TYPETEXT":"SLEET","TYPECODE":"s","WFO":"BOU","REMARK":null,"MAG":3.0,"id":"a66a1cdahh1w","SOURCE":"trained spotter","COUNTY":"Boulder","VALID":201202030500},"type":"Feature","geometry":{"type":"Point","coordinates":[-105.16,40.03]}},{"properties":{"CITY":"4 Ene Nederland","TYPETEXT":"SNOW","TYPECODE":"S","WFO":"BOU","REMARK":null,"MAG":2.0,"id":"a66a1chy1mdw","SOURCE":"trained spotter","COUNTY":"Boulder","VALID":201202030500},"type":"Feature","geometry":{"type":"Point","coordinates":[-105.45,39.99]}},{"properties":{"CITY":"1 Se Fort Collins","TYPETEXT":"SNOW","TYPECODE":"S","WFO":"BOU","REMARK":"2 inch per hour snowfall rate","MAG":3.5,"id":"a66a1cih5942","SOURCE":"trained spotter","COUNTY":"Larimer","VALID":201202030515},"type":"Feature","geometry":{"type":"Point","coordinates":[-105.05,40.55]}},{"properties":{"CITY":"Highlands Ranch","TYPETEXT":"SNOW","TYPECODE":"S","WFO":"BOU","REMARK":null,"MAG":3.5,"id":"a66a1cfjntmi","SOURCE":"trained spotter","COUNTY":"Douglas","VALID":201202030526},"type":"Feature","geometry":{"type":"Point","coordinates":[-104.97,39.55]}},{"properties":{"CITY":"6 Ssw Calhan","TYPETEXT":"SNOW","TYPECODE":"S","WFO":"PUB","REMARK":"wind is starting to blow. drifts to 18 inches deep.","MAG":7.5,"id":"a66a1cjsuwb4","SOURCE":"public","COUNTY":"El Paso","VALID":201202030530},"type":"Feature","geometry":{"type":"Point","coordinates":[-104.34,38.95]}},{"properties":{"CITY":"4 N Florissant","TYPETEXT":"SNOW","TYPECODE":"S","WFO":"PUB","REMARK":"started 1400 this afternoon","MAG":1.2,"id":"a66a1cohr0br","SOURCE":"trained spotter","COUNTY":"Teller","VALID":201202030543},"type":"Feature","geometry":{"type":"Point","coordinates":[-105.29,39.0]}},{"properties":{"CITY":"3 W Jamestown","TYPETEXT":"HEAVY SNOW","TYPECODE":"S","WFO":"BOU","REMARK":"3.4 inches in one hour","MAG":6.0,"id":"a66a1cenxq4g","SOURCE":"trained spotter","COUNTY":"Boulder","VALID":201202030543},"type":"Feature","geometry":{"type":"Point","coordinates":[-105.44,40.11]}},{"properties":{"CITY":"Fort Collins","TYPETEXT":"SNOW","TYPECODE":"S","WFO":"BOU","REMARK":null,"MAG":4.5,"id":"a66a1cmxebjm","SOURCE":"trained spotter","COUNTY":"Larimer","VALID":201202030544},"type":"Feature","geometry":{"type":"Point","coordinates":[-105.07,40.56]}},{"properties":{"CITY":"1 Nne Strasburg","TYPETEXT":"SNOW","TYPECODE":"S","WFO":"BOU","REMARK":null,"MAG":7.2,"id":"a66a1cmpa4z7","SOURCE":"trained spotter","COUNTY":"Adams","VALID":201202030558},"type":"Feature","geometry":{"type":"Point","coordinates":[-104.29,39.75]}},{"properties":{"CITY":"3 Ene Fort Collins","TYPETEXT":"SNOW","TYPECODE":"S","WFO":"BOU","REMARK":null,"MAG":2.3,"id":"a66a1cepuyh5","SOURCE":"trained spotter","COUNTY":"Larimer","VALID":201202030600},"type":"Feature","geometry":{"type":"Point","coordinates":[-105.02,40.58]}},{"properties":{"CITY":"4 S Fort Collins","TYPETEXT":"SNOW","TYPECODE":"S","WFO":"BOU","REMARK":null,"MAG":3.0,"id":"a66a1ckb6c6i","SOURCE":"trained spotter","COUNTY":"Larimer","VALID":201202030600},"type":"Feature","geometry":{"type":"Point","coordinates":[-105.07,40.5]}},{"properties":{"CITY":"1 Ssw Lafayette","TYPETEXT":"SNOW","TYPECODE":"S","WFO":"BOU","REMARK":"visibility 80 yards","MAG":5.0,"id":"a66a1cl5w5b3","SOURCE":"trained spotter","COUNTY":"Boulder","VALID":201202030600},"type":"Feature","geometry":{"type":"Point","coordinates":[-105.1,39.99]}},{"properties":{"CITY":"1 Sw Woodland Park","TYPETEXT":"SNOW","TYPECODE":"S","WFO":"PUB","REMARK":null,"MAG":2.0,"id":"a66a1cfpr9ng","SOURCE":"trained spotter","COUNTY":"Teller","VALID":201202030630},"type":"Feature","geometry":{"type":"Point","coordinates":[-105.06,38.99]}},{"properties":{"CITY":"1 Nnw Erie","TYPETEXT":"SNOW","TYPECODE":"S","WFO":"BOU","REMARK":null,"MAG":5.0,"id":"a66a1cpayx48","SOURCE":"nws employee","COUNTY":"Boulder","VALID":201202030630},"type":"Feature","geometry":{"type":"Point","coordinates":[-105.05,40.04]}},{"properties":{"CITY":"1 Se Ellicott","TYPETEXT":"SNOW","TYPECODE":"S","WFO":"PUB","REMARK":"southeast of the ellicott schools","MAG":14.0,"id":"a66a1cblotle","SOURCE":"broadcast media","COUNTY":"El Paso","VALID":201202030639},"type":"Feature","geometry":{"type":"Point","coordinates":[-104.38,38.83]}},{"properties":{"CITY":"Beulah","TYPETEXT":"SNOW","TYPECODE":"S","WFO":"PUB","REMARK":"precipitation 0.08","MAG":1.9,"id":"a66a1cfvxi5q","SOURCE":"trained spotter","COUNTY":"Pueblo","VALID":201202030645},"type":"Feature","geometry":{"type":"Point","coordinates":[-104.98,38.08]}},{"properties":{"CITY":"2 Ene Bergen Park","TYPETEXT":"SNOW","TYPECODE":"S","WFO":"BOU","REMARK":"2 inches of snow in last hour.","MAG":3.0,"id":"a66a1cahlo2r","SOURCE":"trained spotter","COUNTY":"Jefferson","VALID":201202030645},"type":"Feature","geometry":{"type":"Point","coordinates":[-105.32,39.71]}},{"properties":{"CITY":"2 Sse Boulder","TYPETEXT":"SNOW","TYPECODE":"S","WFO":"BOU","REMARK":"nws office at david skaggs building.","MAG":5.6,"id":"a66a1cjr1sl8","SOURCE":"nws employee","COUNTY":"Boulder","VALID":201202030650},"type":"Feature","geometry":{"type":"Point","coordinates":[-105.24,40.0]}},{"properties":{"CITY":"4 E Fort Collins","TYPETEXT":"SNOW","TYPECODE":"S","WFO":"BOU","REMARK":null,"MAG":3.3,"id":"a66a1cqn16sp","SOURCE":"trained spotter","COUNTY":"Larimer","VALID":201202030701},"type":"Feature","geometry":{"type":"Point","coordinates":[-104.99,40.56]}},{"properties":{"CITY":"1 Ese Wheat Ridge","TYPETEXT":"SNOW","TYPECODE":"S","WFO":"BOU","REMARK":null,"MAG":3.5,"id":"a66a1cq4x7qk","SOURCE":"trained spotter","COUNTY":"Jefferson","VALID":201202030705},"type":"Feature","geometry":{"type":"Point","coordinates":[-105.07,39.77]}},{"properties":{"CITY":"3 Wsw Longmont","TYPETEXT":"SNOW","TYPECODE":"S","WFO":"BOU","REMARK":"one quarter mile visibility along with some drifting snow.","MAG":4.0,"id":"a66a1clm8tsf","SOURCE":"trained spotter","COUNTY":"Boulder","VALID":201202030705},"type":"Feature","geometry":{"type":"Point","coordinates":[-105.16,40.15]}},{"properties":{"CITY":"3 N Conifer","TYPETEXT":"SNOW","TYPECODE":"S","WFO":"BOU","REMARK":null,"MAG":4.9,"id":"a66a1ck0oewp","SOURCE":"trained spotter","COUNTY":"Jefferson","VALID":201202030705},"type":"Feature","geometry":{"type":"Point","coordinates":[-105.31,39.57]}},{"properties":{"CITY":"3 S Boulder","TYPETEXT":"SNOW","TYPECODE":"S","WFO":"BOU","REMARK":"heavy snow with 1/8 mile visibility.","MAG":7.7,"id":"a66a1cgf00gc","SOURCE":"trained spotter","COUNTY":"Boulder","VALID":201202030705},"type":"Feature","geometry":{"type":"Point","coordinates":[-105.25,39.98]}},{"properties":{"CITY":"3 W Jamestown","TYPETEXT":"HEAVY SNOW","TYPECODE":"S","WFO":"BOU","REMARK":"3.5 inches in previous 90 minutes.","MAG":9.5,"id":"a66a1cmtdoes","SOURCE":"trained spotter","COUNTY":"Boulder","VALID":201202030705},"type":"Feature","geometry":{"type":"Point","coordinates":[-105.44,40.11]}},{"properties":{"CITY":"5 S Hazelton","TYPETEXT":"HAIL","TYPECODE":"H","WFO":"DDC","REMARK":null,"MAG":0.88,"id":"a66a1cjjyxhv","SOURCE":"public","COUNTY":"Barber","VALID":201202030715},"type":"Feature","geometry":{"type":"Point","coordinates":[-98.42,37.01]}},{"properties":{"CITY":"1 Ssw Fort Collins","TYPETEXT":"SNOW","TYPECODE":"S","WFO":"BOU","REMARK":null,"MAG":4.6,"id":"a66a1cbzyz21","SOURCE":"trained spotter","COUNTY":"Larimer","VALID":201202030715},"type":"Feature","geometry":{"type":"Point","coordinates":[-105.07,40.55]}},{"properties":{"CITY":"1 Nnw Louisville","TYPETEXT":"SNOW","TYPECODE":"S","WFO":"BOU","REMARK":null,"MAG":5.5,"id":"a66a1cca6ryn","SOURCE":"trained spotter","COUNTY":"Boulder","VALID":201202030715},"type":"Feature","geometry":{"type":"Point","coordinates":[-105.15,39.99]}},{"properties":{"CITY":"1 Ese Boulder","TYPETEXT":"SNOW","TYPECODE":"S","WFO":"BOU","REMARK":"snow has been falling less than 5 hours.","MAG":7.0,"id":"a66a1cgxeb1j","SOURCE":"cocorahs","COUNTY":"Boulder","VALID":201202030715},"type":"Feature","geometry":{"type":"Point","coordinates":[-105.23,40.02]}},{"properties":{"CITY":"4 Sse Pinecliffe","TYPETEXT":"HEAVY SNOW","TYPECODE":"S","WFO":"BOU","REMARK":null,"MAG":9.9,"id":"a66a1cfvt1io","SOURCE":"trained spotter","COUNTY":"Gilpin","VALID":201202030715},"type":"Feature","geometry":{"type":"Point","coordinates":[-105.39,39.88]}},{"properties":{"CITY":"Frederick","TYPETEXT":"SNOW","TYPECODE":"S","WFO":"BOU","REMARK":null,"MAG":5.0,"id":"a66a1cm1enbu","SOURCE":"nws employee","COUNTY":"Weld","VALID":201202030730},"type":"Feature","geometry":{"type":"Point","coordinates":[-104.94,40.1]}},{"properties":{"CITY":"2 Wsw Broomfield","TYPETEXT":"SNOW","TYPECODE":"S","WFO":"BOU","REMARK":"6 inches of snow in about 6 hours.","MAG":6.0,"id":"a66a1cl7by54","SOURCE":"trained spotter","COUNTY":"Broomfield","VALID":201202030730},"type":"Feature","geometry":{"type":"Point","coordinates":[-105.09,39.93]}},{"properties":{"CITY":"3 S Boulder","TYPETEXT":"HEAVY SNOW","TYPECODE":"S","WFO":"BOU","REMARK":"1.6 inches of snow in the past hour.","MAG":9.0,"id":"a66a1cet9mjp","SOURCE":"trained spotter","COUNTY":"Boulder","VALID":201202030805},"type":"Feature","geometry":{"type":"Point","coordinates":[-105.25,39.98]}},{"properties":{"CITY":"1 Sw Woodland Park","TYPETEXT":"SNOW","TYPECODE":"S","WFO":"PUB","REMARK":null,"MAG":3.5,"id":"a66a1cj78h5m","SOURCE":"trained spotter","COUNTY":"Teller","VALID":201202030854},"type":"Feature","geometry":{"type":"Point","coordinates":[-105.06,38.99]}},{"properties":{"CITY":"1 Ssw Fort Collins","TYPETEXT":"SNOW","TYPECODE":"S","WFO":"BOU","REMARK":null,"MAG":5.5,"id":"a66a1chkj6r8","SOURCE":"trained spotter","COUNTY":"Larimer","VALID":201202030905},"type":"Feature","geometry":{"type":"Point","coordinates":[-105.07,40.55]}},{"properties":{"CITY":"2 Sse Boulder","TYPETEXT":"HEAVY SNOW","TYPECODE":"S","WFO":"BOU","REMARK":"nws office at david skaggs building.","MAG":9.0,"id":"a66a1cp9gxg4","SOURCE":"nws employee","COUNTY":"Boulder","VALID":201202030905},"type":"Feature","geometry":{"type":"Point","coordinates":[-105.24,40.0]}},{"properties":{"CITY":"1 Ssw Lafayette","TYPETEXT":"SNOW","TYPECODE":"S","WFO":"BOU","REMARK":"some drifting of snow observed.","MAG":7.0,"id":"a66a1cfwzjr7","SOURCE":"trained spotter","COUNTY":"Boulder","VALID":201202030935},"type":"Feature","geometry":{"type":"Point","coordinates":[-105.1,39.99]}},{"properties":{"CITY":"3 N Pueblo Reservoir","TYPETEXT":"SNOW","TYPECODE":"S","WFO":"PUB","REMARK":"0.42 inches water equivalent.","MAG":3.5,"id":"a66a1cdmv9p4","SOURCE":"trained spotter","COUNTY":"Pueblo","VALID":201202031000},"type":"Feature","geometry":{"type":"Point","coordinates":[-104.75,38.3]}},{"properties":{"CITY":"3 W Jamestown","TYPETEXT":"HEAVY SNOW","TYPECODE":"S","WFO":"BOU","REMARK":"6 inches of snow since midnight.","MAG":15.5,"id":"a66a1cn0ddd6","SOURCE":"trained spotter","COUNTY":"Boulder","VALID":201202031005},"type":"Feature","geometry":{"type":"Point","coordinates":[-105.45,40.12]}},{"properties":{"CITY":"Lyons","TYPETEXT":"HEAVY SNOW","TYPECODE":"S","WFO":"BOU","REMARK":null,"MAG":6.0,"id":"a66a1cenq6pd","SOURCE":"public","COUNTY":"Boulder","VALID":201202031020},"type":"Feature","geometry":{"type":"Point","coordinates":[-105.27,40.22]}},{"properties":{"CITY":"1 Nnw Louisville","TYPETEXT":"HEAVY SNOW","TYPECODE":"S","WFO":"BOU","REMARK":null,"MAG":9.2,"id":"a66a1cbofhpz","SOURCE":"trained spotter","COUNTY":"Boulder","VALID":201202031020},"type":"Feature","geometry":{"type":"Point","coordinates":[-105.15,39.99]}},{"properties":{"CITY":"4 Sse Brookvale","TYPETEXT":"HEAVY SNOW","TYPECODE":"S","WFO":"BOU","REMARK":null,"MAG":12.0,"id":"a66a1clcmztk","SOURCE":"trained spotter","COUNTY":"Clear Creek","VALID":201202031030},"type":"Feature","geometry":{"type":"Point","coordinates":[-105.4,39.57]}},{"properties":{"CITY":"1 Sw Westminster","TYPETEXT":"HEAVY SNOW","TYPECODE":"S","WFO":"BOU","REMARK":null,"MAG":8.5,"id":"a66a1cf5d7x7","SOURCE":"trained spotter","COUNTY":"Jefferson","VALID":201202031050},"type":"Feature","geometry":{"type":"Point","coordinates":[-105.07,39.87]}},{"properties":{"CITY":"1 Sw Westminster","TYPETEXT":"SNOW","TYPECODE":"S","WFO":"BOU","REMARK":null,"MAG":8.5,"id":"a66a1cekr8j4","SOURCE":"trained spotter","COUNTY":"Jefferson","VALID":201202031050},"type":"Feature","geometry":{"type":"Point","coordinates":[-105.07,39.87]}},{"properties":{"CITY":"1 Nnw Erie","TYPETEXT":"HEAVY SNOW","TYPECODE":"S","WFO":"BOU","REMARK":null,"MAG":9.7,"id":"a66a1cmxmjwn","SOURCE":"nws employee","COUNTY":"Boulder","VALID":201202031050},"type":"Feature","geometry":{"type":"Point","coordinates":[-105.05,40.04]}},{"properties":{"CITY":"1 Se Frederick","TYPETEXT":"HEAVY SNOW","TYPECODE":"S","WFO":"BOU","REMARK":null,"MAG":7.5,"id":"a66a1cck357a","SOURCE":"trained spotter","COUNTY":"Weld","VALID":201202031100},"type":"Feature","geometry":{"type":"Point","coordinates":[-104.93,40.09]}},{"properties":{"CITY":"2 Sse Boulder","TYPETEXT":"HEAVY SNOW","TYPECODE":"S","WFO":"BOU","REMARK":"nws office at david skaggs building.","MAG":10.0,"id":"a66a1ccpzldw","SOURCE":"nws employee","COUNTY":"Boulder","VALID":201202031110},"type":"Feature","geometry":{"type":"Point","coordinates":[-105.24,40.0]}},{"properties":{"CITY":"1 Nnw Brighton","TYPETEXT":"SNOW","TYPECODE":"S","WFO":"BOU","REMARK":null,"MAG":4.0,"id":"a66a1ckjezuw","SOURCE":"trained spotter","COUNTY":"Adams","VALID":201202031200},"type":"Feature","geometry":{"type":"Point","coordinates":[-104.81,39.97]}},{"properties":{"CITY":"2 Ene Longmont","TYPETEXT":"HEAVY SNOW","TYPECODE":"S","WFO":"BOU","REMARK":null,"MAG":6.5,"id":"a66a1cg103ex","SOURCE":"trained spotter","COUNTY":"Boulder","VALID":201202031200},"type":"Feature","geometry":{"type":"Point","coordinates":[-105.08,40.18]}},{"properties":{"CITY":"1 Nnw Louisville","TYPETEXT":"HEAVY SNOW","TYPECODE":"S","WFO":"BOU","REMARK":null,"MAG":10.1,"id":"a66a1cqjodso","SOURCE":"trained spotter","COUNTY":"Boulder","VALID":201202031200},"type":"Feature","geometry":{"type":"Point","coordinates":[-105.15,39.98]}},{"properties":{"CITY":"1 Nw Strasburg","TYPETEXT":"HEAVY SNOW","TYPECODE":"S","WFO":"BOU","REMARK":"three to four foot drifts","MAG":9.5,"id":"a66a1cbs3yzv","SOURCE":"trained spotter","COUNTY":"Adams","VALID":201202031215},"type":"Feature","geometry":{"type":"Point","coordinates":[-104.32,39.75]}},{"properties":{"CITY":"3 N Black Hawk","TYPETEXT":"HEAVY SNOW","TYPECODE":"S","WFO":"BOU","REMARK":null,"MAG":22.8,"id":"a66a1cjg4rku","SOURCE":"trained spotter","COUNTY":"Gilpin","VALID":201202031237},"type":"Feature","geometry":{"type":"Point","coordinates":[-105.49,39.84]}},{"properties":{"CITY":"4 Sse Pinecliffe","TYPETEXT":"HEAVY SNOW","TYPECODE":"S","WFO":"BOU","REMARK":null,"MAG":18.0,"id":"a66a1ceug0gl","SOURCE":"trained spotter","COUNTY":"Gilpin","VALID":201202031241},"type":"Feature","geometry":{"type":"Point","coordinates":[-105.4,39.88]}},{"properties":{"CITY":"2 N Brighton","TYPETEXT":"HEAVY SNOW","TYPECODE":"S","WFO":"BOU","REMARK":null,"MAG":6.0,"id":"a66a1cjaq4oo","SOURCE":"trained spotter","COUNTY":"Adams","VALID":201202031247},"type":"Feature","geometry":{"type":"Point","coordinates":[-104.79,39.98]}},{"properties":{"CITY":"2 Sse Boulder","TYPETEXT":"HEAVY SNOW","TYPECODE":"S","WFO":"BOU","REMARK":"nws office at david skaggs building.","MAG":12.0,"id":"a66a1ccu90i5","SOURCE":"nws employee","COUNTY":"Boulder","VALID":201202031256},"type":"Feature","geometry":{"type":"Point","coordinates":[-105.24,40.0]}},{"properties":{"CITY":"1 E Gary","TYPETEXT":"SNOW","TYPECODE":"S","WFO":"BOU","REMARK":null,"MAG":2.8,"id":"a66a1cnde2h4","SOURCE":"trained spotter","COUNTY":"Morgan","VALID":201202031300},"type":"Feature","geometry":{"type":"Point","coordinates":[-103.57,40.07]}},{"properties":{"CITY":"3 N Pueblo Reservoir","TYPETEXT":"SNOW","TYPECODE":"S","WFO":"PUB","REMARK":"started 2/3/12 300 pm...liquid 0.59","MAG":3.1,"id":"a66a1ca6os19","SOURCE":"trained spotter","COUNTY":"Pueblo","VALID":201202031300},"type":"Feature","geometry":{"type":"Point","coordinates":[-104.75,38.3]}},{"properties":{"CITY":"Ese Estes Park","TYPETEXT":"HEAVY SNOW","TYPECODE":"S","WFO":"BOU","REMARK":null,"MAG":6.9,"id":"a66a1cimq8p3","SOURCE":"trained spotter","COUNTY":"Larimer","VALID":201202031300},"type":"Feature","geometry":{"type":"Point","coordinates":[-105.51,40.37]}},{"properties":{"CITY":"N Longmont","TYPETEXT":"HEAVY SNOW","TYPECODE":"S","WFO":"BOU","REMARK":null,"MAG":10.5,"id":"a66a1cfftjr2","SOURCE":"trained spotter","COUNTY":"Boulder","VALID":201202031300},"type":"Feature","geometry":{"type":"Point","coordinates":[-105.11,40.17]}},{"properties":{"CITY":"4 Sse Pinecliffe","TYPETEXT":"HEAVY SNOW","TYPECODE":"S","WFO":"BOU","REMARK":"snowfall rate 2.5 inches per hour","MAG":24.0,"id":"a66a1cfndd2g","SOURCE":"trained spotter","COUNTY":"Gilpin","VALID":201202031300},"type":"Feature","geometry":{"type":"Point","coordinates":[-105.39,39.88]}},{"properties":{"CITY":"3 W Jamestown","TYPETEXT":"HEAVY SNOW","TYPECODE":"S","WFO":"BOU","REMARK":null,"MAG":24.5,"id":"a66a1cdv1en1","SOURCE":"trained spotter","COUNTY":"Boulder","VALID":201202031300},"type":"Feature","geometry":{"type":"Point","coordinates":[-105.45,40.12]}},{"properties":{"CITY":"2 N Loveland","TYPETEXT":"HEAVY SNOW","TYPECODE":"S","WFO":"BOU","REMARK":null,"MAG":9.2,"id":"a66a1cdduhy0","SOURCE":"trained spotter","COUNTY":"Larimer","VALID":201202031308},"type":"Feature","geometry":{"type":"Point","coordinates":[-105.07,40.45]}},{"properties":{"CITY":"2 Se Penrose","TYPETEXT":"SNOW","TYPECODE":"S","WFO":"PUB","REMARK":null,"MAG":3.0,"id":"a66a1caxk4vr","SOURCE":"trained spotter","COUNTY":"Fremont","VALID":201202031315},"type":"Feature","geometry":{"type":"Point","coordinates":[-104.99,38.41]}},{"properties":{"CITY":"11 Nne Crestone","TYPETEXT":"SNOW","TYPECODE":"S","WFO":"PUB","REMARK":null,"MAG":5.0,"id":"a66a1cjagqr0","SOURCE":"trained spotter","COUNTY":"Custer","VALID":201202031315},"type":"Feature","geometry":{"type":"Point","coordinates":[-105.58,38.13]}},{"properties":{"CITY":"5 Ne Air Force Academy","TYPETEXT":"HEAVY SNOW","TYPECODE":"S","WFO":"PUB","REMARK":"water equivalent...0.44","MAG":6.2,"id":"a66a1cpbtps2","SOURCE":"trained spotter","COUNTY":"El Paso","VALID":201202031318},"type":"Feature","geometry":{"type":"Point","coordinates":[-104.8,39.03]}},{"properties":{"CITY":"Rollinsville","TYPETEXT":"HEAVY SNOW","TYPECODE":"S","WFO":"BOU","REMARK":null,"MAG":27.0,"id":"a66a1ckmbycy","SOURCE":"trained spotter","COUNTY":"Gilpin","VALID":201202031330},"type":"Feature","geometry":{"type":"Point","coordinates":[-105.5,39.92]}},{"properties":{"CITY":"5 Ssw Arapahoe Park","TYPETEXT":"HEAVY SNOW","TYPECODE":"S","WFO":"BOU","REMARK":null,"MAG":9.1,"id":"a66a1ch0xkic","SOURCE":"trained spotter","COUNTY":"Arapahoe","VALID":201202031331},"type":"Feature","geometry":{"type":"Point","coordinates":[-104.72,39.57]}},{"properties":{"CITY":"2 W South Fork","TYPETEXT":"SNOW","TYPECODE":"S","WFO":"PUB","REMARK":"began 6 pm 2/2/12, end time unknown","MAG":5.5,"id":"a66a1cd1os2o","SOURCE":"trained spotter","COUNTY":"Rio Grande","VALID":201202031337},"type":"Feature","geometry":{"type":"Point","coordinates":[-106.65,37.67]}},{"properties":{"CITY":"1 Nw Niwot","TYPETEXT":"HEAVY SNOW","TYPECODE":"S","WFO":"BOU","REMARK":null,"MAG":9.5,"id":"a66a1cbu7281","SOURCE":"trained spotter","COUNTY":"Boulder","VALID":201202031337},"type":"Feature","geometry":{"type":"Point","coordinates":[-105.17,40.1]}},{"properties":{"CITY":"4 Sw Aurora","TYPETEXT":"SNOW","TYPECODE":"S","WFO":"BOU","REMARK":null,"MAG":5.8,"id":"a66a1carorgm","SOURCE":"trained spotter","COUNTY":"Arapahoe","VALID":201202031341},"type":"Feature","geometry":{"type":"Point","coordinates":[-104.79,39.67]}},{"properties":{"CITY":"Evergreen","TYPETEXT":"HEAVY SNOW","TYPECODE":"S","WFO":"BOU","REMARK":null,"MAG":13.0,"id":"a66a1cd678lh","SOURCE":"trained spotter","COUNTY":"Jefferson","VALID":201202031341},"type":"Feature","geometry":{"type":"Point","coordinates":[-105.34,39.63]}},{"properties":{"CITY":"3 Wsw Roxborough Park","TYPETEXT":"HEAVY SNOW","TYPECODE":"S","WFO":"BOU","REMARK":null,"MAG":8.0,"id":"a66a1cgkdd5z","SOURCE":"trained spotter","COUNTY":"Jefferson","VALID":201202031353},"type":"Feature","geometry":{"type":"Point","coordinates":[-105.12,39.43]}},{"properties":{"CITY":"1 Ssw Lafayette","TYPETEXT":"HEAVY SNOW","TYPECODE":"S","WFO":"BOU","REMARK":null,"MAG":11.5,"id":"a66a1cl845kc","SOURCE":"trained spotter","COUNTY":"Boulder","VALID":201202031355},"type":"Feature","geometry":{"type":"Point","coordinates":[-105.11,39.98]}},{"properties":{"CITY":"4 Ene Nederland","TYPETEXT":"HEAVY SNOW","TYPECODE":"S","WFO":"BOU","REMARK":null,"MAG":21.0,"id":"a66a1cmvrw4f","SOURCE":"trained spotter","COUNTY":"Boulder","VALID":201202031355},"type":"Feature","geometry":{"type":"Point","coordinates":[-105.45,39.99]}},{"properties":{"CITY":"9 Nne Kit Carson","TYPETEXT":"SNOW","TYPECODE":"S","WFO":"GLD","REMARK":null,"MAG":1.0,"id":"a66a1cn1towx","SOURCE":"co-op observer","COUNTY":"Cheyenne","VALID":201202031400},"type":"Feature","geometry":{"type":"Point","coordinates":[-102.73,38.88]}},{"properties":{"CITY":"Burlington","TYPETEXT":"SNOW","TYPECODE":"S","WFO":"GLD","REMARK":null,"MAG":1.7,"id":"a66a1cgvloua","SOURCE":"co-op observer","COUNTY":"Kit Carson","VALID":201202031400},"type":"Feature","geometry":{"type":"Point","coordinates":[-102.27,39.31]}},{"properties":{"CITY":"6 N Wild Horse","TYPETEXT":"SNOW","TYPECODE":"S","WFO":"GLD","REMARK":null,"MAG":2.0,"id":"a66a1clzx4gj","SOURCE":"co-op observer","COUNTY":"Cheyenne","VALID":201202031400},"type":"Feature","geometry":{"type":"Point","coordinates":[-103.0,38.91]}},{"properties":{"CITY":"Idalia","TYPETEXT":"SNOW","TYPECODE":"S","WFO":"GLD","REMARK":null,"MAG":2.1,"id":"a66a1cah7ida","SOURCE":"co-op observer","COUNTY":"Yuma","VALID":201202031400},"type":"Feature","geometry":{"type":"Point","coordinates":[-102.3,39.7]}},{"properties":{"CITY":"4 E Vernon","TYPETEXT":"SNOW","TYPECODE":"S","WFO":"GLD","REMARK":null,"MAG":2.2,"id":"a66a1cpf6w73","SOURCE":"co-op observer","COUNTY":"Yuma","VALID":201202031400},"type":"Feature","geometry":{"type":"Point","coordinates":[-102.24,39.93]}},{"properties":{"CITY":"Wellington","TYPETEXT":"SNOW","TYPECODE":"S","WFO":"BOU","REMARK":null,"MAG":3.0,"id":"a66a1cjdbj5k","SOURCE":"trained spotter","COUNTY":"Larimer","VALID":201202031400},"type":"Feature","geometry":{"type":"Point","coordinates":[-105.0,40.7]}},{"properties":{"CITY":"1 Nw Karval","TYPETEXT":"HEAVY SNOW","TYPECODE":"S","WFO":"BOU","REMARK":null,"MAG":4.0,"id":"a66a1cfef04f","SOURCE":"trained spotter","COUNTY":"Lincoln","VALID":201202031400},"type":"Feature","geometry":{"type":"Point","coordinates":[-103.54,38.74]}},{"properties":{"CITY":"1 Nne Fountain","TYPETEXT":"SNOW","TYPECODE":"S","WFO":"PUB","REMARK":null,"MAG":5.0,"id":"a66a1chpoufo","SOURCE":"nws employee","COUNTY":"El Paso","VALID":201202031400},"type":"Feature","geometry":{"type":"Point","coordinates":[-104.7,38.7]}},{"properties":{"CITY":"3 Ne Parker","TYPETEXT":"SNOW","TYPECODE":"S","WFO":"BOU","REMARK":null,"MAG":5.0,"id":"a66a1cps5pmr","SOURCE":"amateur radio","COUNTY":"Douglas","VALID":201202031400},"type":"Feature","geometry":{"type":"Point","coordinates":[-104.72,39.54]}},{"properties":{"CITY":"1 Ne Castle Rock","TYPETEXT":"HEAVY SNOW","TYPECODE":"S","WFO":"BOU","REMARK":null,"MAG":6.0,"id":"a66a1cgqu4p5","SOURCE":"amateur radio","COUNTY":"Douglas","VALID":201202031400},"type":"Feature","geometry":{"type":"Point","coordinates":[-104.84,39.39]}},{"properties":{"CITY":"6 N Hyde","TYPETEXT":"HEAVY SNOW","TYPECODE":"S","WFO":"BOU","REMARK":null,"MAG":6.8,"id":"a66a1cfvkt86","SOURCE":"trained spotter","COUNTY":"Washington","VALID":201202031400},"type":"Feature","geometry":{"type":"Point","coordinates":[-102.81,40.21]}},{"properties":{"CITY":"Limon","TYPETEXT":"HEAVY SNOW","TYPECODE":"S","WFO":"BOU","REMARK":null,"MAG":7.0,"id":"a66a1cp4lu6h","SOURCE":"amateur radio","COUNTY":"Lincoln","VALID":201202031400},"type":"Feature","geometry":{"type":"Point","coordinates":[-103.69,39.27]}},{"properties":{"CITY":"3 Sse Morrison","TYPETEXT":"HEAVY SNOW","TYPECODE":"S","WFO":"BOU","REMARK":null,"MAG":7.3,"id":"a66a1cicfliv","SOURCE":"amateur radio","COUNTY":"Jefferson","VALID":201202031400},"type":"Feature","geometry":{"type":"Point","coordinates":[-105.16,39.61]}},{"properties":{"CITY":"Highlands Ranch","TYPETEXT":"HEAVY SNOW","TYPECODE":"S","WFO":"BOU","REMARK":null,"MAG":7.8,"id":"a66a1cilkkm1","SOURCE":"amateur radio","COUNTY":"Douglas","VALID":201202031400},"type":"Feature","geometry":{"type":"Point","coordinates":[-104.97,39.55]}},{"properties":{"CITY":"5 Sse Sedalia","TYPETEXT":"HEAVY SNOW","TYPECODE":"S","WFO":"BOU","REMARK":null,"MAG":8.0,"id":"a66a1cqamefb","SOURCE":"amateur radio","COUNTY":"Douglas","VALID":201202031400},"type":"Feature","geometry":{"type":"Point","coordinates":[-104.93,39.36]}},{"properties":{"CITY":"5 Wsw Arapahoe Park","TYPETEXT":"HEAVY SNOW","TYPECODE":"S","WFO":"BOU","REMARK":null,"MAG":9.0,"id":"a66a1cll02a2","SOURCE":"trained spotter","COUNTY":"Arapahoe","VALID":201202031400},"type":"Feature","geometry":{"type":"Point","coordinates":[-104.77,39.6]}},{"properties":{"CITY":"2 Wsw Byers","TYPETEXT":"HEAVY SNOW","TYPECODE":"S","WFO":"BOU","REMARK":null,"MAG":10.0,"id":"a66a1covajdo","SOURCE":"amateur radio","COUNTY":"Arapahoe","VALID":201202031400},"type":"Feature","geometry":{"type":"Point","coordinates":[-104.26,39.7]}},{"properties":{"CITY":"Lakewood","TYPETEXT":"HEAVY SNOW","TYPECODE":"S","WFO":"BOU","REMARK":null,"MAG":10.0,"id":"a66a1cix1o47","SOURCE":"amateur radio","COUNTY":"Jefferson","VALID":201202031400},"type":"Feature","geometry":{"type":"Point","coordinates":[-105.11,39.7]}},{"properties":{"CITY":"2 Ssw Longmont","TYPETEXT":"HEAVY SNOW","TYPECODE":"S","WFO":"BOU","REMARK":null,"MAG":11.0,"id":"a66a1clesrbg","SOURCE":"nws employee","COUNTY":"Boulder","VALID":201202031400},"type":"Feature","geometry":{"type":"Point","coordinates":[-105.13,40.15]}},{"properties":{"CITY":"2 E Elizabeth","TYPETEXT":"HEAVY SNOW","TYPECODE":"S","WFO":"BOU","REMARK":null,"MAG":12.0,"id":"a66a1cdq37wb","SOURCE":"amateur radio","COUNTY":"Elbert","VALID":201202031400},"type":"Feature","geometry":{"type":"Point","coordinates":[-104.56,39.36]}},{"properties":{"CITY":"6 N Westminster","TYPETEXT":"HEAVY SNOW","TYPECODE":"S","WFO":"BOU","REMARK":null,"MAG":12.0,"id":"a66a1cn7l0it","SOURCE":"amateur radio","COUNTY":"Broomfield","VALID":201202031400},"type":"Feature","geometry":{"type":"Point","coordinates":[-105.05,39.97]}},{"properties":{"CITY":"Englewood","TYPETEXT":"HEAVY SNOW","TYPECODE":"S","WFO":"BOU","REMARK":null,"MAG":12.0,"id":"a66a1cdygimh","SOURCE":"amateur radio","COUNTY":"Arapahoe","VALID":201202031400},"type":"Feature","geometry":{"type":"Point","coordinates":[-104.99,39.65]}},{"properties":{"CITY":"1 N Lafayette","TYPETEXT":"HEAVY SNOW","TYPECODE":"S","WFO":"BOU","REMARK":null,"MAG":13.0,"id":"a66a1caw9oog","SOURCE":"amateur radio","COUNTY":"Boulder","VALID":201202031400},"type":"Feature","geometry":{"type":"Point","coordinates":[-105.1,40.01]}},{"properties":{"CITY":"Agate","TYPETEXT":"HEAVY SNOW","TYPECODE":"S","WFO":"BOU","REMARK":null,"MAG":16.0,"id":"a66a1cq7e6qq","SOURCE":"amateur radio","COUNTY":"Elbert","VALID":201202031400},"type":"Feature","geometry":{"type":"Point","coordinates":[-103.95,39.47]}},{"properties":{"CITY":"1 Nw Nederland","TYPETEXT":"HEAVY SNOW","TYPECODE":"S","WFO":"BOU","REMARK":null,"MAG":23.0,"id":"a66a1cl9ux8y","SOURCE":"amateur radio","COUNTY":"Boulder","VALID":201202031400},"type":"Feature","geometry":{"type":"Point","coordinates":[-105.52,39.97]}},{"properties":{"CITY":"1 Wsw Broomfield","TYPETEXT":"HEAVY SNOW","TYPECODE":"S","WFO":"BOU","REMARK":null,"MAG":10.6,"id":"a66a1cdxuwyx","SOURCE":"trained spotter","COUNTY":"Broomfield","VALID":201202031404},"type":"Feature","geometry":{"type":"Point","coordinates":[-105.08,39.93]}},{"properties":{"CITY":"Nederland","TYPETEXT":"HEAVY SNOW","TYPECODE":"S","WFO":"BOU","REMARK":null,"MAG":17.0,"id":"a66a1cf47kx2","SOURCE":"trained spotter","COUNTY":"Boulder","VALID":201202031407},"type":"Feature","geometry":{"type":"Point","coordinates":[-105.5,39.96]}},{"properties":{"CITY":"3 E Highlands Ranch","TYPETEXT":"HEAVY SNOW","TYPECODE":"S","WFO":"BOU","REMARK":null,"MAG":8.0,"id":"a66a1co6l29f","SOURCE":"trained spotter","COUNTY":"Douglas","VALID":201202031408},"type":"Feature","geometry":{"type":"Point","coordinates":[-104.92,39.55]}},{"properties":{"CITY":"4 S Evergreen","TYPETEXT":"HEAVY SNOW","TYPECODE":"S","WFO":"BOU","REMARK":null,"MAG":13.1,"id":"a66a1cd765sq","SOURCE":"trained spotter","COUNTY":"Jefferson","VALID":201202031408},"type":"Feature","geometry":{"type":"Point","coordinates":[-105.34,39.58]}},{"properties":{"CITY":"8 Nnw Four Corners","TYPETEXT":"HEAVY SNOW","TYPECODE":"S","WFO":"BOU","REMARK":"waist deep drifts","MAG":17.0,"id":"a66a1cccw84a","SOURCE":"trained spotter","COUNTY":"Larimer","VALID":201202031410},"type":"Feature","geometry":{"type":"Point","coordinates":[-106.0,40.97]}},{"properties":{"CITY":"3 Sw Holyoke","TYPETEXT":"SNOW","TYPECODE":"S","WFO":"BOU","REMARK":null,"MAG":3.7,"id":"a66a1cgmo5jm","SOURCE":"trained spotter","COUNTY":"Phillips","VALID":201202031411},"type":"Feature","geometry":{"type":"Point","coordinates":[-102.34,40.55]}},{"properties":{"CITY":"4 Ese Franktown","TYPETEXT":"HEAVY SNOW","TYPECODE":"S","WFO":"BOU","REMARK":null,"MAG":9.1,"id":"a66a1cj8epnz","SOURCE":"trained spotter","COUNTY":"Douglas","VALID":201202031411},"type":"Feature","geometry":{"type":"Point","coordinates":[-104.69,39.36]}},{"properties":{"CITY":"3 W Conifer","TYPETEXT":"HEAVY SNOW","TYPECODE":"S","WFO":"BOU","REMARK":"three to four foot drifts","MAG":22.0,"id":"a66a1cems5n2","SOURCE":"trained spotter","COUNTY":"Jefferson","VALID":201202031417},"type":"Feature","geometry":{"type":"Point","coordinates":[-105.36,39.51]}},{"properties":{"CITY":"1 Sse St Marys Glacier","TYPETEXT":"HEAVY SNOW","TYPECODE":"S","WFO":"BOU","REMARK":null,"MAG":8.0,"id":"a66a1ckx77nc","SOURCE":"trained spotter","COUNTY":"Clear Creek","VALID":201202031418},"type":"Feature","geometry":{"type":"Point","coordinates":[-105.64,39.82]}},{"properties":{"CITY":"2 Wnw Penrose","TYPETEXT":"SNOW","TYPECODE":"S","WFO":"PUB","REMARK":"0.23 inches liquid","MAG":3.5,"id":"a66a1ck91izq","SOURCE":"trained spotter","COUNTY":"Fremont","VALID":201202031430},"type":"Feature","geometry":{"type":"Point","coordinates":[-105.04,38.44]}},{"properties":{"CITY":"1 Se Wellington","TYPETEXT":"HEAVY SNOW","TYPECODE":"S","WFO":"BOU","REMARK":null,"MAG":4.0,"id":"a66a1ccg1k96","SOURCE":"trained spotter","COUNTY":"Larimer","VALID":201202031430},"type":"Feature","geometry":{"type":"Point","coordinates":[-104.99,40.69]}},{"properties":{"CITY":"1 E Idaho Springs","TYPETEXT":"HEAVY SNOW","TYPECODE":"S","WFO":"BOU","REMARK":null,"MAG":8.3,"id":"a66a1ck70wmb","SOURCE":"trained spotter","COUNTY":"Clear Creek","VALID":201202031430},"type":"Feature","geometry":{"type":"Point","coordinates":[-105.49,39.74]}},{"properties":{"CITY":"5 N Englewood","TYPETEXT":"HEAVY SNOW","TYPECODE":"S","WFO":"BOU","REMARK":null,"MAG":10.1,"id":"a66a1cfmdqsz","SOURCE":"trained spotter","COUNTY":"Denver","VALID":201202031430},"type":"Feature","geometry":{"type":"Point","coordinates":[-104.99,39.73]}},{"properties":{"CITY":"1 Sw Westminster","TYPETEXT":"HEAVY SNOW","TYPECODE":"S","WFO":"BOU","REMARK":null,"MAG":12.3,"id":"a66a1chl7iv3","SOURCE":"trained spotter","COUNTY":"Jefferson","VALID":201202031430},"type":"Feature","geometry":{"type":"Point","coordinates":[-105.07,39.87]}},{"properties":{"CITY":"Genesee","TYPETEXT":"HEAVY SNOW","TYPECODE":"S","WFO":"BOU","REMARK":null,"MAG":13.0,"id":"a66a1cj4riii","SOURCE":"trained spotter","COUNTY":"Jefferson","VALID":201202031430},"type":"Feature","geometry":{"type":"Point","coordinates":[-105.27,39.69]}},{"properties":{"CITY":"4 E Pinecliffe","TYPETEXT":"HEAVY SNOW","TYPECODE":"S","WFO":"BOU","REMARK":null,"MAG":19.0,"id":"a66a1cepq1ei","SOURCE":"trained spotter","COUNTY":"Boulder","VALID":201202031430},"type":"Feature","geometry":{"type":"Point","coordinates":[-105.35,39.94]}},{"properties":{"CITY":"5 W Conifer","TYPETEXT":"HEAVY SNOW","TYPECODE":"S","WFO":"BOU","REMARK":null,"MAG":20.0,"id":"a66a1cm10oxd","SOURCE":"trained spotter","COUNTY":"Park","VALID":201202031430},"type":"Feature","geometry":{"type":"Point","coordinates":[-105.39,39.52]}},{"properties":{"CITY":"2 Wsw Rosita","TYPETEXT":"SNOW","TYPECODE":"S","WFO":"PUB","REMARK":null,"MAG":5.0,"id":"a66a1cod6g02","SOURCE":"trained spotter","COUNTY":"Custer","VALID":201202031431},"type":"Feature","geometry":{"type":"Point","coordinates":[-105.36,38.09]}},{"properties":{"CITY":"2 Ene Monument","TYPETEXT":"SNOW","TYPECODE":"S","WFO":"PUB","REMARK":null,"MAG":8.0,"id":"a66a1cpz4x27","SOURCE":"trained spotter","COUNTY":"El Paso","VALID":201202031431},"type":"Feature","geometry":{"type":"Point","coordinates":[-104.84,39.11]}},{"properties":{"CITY":"3 Nw Aurora","TYPETEXT":"HEAVY SNOW","TYPECODE":"S","WFO":"BOU","REMARK":null,"MAG":8.0,"id":"a66a1cdau705","SOURCE":"trained spotter","COUNTY":"Arapahoe","VALID":201202031431},"type":"Feature","geometry":{"type":"Point","coordinates":[-104.77,39.73]}},{"properties":{"CITY":"1 Ssw Bennett","TYPETEXT":"HEAVY SNOW","TYPECODE":"S","WFO":"BOU","REMARK":null,"MAG":6.8,"id":"a66a1ckl5mne","SOURCE":"trained spotter","COUNTY":"Adams","VALID":201202031432},"type":"Feature","geometry":{"type":"Point","coordinates":[-104.43,39.74]}},{"properties":{"CITY":"Ken Caryl","TYPETEXT":"HEAVY SNOW","TYPECODE":"S","WFO":"BOU","REMARK":null,"MAG":8.5,"id":"a66a1cjic12e","SOURCE":"trained spotter","COUNTY":"Jefferson","VALID":201202031432},"type":"Feature","geometry":{"type":"Point","coordinates":[-105.11,39.58]}},{"properties":{"CITY":"Denver","TYPETEXT":"HEAVY SNOW","TYPECODE":"S","WFO":"BOU","REMARK":null,"MAG":10.5,"id":"a66a1cdeb6rb","SOURCE":"trained spotter","COUNTY":"Denver","VALID":201202031432},"type":"Feature","geometry":{"type":"Point","coordinates":[-104.87,39.77]}},{"properties":{"CITY":"2 Nw Strasburg","TYPETEXT":"HEAVY SNOW","TYPECODE":"S","WFO":"BOU","REMARK":"snow drifts 2-3 feet.","MAG":14.0,"id":"a66a1clanyqb","SOURCE":"trained spotter","COUNTY":"Adams","VALID":201202031443},"type":"Feature","geometry":{"type":"Point","coordinates":[-104.33,39.76]}},{"properties":{"CITY":"1 Ese Wheat Ridge","TYPETEXT":"HEAVY SNOW","TYPECODE":"S","WFO":"BOU","REMARK":null,"MAG":10.3,"id":"a66a1cg4jxh9","SOURCE":"trained spotter","COUNTY":"Jefferson","VALID":201202031444},"type":"Feature","geometry":{"type":"Point","coordinates":[-105.07,39.77]}},{"properties":{"CITY":"1 Nw Louviers","TYPETEXT":"HEAVY SNOW","TYPECODE":"S","WFO":"BOU","REMARK":null,"MAG":10.0,"id":"a66a1ck37t7t","SOURCE":"trained spotter","COUNTY":"Douglas","VALID":201202031445},"type":"Feature","geometry":{"type":"Point","coordinates":[-105.01,39.48]}},{"properties":{"CITY":"Evergreen","TYPETEXT":"HEAVY SNOW","TYPECODE":"S","WFO":"BOU","REMARK":null,"MAG":14.8,"id":"a66a1cqe923y","SOURCE":"trained spotter","COUNTY":"Jefferson","VALID":201202031445},"type":"Feature","geometry":{"type":"Point","coordinates":[-105.34,39.63]}},{"properties":{"CITY":"2 Ssw Sterling","TYPETEXT":"SNOW","TYPECODE":"S","WFO":"BOU","REMARK":"drifting up to 1 foot...north winds estimated 20-25 mph.","MAG":3.0,"id":"a66a1cm3vv72","SOURCE":"trained spotter","COUNTY":"Logan","VALID":201202031450},"type":"Feature","geometry":{"type":"Point","coordinates":[-103.22,40.62]}},{"properties":{"CITY":"3 Nne Bailey","TYPETEXT":"SNOW","TYPECODE":"S","WFO":"BOU","REMARK":null,"MAG":3.5,"id":"a66a1cfexn5i","SOURCE":"trained spotter","COUNTY":"Park","VALID":201202031450},"type":"Feature","geometry":{"type":"Point","coordinates":[-105.44,39.43]}},{"properties":{"CITY":"2 Wsw Rosita","TYPETEXT":"SNOW","TYPECODE":"S","WFO":"PUB","REMARK":null,"MAG":5.0,"id":"a66a1cfi2rbe","SOURCE":"trained spotter","COUNTY":"Custer","VALID":201202031450},"type":"Feature","geometry":{"type":"Point","coordinates":[-105.36,38.09]}},{"properties":{"CITY":"Woodland Park","TYPETEXT":"SNOW","TYPECODE":"S","WFO":"PUB","REMARK":null,"MAG":6.0,"id":"a66a1ccgdbxk","SOURCE":"trained spotter","COUNTY":"Teller","VALID":201202031450},"type":"Feature","geometry":{"type":"Point","coordinates":[-105.05,38.99]}},{"properties":{"CITY":"5 Nw Thurman","TYPETEXT":"HEAVY SNOW","TYPECODE":"S","WFO":"BOU","REMARK":null,"MAG":7.0,"id":"a66a1cfb6gmf","SOURCE":"emergency mngr","COUNTY":"Washington","VALID":201202031450},"type":"Feature","geometry":{"type":"Point","coordinates":[-103.28,39.65]}},{"properties":{"CITY":"1 S Beulah","TYPETEXT":"SNOW","TYPECODE":"S","WFO":"PUB","REMARK":null,"MAG":5.8,"id":"a66a1cnicrjn","SOURCE":"trained spotter","COUNTY":"Pueblo","VALID":201202031454},"type":"Feature","geometry":{"type":"Point","coordinates":[-104.98,38.07]}},{"properties":{"CITY":"1 W Farisita","TYPETEXT":"SNOW","TYPECODE":"S","WFO":"PUB","REMARK":null,"MAG":4.0,"id":"a66a1cir74ca","SOURCE":"trained spotter","COUNTY":"Huerfano","VALID":201202031455},"type":"Feature","geometry":{"type":"Point","coordinates":[-105.1,37.75]}},{"properties":{"CITY":"1 Sw Evergreen","TYPETEXT":"HEAVY SNOW","TYPECODE":"S","WFO":"BOU","REMARK":"vis 1/4 mile, wind 5-10 mph","MAG":18.0,"id":"a66a1cisjwlw","SOURCE":"trained spotter","COUNTY":"Jefferson","VALID":201202031455},"type":"Feature","geometry":{"type":"Point","coordinates":[-105.36,39.62]}},{"properties":{"CITY":"8 N Woodland Park","TYPETEXT":"SNOW","TYPECODE":"S","WFO":"PUB","REMARK":null,"MAG":14.0,"id":"a66a1carf3mz","SOURCE":"trained spotter","COUNTY":"Teller","VALID":201202031459},"type":"Feature","geometry":{"type":"Point","coordinates":[-105.08,39.11]}},{"properties":{"CITY":"Joes","TYPETEXT":"SNOW","TYPECODE":"S","WFO":"GLD","REMARK":null,"MAG":3.0,"id":"a66a1ckz0r5y","SOURCE":"co-op observer","COUNTY":"Yuma","VALID":201202031500},"type":"Feature","geometry":{"type":"Point","coordinates":[-102.68,39.65]}},{"properties":{"CITY":"7 E Virginia Dale","TYPETEXT":"HEAVY SNOW","TYPECODE":"S","WFO":"BOU","REMARK":null,"MAG":5.4,"id":"a66a1cealiyb","SOURCE":"trained spotter","COUNTY":"Larimer","VALID":201202031500},"type":"Feature","geometry":{"type":"Point","coordinates":[-105.22,40.97]}},{"properties":{"CITY":"1 S Aurora","TYPETEXT":"HEAVY SNOW","TYPECODE":"S","WFO":"BOU","REMARK":null,"MAG":9.0,"id":"a66a1cqd6rkj","SOURCE":"nws employee","COUNTY":"Arapahoe","VALID":201202031500},"type":"Feature","geometry":{"type":"Point","coordinates":[-104.73,39.68]}},{"properties":{"CITY":"3 Nne Northglenn","TYPETEXT":"HEAVY SNOW","TYPECODE":"S","WFO":"BOU","REMARK":null,"MAG":10.0,"id":"a66a1ci8jj7h","SOURCE":"nws employee","COUNTY":"Adams","VALID":201202031500},"type":"Feature","geometry":{"type":"Point","coordinates":[-104.95,39.94]}},{"properties":{"CITY":"1 E Buckhorn Mountain","TYPETEXT":"HEAVY SNOW","TYPECODE":"S","WFO":"BOU","REMARK":null,"MAG":27.0,"id":"a66a1cmqyefv","SOURCE":"trained spotter","COUNTY":"Larimer","VALID":201202031500},"type":"Feature","geometry":{"type":"Point","coordinates":[-105.3,40.62]}},{"properties":{"CITY":"3 N Black Hawk","TYPETEXT":"HEAVY SNOW","TYPECODE":"S","WFO":"BOU","REMARK":null,"MAG":28.5,"id":"a66a1clfg5ri","SOURCE":"trained spotter","COUNTY":"Gilpin","VALID":201202031500},"type":"Feature","geometry":{"type":"Point","coordinates":[-105.49,39.84]}},{"properties":{"CITY":"4 Nw Elizabeth","TYPETEXT":"HEAVY SNOW","TYPECODE":"S","WFO":"BOU","REMARK":null,"MAG":9.0,"id":"a66a1cd2nu2o","SOURCE":"trained spotter","COUNTY":"Douglas","VALID":201202031502},"type":"Feature","geometry":{"type":"Point","coordinates":[-104.65,39.4]}},{"properties":{"CITY":"Highlands Ranch","TYPETEXT":"HEAVY SNOW","TYPECODE":"S","WFO":"BOU","REMARK":null,"MAG":9.0,"id":"a66a1cl4b8lk","SOURCE":"trained spotter","COUNTY":"Douglas","VALID":201202031502},"type":"Feature","geometry":{"type":"Point","coordinates":[-104.97,39.55]}},{"properties":{"CITY":"4 Nnw Peyton","TYPETEXT":"SNOW","TYPECODE":"S","WFO":"PUB","REMARK":"drifts from two to three feet.","MAG":7.0,"id":"a66a1cn99j6y","SOURCE":"trained spotter","COUNTY":"El Paso","VALID":201202031504},"type":"Feature","geometry":{"type":"Point","coordinates":[-104.51,39.09]}},{"properties":{"CITY":"1 W Calhan","TYPETEXT":"SNOW","TYPECODE":"S","WFO":"PUB","REMARK":"snow drifts up to three feet.","MAG":17.0,"id":"a66a1cq57sr4","SOURCE":"trained spotter","COUNTY":"El Paso","VALID":201202031509},"type":"Feature","geometry":{"type":"Point","coordinates":[-104.31,39.03]}},{"properties":{"CITY":"4 Nnw Castle Rock","TYPETEXT":"HEAVY SNOW","TYPECODE":"S","WFO":"BOU","REMARK":null,"MAG":8.3,"id":"a66a1cofb6n7","SOURCE":"trained spotter","COUNTY":"Douglas","VALID":201202031510},"type":"Feature","geometry":{"type":"Point","coordinates":[-104.88,39.43]}},{"properties":{"CITY":"2 Wsw Broomfield","TYPETEXT":"HEAVY SNOW","TYPECODE":"S","WFO":"BOU","REMARK":null,"MAG":12.5,"id":"a66a1cl1olww","SOURCE":"trained spotter","COUNTY":"Broomfield","VALID":201202031510},"type":"Feature","geometry":{"type":"Point","coordinates":[-105.09,39.93]}},{"properties":{"CITY":"Genesee","TYPETEXT":"HEAVY SNOW","TYPECODE":"S","WFO":"BOU","REMARK":null,"MAG":14.5,"id":"a66a1cq2n135","SOURCE":"trained spotter","COUNTY":"Jefferson","VALID":201202031510},"type":"Feature","geometry":{"type":"Point","coordinates":[-105.27,39.69]}},{"properties":{"CITY":"3 Wsw Conifer","TYPETEXT":"HEAVY SNOW","TYPECODE":"S","WFO":"BOU","REMARK":null,"MAG":24.0,"id":"a66a1cd9a07m","SOURCE":"trained spotter","COUNTY":"Jefferson","VALID":201202031518},"type":"Feature","geometry":{"type":"Point","coordinates":[-105.36,39.5]}},{"properties":{"CITY":"1 Wsw Broomfield","TYPETEXT":"HEAVY SNOW","TYPECODE":"S","WFO":"BOU","REMARK":"nws employee","MAG":12.0,"id":"a66a1cp87ucg","SOURCE":"trained spotter","COUNTY":"Broomfield","VALID":201202031520},"type":"Feature","geometry":{"type":"Point","coordinates":[-105.08,39.93]}},{"properties":{"CITY":"Manila","TYPETEXT":"SNOW","TYPECODE":"S","WFO":"GJT","REMARK":"still snowing heavily in manila.","MAG":8.0,"id":"a66a1cpl4yxb","SOURCE":"trained spotter","COUNTY":"Daggett","VALID":201202031521},"type":"Feature","geometry":{"type":"Point","coordinates":[-109.72,40.99]}},{"properties":{"CITY":"1 Se Glendale","TYPETEXT":"HEAVY SNOW","TYPECODE":"S","WFO":"BOU","REMARK":null,"MAG":6.9,"id":"a66a1cqg0cgm","SOURCE":"trained spotter","COUNTY":"Denver","VALID":201202031526},"type":"Feature","geometry":{"type":"Point","coordinates":[-104.92,39.69]}},{"properties":{"CITY":"1 Nnw Erie","TYPETEXT":"HEAVY SNOW","TYPECODE":"S","WFO":"BOU","REMARK":null,"MAG":12.0,"id":"a66a1cgtqyef","SOURCE":"trained spotter","COUNTY":"Boulder","VALID":201202031526},"type":"Feature","geometry":{"type":"Point","coordinates":[-105.05,40.04]}},{"properties":{"CITY":"2 Sw Loveland","TYPETEXT":"HEAVY SNOW","TYPECODE":"S","WFO":"BOU","REMARK":null,"MAG":9.5,"id":"a66a1ca5usjr","SOURCE":"trained spotter","COUNTY":"Larimer","VALID":201202031528},"type":"Feature","geometry":{"type":"Point","coordinates":[-105.09,40.4]}},{"properties":{"CITY":"1 N Clarkville","TYPETEXT":"SNOW","TYPECODE":"S","WFO":"GLD","REMARK":null,"MAG":3.5,"id":"a66a1cowixbi","SOURCE":"co-op observer","COUNTY":"Yuma","VALID":201202031530},"type":"Feature","geometry":{"type":"Point","coordinates":[-102.62,40.39]}},{"properties":{"CITY":"Stratton","TYPETEXT":"SNOW","TYPECODE":"S","WFO":"GLD","REMARK":null,"MAG":4.0,"id":"a66a1clqmwgv","SOURCE":"amateur radio","COUNTY":"Kit Carson","VALID":201202031530},"type":"Feature","geometry":{"type":"Point","coordinates":[-102.6,39.3]}},{"properties":{"CITY":"2 Sse Woodlin School","TYPETEXT":"HEAVY SNOW","TYPECODE":"S","WFO":"BOU","REMARK":null,"MAG":6.5,"id":"a66a1chggq9m","SOURCE":"trained spotter","COUNTY":"Washington","VALID":201202031530},"type":"Feature","geometry":{"type":"Point","coordinates":[-103.5,39.76]}},{"properties":{"CITY":"N Longmont","TYPETEXT":"HEAVY SNOW","TYPECODE":"S","WFO":"BOU","REMARK":null,"MAG":11.5,"id":"a66a1cld9jur","SOURCE":"trained spotter","COUNTY":"Boulder","VALID":201202031530},"type":"Feature","geometry":{"type":"Point","coordinates":[-105.11,40.17]}},{"properties":{"CITY":"Evergreen","TYPETEXT":"HEAVY SNOW","TYPECODE":"S","WFO":"BOU","REMARK":null,"MAG":15.0,"id":"a66a1cbj6zp2","SOURCE":"trained spotter","COUNTY":"Jefferson","VALID":201202031530},"type":"Feature","geometry":{"type":"Point","coordinates":[-105.34,39.63]}},{"properties":{"CITY":"2 S Allenspark","TYPETEXT":"HEAVY SNOW","TYPECODE":"S","WFO":"BOU","REMARK":null,"MAG":11.0,"id":"a66a1cfo6wzw","SOURCE":"trained spotter","COUNTY":"Boulder","VALID":201202031536},"type":"Feature","geometry":{"type":"Point","coordinates":[-105.53,40.18]}},{"properties":{"CITY":"9 Ne Ponderosa Park","TYPETEXT":"HEAVY SNOW","TYPECODE":"S","WFO":"BOU","REMARK":null,"MAG":14.5,"id":"a66a1chd53a1","SOURCE":"trained spotter","COUNTY":"Elbert","VALID":201202031536},"type":"Feature","geometry":{"type":"Point","coordinates":[-104.53,39.5]}},{"properties":{"CITY":"3 Se Del Norte","TYPETEXT":"SNOW","TYPECODE":"S","WFO":"PUB","REMARK":"since 7 pm.","MAG":7.0,"id":"a66a1clhrlj0","SOURCE":"trained spotter","COUNTY":"Rio Grande","VALID":201202031547},"type":"Feature","geometry":{"type":"Point","coordinates":[-106.31,37.65]}},{"properties":{"CITY":"Fort Collins","TYPETEXT":"HEAVY SNOW","TYPECODE":"S","WFO":"BOU","REMARK":null,"MAG":6.0,"id":"a66a1cbpgz6i","SOURCE":"trained spotter","COUNTY":"Larimer","VALID":201202031600},"type":"Feature","geometry":{"type":"Point","coordinates":[-105.07,40.56]}},{"properties":{"CITY":"Nw Castle Rock","TYPETEXT":"HEAVY SNOW","TYPECODE":"S","WFO":"BOU","REMARK":null,"MAG":9.0,"id":"a66a1cga107m","SOURCE":"trained spotter","COUNTY":"Douglas","VALID":201202031600},"type":"Feature","geometry":{"type":"Point","coordinates":[-104.85,39.38]}},{"properties":{"CITY":"5 Ssw Arapahoe Park","TYPETEXT":"HEAVY SNOW","TYPECODE":"S","WFO":"BOU","REMARK":null,"MAG":13.9,"id":"a66a1cal7v6o","SOURCE":"trained spotter","COUNTY":"Arapahoe","VALID":201202031600},"type":"Feature","geometry":{"type":"Point","coordinates":[-104.72,39.57]}},{"properties":{"CITY":"2 S Tiny Town","TYPETEXT":"HEAVY SNOW","TYPECODE":"S","WFO":"BOU","REMARK":null,"MAG":14.0,"id":"a66a1cnzmj41","SOURCE":"trained spotter","COUNTY":"Jefferson","VALID":201202031600},"type":"Feature","geometry":{"type":"Point","coordinates":[-105.22,39.57]}},{"properties":{"CITY":"3 N Conifer","TYPETEXT":"HEAVY SNOW","TYPECODE":"S","WFO":"BOU","REMARK":null,"MAG":17.1,"id":"a66a1cjlt2i4","SOURCE":"trained spotter","COUNTY":"Jefferson","VALID":201202031600},"type":"Feature","geometry":{"type":"Point","coordinates":[-105.31,39.57]}},{"properties":{"CITY":"2 Ene Monument","TYPETEXT":"SNOW","TYPECODE":"S","WFO":"PUB","REMARK":"since 330 pm yesterday. most snow fell after 9 pm.","MAG":9.5,"id":"a66a1cjj46vo","SOURCE":"trained spotter","COUNTY":"El Paso","VALID":201202031604},"type":"Feature","geometry":{"type":"Point","coordinates":[-104.84,39.11]}},{"properties":{"CITY":"1 Sw Rye","TYPETEXT":"HEAVY SNOW","TYPECODE":"S","WFO":"PUB","REMARK":"0.31 liquid. began yesterday afternoon.","MAG":5.8,"id":"a66a1ci8c01d","SOURCE":"nws employee","COUNTY":"Pueblo","VALID":201202031608},"type":"Feature","geometry":{"type":"Point","coordinates":[-104.94,37.91]}},{"properties":{"CITY":"Molas Pass","TYPETEXT":"SNOW","TYPECODE":"S","WFO":"GJT","REMARK":"24hr snowfall","MAG":4.0,"id":"a66a1cp4z2t9","SOURCE":"dept of highways","COUNTY":"San Juan","VALID":201202031610},"type":"Feature","geometry":{"type":"Point","coordinates":[-107.7,37.73]}},{"properties":{"CITY":"Coal Bank Pass","TYPETEXT":"SNOW","TYPECODE":"S","WFO":"GJT","REMARK":"24hr snowfall","MAG":6.0,"id":"a66a1cqhdpck","SOURCE":"dept of highways","COUNTY":"San Juan","VALID":201202031610},"type":"Feature","geometry":{"type":"Point","coordinates":[-107.78,37.7]}},{"properties":{"CITY":"Red Mountain Pass","TYPETEXT":"SNOW","TYPECODE":"S","WFO":"GJT","REMARK":"24hr snowfall","MAG":6.0,"id":"a66a1cedstzr","SOURCE":"dept of highways","COUNTY":"Ouray","VALID":201202031610},"type":"Feature","geometry":{"type":"Point","coordinates":[-107.7,37.9]}},{"properties":{"CITY":"Monument (Highway 550)","TYPETEXT":"SNOW","TYPECODE":"S","WFO":"GJT","REMARK":"24hr snowfall","MAG":8.0,"id":"a66a1cpbzhyi","SOURCE":"dept of highways","COUNTY":"Ouray","VALID":201202031610},"type":"Feature","geometry":{"type":"Point","coordinates":[-107.66,37.97]}},{"properties":{"CITY":"2 Ne Greenwood Village","TYPETEXT":"HEAVY SNOW","TYPECODE":"S","WFO":"BOU","REMARK":null,"MAG":10.5,"id":"a66a1cdq1r66","SOURCE":"trained spotter","COUNTY":"Denver","VALID":201202031614},"type":"Feature","geometry":{"type":"Point","coordinates":[-104.89,39.64]}},{"properties":{"CITY":"6 Ssw Calhan","TYPETEXT":"SNOW","TYPECODE":"S","WFO":"PUB","REMARK":"drifts of 2 to 3 feet. 1.03 inches of water equivalent. began yesterday afternoon.","MAG":11.2,"id":"a66a1ce0kc1g","SOURCE":"trained spotter","COUNTY":"El Paso","VALID":201202031623},"type":"Feature","geometry":{"type":"Point","coordinates":[-104.34,38.95]}},{"properties":{"CITY":"6 Sw Evergreen","TYPETEXT":"HEAVY SNOW","TYPECODE":"S","WFO":"BOU","REMARK":null,"MAG":19.0,"id":"a66a1cccz8pl","SOURCE":"trained spotter","COUNTY":"Clear Creek","VALID":201202031623},"type":"Feature","geometry":{"type":"Point","coordinates":[-105.42,39.57]}},{"properties":{"CITY":"7 Ssw Masonville","TYPETEXT":"HEAVY SNOW","TYPECODE":"S","WFO":"BOU","REMARK":null,"MAG":20.3,"id":"a66a1cf5no51","SOURCE":"trained spotter","COUNTY":"Larimer","VALID":201202031623},"type":"Feature","geometry":{"type":"Point","coordinates":[-105.25,40.39]}},{"properties":{"CITY":"Morrison","TYPETEXT":"HEAVY SNOW","TYPECODE":"S","WFO":"BOU","REMARK":null,"MAG":16.3,"id":"a66a1cpfl6xv","SOURCE":"trained spotter","COUNTY":"Jefferson","VALID":201202031630},"type":"Feature","geometry":{"type":"Point","coordinates":[-105.18,39.65]}},{"properties":{"CITY":"2 Ene Bergen Park","TYPETEXT":"HEAVY SNOW","TYPECODE":"S","WFO":"BOU","REMARK":null,"MAG":10.0,"id":"a66a1ch2nxbg","SOURCE":"trained spotter","COUNTY":"Jefferson","VALID":201202031634},"type":"Feature","geometry":{"type":"Point","coordinates":[-105.32,39.71]}},{"properties":{"CITY":"2 W Westminster","TYPETEXT":"HEAVY SNOW","TYPECODE":"S","WFO":"BOU","REMARK":null,"MAG":13.0,"id":"a66a1cfpfv1h","SOURCE":"trained spotter","COUNTY":"Jefferson","VALID":201202031634},"type":"Feature","geometry":{"type":"Point","coordinates":[-105.09,39.88]}},{"properties":{"CITY":"Erie","TYPETEXT":"HEAVY SNOW","TYPECODE":"S","WFO":"BOU","REMARK":null,"MAG":14.0,"id":"a66a1cpokelx","SOURCE":"trained spotter","COUNTY":"Weld","VALID":201202031634},"type":"Feature","geometry":{"type":"Point","coordinates":[-105.05,40.03]}},{"properties":{"CITY":"N Fairplay","TYPETEXT":"SNOW","TYPECODE":"S","WFO":"BOU","REMARK":null,"MAG":2.0,"id":"a66a1cj9xxz4","SOURCE":"trained spotter","COUNTY":"Park","VALID":201202031636},"type":"Feature","geometry":{"type":"Point","coordinates":[-106.0,39.23]}},{"properties":{"CITY":"5 Se Franktown","TYPETEXT":"HEAVY SNOW","TYPECODE":"S","WFO":"BOU","REMARK":null,"MAG":10.5,"id":"a66a1cp0klam","SOURCE":"trained spotter","COUNTY":"Douglas","VALID":201202031636},"type":"Feature","geometry":{"type":"Point","coordinates":[-104.68,39.33]}},{"properties":{"CITY":"4 E Pinecliffe","TYPETEXT":"HEAVY SNOW","TYPECODE":"S","WFO":"BOU","REMARK":null,"MAG":26.0,"id":"a66a1co9053w","SOURCE":"trained spotter","COUNTY":"Boulder","VALID":201202031636},"type":"Feature","geometry":{"type":"Point","coordinates":[-105.35,39.93]}},{"properties":{"CITY":"4 Sse Pinecliffe","TYPETEXT":"HEAVY SNOW","TYPECODE":"S","WFO":"BOU","REMARK":null,"MAG":26.0,"id":"a66a1cpl8ev7","SOURCE":"trained spotter","COUNTY":"Gilpin","VALID":201202031636},"type":"Feature","geometry":{"type":"Point","coordinates":[-105.39,39.88]}},{"properties":{"CITY":"3 W Jamestown","TYPETEXT":"HEAVY SNOW","TYPECODE":"S","WFO":"BOU","REMARK":null,"MAG":31.0,"id":"a66a1cetweho","SOURCE":"trained spotter","COUNTY":"Boulder","VALID":201202031636},"type":"Feature","geometry":{"type":"Point","coordinates":[-105.44,40.11]}},{"properties":{"CITY":"Wnw Simla","TYPETEXT":"HEAVY SNOW","TYPECODE":"S","WFO":"BOU","REMARK":null,"MAG":15.0,"id":"a66a1chj3byc","SOURCE":"trained spotter","COUNTY":"Elbert","VALID":201202031657},"type":"Feature","geometry":{"type":"Point","coordinates":[-104.09,39.14]}},{"properties":{"CITY":"Nw Denver","TYPETEXT":"HEAVY SNOW","TYPECODE":"S","WFO":"BOU","REMARK":null,"MAG":9.0,"id":"a66a1ciy9yuv","SOURCE":"nws employee","COUNTY":"Denver","VALID":201202031658},"type":"Feature","geometry":{"type":"Point","coordinates":[-104.87,39.77]}},{"properties":{"CITY":"1 S Greeley","TYPETEXT":"HEAVY SNOW","TYPECODE":"S","WFO":"BOU","REMARK":null,"MAG":4.0,"id":"a66a1cg4ueky","SOURCE":"trained spotter","COUNTY":"Weld","VALID":201202031700},"type":"Feature","geometry":{"type":"Point","coordinates":[-104.75,40.4]}},{"properties":{"CITY":"4 W Ellicott","TYPETEXT":"SNOW","TYPECODE":"S","WFO":"PUB","REMARK":"snow drifts up to 4 feet deep. 0.21 inches liquid.","MAG":6.0,"id":"a66a1ch0eifn","SOURCE":"trained spotter","COUNTY":"El Paso","VALID":201202031700},"type":"Feature","geometry":{"type":"Point","coordinates":[-104.46,38.84]}},{"properties":{"CITY":"2 Ne Thornton","TYPETEXT":"HEAVY SNOW","TYPECODE":"S","WFO":"BOU","REMARK":null,"MAG":9.5,"id":"a66a1cany2nf","SOURCE":"trained spotter","COUNTY":"Adams","VALID":201202031700},"type":"Feature","geometry":{"type":"Point","coordinates":[-104.93,39.91]}},{"properties":{"CITY":"2 Nne Littleton","TYPETEXT":"HEAVY SNOW","TYPECODE":"S","WFO":"BOU","REMARK":null,"MAG":12.6,"id":"a66a1ccytbmq","SOURCE":"trained spotter","COUNTY":"Arapahoe","VALID":201202031700},"type":"Feature","geometry":{"type":"Point","coordinates":[-105.0,39.62]}},{"properties":{"CITY":"5 Wsw Walsenburg","TYPETEXT":"SNOW","TYPECODE":"S","WFO":"PUB","REMARK":"snow began thursday night.","MAG":3.0,"id":"a66a1clqtzsg","SOURCE":"trained spotter","COUNTY":"Huerfano","VALID":201202031707},"type":"Feature","geometry":{"type":"Point","coordinates":[-104.87,37.59]}},{"properties":{"CITY":"1 Nne Colorado Springs","TYPETEXT":"SNOW","TYPECODE":"S","WFO":"PUB","REMARK":"since 3pm thursday at the uccs campus.","MAG":2.5,"id":"a66a1cde5qyg","SOURCE":"emergency mngr","COUNTY":"El Paso","VALID":201202031716},"type":"Feature","geometry":{"type":"Point","coordinates":[-104.81,38.85]}},{"properties":{"CITY":"2 N Black Forest","TYPETEXT":"SNOW","TYPECODE":"S","WFO":"PUB","REMARK":"started yesterday around 3 pm.","MAG":7.5,"id":"a66a1cfxkdwq","SOURCE":"trained spotter","COUNTY":"El Paso","VALID":201202031720},"type":"Feature","geometry":{"type":"Point","coordinates":[-104.71,39.05]}},{"properties":{"CITY":"3 S Estes Park","TYPETEXT":"HEAVY SNOW","TYPECODE":"S","WFO":"BOU","REMARK":null,"MAG":10.4,"id":"a66a1ce7tosh","SOURCE":"trained spotter","COUNTY":"Larimer","VALID":201202031720},"type":"Feature","geometry":{"type":"Point","coordinates":[-105.52,40.33]}},{"properties":{"CITY":"1 W Northglenn","TYPETEXT":"HEAVY SNOW","TYPECODE":"S","WFO":"BOU","REMARK":null,"MAG":13.0,"id":"a66a1cndpp9w","SOURCE":"trained spotter","COUNTY":"Adams","VALID":201202031720},"type":"Feature","geometry":{"type":"Point","coordinates":[-104.99,39.91]}},{"properties":{"CITY":"7 N Glen Haven","TYPETEXT":"HEAVY SNOW","TYPECODE":"S","WFO":"BOU","REMARK":null,"MAG":13.1,"id":"a66a1cj6wvpt","SOURCE":"trained spotter","COUNTY":"Larimer","VALID":201202031720},"type":"Feature","geometry":{"type":"Point","coordinates":[-105.44,40.55]}},{"properties":{"CITY":"Genesee","TYPETEXT":"HEAVY SNOW","TYPECODE":"S","WFO":"BOU","REMARK":null,"MAG":17.4,"id":"a66a1cmwg7bq","SOURCE":"trained spotter","COUNTY":"Jefferson","VALID":201202031720},"type":"Feature","geometry":{"type":"Point","coordinates":[-105.27,39.69]}},{"properties":{"CITY":"Sherrelwood","TYPETEXT":"HEAVY SNOW","TYPECODE":"S","WFO":"BOU","REMARK":null,"MAG":7.5,"id":"a66a1cakgs4s","SOURCE":"broadcast media","COUNTY":"Adams","VALID":201202031730},"type":"Feature","geometry":{"type":"Point","coordinates":[-105.0,39.84]}},{"properties":{"CITY":"4 Sse Pinecliffe","TYPETEXT":"HEAVY SNOW","TYPECODE":"S","WFO":"BOU","REMARK":"coal creek canyon","MAG":34.5,"id":"a66a1cpik2yb","SOURCE":"trained spotter","COUNTY":"Gilpin","VALID":201202031742},"type":"Feature","geometry":{"type":"Point","coordinates":[-105.39,39.88]}},{"properties":{"CITY":"1 Nne Walsenburg","TYPETEXT":"SNOW","TYPECODE":"S","WFO":"PUB","REMARK":null,"MAG":3.0,"id":"a66a1ciyo4pj","SOURCE":"trained spotter","COUNTY":"Huerfano","VALID":201202031746},"type":"Feature","geometry":{"type":"Point","coordinates":[-104.78,37.63]}},{"properties":{"CITY":"14 Sse Schriever Afb","TYPETEXT":"SNOW","TYPECODE":"S","WFO":"PUB","REMARK":"started around noon yesterday.","MAG":4.0,"id":"a66a1cfs2n5t","SOURCE":"trained spotter","COUNTY":"El Paso","VALID":201202031748},"type":"Feature","geometry":{"type":"Point","coordinates":[-104.41,38.61]}},{"properties":{"CITY":"Conifer","TYPETEXT":"HEAVY SNOW","TYPECODE":"S","WFO":"BOU","REMARK":null,"MAG":27.0,"id":"a66a1ceuzb0k","SOURCE":"broadcast media","COUNTY":"Jefferson","VALID":201202031750},"type":"Feature","geometry":{"type":"Point","coordinates":[-105.3,39.52]}},{"properties":{"CITY":"1 Ssw Lafayette","TYPETEXT":"HEAVY SNOW","TYPECODE":"S","WFO":"BOU","REMARK":null,"MAG":12.0,"id":"a66a1cj7tis2","SOURCE":"trained spotter","COUNTY":"Boulder","VALID":201202031752},"type":"Feature","geometry":{"type":"Point","coordinates":[-105.1,39.99]}},{"properties":{"CITY":"3 Sse Boulder","TYPETEXT":"HEAVY SNOW","TYPECODE":"S","WFO":"BOU","REMARK":null,"MAG":16.3,"id":"a66a1co475yd","SOURCE":"trained spotter","COUNTY":"Boulder","VALID":201202031752},"type":"Feature","geometry":{"type":"Point","coordinates":[-105.23,39.99]}},{"properties":{"CITY":"3 W Conifer","TYPETEXT":"HEAVY SNOW","TYPECODE":"S","WFO":"BOU","REMARK":null,"MAG":28.0,"id":"a66a1cjpjnh2","SOURCE":"trained spotter","COUNTY":"Jefferson","VALID":201202031752},"type":"Feature","geometry":{"type":"Point","coordinates":[-105.36,39.51]}},{"properties":{"CITY":"Stratton","TYPETEXT":"SNOW","TYPECODE":"S","WFO":"GLD","REMARK":"storm total so far","MAG":5.0,"id":"a66a1cgfos1x","SOURCE":"amateur radio","COUNTY":"Kit Carson","VALID":201202031800},"type":"Feature","geometry":{"type":"Point","coordinates":[-102.6,39.3]}},{"properties":{"CITY":"Yuma","TYPETEXT":"SNOW","TYPECODE":"S","WFO":"GLD","REMARK":null,"MAG":5.0,"id":"a66a1chg2qz9","SOURCE":"law enforcement","COUNTY":"Yuma","VALID":201202031800},"type":"Feature","geometry":{"type":"Point","coordinates":[-102.72,40.12]}},{"properties":{"CITY":"2 Nw Frederick","TYPETEXT":"HEAVY SNOW","TYPECODE":"S","WFO":"BOU","REMARK":null,"MAG":8.5,"id":"a66a1cpv4blh","SOURCE":"trained spotter","COUNTY":"Weld","VALID":201202031800},"type":"Feature","geometry":{"type":"Point","coordinates":[-104.96,40.12]}},{"properties":{"CITY":"Loveland","TYPETEXT":"HEAVY SNOW","TYPECODE":"S","WFO":"BOU","REMARK":null,"MAG":9.0,"id":"a66a1cny0zbb","SOURCE":"trained spotter","COUNTY":"Larimer","VALID":201202031800},"type":"Feature","geometry":{"type":"Point","coordinates":[-105.07,40.42]}},{"properties":{"CITY":"3 N Black Hawk","TYPETEXT":"HEAVY SNOW","TYPECODE":"S","WFO":"BOU","REMARK":null,"MAG":48.0,"id":"a66a1cg4yr4s","SOURCE":"broadcast media","COUNTY":"Gilpin","VALID":201202031800},"type":"Feature","geometry":{"type":"Point","coordinates":[-105.49,39.84]}},{"properties":{"CITY":"N Rosita","TYPETEXT":"SNOW","TYPECODE":"S","WFO":"PUB","REMARK":"fell in past 24 hours.","MAG":6.0,"id":"a66a1cnublha","SOURCE":"trained spotter","COUNTY":"Custer","VALID":201202031814},"type":"Feature","geometry":{"type":"Point","coordinates":[-105.33,38.1]}},{"properties":{"CITY":"Rosita","TYPETEXT":"SNOW","TYPECODE":"S","WFO":"PUB","REMARK":"fell in past 24 hours.","MAG":6.0,"id":"a66a1cq2zwmv","SOURCE":"trained spotter","COUNTY":"Custer","VALID":201202031814},"type":"Feature","geometry":{"type":"Point","coordinates":[-105.33,38.1]}},{"properties":{"CITY":"Flagler","TYPETEXT":"HEAVY SNOW","TYPECODE":"S","WFO":"GLD","REMARK":null,"MAG":6.0,"id":"a66a1cgl9k24","SOURCE":"trained spotter","COUNTY":"Kit Carson","VALID":201202031819},"type":"Feature","geometry":{"type":"Point","coordinates":[-103.07,39.29]}},{"properties":{"CITY":"4 Nw Elizabeth","TYPETEXT":"HEAVY SNOW","TYPECODE":"S","WFO":"BOU","REMARK":null,"MAG":11.0,"id":"a66a1ca69mhi","SOURCE":"trained spotter","COUNTY":"Douglas","VALID":201202031820},"type":"Feature","geometry":{"type":"Point","coordinates":[-104.65,39.4]}},{"properties":{"CITY":"4 Wsw Eldorado Springs","TYPETEXT":"HEAVY SNOW","TYPECODE":"S","WFO":"BOU","REMARK":null,"MAG":20.0,"id":"a66a1cg7a6b2","SOURCE":"trained spotter","COUNTY":"Jefferson","VALID":201202031820},"type":"Feature","geometry":{"type":"Point","coordinates":[-105.34,39.91]}},{"properties":{"CITY":"2 Sse Boulder","TYPETEXT":"HEAVY SNOW","TYPECODE":"S","WFO":"BOU","REMARK":"nws office at david skaggs building.","MAG":13.5,"id":"a66a1cewc7p1","SOURCE":"nws employee","COUNTY":"Boulder","VALID":201202031823},"type":"Feature","geometry":{"type":"Point","coordinates":[-105.24,40.0]}},{"properties":{"CITY":"2 Ssw Boulder","TYPETEXT":"HEAVY SNOW","TYPECODE":"S","WFO":"BOU","REMARK":"nws office at david skaggs building.","MAG":13.5,"id":"a66a1ckwr2m8","SOURCE":"nws employee","COUNTY":"Boulder","VALID":201202031823},"type":"Feature","geometry":{"type":"Point","coordinates":[-105.27,40.0]}},{"properties":{"CITY":"2 Ene Monument","TYPETEXT":"SNOW","TYPECODE":"S","WFO":"PUB","REMARK":null,"MAG":12.0,"id":"a66a1clxy4ew","SOURCE":"trained spotter","COUNTY":"El Paso","VALID":201202031828},"type":"Feature","geometry":{"type":"Point","coordinates":[-104.84,39.11]}},{"properties":{"CITY":"E Sedgwick","TYPETEXT":"SNOW","TYPECODE":"S","WFO":"BOU","REMARK":null,"MAG":2.0,"id":"a66a1cg356e9","SOURCE":"trained spotter","COUNTY":"Sedgwick","VALID":201202031830},"type":"Feature","geometry":{"type":"Point","coordinates":[-102.53,40.93]}},{"properties":{"CITY":"Woodland Park","TYPETEXT":"SNOW","TYPECODE":"S","WFO":"PUB","REMARK":"since midnight.","MAG":9.0,"id":"a66a1cojytrc","SOURCE":"trained spotter","COUNTY":"Teller","VALID":201202031830},"type":"Feature","geometry":{"type":"Point","coordinates":[-105.05,38.99]}},{"properties":{"CITY":"1 E Idaho Springs","TYPETEXT":"HEAVY SNOW","TYPECODE":"S","WFO":"BOU","REMARK":null,"MAG":9.5,"id":"a66a1cfospdl","SOURCE":"trained spotter","COUNTY":"Clear Creek","VALID":201202031830},"type":"Feature","geometry":{"type":"Point","coordinates":[-105.49,39.74]}},{"properties":{"CITY":"3 S Evergreen","TYPETEXT":"HEAVY SNOW","TYPECODE":"S","WFO":"BOU","REMARK":null,"MAG":36.0,"id":"a66a1ccp2o1y","SOURCE":"trained spotter","COUNTY":"Jefferson","VALID":201202031832},"type":"Feature","geometry":{"type":"Point","coordinates":[-105.34,39.59]}},{"properties":{"CITY":"4 Ene Nederland","TYPETEXT":"HEAVY SNOW","TYPECODE":"S","WFO":"BOU","REMARK":null,"MAG":28.5,"id":"a66a1cq0j1ad","SOURCE":"trained spotter","COUNTY":"Boulder","VALID":201202031845},"type":"Feature","geometry":{"type":"Point","coordinates":[-105.45,39.99]}},{"properties":{"CITY":"5 Se Westcreek","TYPETEXT":"HEAVY SNOW","TYPECODE":"S","WFO":"BOU","REMARK":null,"MAG":13.5,"id":"a66a1cgjij6f","SOURCE":"trained spotter","COUNTY":"Teller","VALID":201202031858},"type":"Feature","geometry":{"type":"Point","coordinates":[-105.1,39.1]}},{"properties":{"CITY":"5 Se Franktown","TYPETEXT":"HEAVY SNOW","TYPECODE":"S","WFO":"BOU","REMARK":null,"MAG":12.7,"id":"a66a1cgkpog6","SOURCE":"trained spotter","COUNTY":"Douglas","VALID":201202031900},"type":"Feature","geometry":{"type":"Point","coordinates":[-104.68,39.33]}},{"properties":{"CITY":"5 Ssw Arapahoe Park","TYPETEXT":"HEAVY SNOW","TYPECODE":"S","WFO":"BOU","REMARK":null,"MAG":16.8,"id":"a66a1cizuyxl","SOURCE":"trained spotter","COUNTY":"Arapahoe","VALID":201202031900},"type":"Feature","geometry":{"type":"Point","coordinates":[-104.72,39.57]}},{"properties":{"CITY":"4 S Evergreen","TYPETEXT":"HEAVY SNOW","TYPECODE":"S","WFO":"BOU","REMARK":null,"MAG":20.4,"id":"a66a1ccyobj9","SOURCE":"trained spotter","COUNTY":"Jefferson","VALID":201202031900},"type":"Feature","geometry":{"type":"Point","coordinates":[-105.34,39.58]}},{"properties":{"CITY":"2 W Fort Collins","TYPETEXT":"HEAVY SNOW","TYPECODE":"S","WFO":"BOU","REMARK":null,"MAG":9.0,"id":"a66a1cg252xu","SOURCE":"public","COUNTY":"Larimer","VALID":201202031906},"type":"Feature","geometry":{"type":"Point","coordinates":[-105.11,40.56]}},{"properties":{"CITY":"1 N Monument","TYPETEXT":"SNOW","TYPECODE":"S","WFO":"PUB","REMARK":"36 inch drifts.","MAG":9.0,"id":"a66a1ck1e3n5","SOURCE":"trained spotter","COUNTY":"El Paso","VALID":201202031915},"type":"Feature","geometry":{"type":"Point","coordinates":[-104.88,39.11]}},{"properties":{"CITY":"2 N Black Forest","TYPETEXT":"HEAVY SNOW","TYPECODE":"S","WFO":"PUB","REMARK":"it has been snowing hard the past two hours. winds are light.","MAG":10.0,"id":"a66a1chpcvb4","SOURCE":"trained spotter","COUNTY":"El Paso","VALID":201202031922},"type":"Feature","geometry":{"type":"Point","coordinates":[-104.71,39.05]}},{"properties":{"CITY":"5 Ssw Black Forest","TYPETEXT":"SNOW","TYPECODE":"S","WFO":"PUB","REMARK":"18-24 inch drifts.","MAG":9.0,"id":"a66a1cmghf4w","SOURCE":"trained spotter","COUNTY":"El Paso","VALID":201202031925},"type":"Feature","geometry":{"type":"Point","coordinates":[-104.75,38.95]}},{"properties":{"CITY":"1 Sw Westminster","TYPETEXT":"HEAVY SNOW","TYPECODE":"S","WFO":"BOU","REMARK":null,"MAG":13.7,"id":"a66a1cieultl","SOURCE":"trained spotter","COUNTY":"Jefferson","VALID":201202031928},"type":"Feature","geometry":{"type":"Point","coordinates":[-105.07,39.87]}},{"properties":{"CITY":"14 Wsw Agate","TYPETEXT":"HEAVY SNOW","TYPECODE":"S","WFO":"BOU","REMARK":"four to five foot drifts","MAG":19.5,"id":"a66a1cadl89d","SOURCE":"trained spotter","COUNTY":"Elbert","VALID":201202031928},"type":"Feature","geometry":{"type":"Point","coordinates":[-104.2,39.42]}},{"properties":{"CITY":"2 Sw Aurora","TYPETEXT":"HEAVY SNOW","TYPECODE":"S","WFO":"BOU","REMARK":null,"MAG":8.0,"id":"a66a1cmdkt1e","SOURCE":"trained spotter","COUNTY":"Arapahoe","VALID":201202031930},"type":"Feature","geometry":{"type":"Point","coordinates":[-104.76,39.67]}},{"properties":{"CITY":"Holyoke","TYPETEXT":"HEAVY SNOW","TYPECODE":"S","WFO":"BOU","REMARK":null,"MAG":8.0,"id":"a66a1cil3nut","SOURCE":"trained spotter","COUNTY":"Phillips","VALID":201202031930},"type":"Feature","geometry":{"type":"Point","coordinates":[-102.3,40.58]}},{"properties":{"CITY":"Genesee","TYPETEXT":"HEAVY SNOW","TYPECODE":"S","WFO":"BOU","REMARK":null,"MAG":19.2,"id":"a66a1cbwgdua","SOURCE":"trained spotter","COUNTY":"Jefferson","VALID":201202031935},"type":"Feature","geometry":{"type":"Point","coordinates":[-105.27,39.69]}},{"properties":{"CITY":"1 N Strasburg","TYPETEXT":"HEAVY SNOW","TYPECODE":"S","WFO":"BOU","REMARK":null,"MAG":15.5,"id":"a66a1ch1ybzm","SOURCE":"trained spotter","COUNTY":"Adams","VALID":201202031938},"type":"Feature","geometry":{"type":"Point","coordinates":[-104.3,39.75]}},{"properties":{"CITY":"8 W Livermore","TYPETEXT":"HEAVY SNOW","TYPECODE":"S","WFO":"BOU","REMARK":null,"MAG":27.0,"id":"a66a1cf3rz71","SOURCE":"public","COUNTY":"Larimer","VALID":201202031945},"type":"Feature","geometry":{"type":"Point","coordinates":[-105.38,40.75]}},{"properties":{"CITY":"Beulah","TYPETEXT":"SNOW","TYPECODE":"S","WFO":"PUB","REMARK":"lingering flurries.","MAG":6.6,"id":"a66a1ccz2d86","SOURCE":"trained spotter","COUNTY":"Pueblo","VALID":201202031956},"type":"Feature","geometry":{"type":"Point","coordinates":[-104.98,38.08]}},{"properties":{"CITY":"Sw Beulah","TYPETEXT":"SNOW","TYPECODE":"S","WFO":"PUB","REMARK":"lingering flurries.","MAG":6.6,"id":"a66a1cq43o5u","SOURCE":"trained spotter","COUNTY":"Pueblo","VALID":201202031956},"type":"Feature","geometry":{"type":"Point","coordinates":[-104.98,38.08]}},{"properties":{"CITY":"Denver","TYPETEXT":"HEAVY SNOW","TYPECODE":"S","WFO":"BOU","REMARK":null,"MAG":11.0,"id":"a66a1ciqq9iu","SOURCE":"trained spotter","COUNTY":"Denver","VALID":201202032000},"type":"Feature","geometry":{"type":"Point","coordinates":[-104.87,39.77]}},{"properties":{"CITY":"4 N Castle Rock","TYPETEXT":"HEAVY SNOW","TYPECODE":"S","WFO":"BOU","REMARK":null,"MAG":12.1,"id":"a66a1cc5uyev","SOURCE":"trained spotter","COUNTY":"Douglas","VALID":201202032000},"type":"Feature","geometry":{"type":"Point","coordinates":[-104.85,39.44]}},{"properties":{"CITY":"3 Ssw Beverly Hills","TYPETEXT":"HEAVY SNOW","TYPECODE":"S","WFO":"BOU","REMARK":null,"MAG":13.5,"id":"a66a1cmx05c7","SOURCE":"trained spotter","COUNTY":"Douglas","VALID":201202032000},"type":"Feature","geometry":{"type":"Point","coordinates":[-104.9,39.43]}},{"properties":{"CITY":"2 W Wheat Ridge","TYPETEXT":"HEAVY SNOW","TYPECODE":"S","WFO":"BOU","REMARK":null,"MAG":12.3,"id":"a66a1cj3cbd9","SOURCE":"trained spotter","COUNTY":"Jefferson","VALID":201202032010},"type":"Feature","geometry":{"type":"Point","coordinates":[-105.14,39.77]}},{"properties":{"CITY":"1 E Idaho Springs","TYPETEXT":"HEAVY SNOW","TYPECODE":"S","WFO":"BOU","REMARK":null,"MAG":10.5,"id":"a66a1ck1aagv","SOURCE":"trained spotter","COUNTY":"Clear Creek","VALID":201202032015},"type":"Feature","geometry":{"type":"Point","coordinates":[-105.49,39.74]}},{"properties":{"CITY":"4 Nw Elizabeth","TYPETEXT":"HEAVY SNOW","TYPECODE":"S","WFO":"BOU","REMARK":null,"MAG":13.0,"id":"a66a1ccbph6i","SOURCE":"trained spotter","COUNTY":"Douglas","VALID":201202032030},"type":"Feature","geometry":{"type":"Point","coordinates":[-104.65,39.4]}},{"properties":{"CITY":"3 Sw Aurora","TYPETEXT":"HEAVY SNOW","TYPECODE":"S","WFO":"BOU","REMARK":null,"MAG":12.0,"id":"a66a1cdyzhrx","SOURCE":"trained spotter","COUNTY":"Arapahoe","VALID":201202032043},"type":"Feature","geometry":{"type":"Point","coordinates":[-104.77,39.66]}},{"properties":{"CITY":"Evergreen","TYPETEXT":"HEAVY SNOW","TYPECODE":"S","WFO":"BOU","REMARK":null,"MAG":17.0,"id":"a66a1cfsd5jj","SOURCE":"trained spotter","COUNTY":"Jefferson","VALID":201202032043},"type":"Feature","geometry":{"type":"Point","coordinates":[-105.34,39.63]}},{"properties":{"CITY":"3 Wsw Conifer","TYPETEXT":"HEAVY SNOW","TYPECODE":"S","WFO":"BOU","REMARK":null,"MAG":33.0,"id":"a66a1cep1wlt","SOURCE":"trained spotter","COUNTY":"Jefferson","VALID":201202032046},"type":"Feature","geometry":{"type":"Point","coordinates":[-105.36,39.5]}},{"properties":{"CITY":"3 Sw Rosita","TYPETEXT":"SNOW","TYPECODE":"S","WFO":"PUB","REMARK":null,"MAG":5.0,"id":"a66a1cdlhtjs","SOURCE":"trained spotter","COUNTY":"Custer","VALID":201202032100},"type":"Feature","geometry":{"type":"Point","coordinates":[-105.36,38.07]}},{"properties":{"CITY":"Sterling","TYPETEXT":"SNOW","TYPECODE":"S","WFO":"BOU","REMARK":null,"MAG":5.0,"id":"a66a1cjltwme","SOURCE":"trained spotter","COUNTY":"Logan","VALID":201202032100},"type":"Feature","geometry":{"type":"Point","coordinates":[-103.2,40.65]}},{"properties":{"CITY":"3 W Conifer","TYPETEXT":"HEAVY SNOW","TYPECODE":"S","WFO":"BOU","REMARK":null,"MAG":31.0,"id":"a66a1ceha3zj","SOURCE":"trained spotter","COUNTY":"Jefferson","VALID":201202032100},"type":"Feature","geometry":{"type":"Point","coordinates":[-105.36,39.51]}},{"properties":{"CITY":"3 W Jamestown","TYPETEXT":"HEAVY SNOW","TYPECODE":"S","WFO":"BOU","REMARK":null,"MAG":35.1,"id":"a66a1ca5uhmm","SOURCE":"trained spotter","COUNTY":"Boulder","VALID":201202032100},"type":"Feature","geometry":{"type":"Point","coordinates":[-105.44,40.11]}},{"properties":{"CITY":"2 Ene Monument","TYPETEXT":"SNOW","TYPECODE":"S","WFO":"PUB","REMARK":null,"MAG":14.0,"id":"a66a1cm3j9g0","SOURCE":"trained spotter","COUNTY":"El Paso","VALID":201202032105},"type":"Feature","geometry":{"type":"Point","coordinates":[-104.84,39.11]}},{"properties":{"CITY":"Gold Hill","TYPETEXT":"HEAVY SNOW","TYPECODE":"S","WFO":"BOU","REMARK":null,"MAG":24.0,"id":"a66a1cab14qg","SOURCE":"trained spotter","COUNTY":"Boulder","VALID":201202032130},"type":"Feature","geometry":{"type":"Point","coordinates":[-105.41,40.06]}},{"properties":{"CITY":"2 N Hill City","TYPETEXT":"SNOW","TYPECODE":"S","WFO":"GLD","REMARK":"in the past 2 hours.","MAG":3.0,"id":"a66a1ccw8dpu","SOURCE":"trained spotter","COUNTY":"Graham","VALID":201202032138},"type":"Feature","geometry":{"type":"Point","coordinates":[-99.85,39.4]}},{"properties":{"CITY":"5 Ssw Arapahoe Park","TYPETEXT":"HEAVY SNOW","TYPECODE":"S","WFO":"BOU","REMARK":null,"MAG":19.9,"id":"a66a1cn9vf8b","SOURCE":"trained spotter","COUNTY":"Arapahoe","VALID":201202032200},"type":"Feature","geometry":{"type":"Point","coordinates":[-104.71,39.57]}},{"properties":{"CITY":"4 Ese Franktown","TYPETEXT":"HEAVY SNOW","TYPECODE":"S","WFO":"BOU","REMARK":null,"MAG":14.5,"id":"a66a1core7il","SOURCE":"trained spotter","COUNTY":"Douglas","VALID":201202032201},"type":"Feature","geometry":{"type":"Point","coordinates":[-104.69,39.36]}},{"properties":{"CITY":"14 Wsw Agate","TYPETEXT":"HEAVY SNOW","TYPECODE":"S","WFO":"BOU","REMARK":null,"MAG":23.0,"id":"a66a1conx7kj","SOURCE":"trained spotter","COUNTY":"Elbert","VALID":201202032201},"type":"Feature","geometry":{"type":"Point","coordinates":[-104.2,39.42]}},{"properties":{"CITY":"1 E Castle Rock","TYPETEXT":"HEAVY SNOW","TYPECODE":"S","WFO":"BOU","REMARK":null,"MAG":14.8,"id":"a66a1clfieoc","SOURCE":"trained spotter","COUNTY":"Douglas","VALID":201202032202},"type":"Feature","geometry":{"type":"Point","coordinates":[-104.83,39.38]}},{"properties":{"CITY":"2 Ene Monument","TYPETEXT":"SNOW","TYPECODE":"S","WFO":"PUB","REMARK":null,"MAG":15.0,"id":"a66a1ckbf9hg","SOURCE":"trained spotter","COUNTY":"El Paso","VALID":201202032203},"type":"Feature","geometry":{"type":"Point","coordinates":[-104.84,39.11]}},{"properties":{"CITY":"1 Ssw Bennett","TYPETEXT":"HEAVY SNOW","TYPECODE":"S","WFO":"BOU","REMARK":null,"MAG":13.0,"id":"a66a1cey6hio","SOURCE":"trained spotter","COUNTY":"Adams","VALID":201202032204},"type":"Feature","geometry":{"type":"Point","coordinates":[-104.43,39.74]}},{"properties":{"CITY":"3 N Bailey","TYPETEXT":"HEAVY SNOW","TYPECODE":"S","WFO":"BOU","REMARK":null,"MAG":6.2,"id":"a66a1cgfs8wv","SOURCE":"trained spotter","COUNTY":"Park","VALID":201202032224},"type":"Feature","geometry":{"type":"Point","coordinates":[-105.46,39.45]}},{"properties":{"CITY":"2 E Monument","TYPETEXT":"SNOW","TYPECODE":"S","WFO":"PUB","REMARK":null,"MAG":14.0,"id":"a66a1cpk66oy","SOURCE":"trained spotter","COUNTY":"El Paso","VALID":201202032300},"type":"Feature","geometry":{"type":"Point","coordinates":[-104.83,39.1]}},{"properties":{"CITY":"Aurora","TYPETEXT":"HEAVY SNOW","TYPECODE":"S","WFO":"BOU","REMARK":null,"MAG":12.5,"id":"a66a1cofaubd","SOURCE":"nws employee","COUNTY":"Arapahoe","VALID":201202032304},"type":"Feature","geometry":{"type":"Point","coordinates":[-104.73,39.7]}},{"properties":{"CITY":"6 Nne Kiowa","TYPETEXT":"HEAVY SNOW","TYPECODE":"S","WFO":"BOU","REMARK":"3 to 5 foot drifts","MAG":17.0,"id":"a66a1ci974uh","SOURCE":"public","COUNTY":"Elbert","VALID":201202032304},"type":"Feature","geometry":{"type":"Point","coordinates":[-104.42,39.43]}},{"properties":{"CITY":"4 Sse Pinecliffe","TYPETEXT":"HEAVY SNOW","TYPECODE":"S","WFO":"BOU","REMARK":"coal creek canyon","MAG":38.4,"id":"a66a1cjvvnsx","SOURCE":"co-op observer","COUNTY":"Gilpin","VALID":201202032304},"type":"Feature","geometry":{"type":"Point","coordinates":[-105.39,39.88]}},{"properties":{"CITY":"Coal Creek","TYPETEXT":"HEAVY SNOW","TYPECODE":"S","WFO":"BOU","REMARK":null,"MAG":38.4,"id":"a66a1cbn8wz4","SOURCE":"trained spotter","COUNTY":"Fremont","VALID":201202032304},"type":"Feature","geometry":{"type":"Point","coordinates":[-105.14,38.36]}},{"properties":{"CITY":"St. Francis","TYPETEXT":"SNOW","TYPECODE":"S","WFO":"GLD","REMARK":null,"MAG":3.0,"id":"a66a1cqmlqkg","SOURCE":"emergency mngr","COUNTY":"Cheyenne","VALID":201202032308},"type":"Feature","geometry":{"type":"Point","coordinates":[-101.8,39.77]}},{"properties":{"CITY":"3 N Cokedale","TYPETEXT":"SNOW","TYPECODE":"S","WFO":"PUB","REMARK":null,"MAG":2.5,"id":"a66a1cipn2bp","SOURCE":"trained spotter","COUNTY":"Las Animas","VALID":201202032310},"type":"Feature","geometry":{"type":"Point","coordinates":[-104.62,37.19]}},{"properties":{"CITY":"Denver","TYPETEXT":"HEAVY SNOW","TYPECODE":"S","WFO":"BOU","REMARK":null,"MAG":13.0,"id":"a66a1cbtp5a1","SOURCE":"trained spotter","COUNTY":"Denver","VALID":201202032315},"type":"Feature","geometry":{"type":"Point","coordinates":[-104.87,39.77]}},{"properties":{"CITY":"3 Nw Idledale","TYPETEXT":"HEAVY SNOW","TYPECODE":"S","WFO":"BOU","REMARK":null,"MAG":20.5,"id":"a66a1ciwtz1a","SOURCE":"trained spotter","COUNTY":"Jefferson","VALID":201202032315},"type":"Feature","geometry":{"type":"Point","coordinates":[-105.28,39.7]}},{"properties":{"CITY":"2 N Loveland","TYPETEXT":"HEAVY SNOW","TYPECODE":"S","WFO":"BOU","REMARK":"3 foot drifts","MAG":9.0,"id":"a66a1cpmjy19","SOURCE":"trained spotter","COUNTY":"Larimer","VALID":201202032318},"type":"Feature","geometry":{"type":"Point","coordinates":[-105.07,40.45]}},{"properties":{"CITY":"W Aurora","TYPETEXT":"HEAVY SNOW","TYPECODE":"S","WFO":"BOU","REMARK":null,"MAG":14.0,"id":"a66a1cd02uq6","SOURCE":"trained spotter","COUNTY":"Arapahoe","VALID":201202032318},"type":"Feature","geometry":{"type":"Point","coordinates":[-104.73,39.7]}},{"properties":{"CITY":"2 Nne Littleton","TYPETEXT":"HEAVY SNOW","TYPECODE":"S","WFO":"BOU","REMARK":null,"MAG":14.9,"id":"a66a1cp7s59s","SOURCE":"trained spotter","COUNTY":"Arapahoe","VALID":201202032318},"type":"Feature","geometry":{"type":"Point","coordinates":[-105.0,39.62]}},{"properties":{"CITY":"3 Ssw Beverly Hills","TYPETEXT":"HEAVY SNOW","TYPECODE":"S","WFO":"BOU","REMARK":null,"MAG":15.5,"id":"a66a1cg8hhga","SOURCE":"trained spotter","COUNTY":"Douglas","VALID":201202032318},"type":"Feature","geometry":{"type":"Point","coordinates":[-104.9,39.43]}},{"properties":{"CITY":"3 W Westminster","TYPETEXT":"HEAVY SNOW","TYPECODE":"S","WFO":"BOU","REMARK":null,"MAG":16.0,"id":"a66a1cpr7op5","SOURCE":"trained spotter","COUNTY":"Jefferson","VALID":201202032318},"type":"Feature","geometry":{"type":"Point","coordinates":[-105.11,39.87]}},{"properties":{"CITY":"1 Sw Westminster","TYPETEXT":"HEAVY SNOW","TYPECODE":"S","WFO":"BOU","REMARK":null,"MAG":16.7,"id":"a66a1cc5pabz","SOURCE":"trained spotter","COUNTY":"Jefferson","VALID":201202032318},"type":"Feature","geometry":{"type":"Point","coordinates":[-105.07,39.87]}},{"properties":{"CITY":"3 Wnw Chatfield Reservo","TYPETEXT":"HEAVY SNOW","TYPECODE":"S","WFO":"BOU","REMARK":null,"MAG":17.0,"id":"a66a1cpbj8xs","SOURCE":"trained spotter","COUNTY":"Jefferson","VALID":201202032318},"type":"Feature","geometry":{"type":"Point","coordinates":[-105.11,39.58]}},{"properties":{"CITY":"Aurora","TYPETEXT":"HEAVY SNOW","TYPECODE":"S","WFO":"BOU","REMARK":null,"MAG":17.0,"id":"a66a1cai6woj","SOURCE":"trained spotter","COUNTY":"Arapahoe","VALID":201202032318},"type":"Feature","geometry":{"type":"Point","coordinates":[-104.73,39.7]}},{"properties":{"CITY":"9 Ne Ponderosa Park","TYPETEXT":"HEAVY SNOW","TYPECODE":"S","WFO":"BOU","REMARK":null,"MAG":17.5,"id":"a66a1cdkztce","SOURCE":"trained spotter","COUNTY":"Elbert","VALID":201202032318},"type":"Feature","geometry":{"type":"Point","coordinates":[-104.53,39.5]}},{"properties":{"CITY":"1 Nw Strasburg","TYPETEXT":"HEAVY SNOW","TYPECODE":"S","WFO":"BOU","REMARK":"4 to 5 foot drifts","MAG":17.8,"id":"a66a1cftkhrp","SOURCE":"trained spotter","COUNTY":"Adams","VALID":201202032318},"type":"Feature","geometry":{"type":"Point","coordinates":[-104.32,39.75]}},{"properties":{"CITY":"4 S Fort Collins","TYPETEXT":"HEAVY SNOW","TYPECODE":"S","WFO":"BOU","REMARK":null,"MAG":6.1,"id":"a66a1cav8zze","SOURCE":"trained spotter","COUNTY":"Larimer","VALID":201202032330},"type":"Feature","geometry":{"type":"Point","coordinates":[-105.07,40.5]}},{"properties":{"CITY":"2 Ene Monument","TYPETEXT":"SNOW","TYPECODE":"S","WFO":"PUB","REMARK":"updated snowfall total","MAG":16.0,"id":"a66a1chcbtzh","SOURCE":"trained spotter","COUNTY":"El Paso","VALID":201202032330},"type":"Feature","geometry":{"type":"Point","coordinates":[-104.84,39.11]}},{"properties":{"CITY":"3 Sw Highlands Ranch","TYPETEXT":"HEAVY SNOW","TYPECODE":"S","WFO":"BOU","REMARK":null,"MAG":16.5,"id":"a66a1cdnl3rv","SOURCE":"trained spotter","COUNTY":"Douglas","VALID":201202040010},"type":"Feature","geometry":{"type":"Point","coordinates":[-105.02,39.53]}},{"properties":{"CITY":"4 Ene Nederland","TYPETEXT":"HEAVY SNOW","TYPECODE":"S","WFO":"BOU","REMARK":null,"MAG":30.8,"id":"a66a1ciqx0gf","SOURCE":"trained spotter","COUNTY":"Boulder","VALID":201202040015},"type":"Feature","geometry":{"type":"Point","coordinates":[-105.45,39.99]}},{"properties":{"CITY":"Nnw Peetz","TYPETEXT":"HEAVY SNOW","TYPECODE":"S","WFO":"BOU","REMARK":"2-3 foot drifts","MAG":6.0,"id":"a66a1cjwqcwe","SOURCE":"trained spotter","COUNTY":"Logan","VALID":201202040030},"type":"Feature","geometry":{"type":"Point","coordinates":[-103.12,40.96]}},{"properties":{"CITY":"2 Ene Black Forest","TYPETEXT":"SNOW","TYPECODE":"S","WFO":"PUB","REMARK":"total snowfall since 1 pm mst yesterday.","MAG":14.0,"id":"a66a1clop9s7","SOURCE":"trained spotter","COUNTY":"El Paso","VALID":201202040030},"type":"Feature","geometry":{"type":"Point","coordinates":[-104.67,39.03]}},{"properties":{"CITY":"5 Ne Calhan","TYPETEXT":"HEAVY SNOW","TYPECODE":"S","WFO":"PUB","REMARK":"updated total. still snowing. 4 foot drifts.","MAG":23.5,"id":"a66a1civl6jz","SOURCE":"trained spotter","COUNTY":"El Paso","VALID":201202040030},"type":"Feature","geometry":{"type":"Point","coordinates":[-104.23,39.09]}},{"properties":{"CITY":"3 Sse Aurora","TYPETEXT":"HEAVY SNOW","TYPECODE":"S","WFO":"BOU","REMARK":null,"MAG":12.5,"id":"a66a1cnjnenz","SOURCE":"trained spotter","COUNTY":"Arapahoe","VALID":201202040104},"type":"Feature","geometry":{"type":"Point","coordinates":[-104.79,39.67]}},{"properties":{"CITY":"15 N Elizabeth","TYPETEXT":"HEAVY SNOW","TYPECODE":"S","WFO":"BOU","REMARK":"3 foot drifts","MAG":17.5,"id":"a66a1cltglzc","SOURCE":"trained spotter","COUNTY":"Arapahoe","VALID":201202040104},"type":"Feature","geometry":{"type":"Point","coordinates":[-104.6,39.58]}},{"properties":{"CITY":"4 Ene Conifer","TYPETEXT":"HEAVY SNOW","TYPECODE":"S","WFO":"BOU","REMARK":null,"MAG":19.0,"id":"a66a1cg8na6r","SOURCE":"trained spotter","COUNTY":"Jefferson","VALID":201202040104},"type":"Feature","geometry":{"type":"Point","coordinates":[-105.23,39.54]}},{"properties":{"CITY":"3 Nne Eldorado Springs","TYPETEXT":"HEAVY SNOW","TYPECODE":"S","WFO":"BOU","REMARK":null,"MAG":19.4,"id":"a66a1cfxnwjy","SOURCE":"trained spotter","COUNTY":"Boulder","VALID":201202040104},"type":"Feature","geometry":{"type":"Point","coordinates":[-105.26,39.97]}},{"properties":{"CITY":"14 Wsw Agate","TYPETEXT":"HEAVY SNOW","TYPECODE":"S","WFO":"BOU","REMARK":null,"MAG":25.0,"id":"a66a1cc0iy8o","SOURCE":"trained spotter","COUNTY":"Elbert","VALID":201202040104},"type":"Feature","geometry":{"type":"Point","coordinates":[-104.2,39.42]}},{"properties":{"CITY":"Highlands Ranch","TYPETEXT":"HEAVY SNOW","TYPECODE":"S","WFO":"BOU","REMARK":null,"MAG":26.0,"id":"a66a1cdgtype","SOURCE":"trained spotter","COUNTY":"Douglas","VALID":201202040104},"type":"Feature","geometry":{"type":"Point","coordinates":[-104.97,39.55]}},{"properties":{"CITY":"3 W Jamestown","TYPETEXT":"HEAVY SNOW","TYPECODE":"S","WFO":"BOU","REMARK":null,"MAG":37.7,"id":"a66a1cm9zb54","SOURCE":"trained spotter","COUNTY":"Boulder","VALID":201202040131},"type":"Feature","geometry":{"type":"Point","coordinates":[-105.44,40.11]}},{"properties":{"CITY":"4 Sse Pinecliffe","TYPETEXT":"HEAVY SNOW","TYPECODE":"S","WFO":"BOU","REMARK":"coal creek canyon","MAG":40.4,"id":"a66a1cgrduzo","SOURCE":"trained spotter","COUNTY":"Gilpin","VALID":201202040133},"type":"Feature","geometry":{"type":"Point","coordinates":[-105.39,39.88]}},{"properties":{"CITY":"11 Ese Holyoke","TYPETEXT":"HEAVY SNOW","TYPECODE":"S","WFO":"BOU","REMARK":"3 foot drifts","MAG":13.0,"id":"a66a1cn7m6wj","SOURCE":"trained spotter","COUNTY":"Phillips","VALID":201202040136},"type":"Feature","geometry":{"type":"Point","coordinates":[-102.1,40.53]}},{"properties":{"CITY":"14 Wsw Agate","TYPETEXT":"HEAVY SNOW","TYPECODE":"S","WFO":"BOU","REMARK":null,"MAG":25.0,"id":"a66a1cn6hi1q","SOURCE":"trained spotter","COUNTY":"Elbert","VALID":201202040136},"type":"Feature","geometry":{"type":"Point","coordinates":[-104.2,39.42]}},{"properties":{"CITY":"Denver","TYPETEXT":"HEAVY SNOW","TYPECODE":"S","WFO":"BOU","REMARK":null,"MAG":14.0,"id":"a66a1cb5st1f","SOURCE":"trained spotter","COUNTY":"Denver","VALID":201202040152},"type":"Feature","geometry":{"type":"Point","coordinates":[-104.96,39.73]}},{"properties":{"CITY":"4 S Rocky Flats","TYPETEXT":"HEAVY SNOW","TYPECODE":"S","WFO":"BOU","REMARK":"drifts to 3 feet","MAG":17.5,"id":"a66a1cia0pdj","SOURCE":"trained spotter","COUNTY":"Jefferson","VALID":201202040153},"type":"Feature","geometry":{"type":"Point","coordinates":[-105.19,39.83]}},{"properties":{"CITY":"2 N Orodell","TYPETEXT":"HEAVY SNOW","TYPECODE":"S","WFO":"BOU","REMARK":"sunshine canyon","MAG":18.0,"id":"a66a1cok9vtp","SOURCE":"trained spotter","COUNTY":"Boulder","VALID":201202040153},"type":"Feature","geometry":{"type":"Point","coordinates":[-105.33,40.04]}},{"properties":{"CITY":"Lakewood","TYPETEXT":"HEAVY SNOW","TYPECODE":"S","WFO":"BOU","REMARK":null,"MAG":13.0,"id":"a66a1cozdxm5","SOURCE":"trained spotter","COUNTY":"Jefferson","VALID":201202040214},"type":"Feature","geometry":{"type":"Point","coordinates":[-105.11,39.7]}},{"properties":{"CITY":"10 Nne Atwood","TYPETEXT":"SNOW","TYPECODE":"S","WFO":"GLD","REMARK":"over the last few hours.","MAG":4.0,"id":"a66a1ccz6z16","SOURCE":"trained spotter","COUNTY":"Rawlins","VALID":201202040216},"type":"Feature","geometry":{"type":"Point","coordinates":[-100.97,39.94]}},{"properties":{"CITY":"Genesee","TYPETEXT":"HEAVY SNOW","TYPECODE":"S","WFO":"BOU","REMARK":"2.2 in the past 2 hours.","MAG":23.2,"id":"a66a1ci2tddi","SOURCE":"trained spotter","COUNTY":"Jefferson","VALID":201202040232},"type":"Feature","geometry":{"type":"Point","coordinates":[-105.27,39.69]}},{"properties":{"CITY":"Hill City","TYPETEXT":"SNOW","TYPECODE":"S","WFO":"GLD","REMARK":null,"MAG":3.0,"id":"a66a1cpuc64d","SOURCE":"law enforcement","COUNTY":"Graham","VALID":201202040237},"type":"Feature","geometry":{"type":"Point","coordinates":[-99.85,39.37]}},{"properties":{"CITY":"Hill City","TYPETEXT":"SNOW","TYPECODE":"S","WFO":"GLD","REMARK":"very large snow flakes, around 2 inches in size falling","MAG":4.0,"id":"a66a1chh3g5x","SOURCE":"law enforcement","COUNTY":"Graham","VALID":201202040237},"type":"Feature","geometry":{"type":"Point","coordinates":[-99.85,39.37]}},{"properties":{"CITY":"5 Nw Thurman","TYPETEXT":"HEAVY SNOW","TYPECODE":"S","WFO":"BOU","REMARK":"drifts up to 3 ft. winds 20-25 mph.","MAG":14.0,"id":"a66a1cexbm5j","SOURCE":"emergency mngr","COUNTY":"Washington","VALID":201202040240},"type":"Feature","geometry":{"type":"Point","coordinates":[-103.28,39.65]}},{"properties":{"CITY":"3 N Black Hawk","TYPETEXT":"SNOW","TYPECODE":"S","WFO":"BOU","REMARK":null,"MAG":35.6,"id":"a66a1ccrbci0","SOURCE":"trained spotter","COUNTY":"Gilpin","VALID":201202040240},"type":"Feature","geometry":{"type":"Point","coordinates":[-105.49,39.84]}},{"properties":{"CITY":"1 Sw Westminster","TYPETEXT":"SNOW","TYPECODE":"S","WFO":"BOU","REMARK":null,"MAG":18.5,"id":"a66a1cd2n8zz","SOURCE":"trained spotter","COUNTY":"Jefferson","VALID":201202040251},"type":"Feature","geometry":{"type":"Point","coordinates":[-105.07,39.87]}},{"properties":{"CITY":"Westminster","TYPETEXT":"HEAVY SNOW","TYPECODE":"S","WFO":"BOU","REMARK":null,"MAG":16.0,"id":"a66a1clbs1gh","SOURCE":"nws employee","COUNTY":"Adams","VALID":201202040300},"type":"Feature","geometry":{"type":"Point","coordinates":[-105.05,39.88]}},{"properties":{"CITY":"4 E Boulder","TYPETEXT":"HEAVY SNOW","TYPECODE":"S","WFO":"BOU","REMARK":null,"MAG":20.3,"id":"a66a1ckkrfcb","SOURCE":"nws employee","COUNTY":"Boulder","VALID":201202040300},"type":"Feature","geometry":{"type":"Point","coordinates":[-105.18,40.03]}},{"properties":{"CITY":"Boulder","TYPETEXT":"HEAVY SNOW","TYPECODE":"S","WFO":"BOU","REMARK":null,"MAG":17.9,"id":"a66a1cnqmwc0","SOURCE":"co-op observer","COUNTY":"Boulder","VALID":201202040302},"type":"Feature","geometry":{"type":"Point","coordinates":[-105.25,40.03]}},{"properties":{"CITY":"3 W Jamestown","TYPETEXT":"HEAVY SNOW","TYPECODE":"S","WFO":"BOU","REMARK":"2 inch per hour snowfall rate","MAG":41.4,"id":"a66a1cob4hlu","SOURCE":"trained spotter","COUNTY":"Boulder","VALID":201202040302},"type":"Feature","geometry":{"type":"Point","coordinates":[-105.44,40.11]}},{"properties":{"CITY":"4 Se Atwood","TYPETEXT":"SNOW","TYPECODE":"S","WFO":"GLD","REMARK":"estimated 6-9 inches relayed by em.","MAG":7.5,"id":"a66a1ci1q302","SOURCE":"emergency mngr","COUNTY":"Rawlins","VALID":201202040305},"type":"Feature","geometry":{"type":"Point","coordinates":[-100.99,39.77]}},{"properties":{"CITY":"1 S Evergreen","TYPETEXT":"HEAVY SNOW","TYPECODE":"S","WFO":"BOU","REMARK":null,"MAG":28.0,"id":"a66a1cgny1hc","SOURCE":"trained spotter","COUNTY":"Jefferson","VALID":201202040315},"type":"Feature","geometry":{"type":"Point","coordinates":[-105.34,39.63]}},{"properties":{"CITY":"Genesee","TYPETEXT":"HEAVY SNOW","TYPECODE":"S","WFO":"BOU","REMARK":"1.8 inches in past hour","MAG":25.0,"id":"a66a1cfrydjd","SOURCE":"trained spotter","COUNTY":"Jefferson","VALID":201202040330},"type":"Feature","geometry":{"type":"Point","coordinates":[-105.27,39.69]}},{"properties":{"CITY":"7 E Colorado City","TYPETEXT":"SNOW","TYPECODE":"S","WFO":"PUB","REMARK":"storm total. 14 inch drifts","MAG":4.0,"id":"a66a1cdq3qg7","SOURCE":"trained spotter","COUNTY":"Pueblo","VALID":201202040336},"type":"Feature","geometry":{"type":"Point","coordinates":[-104.72,37.95]}},{"properties":{"CITY":"1 N Strasburg","TYPETEXT":"HEAVY SNOW","TYPECODE":"S","WFO":"BOU","REMARK":null,"MAG":20.0,"id":"a66a1ceuzjff","SOURCE":"trained spotter","COUNTY":"Adams","VALID":201202040353},"type":"Feature","geometry":{"type":"Point","coordinates":[-104.3,39.75]}},{"properties":{"CITY":"3 S Estes Park","TYPETEXT":"HEAVY SNOW","TYPECODE":"S","WFO":"BOU","REMARK":null,"MAG":11.1,"id":"a66a1cgrg1az","SOURCE":"trained spotter","COUNTY":"Larimer","VALID":201202040400},"type":"Feature","geometry":{"type":"Point","coordinates":[-105.52,40.33]}},{"properties":{"CITY":"1 Sw Rye","TYPETEXT":"SNOW","TYPECODE":"S","WFO":"PUB","REMARK":"0.44 liquid equivalent","MAG":8.0,"id":"a66a1cj3tjqe","SOURCE":"nws employee","COUNTY":"Pueblo","VALID":201202040405},"type":"Feature","geometry":{"type":"Point","coordinates":[-104.94,37.91]}},{"properties":{"CITY":"9 N Falcon","TYPETEXT":"SNOW","TYPECODE":"S","WFO":"PUB","REMARK":null,"MAG":20.0,"id":"a66a1ceqp4a1","SOURCE":"broadcast media","COUNTY":"El Paso","VALID":201202040408},"type":"Feature","geometry":{"type":"Point","coordinates":[-104.62,39.06]}},{"properties":{"CITY":"2 Ene Monument","TYPETEXT":"SNOW","TYPECODE":"S","WFO":"PUB","REMARK":"storm update","MAG":20.0,"id":"a66a1cimmj41","SOURCE":"trained spotter","COUNTY":"El Paso","VALID":201202040409},"type":"Feature","geometry":{"type":"Point","coordinates":[-104.84,39.11]}},{"properties":{"CITY":"4 Nw Elizabeth","TYPETEXT":"HEAVY SNOW","TYPECODE":"S","WFO":"BOU","REMARK":null,"MAG":15.5,"id":"a66a1ccz8cc3","SOURCE":"trained spotter","COUNTY":"Douglas","VALID":201202040410},"type":"Feature","geometry":{"type":"Point","coordinates":[-104.65,39.4]}},{"properties":{"CITY":"Wakeeney","TYPETEXT":"SNOW","TYPECODE":"S","WFO":"DDC","REMARK":"this was reported by the ness county sheriff department.","MAG":6.0,"id":"a66a1cl0ddam","SOURCE":"law enforcement","COUNTY":"Trego","VALID":201202040420},"type":"Feature","geometry":{"type":"Point","coordinates":[-99.88,39.02]}},{"properties":{"CITY":"4 Wsw Eldorado Springs","TYPETEXT":"HEAVY SNOW","TYPECODE":"S","WFO":"BOU","REMARK":null,"MAG":27.0,"id":"a66a1cdrepho","SOURCE":"trained spotter","COUNTY":"Jefferson","VALID":201202040423},"type":"Feature","geometry":{"type":"Point","coordinates":[-105.34,39.91]}},{"properties":{"CITY":"3 Ssw Castle Pines","TYPETEXT":"HEAVY SNOW","TYPECODE":"S","WFO":"BOU","REMARK":null,"MAG":18.0,"id":"a66a1cimbe4h","SOURCE":"trained spotter","COUNTY":"Douglas","VALID":201202040425},"type":"Feature","geometry":{"type":"Point","coordinates":[-104.92,39.4]}},{"properties":{"CITY":"Ransom","TYPETEXT":"SNOW","TYPECODE":"S","WFO":"DDC","REMARK":null,"MAG":2.0,"id":"a66a1celqbl6","SOURCE":"law enforcement","COUNTY":"Ness","VALID":201202040430},"type":"Feature","geometry":{"type":"Point","coordinates":[-99.93,38.64]}},{"properties":{"CITY":"Genesee","TYPETEXT":"HEAVY SNOW","TYPECODE":"S","WFO":"BOU","REMARK":null,"MAG":26.2,"id":"a66a1clz6c62","SOURCE":"trained spotter","COUNTY":"Jefferson","VALID":201202040431},"type":"Feature","geometry":{"type":"Point","coordinates":[-105.27,39.69]}},{"properties":{"CITY":"Broomfield","TYPETEXT":"HEAVY SNOW","TYPECODE":"S","WFO":"BOU","REMARK":null,"MAG":18.0,"id":"a66a1cdpo20w","SOURCE":"nws employee","COUNTY":"Broomfield","VALID":201202040436},"type":"Feature","geometry":{"type":"Point","coordinates":[-105.06,39.94]}},{"properties":{"CITY":"4 Sse Pinecliffe","TYPETEXT":"HEAVY SNOW","TYPECODE":"S","WFO":"BOU","REMARK":"coal creek canyon","MAG":46.0,"id":"a66a1ccn6vhf","SOURCE":"trained spotter","COUNTY":"Gilpin","VALID":201202040439},"type":"Feature","geometry":{"type":"Point","coordinates":[-105.39,39.88]}},{"properties":{"CITY":"2 Wsw Lone Tree","TYPETEXT":"HEAVY SNOW","TYPECODE":"S","WFO":"BOU","REMARK":null,"MAG":14.5,"id":"a66a1cet9xct","SOURCE":"trained spotter","COUNTY":"Douglas","VALID":201202040454},"type":"Feature","geometry":{"type":"Point","coordinates":[-104.92,39.53]}},{"properties":{"CITY":"2 Ene Bergen Park","TYPETEXT":"HEAVY SNOW","TYPECODE":"S","WFO":"BOU","REMARK":null,"MAG":19.0,"id":"a66a1cgfe1mh","SOURCE":"trained spotter","COUNTY":"Jefferson","VALID":201202040500},"type":"Feature","geometry":{"type":"Point","coordinates":[-105.32,39.71]}},{"properties":{"CITY":"N Norton","TYPETEXT":"SNOW","TYPECODE":"S","WFO":"GLD","REMARK":"total snow since 545 pm local time","MAG":4.5,"id":"a66a1cngijsl","SOURCE":"cocorahs","COUNTY":"Norton","VALID":201202040517},"type":"Feature","geometry":{"type":"Point","coordinates":[-99.89,39.84]}},{"properties":{"CITY":"Nne Woodland Park","TYPETEXT":"SNOW","TYPECODE":"S","WFO":"PUB","REMARK":"3 inches since noon","MAG":12.0,"id":"a66a1cjzbnik","SOURCE":"trained spotter","COUNTY":"Teller","VALID":201202040534},"type":"Feature","geometry":{"type":"Point","coordinates":[-105.05,39.0]}},{"properties":{"CITY":"Woodland Park","TYPETEXT":"SNOW","TYPECODE":"S","WFO":"PUB","REMARK":"3 inches since noon","MAG":12.0,"id":"a66a1clx52y2","SOURCE":"trained spotter","COUNTY":"Teller","VALID":201202040534},"type":"Feature","geometry":{"type":"Point","coordinates":[-105.05,38.99]}},{"properties":{"CITY":"5 Ne Air Force Academy","TYPETEXT":"SNOW","TYPECODE":"S","WFO":"PUB","REMARK":"still snowing","MAG":13.0,"id":"a66a1cfspbdq","SOURCE":"trained spotter","COUNTY":"El Paso","VALID":201202040545},"type":"Feature","geometry":{"type":"Point","coordinates":[-104.8,39.03]}},{"properties":{"CITY":"3 Nne Eldorado Springs","TYPETEXT":"HEAVY SNOW","TYPECODE":"S","WFO":"BOU","REMARK":null,"MAG":23.4,"id":"a66a1cqactag","SOURCE":"trained spotter","COUNTY":"Boulder","VALID":201202040550},"type":"Feature","geometry":{"type":"Point","coordinates":[-105.26,39.97]}},{"properties":{"CITY":"2 Sse Federal Heights","TYPETEXT":"HEAVY SNOW","TYPECODE":"S","WFO":"BOU","REMARK":null,"MAG":14.5,"id":"a66a1ck0yll4","SOURCE":"trained spotter","COUNTY":"Adams","VALID":201202040556},"type":"Feature","geometry":{"type":"Point","coordinates":[-105.0,39.84]}},{"properties":{"CITY":"1 Sw Westminster","TYPETEXT":"HEAVY SNOW","TYPECODE":"S","WFO":"BOU","REMARK":"1.9 inches in last 3 hours","MAG":20.4,"id":"a66a1cn0qu37","SOURCE":"trained spotter","COUNTY":"Jefferson","VALID":201202040556},"type":"Feature","geometry":{"type":"Point","coordinates":[-105.07,39.87]}},{"properties":{"CITY":"Boulder","TYPETEXT":"HEAVY SNOW","TYPECODE":"S","WFO":"BOU","REMARK":null,"MAG":20.4,"id":"a66a1cnmxyu7","SOURCE":"co-op observer","COUNTY":"Boulder","VALID":201202040605},"type":"Feature","geometry":{"type":"Point","coordinates":[-105.25,40.03]}},{"properties":{"CITY":"2 Sse Boulder","TYPETEXT":"HEAVY SNOW","TYPECODE":"S","WFO":"BOU","REMARK":"david skaggs building","MAG":19.0,"id":"a66a1ch105ws","SOURCE":"nws employee","COUNTY":"Boulder","VALID":201202040650},"type":"Feature","geometry":{"type":"Point","coordinates":[-105.24,40.0]}},{"properties":{"CITY":"3 N Conifer","TYPETEXT":"HEAVY SNOW","TYPECODE":"S","WFO":"BOU","REMARK":null,"MAG":28.5,"id":"a66a1ca9oxme","SOURCE":"trained spotter","COUNTY":"Jefferson","VALID":201202040657},"type":"Feature","geometry":{"type":"Point","coordinates":[-105.31,39.57]}},{"properties":{"CITY":"18 Ene Denver","TYPETEXT":"HEAVY SNOW","TYPECODE":"S","WFO":"BOU","REMARK":"official dia snowfall","MAG":14.0,"id":"a66a1ch6kojk","SOURCE":"official nws obs","COUNTY":"Denver","VALID":201202040658},"type":"Feature","geometry":{"type":"Point","coordinates":[-104.65,39.83]}},{"properties":{"CITY":"2 W Parker","TYPETEXT":"HEAVY SNOW","TYPECODE":"S","WFO":"BOU","REMARK":null,"MAG":16.5,"id":"a66a1cdokkqm","SOURCE":"broadcast media","COUNTY":"Douglas","VALID":201202040658},"type":"Feature","geometry":{"type":"Point","coordinates":[-104.8,39.51]}}],"is_temporal":false,"author":{"url":null,"metadata":null,"contact_name":null,"contact_address":null,"source":null,"contact_phone":null},"source":null,"pagination":{"sort":null,"start":0,"total":398,"limit":1000000},"state":"complete","tags":"","published":"2014-08-14T19:30:35-04:00","id":223590}