{"type":"FeatureCollection","data_type":"Dataset","url_type":null,"permissions":[{"permissions":{"download":true,"edit":true,"view":true},"group_id":"everyone"}],"classification":null,"title":"Kina Grannis Show Archive","count":119,"stream_id":223682,"contributor":{"url":"http://geocommons.com/users/42461","name":"ahurd"},"data_attributes":null,"calculation_params":null,"icon_link":null,"link":"http://geocommons.com/overlays/223682.json","extent":[-156.007,20.6975,-71.0598,47.6062],"geometry_types":["point"],"unique_name":null,"name":"Kina Grannis Show Archive","feature_count":119,"description":"All of the shows Kina Grannis has done","next_feature":null,"is_raster":false,"short_classification":"Y","stats":{"date":{"max":"2012/03/30 00:00:00 -0400","mean":"2011/04/26 00:14:37 -0400","variance":392234121242786.0,"stdev":19804901.4449147,"min":"2010/01/13 00:00:00 -0500","median":"2011/04/20 00:00:00 -0400"}},"features":[{"properties":{"city":"West Hollywood","date":{"end_time":"2010/01/14 00:00:00 -0500","original":"1/13/2010","granularity":"day","time":"2010/01/13 00:00:00 -0500"},"geo_score":0.813,"country":"United States","id":"a6319kpihoql","geo_precision":"city","state":"CA"},"type":"Feature","geometry":{"type":"Point","coordinates":[-118.326743,34.098343]}},{"properties":{"city":"Santa Monica","date":{"end_time":"2010/02/28 00:00:00 -0500","original":"2/27/2010","granularity":"day","time":"2010/02/27 00:00:00 -0500"},"geo_score":0.857,"country":"United States","id":"a6319kljr15e","geo_precision":"city","state":"CA"},"type":"Feature","geometry":{"type":"Point","coordinates":[-118.491191,34.019454]}},{"properties":{"city":"San Francisco","date":{"end_time":"2010/05/25 00:00:00 -0400","original":"5/24/2010","granularity":"day","time":"2010/05/24 00:00:00 -0400"},"geo_score":0.857,"country":"United States","id":"a6319koc6lmt","geo_precision":"city","state":"CA"},"type":"Feature","geometry":{"type":"Point","coordinates":[-122.419416,37.77493]}},{"properties":{"city":"Los Angeles","date":{"end_time":"2010/05/26 00:00:00 -0400","original":"5/25/2010","granularity":"day","time":"2010/05/25 00:00:00 -0400"},"geo_score":0.857,"country":"United States","id":"a6319kuve0ij","geo_precision":"city","state":"CA"},"type":"Feature","geometry":{"type":"Point","coordinates":[-118.243685,34.052234]}},{"properties":{"city":"Decatur","date":{"end_time":"2010/06/04 00:00:00 -0400","original":"6/3/2010","granularity":"day","time":"2010/06/03 00:00:00 -0400"},"geo_score":0.0,"country":"United States","id":"a6319kq0bbnl","geo_precision":"unmatched","state":"CA"},"type":"Feature","geometry":null},{"properties":{"city":"Nashville","date":{"end_time":"2010/06/05 00:00:00 -0400","original":"6/4/2010","granularity":"day","time":"2010/06/04 00:00:00 -0400"},"geo_score":0.857,"country":"United States","id":"a6319kxfo3dc","geo_precision":"city","state":"TN"},"type":"Feature","geometry":{"type":"Point","coordinates":[-86.784443,36.16589]}},{"properties":{"city":"Lexington","date":{"end_time":"2010/06/06 00:00:00 -0400","original":"6/5/2010","granularity":"day","time":"2010/06/05 00:00:00 -0400"},"geo_score":0.857,"country":"United States","id":"a6319knklt6w","geo_precision":"city","state":"KY"},"type":"Feature","geometry":{"type":"Point","coordinates":[-84.477715,37.988689]}},{"properties":{"city":"Toronto","date":{"end_time":"2010/06/08 00:00:00 -0400","original":"6/7/2010","granularity":"day","time":"2010/06/07 00:00:00 -0400"},"geo_score":0.633,"country":"Canada","id":"a6319kq4fyrq","geo_precision":"city","state":"Ontario"},"type":"Feature","geometry":{"type":"Point","coordinates":[-86.768002,33.594533]}},{"properties":{"city":"Ann Arbor","date":{"end_time":"2010/06/10 00:00:00 -0400","original":"6/9/2010","granularity":"day","time":"2010/06/09 00:00:00 -0400"},"geo_score":0.75,"country":"United States","id":"a6319kq6x49b","geo_precision":"city","state":"MI"},"type":"Feature","geometry":{"type":"Point","coordinates":[-86.176715,42.96502]}},{"properties":{"city":"Chicago","date":{"end_time":"2010/06/11 00:00:00 -0400","original":"6/10/2010","granularity":"day","time":"2010/06/10 00:00:00 -0400"},"geo_score":0.857,"country":"United States","id":"a6319kvsjd8h","geo_precision":"city","state":"IL"},"type":"Feature","geometry":{"type":"Point","coordinates":[-87.650052,41.850033]}},{"properties":{"city":"Columbus","date":{"end_time":"2010/06/12 00:00:00 -0400","original":"6/11/2010","granularity":"day","time":"2010/06/11 00:00:00 -0400"},"geo_score":0.776,"country":"United States","id":"a6319kltw50j","geo_precision":"city","state":"OH"},"type":"Feature","geometry":{"type":"Point","coordinates":[-82.695724,39.998397]}},{"properties":{"city":"Pittsburgh","date":{"end_time":"2010/06/13 00:00:00 -0400","original":"6/12/2010","granularity":"day","time":"2010/06/12 00:00:00 -0400"},"geo_score":0.857,"country":"United States","id":"a6319kw4q71b","geo_precision":"city","state":"PA"},"type":"Feature","geometry":{"type":"Point","coordinates":[-79.995886,40.440625]}},{"properties":{"city":"Vienna","date":{"end_time":"2010/06/16 00:00:00 -0400","original":"6/15/2010","granularity":"day","time":"2010/06/15 00:00:00 -0400"},"geo_score":0.738,"country":"United States","id":"a6319ksr70m9","geo_precision":"city","state":"VA"},"type":"Feature","geometry":{"type":"Point","coordinates":[-78.397506,38.718729]}},{"properties":{"city":"Philadelphia","date":{"end_time":"2010/06/17 00:00:00 -0400","original":"6/16/2010","granularity":"day","time":"2010/06/16 00:00:00 -0400"},"geo_score":0.857,"country":"United States","id":"a6319kyjlwck","geo_precision":"city","state":"PA"},"type":"Feature","geometry":{"type":"Point","coordinates":[-75.163789,39.952335]}},{"properties":{"city":"New York","date":{"end_time":"2010/06/19 00:00:00 -0400","original":"6/18/2010","granularity":"day","time":"2010/06/18 00:00:00 -0400"},"geo_score":0.857,"country":"United States","id":"a6319kp31wh5","geo_precision":"city","state":"NY"},"type":"Feature","geometry":{"type":"Point","coordinates":[-74.005973,40.714269]}},{"properties":{"city":"Boston","date":{"end_time":"2010/06/20 00:00:00 -0400","original":"6/19/2010","granularity":"day","time":"2010/06/19 00:00:00 -0400"},"geo_score":0.857,"country":"United States","id":"a6319kk2a5jg","geo_precision":"city","state":"MA"},"type":"Feature","geometry":{"type":"Point","coordinates":[-71.059773,42.358431]}},{"properties":{"city":"Fall River","date":{"end_time":"2010/06/21 00:00:00 -0400","original":"6/20/2010","granularity":"day","time":"2010/06/20 00:00:00 -0400"},"geo_score":0.857,"country":"United States","id":"a6319kthj1fg","geo_precision":"city","state":"MA"},"type":"Feature","geometry":{"type":"Point","coordinates":[-71.165971,41.819766]}},{"properties":{"city":"Maryland Heights","date":{"end_time":"2010/07/17 00:00:00 -0400","original":"7/16/2010","granularity":"day","time":"2010/07/16 00:00:00 -0400"},"geo_score":0.857,"country":"United States","id":"a6319kq8ltlg","geo_precision":"city","state":"MO"},"type":"Feature","geometry":{"type":"Point","coordinates":[-90.447418,38.723951]}},{"properties":{"city":"Lake Forest","date":{"end_time":"2010/07/26 00:00:00 -0400","original":"7/25/2010","granularity":"day","time":"2010/07/25 00:00:00 -0400"},"geo_score":0.786,"country":"United States","id":"a6319kwv2jup","geo_precision":"city","state":"CA"},"type":"Feature","geometry":{"type":"Point","coordinates":[-119.755172,37.698261]}},{"properties":{"city":"Portland","date":{"end_time":"2010/09/18 00:00:00 -0400","original":"9/17/2010","granularity":"day","time":"2010/09/17 00:00:00 -0400"},"geo_score":0.857,"country":"United States","id":"a6319ktogq49","geo_precision":"city","state":"OR"},"type":"Feature","geometry":{"type":"Point","coordinates":[-122.676207,45.523452]}},{"properties":{"city":"Seattle","date":{"end_time":"2010/09/19 00:00:00 -0400","original":"9/18/2010","granularity":"day","time":"2010/09/18 00:00:00 -0400"},"geo_score":0.857,"country":"United States","id":"a6319kxphal2","geo_precision":"city","state":"WA"},"type":"Feature","geometry":{"type":"Point","coordinates":[-122.332071,47.60621]}},{"properties":{"city":"Vancouver","date":{"end_time":"2010/09/20 00:00:00 -0400","original":"9/19/2010","granularity":"day","time":"2010/09/19 00:00:00 -0400"},"geo_score":0.714,"country":"Canada","id":"a6319kss8pcl","geo_precision":"city","state":"British Columbia"},"type":"Feature","geometry":{"type":"Point","coordinates":[-122.661486,45.638728]}},{"properties":{"city":"Eugene","date":{"end_time":"2010/09/22 00:00:00 -0400","original":"9/21/2010","granularity":"day","time":"2010/09/21 00:00:00 -0400"},"geo_score":0.857,"country":"United States","id":"a6319klia5cj","geo_precision":"city","state":"OR"},"type":"Feature","geometry":{"type":"Point","coordinates":[-123.086754,44.052069]}},{"properties":{"city":"San Francisco","date":{"end_time":"2010/09/24 00:00:00 -0400","original":"9/23/2010","granularity":"day","time":"2010/09/23 00:00:00 -0400"},"geo_score":0.857,"country":"United States","id":"a6319kw3k1un","geo_precision":"city","state":"CA"},"type":"Feature","geometry":{"type":"Point","coordinates":[-122.419416,37.77493]}},{"properties":{"city":"Santa Barbara","date":{"end_time":"2010/09/25 00:00:00 -0400","original":"9/24/2010","granularity":"day","time":"2010/09/24 00:00:00 -0400"},"geo_score":0.857,"country":"United States","id":"a6319kjxpnj2","geo_precision":"city","state":"CA"},"type":"Feature","geometry":{"type":"Point","coordinates":[-119.69819,34.420831]}},{"properties":{"city":"Anaheim","date":{"end_time":"2010/09/26 00:00:00 -0400","original":"9/25/2010","granularity":"day","time":"2010/09/25 00:00:00 -0400"},"geo_score":0.857,"country":"United States","id":"a6319kuyux4o","geo_precision":"city","state":"CA"},"type":"Feature","geometry":{"type":"Point","coordinates":[-117.914504,33.835293]}},{"properties":{"city":"San Diego","date":{"end_time":"2010/09/27 00:00:00 -0400","original":"9/26/2010","granularity":"day","time":"2010/09/26 00:00:00 -0400"},"geo_score":0.857,"country":"United States","id":"a6319kq0tyoj","geo_precision":"city","state":"CA"},"type":"Feature","geometry":{"type":"Point","coordinates":[-117.157255,32.715329]}},{"properties":{"city":"Scottsdale","date":{"end_time":"2010/09/28 00:00:00 -0400","original":"9/27/2010","granularity":"day","time":"2010/09/27 00:00:00 -0400"},"geo_score":0.857,"country":"United States","id":"a6319kqvh5w7","geo_precision":"city","state":"AZ"},"type":"Feature","geometry":{"type":"Point","coordinates":[-111.899033,33.50921]}},{"properties":{"city":"Dallas","date":{"end_time":"2010/10/02 00:00:00 -0400","original":"10/1/2010","granularity":"day","time":"2010/10/01 00:00:00 -0400"},"geo_score":0.857,"country":"United States","id":"a6319kmwvlp8","geo_precision":"city","state":"TX"},"type":"Feature","geometry":{"type":"Point","coordinates":[-96.806667,32.783056]}},{"properties":{"city":"Austin","date":{"end_time":"2010/10/03 00:00:00 -0400","original":"10/2/2010","granularity":"day","time":"2010/10/02 00:00:00 -0400"},"geo_score":0.857,"country":"United States","id":"a6319krancq7","geo_precision":"city","state":"TX"},"type":"Feature","geometry":{"type":"Point","coordinates":[-97.743061,30.267153]}},{"properties":{"city":"Houston","date":{"end_time":"2010/10/04 00:00:00 -0400","original":"10/3/2010","granularity":"day","time":"2010/10/03 00:00:00 -0400"},"geo_score":0.816,"country":"United States","id":"a6319kojja51","geo_precision":"city","state":"TX"},"type":"Feature","geometry":{"type":"Point","coordinates":[-96.919704,29.845783]}},{"properties":{"city":"Jacksonville","date":{"end_time":"2010/10/07 00:00:00 -0400","original":"10/6/2010","granularity":"day","time":"2010/10/06 00:00:00 -0400"},"geo_score":0.857,"country":"United States","id":"a6319ktaam4e","geo_precision":"city","state":"FL"},"type":"Feature","geometry":{"type":"Point","coordinates":[-81.655651,30.332184]}},{"properties":{"city":"Gainesville","date":{"end_time":"2010/10/08 00:00:00 -0400","original":"10/7/2010","granularity":"day","time":"2010/10/07 00:00:00 -0400"},"geo_score":0.818,"country":"United States","id":"a6319kjoyrcn","geo_precision":"city","state":"FL"},"type":"Feature","geometry":{"type":"Point","coordinates":[-85.354651,30.731305]}},{"properties":{"city":"Orlando","date":{"end_time":"2010/10/09 00:00:00 -0400","original":"10/8/2010","granularity":"day","time":"2010/10/08 00:00:00 -0400"},"geo_score":0.857,"country":"United States","id":"a6319kz4xwgt","geo_precision":"city","state":"FL"},"type":"Feature","geometry":{"type":"Point","coordinates":[-81.379237,28.538336]}},{"properties":{"city":"Denver","date":{"end_time":"2010/11/04 00:00:00 -0400","original":"11/3/2010","granularity":"day","time":"2010/11/03 00:00:00 -0400"},"geo_score":0.857,"country":"United States","id":"a6319kos7u07","geo_precision":"city","state":"CO"},"type":"Feature","geometry":{"type":"Point","coordinates":[-104.984703,39.739154]}},{"properties":{"city":"Lawrence","date":{"end_time":"2010/11/06 00:00:00 -0400","original":"11/5/2010","granularity":"day","time":"2010/11/05 00:00:00 -0400"},"geo_score":0.857,"country":"United States","id":"a6319kwq6rpl","geo_precision":"city","state":"KS"},"type":"Feature","geometry":{"type":"Point","coordinates":[-95.283982,38.907518]}},{"properties":{"city":"St. Louis","date":{"end_time":"2010/11/07 00:00:00 -0400","original":"11/6/2010","granularity":"day","time":"2010/11/06 00:00:00 -0400"},"geo_score":0.0,"country":"United States","id":"a6319knarlsj","geo_precision":"unmatched","state":"MO"},"type":"Feature","geometry":null},{"properties":{"city":"Cedar Falls","date":{"end_time":"2010/11/08 00:00:00 -0500","original":"11/7/2010","granularity":"day","time":"2010/11/07 00:00:00 -0400"},"geo_score":0.729,"country":"United States","id":"a6319kx92y7r","geo_precision":"city","state":"IA"},"type":"Feature","geometry":{"type":"Point","coordinates":[-91.639591,43.392194]}},{"properties":{"city":"Omaha","date":{"end_time":"2010/11/10 00:00:00 -0500","original":"11/9/2010","granularity":"day","time":"2010/11/09 00:00:00 -0500"},"geo_score":0.857,"country":"United States","id":"a6319ktk9t2z","geo_precision":"city","state":"NE"},"type":"Feature","geometry":{"type":"Point","coordinates":[-95.937792,41.25861]}},{"properties":{"city":"Minneapolis","date":{"end_time":"2010/11/12 00:00:00 -0500","original":"11/11/2010","granularity":"day","time":"2010/11/11 00:00:00 -0500"},"geo_score":0.857,"country":"United States","id":"a6319klv825a","geo_precision":"city","state":"MN"},"type":"Feature","geometry":{"type":"Point","coordinates":[-93.263836,44.979965]}},{"properties":{"city":"Madison","date":{"end_time":"2010/11/13 00:00:00 -0500","original":"11/12/2010","granularity":"day","time":"2010/11/12 00:00:00 -0500"},"geo_score":0.857,"country":"United States","id":"a6319ktvy514","geo_precision":"city","state":"WI"},"type":"Feature","geometry":{"type":"Point","coordinates":[-89.40123,43.073052]}},{"properties":{"city":"Champaign","date":{"end_time":"2010/11/14 00:00:00 -0500","original":"11/13/2010","granularity":"day","time":"2010/11/13 00:00:00 -0500"},"geo_score":0.857,"country":"United States","id":"a6319kn5yvwg","geo_precision":"city","state":"IL"},"type":"Feature","geometry":{"type":"Point","coordinates":[-88.243383,40.116421]}},{"properties":{"city":"La Jolla","date":{"end_time":"2010/11/18 00:00:00 -0500","original":"11/17/2010","granularity":"day","time":"2010/11/17 00:00:00 -0500"},"geo_score":0.857,"country":"United States","id":"a6319kn0f55s","geo_precision":"city","state":"CA"},"type":"Feature","geometry":{"type":"Point","coordinates":[-117.876447,33.857515]}},{"properties":{"city":"Los Angeles","date":{"end_time":"2010/12/11 00:00:00 -0500","original":"12/10/2010","granularity":"day","time":"2010/12/10 00:00:00 -0500"},"geo_score":0.857,"country":"United States","id":"a6319kj4ponx","geo_precision":"city","state":"CA"},"type":"Feature","geometry":{"type":"Point","coordinates":[-118.243685,34.052234]}},{"properties":{"city":"Bristol","date":{"end_time":"2011/02/03 00:00:00 -0500","original":"2/2/2011","granularity":"day","time":"2011/02/02 00:00:00 -0500"},"geo_score":0.619,"country":"England","id":"a6319kz1jj32","geo_precision":"city","state":null},"type":"Feature","geometry":{"type":"Point","coordinates":[-89.011192,39.896982]}},{"properties":{"city":"Denver","date":{"end_time":"2011/02/06 00:00:00 -0500","original":"2/5/2011","granularity":"day","time":"2011/02/05 00:00:00 -0500"},"geo_score":0.857,"country":"United States","id":"a6319kwk9pli","geo_precision":"city","state":"CO"},"type":"Feature","geometry":{"type":"Point","coordinates":[-104.984703,39.739154]}},{"properties":{"city":"Austin","date":{"end_time":"2011/03/19 00:00:00 -0400","original":"3/18/2011","granularity":"day","time":"2011/03/18 00:00:00 -0400"},"geo_score":0.857,"country":"United States","id":"a6319ksefm06","geo_precision":"city","state":"TX"},"type":"Feature","geometry":{"type":"Point","coordinates":[-97.743061,30.267153]}},{"properties":{"city":"Austin","date":{"end_time":"2011/03/20 00:00:00 -0400","original":"3/19/2011","granularity":"day","time":"2011/03/19 00:00:00 -0400"},"geo_score":0.857,"country":"United States","id":"a6319kl9rqce","geo_precision":"city","state":"TX"},"type":"Feature","geometry":{"type":"Point","coordinates":[-97.743061,30.267153]}},{"properties":{"city":"Chicago","date":{"end_time":"2011/04/03 00:00:00 -0400","original":"4/2/2011","granularity":"day","time":"2011/04/02 00:00:00 -0400"},"geo_score":0.857,"country":"United States","id":"a6319kr3w3wd","geo_precision":"city","state":"IL"},"type":"Feature","geometry":{"type":"Point","coordinates":[-87.650052,41.850033]}},{"properties":{"city":"Ann Arbor","date":{"end_time":"2011/04/06 00:00:00 -0400","original":"4/5/2011","granularity":"day","time":"2011/04/05 00:00:00 -0400"},"geo_score":0.75,"country":"United States","id":"a6319kiyry2f","geo_precision":"city","state":"MI"},"type":"Feature","geometry":{"type":"Point","coordinates":[-86.176715,42.96502]}},{"properties":{"city":"Toronto","date":{"end_time":"2011/04/07 00:00:00 -0400","original":"4/6/2011","granularity":"day","time":"2011/04/06 00:00:00 -0400"},"geo_score":0.633,"country":"United States","id":"a6319kx3fmst","geo_precision":"city","state":"Ontario"},"type":"Feature","geometry":{"type":"Point","coordinates":[-86.768002,33.594533]}},{"properties":{"city":"New York","date":{"end_time":"2011/04/09 00:00:00 -0400","original":"4/8/2011","granularity":"day","time":"2011/04/08 00:00:00 -0400"},"geo_score":0.857,"country":"United States","id":"a6319kren1nd","geo_precision":"city","state":"NY"},"type":"Feature","geometry":{"type":"Point","coordinates":[-74.005973,40.714269]}},{"properties":{"city":"New York","date":{"end_time":"2011/04/10 00:00:00 -0400","original":"4/9/2011","granularity":"day","time":"2011/04/09 00:00:00 -0400"},"geo_score":0.857,"country":"United States","id":"a6319kvpstoj","geo_precision":"city","state":"NY"},"type":"Feature","geometry":{"type":"Point","coordinates":[-74.005973,40.714269]}},{"properties":{"city":"Northampton","date":{"end_time":"2011/04/12 00:00:00 -0400","original":"4/11/2011","granularity":"day","time":"2011/04/11 00:00:00 -0400"},"geo_score":0.857,"country":"United States","id":"a6319ktcv02p","geo_precision":"city","state":"MA"},"type":"Feature","geometry":{"type":"Point","coordinates":[-72.76927,42.415154]}},{"properties":{"city":"Montreal","date":{"end_time":"2011/04/13 00:00:00 -0400","original":"4/12/2011","granularity":"day","time":"2011/04/12 00:00:00 -0400"},"geo_score":0.714,"country":"Canada","id":"a6319km3br2g","geo_precision":"city","state":"Quebec"},"type":"Feature","geometry":{"type":"Point","coordinates":[-94.348548,35.117596]}},{"properties":{"city":"South Burlington","date":{"end_time":"2011/04/14 00:00:00 -0400","original":"4/13/2011","granularity":"day","time":"2011/04/13 00:00:00 -0400"},"geo_score":0.743,"country":"United States","id":"a6319kueux6o","geo_precision":"city","state":"VT"},"type":"Feature","geometry":{"type":"Point","coordinates":[-72.575941,44.21006]}},{"properties":{"city":"Boston","date":{"end_time":"2011/04/16 00:00:00 -0400","original":"4/15/2011","granularity":"day","time":"2011/04/15 00:00:00 -0400"},"geo_score":0.857,"country":"United States","id":"a6319kl624pt","geo_precision":"city","state":"MA"},"type":"Feature","geometry":{"type":"Point","coordinates":[-71.059773,42.358431]}},{"properties":{"city":"Philadelphia","date":{"end_time":"2011/04/17 00:00:00 -0400","original":"4/16/2011","granularity":"day","time":"2011/04/16 00:00:00 -0400"},"geo_score":0.857,"country":"United States","id":"a6319knfj3ob","geo_precision":"city","state":"PA"},"type":"Feature","geometry":{"type":"Point","coordinates":[-75.163789,39.952335]}},{"properties":{"city":"Vienna","date":{"end_time":"2011/04/18 00:00:00 -0400","original":"4/17/2011","granularity":"day","time":"2011/04/17 00:00:00 -0400"},"geo_score":0.738,"country":"United States","id":"a6319ku3fkhu","geo_precision":"city","state":"VA"},"type":"Feature","geometry":{"type":"Point","coordinates":[-78.397506,38.718729]}},{"properties":{"city":"Ashland","date":{"end_time":"2011/04/21 00:00:00 -0400","original":"4/20/2011","granularity":"day","time":"2011/04/20 00:00:00 -0400"},"geo_score":0.857,"country":"United States","id":"a6319kvm48xu","geo_precision":"city","state":"VA"},"type":"Feature","geometry":{"type":"Point","coordinates":[-77.480128,37.754912]}},{"properties":{"city":"Carrboro","date":{"end_time":"2011/04/23 00:00:00 -0400","original":"4/22/2011","granularity":"day","time":"2011/04/22 00:00:00 -0400"},"geo_score":0.857,"country":"United States","id":"a6319kr5h82y","geo_precision":"city","state":"NC"},"type":"Feature","geometry":{"type":"Point","coordinates":[-79.090077,35.905477]}},{"properties":{"city":"Atlanta","date":{"end_time":"2011/04/24 00:00:00 -0400","original":"4/23/2011","granularity":"day","time":"2011/04/23 00:00:00 -0400"},"geo_score":0.857,"country":"United States","id":"a6319kwympy4","geo_precision":"city","state":"GA"},"type":"Feature","geometry":{"type":"Point","coordinates":[-84.387982,33.748995]}},{"properties":{"city":"New Orleans","date":{"end_time":"2011/04/26 00:00:00 -0400","original":"4/25/2011","granularity":"day","time":"2011/04/25 00:00:00 -0400"},"geo_score":0.857,"country":"United States","id":"a6319krlk4wx","geo_precision":"city","state":"LA"},"type":"Feature","geometry":{"type":"Point","coordinates":[-89.930956,30.068812]}},{"properties":{"city":"Houston","date":{"end_time":"2011/04/29 00:00:00 -0400","original":"4/28/2011","granularity":"day","time":"2011/04/28 00:00:00 -0400"},"geo_score":0.816,"country":"United States","id":"a6319kxeu4np","geo_precision":"city","state":"TX"},"type":"Feature","geometry":{"type":"Point","coordinates":[-96.919704,29.845783]}},{"properties":{"city":"Austin","date":{"end_time":"2011/04/30 00:00:00 -0400","original":"4/29/2011","granularity":"day","time":"2011/04/29 00:00:00 -0400"},"geo_score":0.857,"country":"United States","id":"a6319krhl80m","geo_precision":"city","state":"TX"},"type":"Feature","geometry":{"type":"Point","coordinates":[-97.743061,30.267153]}},{"properties":{"city":"Dallas","date":{"end_time":"2011/05/01 00:00:00 -0400","original":"4/30/2011","granularity":"day","time":"2011/04/30 00:00:00 -0400"},"geo_score":0.857,"country":"United States","id":"a6319kj16b8g","geo_precision":"city","state":"TX"},"type":"Feature","geometry":{"type":"Point","coordinates":[-96.806667,32.783056]}},{"properties":{"city":"San Francisco","date":{"end_time":"2011/05/11 00:00:00 -0400","original":"5/10/2011","granularity":"day","time":"2011/05/10 00:00:00 -0400"},"geo_score":0.857,"country":"United States","id":"a6319krvps5q","geo_precision":"city","state":"CA"},"type":"Feature","geometry":{"type":"Point","coordinates":[-122.419416,37.77493]}},{"properties":{"city":"San Francisco","date":{"end_time":"2011/05/12 00:00:00 -0400","original":"5/11/2011","granularity":"day","time":"2011/05/11 00:00:00 -0400"},"geo_score":0.857,"country":"United States","id":"a6319ku39xa4","geo_precision":"city","state":"CA"},"type":"Feature","geometry":{"type":"Point","coordinates":[-122.419416,37.77493]}},{"properties":{"city":"Eugene","date":{"end_time":"2011/05/13 00:00:00 -0400","original":"5/12/2011","granularity":"day","time":"2011/05/12 00:00:00 -0400"},"geo_score":0.857,"country":"United States","id":"a6319kty8syx","geo_precision":"city","state":"OR"},"type":"Feature","geometry":{"type":"Point","coordinates":[-123.086754,44.052069]}},{"properties":{"city":"Portland","date":{"end_time":"2011/05/14 00:00:00 -0400","original":"5/13/2011","granularity":"day","time":"2011/05/13 00:00:00 -0400"},"geo_score":0.857,"country":"United States","id":"a6319kxm4yy9","geo_precision":"city","state":"OR"},"type":"Feature","geometry":{"type":"Point","coordinates":[-122.676207,45.523452]}},{"properties":{"city":"Seattle","date":{"end_time":"2011/05/15 00:00:00 -0400","original":"5/14/2011","granularity":"day","time":"2011/05/14 00:00:00 -0400"},"geo_score":0.857,"country":"United States","id":"a6319kngaw7i","geo_precision":"city","state":"WA"},"type":"Feature","geometry":{"type":"Point","coordinates":[-122.332071,47.60621]}},{"properties":{"city":"Vancouver","date":{"end_time":"2011/05/16 00:00:00 -0400","original":"5/15/2011","granularity":"day","time":"2011/05/15 00:00:00 -0400"},"geo_score":0.714,"country":"Canada","id":"a6319knr3gpg","geo_precision":"city","state":"British Columbia"},"type":"Feature","geometry":{"type":"Point","coordinates":[-122.661486,45.638728]}},{"properties":{"city":"San Diego","date":{"end_time":"2011/05/20 00:00:00 -0400","original":"5/19/2011","granularity":"day","time":"2011/05/19 00:00:00 -0400"},"geo_score":0.857,"country":"United States","id":"a6319klszq8w","geo_precision":"city","state":"CA"},"type":"Feature","geometry":{"type":"Point","coordinates":[-117.157255,32.715329]}},{"properties":{"city":"Los Angeles","date":{"end_time":"2011/05/21 00:00:00 -0400","original":"5/20/2011","granularity":"day","time":"2011/05/20 00:00:00 -0400"},"geo_score":0.857,"country":"United States","id":"a6319kmrk1hp","geo_precision":"city","state":"CA"},"type":"Feature","geometry":{"type":"Point","coordinates":[-118.243685,34.052234]}},{"properties":{"city":"Lake Forest","date":{"end_time":"2011/07/25 00:00:00 -0400","original":"7/24/2011","granularity":"day","time":"2011/07/24 00:00:00 -0400"},"geo_score":0.771,"country":"United States","id":"a6319krmv4pc","geo_precision":"city","state":"VA"},"type":"Feature","geometry":{"type":"Point","coordinates":[-76.469675,37.974297]}},{"properties":{"city":"New York","date":{"end_time":"2011/07/27 00:00:00 -0400","original":"7/26/2011","granularity":"day","time":"2011/07/26 00:00:00 -0400"},"geo_score":0.857,"country":"United States","id":"a6319klm367w","geo_precision":"city","state":"NY"},"type":"Feature","geometry":{"type":"Point","coordinates":[-74.005973,40.714269]}},{"properties":{"city":"Los Angeles","date":{"end_time":"2011/07/29 00:00:00 -0400","original":"7/28/2011","granularity":"day","time":"2011/07/28 00:00:00 -0400"},"geo_score":0.857,"country":"United States","id":"a6319kxnn2kw","geo_precision":"city","state":"CA"},"type":"Feature","geometry":{"type":"Point","coordinates":[-118.243685,34.052234]}},{"properties":{"city":"Hua Hin","date":{"end_time":"2011/08/28 00:00:00 -0400","original":"8/27/2011","granularity":"day","time":"2011/08/27 00:00:00 -0400"},"geo_score":0.619,"country":"Thailand","id":"a6319km8vp6f","geo_precision":"city","state":null},"type":"Feature","geometry":{"type":"Point","coordinates":[-156.006944,20.6975]}},{"properties":{"city":"Dublin","date":{"end_time":"2011/10/02 00:00:00 -0400","original":"10/1/2011","granularity":"day","time":"2011/10/01 00:00:00 -0400"},"geo_score":0.714,"country":"Ireland","id":"a6319kizhrui","geo_precision":"city","state":null},"type":"Feature","geometry":{"type":"Point","coordinates":[-86.159128,32.032094]}},{"properties":{"city":"London","date":{"end_time":"2011/10/05 00:00:00 -0400","original":"10/4/2011","granularity":"day","time":"2011/10/04 00:00:00 -0400"},"geo_score":0.714,"country":"England","id":"a6319kqirw69","geo_precision":"city","state":null},"type":"Feature","geometry":{"type":"Point","coordinates":[-86.050237,32.273198]}},{"properties":{"city":"London","date":{"end_time":"2011/10/06 00:00:00 -0400","original":"10/5/2011","granularity":"day","time":"2011/10/05 00:00:00 -0400"},"geo_score":0.714,"country":"England","id":"a6319ku6fmdw","geo_precision":"city","state":null},"type":"Feature","geometry":{"type":"Point","coordinates":[-86.050237,32.273198]}},{"properties":{"city":"Paris","date":{"end_time":"2011/10/07 00:00:00 -0400","original":"10/6/2011","granularity":"day","time":"2011/10/06 00:00:00 -0400"},"geo_score":0.629,"country":"France","id":"a6319kjlvmdg","geo_precision":"city","state":null},"type":"Feature","geometry":{"type":"Point","coordinates":[-92.933507,34.46259]}},{"properties":{"city":"Amsterdam","date":{"end_time":"2011/10/09 00:00:00 -0400","original":"10/8/2011","granularity":"day","time":"2011/10/08 00:00:00 -0400"},"geo_score":0.714,"country":"Holland","id":"a6319krvpc44","geo_precision":"city","state":null},"type":"Feature","geometry":{"type":"Point","coordinates":[-84.435742,30.727416]}},{"properties":{"city":"Zurich","date":{"end_time":"2011/10/12 00:00:00 -0400","original":"10/11/2011","granularity":"day","time":"2011/10/11 00:00:00 -0400"},"geo_score":0.714,"country":"Switzerland","id":"a6319kno8y50","geo_precision":"city","state":null},"type":"Feature","geometry":{"type":"Point","coordinates":[-99.438161,39.234454]}},{"properties":{"city":"Colgne","date":{"end_time":"2011/10/13 00:00:00 -0400","original":"10/12/2011","granularity":"day","time":"2011/10/12 00:00:00 -0400"},"geo_score":0.667,"country":"Germany","id":"a6319kqvb8tq","geo_precision":"city","state":null},"type":"Feature","geometry":{"type":"Point","coordinates":[-86.901516,33.94131]}},{"properties":{"city":"Berlin","date":{"end_time":"2011/10/15 00:00:00 -0400","original":"10/14/2011","granularity":"day","time":"2011/10/14 00:00:00 -0400"},"geo_score":0.714,"country":"Germany","id":"a6319ksphi2y","geo_precision":"city","state":null},"type":"Feature","geometry":{"type":"Point","coordinates":[-86.74222,34.181486]}},{"properties":{"city":"Copenhagen","date":{"end_time":"2011/10/16 00:00:00 -0400","original":"10/15/2011","granularity":"day","time":"2011/10/15 00:00:00 -0400"},"geo_score":0.714,"country":"Demark","id":"a6319kkytkbh","geo_precision":"city","state":null},"type":"Feature","geometry":{"type":"Point","coordinates":[-92.039023,32.02377]}},{"properties":{"city":"Brussels","date":{"end_time":"2011/10/19 00:00:00 -0400","original":"10/18/2011","granularity":"day","time":"2011/10/18 00:00:00 -0400"},"geo_score":0.619,"country":"Beligum","id":"a6319kywfay9","geo_precision":"city","state":null},"type":"Feature","geometry":{"type":"Point","coordinates":[-91.070378,29.959924]}},{"properties":{"city":"London","date":{"end_time":"2011/10/22 00:00:00 -0400","original":"10/21/2011","granularity":"day","time":"2011/10/21 00:00:00 -0400"},"geo_score":0.714,"country":"England","id":"a6319ks5fht0","geo_precision":"city","state":null},"type":"Feature","geometry":{"type":"Point","coordinates":[-86.050237,32.273198]}},{"properties":{"city":"Los Angeles","date":{"end_time":"2011/11/03 00:00:00 -0400","original":"11/2/2011","granularity":"day","time":"2011/11/02 00:00:00 -0400"},"geo_score":0.857,"country":"United States","id":"a6319kqtopq9","geo_precision":"city","state":"CA"},"type":"Feature","geometry":{"type":"Point","coordinates":[-118.243685,34.052234]}},{"properties":{"city":"Dublin","date":{"end_time":"2012/02/02 00:00:00 -0500","original":"2/1/2012","granularity":"day","time":"2012/02/01 00:00:00 -0500"},"geo_score":0.714,"country":"Ireland","id":"a6319ktfqug3","geo_precision":"city","state":null},"type":"Feature","geometry":{"type":"Point","coordinates":[-86.159128,32.032094]}},{"properties":{"city":"Glasgow","date":{"end_time":"2012/02/03 00:00:00 -0500","original":"2/2/2012","granularity":"day","time":"2012/02/02 00:00:00 -0500"},"geo_score":0.714,"country":"Scotland","id":"a6319kpeujxt","geo_precision":"city","state":null},"type":"Feature","geometry":{"type":"Point","coordinates":[-75.745212,39.604834]}},{"properties":{"city":"Manchester","date":{"end_time":"2012/02/04 00:00:00 -0500","original":"2/3/2012","granularity":"day","time":"2012/02/03 00:00:00 -0500"},"geo_score":0.714,"country":"England","id":"a6319kjfmsd5","geo_precision":"city","state":null},"type":"Feature","geometry":{"type":"Point","coordinates":[-71.454789,42.99564]}},{"properties":{"city":"Norwich","date":{"end_time":"2012/02/06 00:00:00 -0500","original":"2/5/2012","granularity":"day","time":"2012/02/05 00:00:00 -0500"},"geo_score":0.714,"country":"England","id":"a6319krm4s0y","geo_precision":"city","state":null},"type":"Feature","geometry":{"type":"Point","coordinates":[-95.256651,40.742495]}},{"properties":{"city":"Birmingham","date":{"end_time":"2012/02/07 00:00:00 -0500","original":"2/6/2012","granularity":"day","time":"2012/02/06 00:00:00 -0500"},"geo_score":0.714,"country":"England","id":"a6319kurivcu","geo_precision":"city","state":null},"type":"Feature","geometry":{"type":"Point","coordinates":[-86.80249,33.520661]}},{"properties":{"city":"Bristol","date":{"end_time":"2012/02/08 00:00:00 -0500","original":"2/7/2012","granularity":"day","time":"2012/02/07 00:00:00 -0500"},"geo_score":0.619,"country":"England","id":"a6319kprqq0j","geo_precision":"city","state":null},"type":"Feature","geometry":{"type":"Point","coordinates":[-89.011192,39.896982]}},{"properties":{"city":"London","date":{"end_time":"2012/02/10 00:00:00 -0500","original":"2/9/2012","granularity":"day","time":"2012/02/09 00:00:00 -0500"},"geo_score":0.714,"country":"England","id":"a6319ksfc7f5","geo_precision":"city","state":null},"type":"Feature","geometry":{"type":"Point","coordinates":[-86.050237,32.273198]}},{"properties":{"city":"Amsterdam","date":{"end_time":"2012/02/12 00:00:00 -0500","original":"2/11/2012","granularity":"day","time":"2012/02/11 00:00:00 -0500"},"geo_score":0.714,"country":"Holland","id":"a6319kjrzs3y","geo_precision":"city","state":null},"type":"Feature","geometry":{"type":"Point","coordinates":[-84.435742,30.727416]}},{"properties":{"city":"Brussels","date":{"end_time":"2012/02/14 00:00:00 -0500","original":"2/13/2012","granularity":"day","time":"2012/02/13 00:00:00 -0500"},"geo_score":0.619,"country":"Beligum","id":"a6319kz56ylw","geo_precision":"city","state":null},"type":"Feature","geometry":{"type":"Point","coordinates":[-91.070378,29.959924]}},{"properties":{"city":"Cologne","date":{"end_time":"2012/02/15 00:00:00 -0500","original":"2/14/2012","granularity":"day","time":"2012/02/14 00:00:00 -0500"},"geo_score":0.673,"country":"Germany","id":"a6319kkd5glm","geo_precision":"city","state":null},"type":"Feature","geometry":{"type":"Point","coordinates":[-86.901516,33.94131]}},{"properties":{"city":"Paris","date":{"end_time":"2012/02/16 00:00:00 -0500","original":"2/15/2012","granularity":"day","time":"2012/02/15 00:00:00 -0500"},"geo_score":0.629,"country":"France","id":"a6319kw9pk4u","geo_precision":"city","state":null},"type":"Feature","geometry":{"type":"Point","coordinates":[-92.933507,34.46259]}},{"properties":{"city":"Lausanne","date":{"end_time":"2012/02/18 00:00:00 -0500","original":"2/17/2012","granularity":"day","time":"2012/02/17 00:00:00 -0500"},"geo_score":0.643,"country":"Switzerland","id":"a6319kj8ja29","geo_precision":"city","state":null},"type":"Feature","geometry":{"type":"Point","coordinates":[-105.627501,39.765821]}},{"properties":{"city":"Munich","date":{"end_time":"2012/02/29 00:00:00 -0500","original":"2/28/2012","granularity":"day","time":"2012/02/28 00:00:00 -0500"},"geo_score":0.667,"country":"Germany","id":"a6319krerzyt","geo_precision":"city","state":null},"type":"Feature","geometry":{"type":"Point","coordinates":[-78.324458,39.973417]}},{"properties":{"city":"Berlin","date":{"end_time":"2012/02/21 00:00:00 -0500","original":"2/20/2012","granularity":"day","time":"2012/02/20 00:00:00 -0500"},"geo_score":0.714,"country":"Germany","id":"a6319koxsowz","geo_precision":"city","state":null},"type":"Feature","geometry":{"type":"Point","coordinates":[-86.74222,34.181486]}},{"properties":{"city":"Hamburg","date":{"end_time":"2012/02/22 00:00:00 -0500","original":"2/21/2012","granularity":"day","time":"2012/02/21 00:00:00 -0500"},"geo_score":0.714,"country":"Germany","id":"a6319kurligy","geo_precision":"city","state":null},"type":"Feature","geometry":{"type":"Point","coordinates":[-87.286386,32.527911]}},{"properties":{"city":"Copenhagen","date":{"end_time":"2012/02/23 00:00:00 -0500","original":"2/22/2012","granularity":"day","time":"2012/02/22 00:00:00 -0500"},"geo_score":0.714,"country":"Demark","id":"a6319kpevdjl","geo_precision":"city","state":null},"type":"Feature","geometry":{"type":"Point","coordinates":[-92.039023,32.02377]}},{"properties":{"city":"Barcelona","date":{"end_time":"2012/02/25 00:00:00 -0500","original":"2/24/2012","granularity":"day","time":"2012/02/24 00:00:00 -0500"},"geo_score":0.651,"country":"Spain","id":"a6319ko0imm4","geo_precision":"city","state":null},"type":"Feature","geometry":{"type":"Point","coordinates":[-123.900031,40.107922]}},{"properties":{"city":"Madrid","date":{"end_time":"2012/02/26 00:00:00 -0500","original":"2/25/2012","granularity":"day","time":"2012/02/25 00:00:00 -0500"},"geo_score":0.714,"country":"Spain","id":"a6319kjis7ge","geo_precision":"city","state":null},"type":"Feature","geometry":{"type":"Point","coordinates":[-106.642257,37.126953]}},{"properties":{"city":"Hong Kong","date":{"end_time":"2012/03/12 00:00:00 -0400","original":"3/11/2012","granularity":"day","time":"2012/03/11 00:00:00 -0500"},"geo_score":0.643,"country":"China","id":"a6319kxc63ht","geo_precision":"city","state":null},"type":"Feature","geometry":{"type":"Point","coordinates":[-76.229666,38.344567]}},{"properties":{"city":"Kuala Lumpur","date":{"end_time":"2012/03/14 00:00:00 -0400","original":"3/13/2012","granularity":"day","time":"2012/03/13 00:00:00 -0400"},"geo_score":0.61,"country":"Malaysia","id":"a6319ksx7r3n","geo_precision":"city","state":null},"type":"Feature","geometry":{"type":"Point","coordinates":[-85.655213,31.323783]}},{"properties":{"city":"Manila","date":{"end_time":"2012/03/16 00:00:00 -0400","original":"3/15/2012","granularity":"day","time":"2012/03/15 00:00:00 -0400"},"geo_score":0.653,"country":"Philippines","id":"a6319kp6tm0j","geo_precision":"city","state":null},"type":"Feature","geometry":{"type":"Point","coordinates":[-87.63388,31.279615]}},{"properties":{"city":"Jakarta","date":{"end_time":"2012/03/19 00:00:00 -0400","original":"3/18/2012","granularity":"day","time":"2012/03/18 00:00:00 -0400"},"geo_score":0.0,"country":"Indonesia","id":"a6319knrrr7m","geo_precision":"unmatched","state":null},"type":"Feature","geometry":null},{"properties":{"city":"Singapore","date":{"end_time":"2012/03/20 00:00:00 -0400","original":"3/19/2012","granularity":"day","time":"2012/03/19 00:00:00 -0400"},"geo_score":0.0,"country":"Singapore","id":"a6319kt89hmm","geo_precision":"unmatched","state":null},"type":"Feature","geometry":null},{"properties":{"city":"Sydney","date":{"end_time":"2012/03/24 00:00:00 -0400","original":"3/23/2012","granularity":"day","time":"2012/03/23 00:00:00 -0400"},"geo_score":0.69,"country":"Australia","id":"a6319ko7v3kt","geo_precision":"city","state":null},"type":"Feature","geometry":{"type":"Point","coordinates":[-88.234451,31.067957]}},{"properties":{"city":"Sydney","date":{"end_time":"2012/03/25 00:00:00 -0400","original":"3/24/2012","granularity":"day","time":"2012/03/24 00:00:00 -0400"},"geo_score":0.69,"country":"Australia","id":"a6319kkqegns","geo_precision":"city","state":null},"type":"Feature","geometry":{"type":"Point","coordinates":[-88.234451,31.067957]}},{"properties":{"city":"Sydney","date":{"end_time":"2012/03/26 00:00:00 -0400","original":"3/25/2012","granularity":"day","time":"2012/03/25 00:00:00 -0400"},"geo_score":0.69,"country":"Australia","id":"a6319kuy2gnh","geo_precision":"city","state":null},"type":"Feature","geometry":{"type":"Point","coordinates":[-88.234451,31.067957]}},{"properties":{"city":"Brisbane","date":{"end_time":"2012/03/29 00:00:00 -0400","original":"3/28/2012","granularity":"day","time":"2012/03/28 00:00:00 -0400"},"geo_score":0.679,"country":"Australia","id":"a6319knaqbj1","geo_precision":"city","state":null},"type":"Feature","geometry":{"type":"Point","coordinates":[-81.306221,31.917155]}},{"properties":{"city":"Melbourne","date":{"end_time":"2012/03/30 00:00:00 -0400","original":"3/29/2012","granularity":"day","time":"2012/03/29 00:00:00 -0400"},"geo_score":0.714,"country":"Australia","id":"a6319kl2zngq","geo_precision":"city","state":null},"type":"Feature","geometry":{"type":"Point","coordinates":[-80.608109,28.083627]}},{"properties":{"city":"Melbourne","date":{"end_time":"2012/03/31 00:00:00 -0400","original":"3/30/2012","granularity":"day","time":"2012/03/30 00:00:00 -0400"},"geo_score":0.714,"country":"Australia","id":"a6319kq8isgl","geo_precision":"city","state":null},"type":"Feature","geometry":{"type":"Point","coordinates":[-80.608109,28.083627]}}],"is_temporal":true,"author":{"url":"http://www.kinagrannis.com/shows","metadata":"","contact_name":"","contact_address":"","source":"","contact_phone":""},"source":"http://www.kinagrannis.com/shows","pagination":{"sort":null,"start":0,"total":119,"limit":1000000},"state":"complete","tags":"","published":"2012-04-03T17:33:28Z","id":223682}