{"type":"FeatureCollection","data_type":"Dataset","url_type":null,"permissions":[{"permissions":{"download":true,"edit":true,"view":true},"group_id":"everyone"}],"classification":null,"title":"New York State Crime Rates 2010","count":62,"stream_id":223677,"contributor":{"url":"http://geocommons.com/users/42767","name":"HartWA"},"data_attributes":null,"calculation_params":null,"icon_link":null,"link":"http://geocommons.com/overlays/223677.json","extent":[-79.0194,40.5201,-73.3774,44.9327],"geometry_types":["point"],"unique_name":null,"name":"New York State Crime Rates 2010","feature_count":62,"description":"","next_feature":null,"is_raster":false,"short_classification":"Y","stats":{"property rate":{"max":3489.9,"mean":1961.03548387097,"variance":380550.301015336,"stdev":616.887591879862,"min":878.4,"median":1869.1},"violent count":{"max":16514,"mean":1222.32258064516,"variance":9087778.12374405,"stdev":3014.59418889907,"min":4,"median":158},"index rate":{"max":3984.5,"mean":2180.8564516129,"variance":483547.654301957,"stdev":695.375908629251,"min":947.5,"median":2135.6},"property count":{"max":42468,"mean":6026.66129032258,"variance":96382234.6866737,"stdev":9817.44542570386,"min":48,"median":1787},"index count":{"max":57172,"mean":7248.98387096774,"variance":156369327.622686,"stdev":12504.772193954,"min":52,"median":1955},"2010 population":{"max":2550004,"mean":312486.451612903,"variance":292923651454.678,"stdev":541224.215510243,"min":4824,"median":90027},"violent rate":{"max":869.6,"mean":219.81935483871,"variance":23546.8219143311,"stdev":153.449737420209,"min":54.2,"median":183.7}},"features":[{"properties":{"property rate":3338.3,"county":"Albany","index rate":3740.3,"violent count":1187,"property count":9857,"geo_score":0.857,"2010 population":295267,"index count":11044,"id":"a621gf052cb9","violent rate":402.0,"geo_precision":"city","state":"NY"},"type":"Feature","geometry":{"type":"Point","coordinates":[-73.756232,42.652579]}},{"properties":{"property rate":1537.2,"county":"Allegany","index rate":1720.5,"violent count":89,"property count":746,"geo_score":0.768,"2010 population":48531,"index count":835,"id":"a621getgawl6","violent rate":183.4,"geo_precision":"city","state":"NY"},"type":"Feature","geometry":{"type":"Point","coordinates":[-77.144975,42.860899]}},{"properties":{"property rate":1580.6,"county":"Bronx","index rate":2450.2,"violent count":12070,"property count":21938,"geo_score":0.857,"2010 population":1387983,"index count":34008,"id":"a621gezj8h3t","violent rate":869.6,"geo_precision":"city","state":"NY"},"type":"Feature","geometry":{"type":"Point","coordinates":[-73.920355,40.819329]}},{"properties":{"property rate":2973.5,"county":"Broome","index rate":3233.6,"violent count":499,"property count":5706,"geo_score":0.0,"2010 population":191892,"index count":6205,"id":"a621gf0oixky","violent rate":260.0,"geo_precision":"unmatched","state":"NY"},"type":"Feature","geometry":null},{"properties":{"property rate":2378.5,"county":"Cattaraugus","index rate":2614.8,"violent count":181,"property count":1822,"geo_score":0.77,"2010 population":76602,"index count":2003,"id":"a621gf5mmr1t","violent rate":236.3,"geo_precision":"city","state":"NY"},"type":"Feature","geometry":{"type":"Point","coordinates":[-79.019438,42.538132]}},{"properties":{"property rate":2048.5,"county":"Cayuga","index rate":2250.0,"violent count":158,"property count":1606,"geo_score":0.857,"2010 population":78400,"index count":1764,"id":"a621geyp8adc","violent rate":201.5,"geo_precision":"city","state":"NY"},"type":"Feature","geometry":{"type":"Point","coordinates":[-76.676419,42.924315]}},{"properties":{"property rate":2702.2,"county":"Chautauqua","index rate":2939.6,"violent count":312,"property count":3551,"geo_score":0.786,"2010 population":131411,"index count":3863,"id":"a621gezf6czg","violent rate":237.4,"geo_precision":"city","state":"NY"},"type":"Feature","geometry":{"type":"Point","coordinates":[-74.068371,44.932727]}},{"properties":{"property rate":2155.7,"county":"Chemung","index rate":2388.8,"violent count":203,"property count":1877,"geo_score":0.857,"2010 population":87073,"index count":2080,"id":"a621gezgund1","violent rate":233.1,"geo_precision":"city","state":"NY"},"type":"Feature","geometry":{"type":"Point","coordinates":[-76.607029,42.052426]}},{"properties":{"property rate":1844.8,"county":"Chenango","index rate":1952.9,"violent count":54,"property count":922,"geo_score":0.839,"2010 population":49978,"index count":976,"id":"a621getwxmi9","violent rate":108.0,"geo_precision":"city","state":"NY"},"type":"Feature","geometry":{"type":"Point","coordinates":[-75.998535,42.659791]}},{"properties":{"property rate":2154.0,"county":"Clinton","index rate":2261.5,"violent count":87,"property count":1742,"geo_score":0.786,"2010 population":80874,"index count":1829,"id":"a621ges3gt3g","violent rate":107.6,"geo_precision":"city","state":"NY"},"type":"Feature","geometry":{"type":"Point","coordinates":[-73.734009,42.618969]}},{"properties":{"property rate":1720.8,"county":"Columbia","index rate":1865.6,"violent count":88,"property count":1046,"geo_score":0.0,"2010 population":60786,"index count":1134,"id":"a621gf3l7jwj","violent rate":144.8,"geo_precision":"unmatched","state":"NY"},"type":"Feature","geometry":null},{"properties":{"property rate":2111.8,"county":"Cortland","index rate":2248.9,"violent count":65,"property count":1001,"geo_score":0.796,"2010 population":47401,"index count":1066,"id":"a621gf1um0k3","violent rate":137.1,"geo_precision":"city","state":"NY"},"type":"Feature","geometry":{"type":"Point","coordinates":[-73.893116,41.284044]}},{"properties":{"property rate":1595.6,"county":"Delaware","index rate":1734.2,"violent count":61,"property count":702,"geo_score":0.0,"2010 population":43997,"index count":763,"id":"a621ges596ol","violent rate":138.6,"geo_precision":"unmatched","state":"NY"},"type":"Feature","geometry":null},{"properties":{"property rate":1705.8,"county":"Dutchess","index rate":1949.6,"violent count":711,"property count":4973,"geo_score":0.75,"2010 population":291541,"index count":5684,"id":"a621gex24kj1","violent rate":243.9,"geo_precision":"city","state":"NY"},"type":"Feature","geometry":{"type":"Point","coordinates":[-76.251041,43.512847]}},{"properties":{"property rate":3131.6,"county":"Erie","index rate":3637.5,"violent count":4528,"property count":28033,"geo_score":0.0,"2010 population":895158,"index count":32561,"id":"a621geypj9la","violent rate":505.8,"geo_precision":"unmatched","state":"NY"},"type":"Feature","geometry":null},{"properties":{"property rate":1351.4,"county":"Essex","index rate":1454.2,"violent count":37,"property count":486,"geo_score":0.857,"2010 population":35964,"index count":523,"id":"a621gespu3hv","violent rate":102.9,"geo_precision":"city","state":"NY"},"type":"Feature","geometry":{"type":"Point","coordinates":[-73.377434,44.273412]}},{"properties":{"property rate":1783.1,"county":"Franklin","index rate":1897.9,"violent count":57,"property count":885,"geo_score":0.818,"2010 population":49634,"index count":942,"id":"a621geuzwbri","violent rate":114.8,"geo_precision":"city","state":"NY"},"type":"Feature","geometry":{"type":"Point","coordinates":[-74.303474,42.52091]}},{"properties":{"property rate":2881.6,"county":"Fulton","index rate":3108.0,"violent count":123,"property count":1566,"geo_score":0.857,"2010 population":54344,"index count":1689,"id":"a621gf4jgjr2","violent rate":226.3,"geo_precision":"city","state":"NY"},"type":"Feature","geometry":{"type":"Point","coordinates":[-76.227027,43.345255]}},{"properties":{"property rate":2384.3,"county":"Genesee","index rate":2572.5,"violent count":107,"property count":1356,"geo_score":0.837,"2010 population":56871,"index count":1463,"id":"a621gf6ln9da","violent rate":188.1,"geo_precision":"city","state":"NY"},"type":"Feature","geometry":{"type":"Point","coordinates":[-77.777872,42.783801]}},{"properties":{"property rate":1501.7,"county":"Greene","index rate":1691.5,"violent count":92,"property count":728,"geo_score":0.738,"2010 population":48478,"index count":820,"id":"a621gf2q8ilv","violent rate":189.8,"geo_precision":"city","state":"NY"},"type":"Feature","geometry":{"type":"Point","coordinates":[-73.854333,40.748751]}},{"properties":{"property rate":995.0,"county":"Hamilton","index rate":1077.9,"violent count":4,"property count":48,"geo_score":0.802,"2010 population":4824,"index count":52,"id":"a621gf4et0yb","violent rate":82.9,"geo_precision":"city","state":"NY"},"type":"Feature","geometry":{"type":"Point","coordinates":[-73.827357,40.652326]}},{"properties":{"property rate":1940.3,"county":"Herkimer","index rate":2209.4,"violent count":165,"property count":1190,"geo_score":0.857,"2010 population":61330,"index count":1355,"id":"a621gf07qsca","violent rate":269.0,"geo_precision":"city","state":"NY"},"type":"Feature","geometry":{"type":"Point","coordinates":[-74.933404,43.026867]}},{"properties":{"property rate":1869.1,"county":"Jefferson","index rate":2052.8,"violent count":217,"property count":2208,"geo_score":0.813,"2010 population":118131,"index count":2425,"id":"a621geu8bb1w","violent rate":183.7,"geo_precision":"city","state":"NY"},"type":"Feature","geometry":{"type":"Point","coordinates":[-76.218817,43.778399]}},{"properties":{"property rate":1594.4,"county":"Kings","index rate":2242.0,"violent count":16514,"property count":40658,"geo_score":0.0,"2010 population":2550004,"index count":57172,"id":"a621gesm4cq8","violent rate":647.6,"geo_precision":"unmatched","state":"NY"},"type":"Feature","geometry":null},{"properties":{"property rate":1690.9,"county":"Lewis","index rate":1787.9,"violent count":25,"property count":436,"geo_score":0.857,"2010 population":25785,"index count":461,"id":"a621getp8q04","violent rate":97.0,"geo_precision":"city","state":"NY"},"type":"Feature","geometry":{"type":"Point","coordinates":[-73.815204,44.145678]}},{"properties":{"property rate":1786.5,"county":"Livingston","index rate":1862.3,"violent count":47,"property count":1108,"geo_score":0.81,"2010 population":62020,"index count":1155,"id":"a621geqzshjm","violent rate":75.8,"geo_precision":"city","state":"NY"},"type":"Feature","geometry":{"type":"Point","coordinates":[-74.268474,42.487577]}},{"properties":{"property rate":1693.1,"county":"Madison","index rate":1763.9,"violent count":49,"property count":1172,"geo_score":0.857,"2010 population":69222,"index count":1221,"id":"a621gf75oxo4","violent rate":70.8,"geo_precision":"city","state":"NY"},"type":"Feature","geometry":{"type":"Point","coordinates":[-75.549372,42.898322]}},{"properties":{"property rate":3197.1,"county":"Monroe","index rate":3586.2,"violent count":2821,"property count":23177,"geo_score":0.857,"2010 population":724942,"index count":25998,"id":"a621gesyypdw","violent rate":389.1,"geo_precision":"city","state":"NY"},"type":"Feature","geometry":{"type":"Point","coordinates":[-74.316824,41.343092]}},{"properties":{"property rate":2274.4,"county":"Montgomery","index rate":2424.5,"violent count":72,"property count":1091,"geo_score":0.857,"2010 population":47969,"index count":1163,"id":"a621gere793q","violent rate":150.1,"geo_precision":"city","state":"NY"},"type":"Feature","geometry":{"type":"Point","coordinates":[-74.255717,41.405901]}},{"properties":{"property rate":1336.6,"county":"Nassau","index rate":1510.8,"violent count":2342,"property count":17968,"geo_score":0.857,"2010 population":1344303,"index count":20310,"id":"a621geyyhyvu","violent rate":174.2,"geo_precision":"city","state":"NY"},"type":"Feature","geometry":{"type":"Point","coordinates":[-73.629023,42.565736]}},{"properties":{"property rate":2624.4,"county":"New York","index rate":3170.0,"violent count":8829,"property count":42468,"geo_score":0.857,"2010 population":1618207,"index count":51297,"id":"a621gf5q7swx","violent rate":545.6,"geo_precision":"city","state":"NY"},"type":"Feature","geometry":{"type":"Point","coordinates":[-74.005973,40.714269]}},{"properties":{"property rate":2983.2,"county":"Niagara","index rate":3375.4,"violent count":830,"property count":6314,"geo_score":0.0,"2010 population":211650,"index count":7144,"id":"a621gexf3ohl","violent rate":392.2,"geo_precision":"unmatched","state":"NY"},"type":"Feature","geometry":null},{"properties":{"property rate":2470.0,"county":"Oneida","index rate":2726.0,"violent count":584,"property count":5633,"geo_score":0.857,"2010 population":228059,"index count":6217,"id":"a621gf1pkmli","violent rate":256.1,"geo_precision":"city","state":"NY"},"type":"Feature","geometry":{"type":"Point","coordinates":[-75.640944,43.047755]}},{"properties":{"property rate":2535.3,"county":"Onondaga","index rate":2893.1,"violent count":1608,"property count":11392,"geo_score":0.76,"2010 population":449339,"index count":13000,"id":"a621gf6f77ir","violent rate":357.9,"geo_precision":"city","state":"NY"},"type":"Feature","geometry":{"type":"Point","coordinates":[-76.160481,42.9434]}},{"properties":{"property rate":1776.0,"county":"Ontario","index rate":1897.9,"violent count":128,"property count":1865,"geo_score":0.857,"2010 population":105010,"index count":1993,"id":"a621gevqsp1k","violent rate":121.9,"geo_precision":"city","state":"NY"},"type":"Feature","geometry":{"type":"Point","coordinates":[-77.308614,43.221476]}},{"properties":{"property rate":2125.0,"county":"Orange","index rate":2384.5,"violent count":995,"property count":8149,"geo_score":0.0,"2010 population":383475,"index count":9144,"id":"a621gewibope","violent rate":259.5,"geo_precision":"unmatched","state":"NY"},"type":"Feature","geometry":null},{"properties":{"property rate":2373.3,"county":"Orleans","index rate":2564.2,"violent count":79,"property count":982,"geo_score":0.77,"2010 population":41377,"index count":1061,"id":"a621gezje83o","violent rate":190.9,"geo_precision":"city","state":"NY"},"type":"Feature","geometry":{"type":"Point","coordinates":[-75.89994,44.190608]}},{"properties":{"property rate":2583.7,"county":"Oswego","index rate":2741.3,"violent count":189,"property count":3098,"geo_score":0.857,"2010 population":119906,"index count":3287,"id":"a621gerl0ke7","violent rate":157.6,"geo_precision":"city","state":"NY"},"type":"Feature","geometry":{"type":"Point","coordinates":[-76.342172,43.465388]}},{"properties":{"property rate":1671.5,"county":"Otsego","index rate":1880.0,"violent count":127,"property count":1018,"geo_score":0.786,"2010 population":60905,"index count":1145,"id":"a621gew4rvop","violent rate":208.5,"geo_precision":"city","state":"NY"},"type":"Feature","geometry":{"type":"Point","coordinates":[-76.217983,42.860067]}},{"properties":{"property rate":878.4,"county":"Putnam","index rate":947.5,"violent count":68,"property count":865,"geo_score":0.0,"2010 population":98472,"index count":933,"id":"a621gf25u671","violent rate":69.1,"geo_precision":"unmatched","state":"NY"},"type":"Feature","geometry":null},{"properties":{"property rate":1269.3,"county":"Queens","index rate":1693.7,"violent count":9725,"property count":29083,"geo_score":0.738,"2010 population":2291352,"index count":38808,"id":"a621gf0671s4","violent rate":424.4,"geo_precision":"city","state":"NY"},"type":"Feature","geometry":{"type":"Point","coordinates":[-78.215299,43.285058]}},{"properties":{"property rate":2780.9,"county":"Rensselaer","index rate":3135.2,"violent count":546,"property count":4285,"geo_score":0.857,"2010 population":154087,"index count":4831,"id":"a621geqrj0mu","violent rate":354.3,"geo_precision":"city","state":"NY"},"type":"Feature","geometry":{"type":"Point","coordinates":[-73.596089,42.621627]}},{"properties":{"property rate":1119.4,"county":"Richmond","index rate":1396.0,"violent count":1351,"property count":5468,"geo_score":0.796,"2010 population":488456,"index count":6819,"id":"a621gesyzmkq","violent rate":276.6,"geo_precision":"city","state":"NY"},"type":"Feature","geometry":{"type":"Point","coordinates":[-74.229311,40.520106]}},{"properties":{"property rate":1442.5,"county":"Rockland","index rate":1596.8,"violent count":460,"property count":4300,"geo_score":0.81,"2010 population":298092,"index count":4760,"id":"a621gerj6u9e","violent rate":154.3,"geo_precision":"city","state":"NY"},"type":"Feature","geometry":{"type":"Point","coordinates":[-73.937082,41.138429]}},{"properties":{"property rate":2091.9,"county":"St. Lawrence","index rate":2219.4,"violent count":138,"property count":2265,"geo_score":0.829,"2010 population":108273,"index count":2403,"id":"a621gezqaolj","violent rate":127.5,"geo_precision":"city","state":"NY"},"type":"Feature","geometry":{"type":"Point","coordinates":[-73.72642,40.615435]}},{"properties":{"property rate":1405.3,"county":"Saratoga","index rate":1474.1,"violent count":151,"property count":3085,"geo_score":0.0,"2010 population":219519,"index count":3236,"id":"a621gf3xrq4b","violent rate":68.8,"geo_precision":"unmatched","state":"NY"},"type":"Feature","geometry":null},{"properties":{"property rate":3489.9,"county":"Schenectady","index rate":3984.5,"violent count":747,"property count":5271,"geo_score":0.857,"2010 population":151036,"index count":6018,"id":"a621gf0iqbmc","violent rate":494.6,"geo_precision":"city","state":"NY"},"type":"Feature","geometry":{"type":"Point","coordinates":[-73.939569,42.814243]}},{"properties":{"property rate":1443.7,"county":"Schoharie","index rate":1498.3,"violent count":17,"property count":450,"geo_score":0.857,"2010 population":31169,"index count":467,"id":"a621gf4gpfof","violent rate":54.5,"geo_precision":"city","state":"NY"},"type":"Feature","geometry":{"type":"Point","coordinates":[-74.337322,42.655569]}},{"properties":{"property rate":1013.3,"county":"Schuyler","index rate":1067.5,"violent count":10,"property count":187,"geo_score":0.0,"2010 population":18455,"index count":197,"id":"a621gesqwg2i","violent rate":54.2,"geo_precision":"unmatched","state":"NY"},"type":"Feature","geometry":null},{"properties":{"property rate":1790.2,"county":"Seneca","index rate":1944.3,"violent count":52,"property count":604,"geo_score":0.0,"2010 population":33740,"index count":656,"id":"a621gexe9ijy","violent rate":154.1,"geo_precision":"unmatched","state":"NY"},"type":"Feature","geometry":null},{"properties":{"property rate":1756.4,"county":"Steuben","index rate":1928.6,"violent count":164,"property count":1673,"geo_score":0.857,"2010 population":95252,"index count":1837,"id":"a621gf5bt07t","violent rate":172.2,"geo_precision":"city","state":"NY"},"type":"Feature","geometry":{"type":"Point","coordinates":[-75.282947,43.320069]}},{"properties":{"property rate":2001.3,"county":"Suffolk","index rate":2158.6,"violent count":2377,"property count":30244,"geo_score":0.0,"2010 population":1511183,"index count":32621,"id":"a621gf4cg50f","violent rate":157.3,"geo_precision":"unmatched","state":"NY"},"type":"Feature","geometry":null},{"properties":{"property rate":1980.4,"county":"Sullivan","index rate":2270.5,"violent count":218,"property count":1488,"geo_score":0.857,"2010 population":75137,"index count":1706,"id":"a621gf6l6m2n","violent rate":290.1,"geo_precision":"city","state":"NY"},"type":"Feature","geometry":{"type":"Point","coordinates":[-75.846857,43.054512]}},{"properties":{"property rate":1062.0,"county":"Tioga","index rate":1135.0,"violent count":36,"property count":524,"geo_score":0.0,"2010 population":49341,"index count":560,"id":"a621gezo5pxr","violent rate":73.0,"geo_precision":"unmatched","state":"NY"},"type":"Feature","geometry":null},{"properties":{"property rate":2356.7,"county":"Tompkins","index rate":2475.3,"violent count":120,"property count":2384,"geo_score":0.802,"2010 population":101158,"index count":2504,"id":"a621gf4xk6tw","violent rate":118.6,"geo_precision":"city","state":"NY"},"type":"Feature","geometry":{"type":"Point","coordinates":[-74.085419,40.636493]}},{"properties":{"property rate":1908.6,"county":"Ulster","index rate":2135.6,"violent count":408,"property count":3431,"geo_score":0.78,"2010 population":179764,"index count":3839,"id":"a621gf46wu4k","violent rate":227.0,"geo_precision":"city","state":"NY"},"type":"Feature","geometry":{"type":"Point","coordinates":[-74.483768,41.773705]}},{"properties":{"property rate":1815.4,"county":"Warren","index rate":1961.9,"violent count":96,"property count":1190,"geo_score":0.857,"2010 population":65549,"index count":1286,"id":"a621gf66fdjp","violent rate":146.5,"geo_precision":"city","state":"NY"},"type":"Feature","geometry":{"type":"Point","coordinates":[-74.920987,42.847295]}},{"properties":{"property rate":1263.1,"county":"Washington","index rate":1412.6,"violent count":93,"property count":786,"geo_score":0.798,"2010 population":62227,"index count":879,"id":"a621gf5php31","violent rate":149.5,"geo_precision":"city","state":"NY"},"type":"Feature","geometry":{"type":"Point","coordinates":[-74.415712,41.470094]}},{"properties":{"property rate":1985.0,"county":"Wayne","index rate":2171.6,"violent count":168,"property count":1787,"geo_score":0.857,"2010 population":90027,"index count":1955,"id":"a621geuen7qz","violent rate":186.6,"geo_precision":"city","state":"NY"},"type":"Feature","geometry":{"type":"Point","coordinates":[-77.097713,42.474143]}},{"properties":{"property rate":1356.7,"county":"Westchester","index rate":1615.5,"violent count":2454,"property count":12866,"geo_score":0.857,"2010 population":948303,"index count":15320,"id":"a621gf1kbqg1","violent rate":258.8,"geo_precision":"city","state":"NY"},"type":"Feature","geometry":{"type":"Point","coordinates":[-73.85528,40.84722]}},{"properties":{"property rate":1087.3,"county":"Wyoming","index rate":1168.3,"violent count":33,"property count":443,"geo_score":0.857,"2010 population":40743,"index count":476,"id":"a621gewwo4om","violent rate":81.0,"geo_precision":"city","state":"NY"},"type":"Feature","geometry":{"type":"Point","coordinates":[-78.102549,42.818578]}},{"properties":{"property rate":1885.7,"county":"Yates","index rate":1960.1,"violent count":18,"property count":456,"geo_score":0.81,"2010 population":24182,"index count":474,"id":"a621gevndjja","violent rate":74.4,"geo_precision":"city","state":"NY"},"type":"Feature","geometry":{"type":"Point","coordinates":[-74.009571,42.851187]}}],"is_temporal":false,"author":{"url":"","metadata":"","contact_name":"","contact_address":"","source":"","contact_phone":""},"source":"","pagination":{"sort":null,"start":0,"total":62,"limit":1000000},"state":"complete","tags":"2010,crime,new,rates,state,york","published":"2014-08-14T19:36:13-04:00","id":223677}