{"type":"FeatureCollection","data_type":"Dataset","url_type":null,"permissions":[{"permissions":{"download":true,"view":true},"group_id":"everyone"}],"classification":null,"title":"map_spreadsheet","count":60,"stream_id":223668,"contributor":{"url":"http://geocommons.com/users/42464","name":"kyriekirn"},"data_attributes":null,"calculation_params":null,"icon_link":null,"link":"http://geocommons.com/overlays/223668.json","extent":[-123.119,7.98333,135.516,53.5501],"geometry_types":["point"],"unique_name":null,"name":"map_spreadsheet","feature_count":60,"description":"","next_feature":null,"is_raster":false,"short_classification":"Y","stats":{},"features":[{"properties":{"city":"Newark","affiliate":"Albany Devils","team name":"New Jersey Devils","geo_score":0.0,"arena name":"Prudential Center","id":"a6vdo3bsn6sj","geo_precision":"unmatched","state":"New Jersey"},"type":"Feature","geometry":null},{"properties":{"city":"Albany","affiliate":"New Jersey Devils","team name":"Albany Devils","geo_score":0.0,"arena name":"Times Union Center","id":"a6vdo3fcz0jn","geo_precision":"unmatched","state":"New York"},"type":"Feature","geometry":null},{"properties":{"city":"Uniondale","affiliate":"Bridgeport Sound Tigers","team name":"New York Islanders","geo_score":0.0,"arena name":"Nassau Veterans Memorial Coliseum","id":"a6vdo3g20z7r","geo_precision":"unmatched","state":"New York"},"type":"Feature","geometry":null},{"properties":{"city":"Bridgeport","affiliate":"New York Islanders","team name":"Bridgeport Sound Tigers","geo_score":0.0,"arena name":"Webster Bank Arena","id":"a6vdo3f6gtgf","geo_precision":"unmatched","state":"Connecticut"},"type":"Feature","geometry":null},{"properties":{"city":"New York City","affiliate":"Connecticut Whale","team name":"New York Rangers","geo_score":0.0,"arena name":"Madison Square Garden","id":"a6vdo3d7gmse","geo_precision":"unmatched","state":"New York"},"type":"Feature","geometry":null},{"properties":{"city":"Hartford","affiliate":"New York Rangers","team name":"Connecticut Whale","geo_score":0.0,"arena name":"XL Center","id":"a6vdo3hh3tgg","geo_precision":"unmatched","state":"Connecticut"},"type":"Feature","geometry":null},{"properties":{"city":"Philadelphia","affiliate":"Adirondack Phantoms","team name":"Philadelphia Flyers","geo_score":0.912,"arena name":"Wells Fargo Center","id":"a6vdo3enhlrk","geo_precision":"zip","state":"Pennsylvania"},"type":"Feature","geometry":{"type":"Point","coordinates":[-81.4,7.9833333]}},{"properties":{"city":"Glens Falls","affiliate":"Philadelphia Flyers","team name":"Adirondack Phantoms","geo_score":0.0,"arena name":"Glens Falls Civic Center","id":"a6vdo3b42iml","geo_precision":"unmatched","state":"New York"},"type":"Feature","geometry":null},{"properties":{"city":"Pittsburgh","affiliate":"Wilkes-Barre/Scranton Penguins","team name":"Pittsburgh Penguins","geo_score":0.0,"arena name":"Consol Energy Center","id":"a6vdo3pq58pz","geo_precision":"unmatched","state":"Pennsylvania"},"type":"Feature","geometry":null},{"properties":{"city":"Wilkes-Barre","affiliate":"Pittsburgh Penguins","team name":"Wilkes-Barre/Scranton Penguins","geo_score":0.0,"arena name":"Mohegan Sun Arena","id":"a6vdo3k9gdv1","geo_precision":"unmatched","state":"Pennsylvania"},"type":"Feature","geometry":null},{"properties":{"city":"Boston","affiliate":"Providence Bruins","team name":"Boston Bruins","geo_score":0.929,"arena name":"TD Garden","id":"a6vdo3m9jvew","geo_precision":"zip","state":"Massachusetts"},"type":"Feature","geometry":{"type":"Point","coordinates":[-7.15,31.96]}},{"properties":{"city":"Providence","affiliate":"Boston Bruins","team name":"Providence Bruins","geo_score":0.0,"arena name":"Dunkin' Donuts Center","id":"a6vdo3l27ig0","geo_precision":"unmatched","state":"Rhode Island"},"type":"Feature","geometry":null},{"properties":{"city":"Buffalo","affiliate":"Rochester Americans","team name":"Buffalo Sabres","geo_score":0.0,"arena name":"First Niagara Center","id":"a6vdo3q328d5","geo_precision":"unmatched","state":"New York"},"type":"Feature","geometry":null},{"properties":{"city":"Rochester","affiliate":"Buffalo Sabres","team name":"Rochester Americans","geo_score":0.0,"arena name":"Blue Cross Arena at the War Memorial","id":"a6vdo3egfn2n","geo_precision":"unmatched","state":"New York"},"type":"Feature","geometry":null},{"properties":{"city":"Montreal","affiliate":"Hamilton Bulldogs","team name":"Montreal Canadiens","geo_score":0.857,"arena name":"Bell Centre","id":"a6vdo3ltnn5f","geo_precision":"zip","state":"Quebec"},"type":"Feature","geometry":{"type":"Point","coordinates":[-73.587809,45.5088375]}},{"properties":{"city":"Hamilton","affiliate":"Montreal Canadiens","team name":"Hamilton Bulldogs","geo_score":0.796,"arena name":"Copps Coliseum","id":"a6vdo3dqsfnd","geo_precision":"zip","state":"Ontario"},"type":"Feature","geometry":{"type":"Point","coordinates":[-84.5332772,39.1833918]}},{"properties":{"city":"Ottawa","affiliate":"Binghamton Senators","team name":"Ottawa Senators","geo_score":0.857,"arena name":"Scotiabank Place","id":"a6vdo3oyqlz9","geo_precision":"zip","state":"Ontario"},"type":"Feature","geometry":{"type":"Point","coordinates":[-75.6902861595154,45.4209405046496]}},{"properties":{"city":"Binghamton","affiliate":"Ottawa Senators","team name":"Binghamton Senators","geo_score":0.0,"arena name":"Broome County Veterans Memorial Arena","id":"a6vdo3a7ixvn","geo_precision":"unmatched","state":"New York"},"type":"Feature","geometry":null},{"properties":{"city":"Toronto","affiliate":"Toronto Marlies","team name":"Toronto Maple Leafs","geo_score":0.857,"arena name":"Air Canada Centre","id":"a6vdo3d3l07k","geo_precision":"zip","state":"Ontario"},"type":"Feature","geometry":{"type":"Point","coordinates":[-79.416304194,43.700113788]}},{"properties":{"city":"Toronto","affiliate":"Toronto Maple Leafs","team name":"Toronto Marlies","geo_score":0.857,"arena name":"Ricoc Coliseum","id":"a6vdo3codo7o","geo_precision":"zip","state":"Ontario"},"type":"Feature","geometry":{"type":"Point","coordinates":[-79.416304194,43.700113788]}},{"properties":{"city":"Raliegh","affiliate":"Charlotte Checkers","team name":"Carolina Hurricanes","geo_score":0.0,"arena name":"PNC Arena","id":"a6vdo3k9olbb","geo_precision":"unmatched","state":"North Carolina"},"type":"Feature","geometry":null},{"properties":{"city":"Charlotte","affiliate":"Carolina Hurricanes","team name":"Charlotte Checkers","geo_score":0.0,"arena name":"Time Warner Cable Arena","id":"a6vdo3mie9j1","geo_precision":"unmatched","state":"North Carolina"},"type":"Feature","geometry":null},{"properties":{"city":"Sunrise","affiliate":"San Antonio Rampage","team name":"Florida Panthers","geo_score":0.0,"arena name":"BankAtlantic Center","id":"a6vdo3ffldcj","geo_precision":"unmatched","state":"Florida"},"type":"Feature","geometry":null},{"properties":{"city":"San Antonio","affiliate":"Florida Panthers","team name":"San Antonio Rampage","geo_score":0.0,"arena name":"AT&amp;T Center","id":"a6vdo3jxdozl","geo_precision":"unmatched","state":"Texas"},"type":"Feature","geometry":null},{"properties":{"city":"Tampa","affiliate":"Norfolk Admirals","team name":"Tampa Bay Lightning","geo_score":0.0,"arena name":"Tampa Bay Times Forum","id":"a6vdo3e5a4hs","geo_precision":"unmatched","state":"Florida"},"type":"Feature","geometry":null},{"properties":{"city":"Norfolk","affiliate":"Tampa Bay Lightning","team name":"Norfolk Admirals","geo_score":0.0,"arena name":"Norfolk Scope","id":"a6vdo3mvr26v","geo_precision":"unmatched","state":"Virginia"},"type":"Feature","geometry":null},{"properties":{"city":"Washington, D.C.","affiliate":"Hershey Bears","team name":"Washington Capitals","geo_score":0.833,"arena name":"Verizon Center","id":"a6vdo3hexk5o","geo_precision":"zip","state":null},"type":"Feature","geometry":{"type":"Point","coordinates":[-120.5014693,47.5001238]}},{"properties":{"city":"Hershey","affiliate":"Washington Capitals","team name":"Hershey Bears","geo_score":0.0,"arena name":"Giant Center","id":"a6vdo3l8kk8n","geo_precision":"unmatched","state":"Pennsylvania"},"type":"Feature","geometry":null},{"properties":{"city":"Winnipeg","affiliate":"St. John's IceCaps","team name":"Winnipeg Jets","geo_score":0.857,"arena name":"MTA Centre","id":"a6vdo3ov53t7","geo_precision":"zip","state":"Manitoba"},"type":"Feature","geometry":{"type":"Point","coordinates":[-97.147044715,49.884398624]}},{"properties":{"city":"St. John's","affiliate":"Winnipeg Jets","team name":"St. John's IceCaps","geo_score":0.735,"arena name":"Mile One Centre","id":"a6vdo3j6s8ep","geo_precision":"zip","state":"Newfoundland/Labrador"},"type":"Feature","geometry":{"type":"Point","coordinates":[135.515670776367,34.7614289625356]}},{"properties":{"city":"Chicago","affiliate":"Rockford IceHogs","team name":"Chicago Blackhawks","geo_score":0.0,"arena name":"United Center","id":"a6vdo3ecowgm","geo_precision":"unmatched","state":"Illinois"},"type":"Feature","geometry":null},{"properties":{"city":"Rockford","affiliate":"Chicago Blackhawks","team name":"Rockford IceHogs","geo_score":0.0,"arena name":"BMO Harris Bank Center","id":"a6vdo3ffgk3h","geo_precision":"unmatched","state":"Illinois"},"type":"Feature","geometry":null},{"properties":{"city":"Columbus","affiliate":"Springfield Falcons","team name":"Columbus Blue Jackets","geo_score":0.0,"arena name":"Nationwide Arena","id":"a6vdo3ixb601","geo_precision":"unmatched","state":"Ohio"},"type":"Feature","geometry":null},{"properties":{"city":"Springfield","affiliate":"Columbus Blue Jackets","team name":"Springfield Falcons","geo_score":0.0,"arena name":"MassMutual Center","id":"a6vdo3css0ee","geo_precision":"unmatched","state":"Massachusetts"},"type":"Feature","geometry":null},{"properties":{"city":"Detroit","affiliate":"Grand Rapids Griffins","team name":"Detroit Red Wings","geo_score":0.0,"arena name":"Joe Louis Arena","id":"a6vdo3mt4e6u","geo_precision":"unmatched","state":"Michigan"},"type":"Feature","geometry":null},{"properties":{"city":"Grand Rapids","affiliate":"Detroit Red Wings","team name":"Grand Rapids Griffins","geo_score":0.0,"arena name":"Van Andel Arena","id":"a6vdo3bi3qkv","geo_precision":"unmatched","state":"Michigan"},"type":"Feature","geometry":null},{"properties":{"city":"Nashville","affiliate":"Milwaukee Admirals","team name":"Nashville Predators","geo_score":0.0,"arena name":"Bridgestone Arena","id":"a6vdo3f1q50c","geo_precision":"unmatched","state":"Tennessee"},"type":"Feature","geometry":null},{"properties":{"city":"Milwaukee","affiliate":"Nashville Predators","team name":"Milwaukee Admirals","geo_score":0.0,"arena name":"Bradley Center","id":"a6vdo3gnk4w0","geo_precision":"unmatched","state":"Wisconsin"},"type":"Feature","geometry":null},{"properties":{"city":"St. Louis","affiliate":"Peoria Rivermen","team name":"St. Louis Blues","geo_score":0.0,"arena name":"Scottrade Center","id":"a6vdo3pb4g36","geo_precision":"unmatched","state":"Missouri"},"type":"Feature","geometry":null},{"properties":{"city":"Peoria","affiliate":"St. Louis Blues","team name":"Peoria Rivermen","geo_score":0.0,"arena name":"Peoria Civic Center","id":"a6vdo3q4p5hp","geo_precision":"unmatched","state":"Illinois"},"type":"Feature","geometry":null},{"properties":{"city":"Calgary","affiliate":"Abbotsford Heat","team name":"Calgary Flames","geo_score":0.857,"arena name":"Scotiabank Saddledome","id":"a6vdo3dqrkah","geo_precision":"zip","state":"Alberta"},"type":"Feature","geometry":{"type":"Point","coordinates":[-114.085285152,51.050112282]}},{"properties":{"city":"Abbotsford","affiliate":"Calgary Flames","team name":"Abbotsford Heat","geo_score":0.857,"arena name":"Abbotsford Entertainment &amp; Sports Centre","id":"a6vdo3i1hop4","geo_precision":"zip","state":"British Columbia"},"type":"Feature","geometry":{"type":"Point","coordinates":[-122.252570429,49.057976687]}},{"properties":{"city":"Denver","affiliate":"Lake Erie Monsters","team name":"Colorado Avalanche","geo_score":0.0,"arena name":"Pepsi Center","id":"a6vdo3c26527","geo_precision":"unmatched","state":"Colorado"},"type":"Feature","geometry":null},{"properties":{"city":"Cleveland","affiliate":"Colorado Avalanche","team name":"Lake Erie Monsters","geo_score":0.0,"arena name":"Quicken Loans Arena","id":"a6vdo3mil94k","geo_precision":"unmatched","state":"Ohio"},"type":"Feature","geometry":null},{"properties":{"city":"Edmonton","affiliate":"Oklahoma City Barons","team name":"Edmonton Oilers","geo_score":0.857,"arena name":"Rexall Place","id":"a6vdo3nguwi2","geo_precision":"zip","state":"Alberta"},"type":"Feature","geometry":{"type":"Point","coordinates":[-113.468712219,53.550135939]}},{"properties":{"city":"Oklahoma City","affiliate":"Edmonton Oilers","team name":"Oklahoma City Barons","geo_score":0.0,"arena name":"Cox Convention Center","id":"a6vdo3om7k6r","geo_precision":"unmatched","state":"Oklahoma"},"type":"Feature","geometry":null},{"properties":{"city":"St. Paul","affiliate":"Houston Aeros","team name":"Minnesota Wild","geo_score":0.0,"arena name":"Xcel Energy Center","id":"a6vdo3pc3o6f","geo_precision":"unmatched","state":"Minnesota"},"type":"Feature","geometry":null},{"properties":{"city":"Houston","affiliate":"Minnesota Wild","team name":"Houston Aeros","geo_score":0.0,"arena name":"Toyota Center","id":"a6vdo3hsitqa","geo_precision":"unmatched","state":"Texas"},"type":"Feature","geometry":null},{"properties":{"city":"Vancouver","affiliate":"Chicago Wolves","team name":"Vancouver Canucks","geo_score":0.857,"arena name":"Rogers Arena","id":"a6vdo3mxoc58","geo_precision":"zip","state":"British Columbia"},"type":"Feature","geometry":{"type":"Point","coordinates":[-123.119340403,49.249657393]}},{"properties":{"city":"Rosemont","affiliate":"Vancouver Canucks","team name":"Chicago Wolves","geo_score":0.0,"arena name":"Allstate Arena","id":"a6vdo3ogiu11","geo_precision":"unmatched","state":"Illinois"},"type":"Feature","geometry":null},{"properties":{"city":"Anaheim","affiliate":"Syracuse Crunch","team name":"Anaheim Ducks","geo_score":0.982,"arena name":"Honda Center","id":"a6vdo3ndfry6","geo_precision":"zip","state":"California"},"type":"Feature","geometry":{"type":"Point","coordinates":[-104.817765676,52.316739268]}},{"properties":{"city":"Syracuse","affiliate":"Anaheim Ducks","team name":"Syracuse Crunch","geo_score":0.0,"arena name":"War Memorial at Oncenter","id":"a6vdo3pbdn69","geo_precision":"unmatched","state":"New York"},"type":"Feature","geometry":null},{"properties":{"city":"Dallas","affiliate":"Texas Stars","team name":"Dallas Stars","geo_score":0.0,"arena name":"American Airlines Center","id":"a6vdo3mbotef","geo_precision":"unmatched","state":"Texas"},"type":"Feature","geometry":null},{"properties":{"city":"Cedar Park","affiliate":"Dallas Stars","team name":"Texas Stars","geo_score":0.0,"arena name":"Cedar Park Center","id":"a6vdo3fui6b4","geo_precision":"unmatched","state":"Texas"},"type":"Feature","geometry":null},{"properties":{"city":"Los Angeles","affiliate":"Manchester Monarchs","team name":"Los Angeles Kings","geo_score":0.9,"arena name":"Staples Center","id":"a6vdo3k45683","geo_precision":"zip","state":"California"},"type":"Feature","geometry":{"type":"Point","coordinates":[-55.598110211,49.949945903]}},{"properties":{"city":"Manchester","affiliate":"Los Angeles Kings","team name":"Manchester Monarchs","geo_score":0.0,"arena name":"Verizon Wireless Arena","id":"a6vdo3q0p2ss","geo_precision":"unmatched","state":"New Hampshire"},"type":"Feature","geometry":null},{"properties":{"city":"Glendale","affiliate":"Portland Pirates","team name":"Phoenix Coyotes","geo_score":0.0,"arena name":"Jobing.com Arena","id":"a6vdo3avml8h","geo_precision":"unmatched","state":"Arizona"},"type":"Feature","geometry":null},{"properties":{"city":"Portland","affiliate":"Phoenix Coyotes","team name":"Portland Pirates","geo_score":0.0,"arena name":"Cumberland County Civic Center","id":"a6vdo3jam5n5","geo_precision":"unmatched","state":"Maine"},"type":"Feature","geometry":null},{"properties":{"city":"San Jose","affiliate":"Worchester Sharks","team name":"San Jose Sharks","geo_score":0.898,"arena name":"HP Pavilion at San Jose","id":"a6vdo3d8r3df","geo_precision":"zip","state":"California"},"type":"Feature","geometry":{"type":"Point","coordinates":[-106.667951345,51.450072503]}},{"properties":{"city":"Worchester","affiliate":"San Jose Sharks","team name":"Worchester Sharks","geo_score":0.0,"arena name":"DCU Center","id":"a6vdo3ewzeyi","geo_precision":"unmatched","state":"Massachusetts"},"type":"Feature","geometry":null}],"is_temporal":false,"author":{"url":"","metadata":null,"contact_name":null,"contact_address":null,"source":null,"contact_phone":null},"source":"","pagination":{"sort":null,"start":0,"total":60,"limit":1000000},"state":"complete","tags":"","published":"2014-08-14T19:36:04-04:00","id":223668}