{"type":"FeatureCollection","data_type":"Dataset","url_type":null,"permissions":[{"permissions":{"download":true,"view":true},"group_id":"everyone"}],"classification":null,"title":"today_hail_2","count":70,"stream_id":223837,"contributor":{"url":"http://geocommons.com/users/28467","name":"bheberto"},"data_attributes":null,"calculation_params":null,"icon_link":null,"link":"http://geocommons.com/overlays/223837.json","extent":[-99.67,30.55,-81.59,37.79],"geometry_types":["point"],"unique_name":null,"name":"today_hail_2","feature_count":70,"description":"","next_feature":null,"is_raster":false,"short_classification":"Y","stats":{"lon":{"max":-81.59,"mean":-93.0734285714285,"variance":36.9541069151139,"stdev":6.07898897145848,"min":-99.67,"median":-96.53},"size":{"max":275,"mean":142.5,"variance":2850.54347826087,"stdev":53.3904811577951,"min":100,"median":100},"time":{"max":"2344/01/01 00:00:00 -0500","mean":"1956/10/14 14:41:57 -0400","variance":6.66477528395454e+19,"stdev":8163807496.47769,"min":"1249/12/31 23:59:58 -0456","median":"2015/01/01 00:00:00 -0500"},"lat":{"max":37.79,"mean":33.0755714285714,"variance":2.22061053830228,"stdev":1.49017131172972,"min":30.55,"median":32.92}},"features":[{"properties":{"lon":-99.67,"size":100,"comments":"DIME TO QUARTER SIZE HAIL REPORTED NEAR THE AIRPORT (SJT)","time":{"end_time":"1251/01/01 00:00:00 -0456","original":"1250","granularity":"year","time":"1250/01/01 00:00:00 -0456"},"county":"TAYLOR","id":"a62gv7ak4j92","lat":32.43,"state":"TX","location":"4 ESE ABILENE"},"type":"Feature","geometry":{"type":"Point","coordinates":[-99.67,32.43]}},{"properties":{"lon":-98.6,"size":150,"comments":"(FWD)","time":{"end_time":"1251/01/01 00:00:00 -0456","original":"1250","granularity":"year","time":"1250/01/01 00:00:00 -0456"},"county":"YOUNG","id":"a62gv765tl3q","lat":33.1,"state":"TX","location":"GRAHAM"},"type":"Feature","geometry":{"type":"Point","coordinates":[-98.6,33.1]}},{"properties":{"lon":-98.67,"size":175,"comments":"REPORTED BY GRAHAM FIRE AND RESCUE (FWD)","time":{"end_time":"1260/01/01 00:00:00 -0456","original":"1259","granularity":"year","time":"1259/01/01 00:00:00 -0456"},"county":"YOUNG","id":"a62gv73yjrl9","lat":33.0,"state":"TX","location":"SOUTH BEND"},"type":"Feature","geometry":{"type":"Point","coordinates":[-98.67,33.0]}},{"properties":{"lon":-98.6,"size":175,"comments":"GOLFBALL SIZE HAIL IN GRAHAM (FWD)","time":{"end_time":"1307/01/01 00:00:00 -0456","original":"1306","granularity":"year","time":"1306/01/01 00:00:00 -0456"},"county":"YOUNG","id":"a62gv6ygy406","lat":33.1,"state":"TX","location":"GRAHAM"},"type":"Feature","geometry":{"type":"Point","coordinates":[-98.6,33.1]}},{"properties":{"lon":-98.97,"size":100,"comments":"(FWD)","time":{"end_time":"1339/01/01 00:00:00 -0456","original":"1338","granularity":"year","time":"1338/01/01 00:00:00 -0456"},"county":"EASTLAND","id":"a62gv75pxtra","lat":32.38,"state":"TX","location":"CISCO"},"type":"Feature","geometry":{"type":"Point","coordinates":[-98.97,32.38]}},{"properties":{"lon":-98.83,"size":175,"comments":"(FWD)","time":{"end_time":"1409/01/01 00:00:00 -0456","original":"1408","granularity":"year","time":"1408/01/01 00:00:00 -0456"},"county":"EASTLAND","id":"a62gv70qodgm","lat":32.23,"state":"TX","location":"3 S CARBON"},"type":"Feature","geometry":{"type":"Point","coordinates":[-98.83,32.23]}},{"properties":{"lon":-98.25,"size":150,"comments":"PING PONG BALL SIZE HAIL REPORTED AT INTERSECTION OF GRASSY RIDGE ROAD AND HWY 337. (FWD)","time":{"end_time":"1519/01/01 00:00:00 -0456","original":"1518","granularity":"year","time":"1518/01/01 00:00:00 -0456"},"county":"PALO PINTO","id":"a62gv787qp25","lat":32.92,"state":"TX","location":"1 S GRAFORD"},"type":"Feature","geometry":{"type":"Point","coordinates":[-98.25,32.92]}},{"properties":{"lon":-83.0,"size":100,"comments":"NICKEL TO QUARTER SIZE HAIL REPORTED BY PUBLIC IN WAYNESVILLE (GSP)","time":{"end_time":"1710/01/01 00:00:00 -0456","original":"1709","granularity":"year","time":"1709/01/01 00:00:00 -0456"},"county":"HAYWOOD","id":"a62gv723ojmx","lat":35.48,"state":"NC","location":"WAYNESVILLE"},"type":"Feature","geometry":{"type":"Point","coordinates":[-83.0,35.48]}},{"properties":{"lon":-83.0,"size":100,"comments":"NICKEL TO QUARTER SIZE HAIL REPORTED BY SPOTTER (GSP)","time":{"end_time":"1716/01/01 00:00:00 -0456","original":"1715","granularity":"year","time":"1715/01/01 00:00:00 -0456"},"county":"HAYWOOD","id":"a62gv75f3on5","lat":35.48,"state":"NC","location":"WAYNESVILLE"},"type":"Feature","geometry":{"type":"Point","coordinates":[-83.0,35.48]}},{"properties":{"lon":-83.02,"size":100,"comments":"JONATHAN CREEK AREA. (GSP)","time":{"end_time":"1731/01/01 00:00:00 -0456","original":"1730","granularity":"year","time":"1730/01/01 00:00:00 -0456"},"county":"HAYWOOD","id":"a62gv72rzpvo","lat":35.56,"state":"NC","location":"6 NNW WAYNESVILLE"},"type":"Feature","geometry":{"type":"Point","coordinates":[-83.02,35.56]}},{"properties":{"lon":-82.88,"size":100,"comments":"UP TO QUARTER SIZE HAIL FELL FOR 5-10 MINUTES. (GSP)","time":{"end_time":"1759/01/01 00:00:00 -0456","original":"1758","granularity":"year","time":"1758/01/01 00:00:00 -0456"},"county":"HAYWOOD","id":"a62gv6xhzjcm","lat":35.55,"state":"NC","location":"2 W CANTON"},"type":"Feature","geometry":{"type":"Point","coordinates":[-82.88,35.55]}},{"properties":{"lon":-97.6,"size":100,"comments":"QUARTER HAIL IN ALEDO. Time estimated. (FWD)","time":{"end_time":"1801/01/01 00:00:00 -0456","original":"1800","granularity":"year","time":"1800/01/01 00:00:00 -0456"},"county":"PARKER","id":"a62gv769cln4","lat":32.7,"state":"TX","location":"ALEDO"},"type":"Feature","geometry":{"type":"Point","coordinates":[-97.6,32.7]}},{"properties":{"lon":-82.81,"size":100,"comments":"DIME TO QUARTER SIZE HAIL REPORTED BY PUBLIC (GSP)","time":{"end_time":"1809/01/01 00:00:00 -0456","original":"1808","granularity":"year","time":"1808/01/01 00:00:00 -0456"},"county":"HAYWOOD","id":"a62gv7adkrjm","lat":35.55,"state":"NC","location":"2 E CANTON"},"type":"Feature","geometry":{"type":"Point","coordinates":[-82.81,35.55]}},{"properties":{"lon":-82.45,"size":175,"comments":"(RLX)","time":{"end_time":"1826/01/01 00:00:00 -0456","original":"1825","granularity":"year","time":"1825/01/01 00:00:00 -0456"},"county":"DICKENSON","id":"a62gv6w0e92z","lat":37.1,"state":"VA","location":"6 WNW NORA"},"type":"Feature","geometry":{"type":"Point","coordinates":[-82.45,37.1]}},{"properties":{"lon":-97.08,"size":175,"comments":"(FWD)","time":{"end_time":"1851/01/01 00:00:00 -0456","original":"1850","granularity":"year","time":"1850/01/01 00:00:00 -0456"},"county":"TARRANT","id":"a62gv7bbpe6t","lat":32.83,"state":"TX","location":"EULESS"},"type":"Feature","geometry":{"type":"Point","coordinates":[-97.08,32.83]}},{"properties":{"lon":-97.12,"size":100,"comments":"CWSU REPORTED QUARTER SIZE HAIL AT THE ZFW/ARTCC. (FWD)","time":{"end_time":"1855/01/01 00:00:00 -0456","original":"1854","granularity":"year","time":"1854/01/01 00:00:00 -0456"},"county":"TARRANT","id":"a62gv6wkp228","lat":32.73,"state":"TX","location":"ARLINGTON"},"type":"Feature","geometry":{"type":"Point","coordinates":[-97.12,32.73]}},{"properties":{"lon":-97.08,"size":275,"comments":"(FWD)","time":{"end_time":"1906/01/01 00:00:00 -0500","original":"1905","granularity":"year","time":"1905/01/01 00:00:00 -0500"},"county":"TARRANT","id":"a62gv72yg5bc","lat":32.83,"state":"TX","location":"EULESS"},"type":"Feature","geometry":{"type":"Point","coordinates":[-97.08,32.83]}},{"properties":{"lon":-97.4,"size":175,"comments":"GOLFBALL HAIL BROKE WINDSHIELDS AT CLEBURNE HENDERSON COUNTRY CLUB. (FWD)","time":{"end_time":"1916/01/01 00:00:00 -0500","original":"1915","granularity":"year","time":"1915/01/01 00:00:00 -0500"},"county":"JOHNSON","id":"a62gv757j9s8","lat":32.35,"state":"TX","location":"CLEBURNE"},"type":"Feature","geometry":{"type":"Point","coordinates":[-97.4,32.35]}},{"properties":{"lon":-96.78,"size":200,"comments":"VERY LARGE HAIL TO HEN EGG SIZE NOTED AT I635 AND BELTLINE RD. (FWD)","time":{"end_time":"1922/01/01 00:00:00 -0500","original":"1921","granularity":"year","time":"1921/01/01 00:00:00 -0500"},"county":"DALLAS","id":"a62gv78zujtz","lat":32.77,"state":"TX","location":"DALLAS"},"type":"Feature","geometry":{"type":"Point","coordinates":[-96.78,32.77]}},{"properties":{"lon":-97.02,"size":275,"comments":"NEAR DUNCAN DRIVE (FWD)","time":{"end_time":"1922/01/01 00:00:00 -0500","original":"1921","granularity":"year","time":"1921/01/01 00:00:00 -0500"},"county":"DALLAS","id":"a62gv73y2an6","lat":32.95,"state":"TX","location":"COPPELL"},"type":"Feature","geometry":{"type":"Point","coordinates":[-97.02,32.95]}},{"properties":{"lon":-96.92,"size":275,"comments":"UP TO BASEBALL SIZED HAIL IS FALLING IN NORTH IRVING. (FWD)","time":{"end_time":"1924/01/01 00:00:00 -0500","original":"1923","granularity":"year","time":"1923/01/01 00:00:00 -0500"},"county":"DALLAS","id":"a62gv6y8c2hb","lat":32.86,"state":"TX","location":"3 N IRVING"},"type":"Feature","geometry":{"type":"Point","coordinates":[-96.92,32.86]}},{"properties":{"lon":-96.63,"size":175,"comments":"WILLIAM STADIUM AREA (FWD)","time":{"end_time":"1924/01/01 00:00:00 -0500","original":"1923","granularity":"year","time":"1923/01/01 00:00:00 -0500"},"county":"DALLAS","id":"a62gv787k7rv","lat":32.92,"state":"TX","location":"GARLAND"},"type":"Feature","geometry":{"type":"Point","coordinates":[-96.63,32.92]}},{"properties":{"lon":-96.85,"size":100,"comments":"QUARTER SIZE HAIL AND STRONG WIND HWY 287 BUS. DOWNTOWN WAXAHACHIE (FWD)","time":{"end_time":"1926/01/01 00:00:00 -0500","original":"1925","granularity":"year","time":"1925/01/01 00:00:00 -0500"},"county":"ELLIS","id":"a62gv789ttdx","lat":32.4,"state":"TX","location":"WAXAHACHIE"},"type":"Feature","geometry":{"type":"Point","coordinates":[-96.85,32.4]}},{"properties":{"lon":-97.08,"size":275,"comments":"BASEBALL HAIL NEAR 360 AND HARWOOD IN EULESS (FWD)","time":{"end_time":"1926/01/01 00:00:00 -0500","original":"1925","granularity":"year","time":"1925/01/01 00:00:00 -0500"},"county":"TARRANT","id":"a62gv70n6qe6","lat":32.83,"state":"TX","location":"EULESS"},"type":"Feature","geometry":{"type":"Point","coordinates":[-97.08,32.83]}},{"properties":{"lon":-97.0,"size":175,"comments":"NEAR LEWISVILLE LAKE (FWD)","time":{"end_time":"1930/01/01 00:00:00 -0500","original":"1929","granularity":"year","time":"1929/01/01 00:00:00 -0500"},"county":"DENTON","id":"a62gv6wj3i0c","lat":33.07,"state":"TX","location":"LEWISVILLE"},"type":"Feature","geometry":{"type":"Point","coordinates":[-97.0,33.07]}},{"properties":{"lon":-96.78,"size":200,"comments":"HAIL UP TO HEN EGG SIZE AT I635 AND ROYAL LANE IN NORTH DALLAS. (FWD)","time":{"end_time":"1931/01/01 00:00:00 -0500","original":"1930","granularity":"year","time":"1930/01/01 00:00:00 -0500"},"county":"DALLAS","id":"a62gv7bmszsf","lat":32.77,"state":"TX","location":"DALLAS"},"type":"Feature","geometry":{"type":"Point","coordinates":[-96.78,32.77]}},{"properties":{"lon":-96.89,"size":175,"comments":"1 S THE COLONY (FWD)","time":{"end_time":"1931/01/01 00:00:00 -0500","original":"1930","granularity":"year","time":"1930/01/01 00:00:00 -0500"},"county":"DENTON","id":"a62gv6y9oeec","lat":33.08,"state":"TX","location":"1 S THE COLONY"},"type":"Feature","geometry":{"type":"Point","coordinates":[-96.89,33.08]}},{"properties":{"lon":-96.89,"size":175,"comments":"(FWD)","time":{"end_time":"1935/01/01 00:00:00 -0500","original":"1934","granularity":"year","time":"1934/01/01 00:00:00 -0500"},"county":"DENTON","id":"a62gv772vzn4","lat":33.09,"state":"TX","location":"THE COLONY"},"type":"Feature","geometry":{"type":"Point","coordinates":[-96.89,33.09]}},{"properties":{"lon":-96.83,"size":100,"comments":"QUARTERS IN FRISCO (FWD)","time":{"end_time":"1951/01/01 00:00:00 -0500","original":"1950","granularity":"year","time":"1950/01/01 00:00:00 -0500"},"county":"DENTON","id":"a62gv7bps0xc","lat":33.15,"state":"TX","location":"FRISCO"},"type":"Feature","geometry":{"type":"Point","coordinates":[-96.83,33.15]}},{"properties":{"lon":-96.83,"size":125,"comments":"NW OF HWY 121 DALLAS NORTH TOLLWAY (FWD)","time":{"end_time":"1954/01/01 00:00:00 -0500","original":"1953","granularity":"year","time":"1953/01/01 00:00:00 -0500"},"county":"DENTON","id":"a62gv70t22g4","lat":33.09,"state":"TX","location":"4 S FRISCO"},"type":"Feature","geometry":{"type":"Point","coordinates":[-96.83,33.09]}},{"properties":{"lon":-96.83,"size":200,"comments":"IN FRISCO (FWD)","time":{"end_time":"1955/01/01 00:00:00 -0500","original":"1954","granularity":"year","time":"1954/01/01 00:00:00 -0500"},"county":"DENTON","id":"a62gv76iyv52","lat":33.15,"state":"TX","location":"FRISCO"},"type":"Feature","geometry":{"type":"Point","coordinates":[-96.83,33.15]}},{"properties":{"lon":-84.07,"size":100,"comments":"DIME TO QUARTER SIZED HAIL COVERING YARD NEAR MOCCASIN GAP AND MICCOSUKEE ROAD. REPORT RELAYED BY WCTV. (TAE)","time":{"end_time":"1960/01/01 00:00:00 -0500","original":"1959","granularity":"year","time":"1959/01/01 00:00:00 -0500"},"county":"LEON","id":"a62gv7ahmos9","lat":30.57,"state":"FL","location":"1 WNW CONCORD"},"type":"Feature","geometry":{"type":"Point","coordinates":[-84.07,30.57]}},{"properties":{"lon":-96.88,"size":100,"comments":"ONE INCH HAIL WEST SIDE OF FRISCO. (FWD)","time":{"end_time":"2001/01/01 00:00:00 -0500","original":"2000","granularity":"year","time":"2000/01/01 00:00:00 -0500"},"county":"DENTON","id":"a62gv6x722by","lat":33.17,"state":"TX","location":"3 WNW FRISCO"},"type":"Feature","geometry":{"type":"Point","coordinates":[-96.88,33.17]}},{"properties":{"lon":-84.04,"size":100,"comments":"QUARTER SIZED HAIL REPORTED AT 14000 MOCCASIN GAP ROAD IN MICCOSUKEE. (TAE)","time":{"end_time":"2004/01/01 00:00:00 -0500","original":"2003","granularity":"year","time":"2003/01/01 00:00:00 -0500"},"county":"LEON","id":"a62gv70lj7en","lat":30.59,"state":"FL","location":"ESE MICCOSUKEE"},"type":"Feature","geometry":{"type":"Point","coordinates":[-84.04,30.59]}},{"properties":{"lon":-83.52,"size":125,"comments":"(MRX)","time":{"end_time":"2014/01/01 00:00:00 -0500","original":"2013","granularity":"year","time":"2013/01/01 00:00:00 -0500"},"county":"GRAINGER","id":"a62gv77zwzp3","lat":36.27,"state":"TN","location":"RUTLEDGE"},"type":"Feature","geometry":{"type":"Point","coordinates":[-83.52,36.27]}},{"properties":{"lon":-96.53,"size":150,"comments":"JUST N OF SEAGOVILLE (FWD)","time":{"end_time":"2016/01/01 00:00:00 -0500","original":"2015","granularity":"year","time":"2015/01/01 00:00:00 -0500"},"county":"DALLAS","id":"a62gv6wyav8i","lat":32.64,"state":"TX","location":"1 N SEAGOVILLE"},"type":"Feature","geometry":{"type":"Point","coordinates":[-96.53,32.64]}},{"properties":{"lon":-84.18,"size":100,"comments":"(MRX)","time":{"end_time":"2017/01/01 00:00:00 -0500","original":"2016","granularity":"year","time":"2016/01/01 00:00:00 -0500"},"county":"LOUDON","id":"a62gv73xk6pj","lat":35.67,"state":"TN","location":"1 N GREENBACK"},"type":"Feature","geometry":{"type":"Point","coordinates":[-84.18,35.67]}},{"properties":{"lon":-83.91,"size":100,"comments":"INTERSECTION OF HIGHWAY 19 AND NEW HOPE ROAD. (TAE)","time":{"end_time":"2021/01/01 00:00:00 -0500","original":"2020","granularity":"year","time":"2020/01/01 00:00:00 -0500"},"county":"THOMAS","id":"a62gv7870pzg","lat":30.74,"state":"GA","location":"6 SW EASON"},"type":"Feature","geometry":{"type":"Point","coordinates":[-83.91,30.74]}},{"properties":{"lon":-83.68,"size":100,"comments":"(FFC)","time":{"end_time":"2021/01/01 00:00:00 -0500","original":"2020","granularity":"year","time":"2020/01/01 00:00:00 -0500"},"county":"HALL","id":"a62gv6we7pgt","lat":34.29,"state":"GA","location":"3 WSW GILLSVILLE"},"type":"Feature","geometry":{"type":"Point","coordinates":[-83.68,34.29]}},{"properties":{"lon":-97.73,"size":100,"comments":"(FWD)","time":{"end_time":"2026/01/01 00:00:00 -0500","original":"2025","granularity":"year","time":"2025/01/01 00:00:00 -0500"},"county":"BELL","id":"a62gv700lq9q","lat":31.13,"state":"TX","location":"KILLEEN"},"type":"Feature","geometry":{"type":"Point","coordinates":[-97.73,31.13]}},{"properties":{"lon":-83.98,"size":100,"comments":"QUARTER SIZED HAIL REPORTED SOUTH OF THOMASVILLE VIA FACEBOOK POST. (TAE)","time":{"end_time":"2028/01/01 00:00:00 -0500","original":"2027","granularity":"year","time":"2027/01/01 00:00:00 -0500"},"county":"THOMAS","id":"a62gv6znyotq","lat":30.8,"state":"GA","location":"3 S THOMASVILLE"},"type":"Feature","geometry":{"type":"Point","coordinates":[-83.98,30.8]}},{"properties":{"lon":-83.66,"size":100,"comments":"(FFC)","time":{"end_time":"2033/01/01 00:00:00 -0500","original":"2032","granularity":"year","time":"2032/01/01 00:00:00 -0500"},"county":"JACKSON","id":"a62gv76wfq5n","lat":34.1,"state":"GA","location":"5 WSW JEFFERSON"},"type":"Feature","geometry":{"type":"Point","coordinates":[-83.66,34.1]}},{"properties":{"lon":-96.8,"size":100,"comments":"QUARTER SIZE HAIL IN RED OAK. (FWD)","time":{"end_time":"2035/01/01 00:00:00 -0500","original":"2034","granularity":"year","time":"2034/01/01 00:00:00 -0500"},"county":"ELLIS","id":"a62gv73xj9dc","lat":32.52,"state":"TX","location":"RED OAK"},"type":"Feature","geometry":{"type":"Point","coordinates":[-96.8,32.52]}},{"properties":{"lon":-96.45,"size":125,"comments":"HALF DOLLAR HAIL FALLING AT THE WALMART ON I30 AND RIDGEWAY RD. (FWD)","time":{"end_time":"2036/01/01 00:00:00 -0500","original":"2035","granularity":"year","time":"2035/01/01 00:00:00 -0500"},"county":"ROCKWALL","id":"a62gv76i3or2","lat":32.93,"state":"TX","location":"ROCKWALL"},"type":"Feature","geometry":{"type":"Point","coordinates":[-96.45,32.93]}},{"properties":{"lon":-83.3,"size":100,"comments":"(GSP)","time":{"end_time":"2041/01/01 00:00:00 -0500","original":"2040","granularity":"year","time":"2040/01/01 00:00:00 -0500"},"county":"STEPHENS","id":"a62gv747f8z2","lat":34.62,"state":"GA","location":"3 NNE TOCCOA"},"type":"Feature","geometry":{"type":"Point","coordinates":[-83.3,34.62]}},{"properties":{"lon":-94.98,"size":100,"comments":"(SHV)","time":{"end_time":"2044/01/01 00:00:00 -0500","original":"2043","granularity":"year","time":"2043/01/01 00:00:00 -0500"},"county":"TITUS","id":"a62gv77kccmn","lat":33.18,"state":"TX","location":"1 N MOUNT PLEASANT"},"type":"Feature","geometry":{"type":"Point","coordinates":[-94.98,33.18]}},{"properties":{"lon":-84.02,"size":100,"comments":"(MRX)","time":{"end_time":"2045/01/01 00:00:00 -0500","original":"2044","granularity":"year","time":"2044/01/01 00:00:00 -0500"},"county":"BLOUNT","id":"a62gv6y6wwfx","lat":35.63,"state":"TN","location":"4 WNW HAPPY VALLEY"},"type":"Feature","geometry":{"type":"Point","coordinates":[-84.02,35.63]}},{"properties":{"lon":-97.22,"size":175,"comments":"SPOTTER REPORTS CAR AND SHINGLE DAMAGE (FWD)","time":{"end_time":"2046/01/01 00:00:00 -0500","original":"2045","granularity":"year","time":"2045/01/01 00:00:00 -0500"},"county":"MCLENNAN","id":"a62gv75z3vh6","lat":31.61,"state":"TX","location":"6 S GHOLSON"},"type":"Feature","geometry":{"type":"Point","coordinates":[-97.22,31.61]}},{"properties":{"lon":-94.98,"size":175,"comments":"GOLFBALL SIZED HAIL REPORTED BY PUBLIC. (SHV)","time":{"end_time":"2046/01/01 00:00:00 -0500","original":"2045","granularity":"year","time":"2045/01/01 00:00:00 -0500"},"county":"TITUS","id":"a62gv7b1py0b","lat":33.17,"state":"TX","location":"MOUNT PLEASANT"},"type":"Feature","geometry":{"type":"Point","coordinates":[-94.98,33.17]}},{"properties":{"lon":-97.32,"size":175,"comments":"(FWD)","time":{"end_time":"2051/01/01 00:00:00 -0500","original":"2050","granularity":"year","time":"2050/01/01 00:00:00 -0500"},"county":"MCLENNAN","id":"a62gv6xpolls","lat":31.65,"state":"TX","location":"CHINA SPRING"},"type":"Feature","geometry":{"type":"Point","coordinates":[-97.32,31.65]}},{"properties":{"lon":-97.15,"size":175,"comments":"2W WACO AIRPORT (FWD)","time":{"end_time":"2053/01/01 00:00:00 -0500","original":"2052","granularity":"year","time":"2052/01/01 00:00:00 -0500"},"county":"MCLENNAN","id":"a62gv6wrfj9q","lat":31.55,"state":"TX","location":"WACO"},"type":"Feature","geometry":{"type":"Point","coordinates":[-97.15,31.55]}},{"properties":{"lon":-96.45,"size":275,"comments":"GOLFBALL AND BASEBALL SIZED HAIL IN HEATH (FWD)","time":{"end_time":"2111/01/01 00:00:00 -0500","original":"2110","granularity":"year","time":"2110/01/01 00:00:00 -0500"},"county":"ROCKWALL","id":"a62gv70s315i","lat":32.83,"state":"TX","location":"HEATH"},"type":"Feature","geometry":{"type":"Point","coordinates":[-96.45,32.83]}},{"properties":{"lon":-97.16,"size":100,"comments":"QUARTER SIZE HAIL IN NORTHWEST WACO (FWD)","time":{"end_time":"2115/01/01 00:00:00 -0500","original":"2114","granularity":"year","time":"2114/01/01 00:00:00 -0500"},"county":"MCLENNAN","id":"a62gv6z6wwdb","lat":31.56,"state":"TX","location":"1 NW WACO"},"type":"Feature","geometry":{"type":"Point","coordinates":[-97.16,31.56]}},{"properties":{"lon":-83.23,"size":100,"comments":"(GSP)","time":{"end_time":"2118/01/01 00:00:00 -0500","original":"2117","granularity":"year","time":"2117/01/01 00:00:00 -0500"},"county":"FRANKLIN","id":"a62gv7aw1m4z","lat":34.37,"state":"GA","location":"CARNESVILLE"},"type":"Feature","geometry":{"type":"Point","coordinates":[-83.23,34.37]}},{"properties":{"lon":-97.09,"size":150,"comments":"(FWD)","time":{"end_time":"2121/01/01 00:00:00 -0500","original":"2120","granularity":"year","time":"2120/01/01 00:00:00 -0500"},"county":"MCLENNAN","id":"a62gv74nchqj","lat":31.61,"state":"TX","location":"1 SE LACY-LAKEVIEW"},"type":"Feature","geometry":{"type":"Point","coordinates":[-97.09,31.61]}},{"properties":{"lon":-94.98,"size":100,"comments":"QUARTER SIZED HAIL REPORTED ON COUNTY ROAD 3275 (SHV)","time":{"end_time":"2131/01/01 00:00:00 -0500","original":"2130","granularity":"year","time":"2130/01/01 00:00:00 -0500"},"county":"TITUS","id":"a62gv7bdslyx","lat":33.32,"state":"TX","location":"8 ESE TALCO"},"type":"Feature","geometry":{"type":"Point","coordinates":[-94.98,33.32]}},{"properties":{"lon":-96.12,"size":175,"comments":"AT I-30 AND HIGHWAY 34 (FWD)","time":{"end_time":"2142/01/01 00:00:00 -0500","original":"2141","granularity":"year","time":"2141/01/01 00:00:00 -0500"},"county":"HUNT","id":"a62gv76f5kyr","lat":33.09,"state":"TX","location":"3 S GREENVILLE"},"type":"Feature","geometry":{"type":"Point","coordinates":[-96.12,33.09]}},{"properties":{"lon":-97.64,"size":100,"comments":"HAIL FELL FOR NEARLY TWO MINUTES (EWX)","time":{"end_time":"2158/01/01 00:00:00 -0500","original":"2157","granularity":"year","time":"2157/01/01 00:00:00 -0500"},"county":"WILLIAMSON","id":"a62gv6yv2n96","lat":30.55,"state":"TX","location":"3 NE ROUND ROCK"},"type":"Feature","geometry":{"type":"Point","coordinates":[-97.64,30.55]}},{"properties":{"lon":-95.05,"size":200,"comments":"TWO INCH HAIL REPORTED BY EMERGENCY MANAGER. (SHV)","time":{"end_time":"2201/01/01 00:00:00 -0500","original":"2200","granularity":"year","time":"2200/01/01 00:00:00 -0500"},"county":"RED RIVER","id":"a62gv6ymtun0","lat":33.47,"state":"TX","location":"CUTHAND"},"type":"Feature","geometry":{"type":"Point","coordinates":[-95.05,33.47]}},{"properties":{"lon":-96.35,"size":100,"comments":"RETIRED FORECASTER NOTED QUARTER SIZE HAIL 1 SW OF POWELL","time":{"end_time":"2215/01/01 00:00:00 -0500","original":"2214","granularity":"year","time":"2214/01/01 00:00:00 -0500"},"county":"NAVARRO","id":"a62gv6ymvcuy","lat":32.1,"state":"TX","location":"7 E CORSICANA"},"type":"Feature","geometry":{"type":"Point","coordinates":[-96.35,32.1]}},{"properties":{"lon":-81.59,"size":100,"comments":"SPOTTER AT PLANTATION AIRPARK OBSERVED PENNY TO QUARTER SIZE HAIL. (CHS)","time":{"end_time":"2221/01/01 00:00:00 -0500","original":"2220","granularity":"year","time":"2220/01/01 00:00:00 -0500"},"county":"SCREVEN","id":"a62gv6xc8jnl","lat":32.65,"state":"GA","location":"2 NNE CAPTOLO"},"type":"Feature","geometry":{"type":"Point","coordinates":[-81.59,32.65]}},{"properties":{"lon":-84.23,"size":100,"comments":"(LMK)","time":{"end_time":"2241/01/01 00:00:00 -0500","original":"2240","granularity":"year","time":"2240/01/01 00:00:00 -0500"},"county":"MADISON","id":"a62gv6vva377","lat":37.79,"state":"KY","location":"5 NE RICHMOND"},"type":"Feature","geometry":{"type":"Point","coordinates":[-84.23,37.79]}},{"properties":{"lon":-95.27,"size":250,"comments":"TWO AND HALF INCH SIZE HAIL REPORTED BY EMERGENCY MANAGER. (SHV)","time":{"end_time":"2251/01/01 00:00:00 -0500","original":"2250","granularity":"year","time":"2250/01/01 00:00:00 -0500"},"county":"FRANKLIN","id":"a62gv71ln0ai","lat":33.08,"state":"TX","location":"2 SW PURLEY"},"type":"Feature","geometry":{"type":"Point","coordinates":[-95.27,33.08]}},{"properties":{"lon":-92.72,"size":100,"comments":"QUARTER SIZED HAIL REPORTED BY QUITMAN FIRE DEPARTMENT. (SHV)","time":{"end_time":"2256/01/01 00:00:00 -0500","original":"2255","granularity":"year","time":"2255/01/01 00:00:00 -0500"},"county":"JACKSON","id":"a62gv71v8c05","lat":32.35,"state":"LA","location":"QUITMAN"},"type":"Feature","geometry":{"type":"Point","coordinates":[-92.72,32.35]}},{"properties":{"lon":-92.72,"size":175,"comments":"GOLFBALL SIZED HAIL REPORTED BY QUITMAN FIRE DEPARTMENT. (SHV)","time":{"end_time":"2259/01/01 00:00:00 -0500","original":"2258","granularity":"year","time":"2258/01/01 00:00:00 -0500"},"county":"WOOD","id":"a62gv75kkbs0","lat":32.35,"state":"TX","location":"QUITMAN"},"type":"Feature","geometry":{"type":"Point","coordinates":[-92.72,32.35]}},{"properties":{"lon":-96.74,"size":100,"comments":"QUARTER SIZE HAIL 1 MILE WEST SOUTHWEST OF ODDS (FWD)","time":{"end_time":"2312/01/01 00:00:00 -0500","original":"2311","granularity":"year","time":"2311/01/01 00:00:00 -0500"},"county":"FALLS","id":"a62gv7anbjce","lat":31.41,"state":"TX","location":"1 WSW ODDS"},"type":"Feature","geometry":{"type":"Point","coordinates":[-96.74,31.41]}},{"properties":{"lon":-95.4,"size":100,"comments":"(SHV)","time":{"end_time":"2316/01/01 00:00:00 -0500","original":"2315","granularity":"year","time":"2315/01/01 00:00:00 -0500"},"county":"SMITH","id":"a62gv76eat9c","lat":32.23,"state":"TX","location":"1 S NOONDAY"},"type":"Feature","geometry":{"type":"Point","coordinates":[-95.4,32.23]}},{"properties":{"lon":-94.16,"size":100,"comments":"QUARTER SIZED HAIL REPORTED BY BROADCAST MEDIA. (SHV)","time":{"end_time":"2321/01/01 00:00:00 -0500","original":"2320","granularity":"year","time":"2320/01/01 00:00:00 -0500"},"county":"CASS","id":"a62gv79rap2y","lat":33.06,"state":"TX","location":"4 S ATLANTA"},"type":"Feature","geometry":{"type":"Point","coordinates":[-94.16,33.06]}},{"properties":{"lon":-95.4,"size":100,"comments":"QUARTER SIZED HAIL REPORTED BY TRAINED SPOTTER. (SHV)","time":{"end_time":"2326/01/01 00:00:00 -0500","original":"2325","granularity":"year","time":"2325/01/01 00:00:00 -0500"},"county":"SMITH","id":"a62gv6yba6ie","lat":32.24,"state":"TX","location":"NOONDAY"},"type":"Feature","geometry":{"type":"Point","coordinates":[-95.4,32.24]}},{"properties":{"lon":-94.08,"size":175,"comments":"GOLF BALL SIZED HAIL REPORTED BY BROADCAST MEDIA. (SHV)","time":{"end_time":"2345/01/01 00:00:00 -0500","original":"2344","granularity":"year","time":"2344/01/01 00:00:00 -0500"},"county":"CASS","id":"a62gv6xxfdmz","lat":32.95,"state":"TX","location":"MCLEOD"},"type":"Feature","geometry":{"type":"Point","coordinates":[-94.08,32.95]}}],"is_temporal":true,"author":{"url":"","metadata":null,"contact_name":null,"contact_address":null,"source":null,"contact_phone":null},"source":"","pagination":{"sort":null,"start":0,"total":70,"limit":1000000},"state":"complete","tags":"","published":"2014-08-14T19:50:18-04:00","id":223837}