{"type":"FeatureCollection","data_type":"Dataset","url_type":null,"permissions":[{"permissions":{"download":true,"view":true},"group_id":"everyone"}],"classification":null,"title":"SitesUpload","count":135,"stream_id":224308,"contributor":{"url":"http://geocommons.com/users/42222","name":"rtravison"},"data_attributes":null,"calculation_params":null,"icon_link":null,"link":"http://geocommons.com/overlays/224308.json","extent":[-117.079,25.8576,-71.5376,43.2081],"geometry_types":["point"],"unique_name":null,"name":"SitesUpload","feature_count":135,"description":"","next_feature":null,"is_raster":false,"short_classification":"Y","stats":{},"features":[{"properties":{"city":"Shorter","column_5":null,"geo_score":0.805,"street address":"1522 MAIN ST.","bu name":"Shorter S &amp; G","id":"a730qx3v11dv","geo_precision":"range","state":"AL"},"type":"Feature","geometry":{"type":"Point","coordinates":[-86.010865,32.634934]}},{"properties":{"city":"Montevallo","column_5":null,"geo_score":0.902,"street address":"144 Butler Rd Montevallo","bu name":"Maylene","id":"a730qx0gw3hh","geo_precision":"range","state":"AL"},"type":"Feature","geometry":{"type":"Point","coordinates":[-86.859019,33.193995]}},{"properties":{"city":"Auburn","column_5":null,"geo_score":0.688,"street address":"3505 LEE RD., 159","bu name":"Auburn-Al","id":"a730qwqzwnzp","geo_precision":"range","state":"AL"},"type":"Feature","geometry":{"type":"Point","coordinates":[-85.178706,32.801442]}},{"properties":{"city":"Alabaster","column_5":null,"geo_score":0.902,"street address":"1180 FULTON SPRINGS RD.","bu name":"Alabaster","id":"a730qwvtmlqc","geo_precision":"range","state":"AL"},"type":"Feature","geometry":{"type":"Point","coordinates":[-86.81117,33.215107]}},{"properties":{"city":"Calera","column_5":null,"geo_score":0.777,"street address":"3703 HWY 31 N.","bu name":"O'Neal","id":"a730qwtlw9tm","geo_precision":"range","state":"AL"},"type":"Feature","geometry":{"type":"Point","coordinates":[-86.756428,33.166919]}},{"properties":{"city":"Vance","column_5":null,"geo_score":0.405,"street address":"10445 Frog Lady Rd.","bu name":"Vance","id":"a730qwv7e6c4","geo_precision":"street","state":"AL"},"type":"Feature","geometry":{"type":"Point","coordinates":[-87.460989,33.089619]}},{"properties":{"city":"Jones Mill","column_5":null,"geo_score":0.5,"street address":"4202 HWY 270 WEST","bu name":"Jones Mill","id":"a730qx1qehst","geo_precision":"street","state":"AR"},"type":"Feature","geometry":{"type":"Point","coordinates":[-92.106286,34.262308]}},{"properties":{"city":"Black Rock","column_5":null,"geo_score":0.725,"street address":"133 Lawrence 208","bu name":"Black Rock","id":"a730qx3g4mjx","geo_precision":"range","state":"AR"},"type":"Feature","geometry":{"type":"Point","coordinates":[-93.116059,34.389592]}},{"properties":{"city":"Hatton","column_5":null,"geo_score":0.5,"street address":"0.5 MI E. OF HWY 71 ON CO. RD.","bu name":"Hatton","id":"a730qwtw3509","geo_precision":"street","state":"AR"},"type":"Feature","geometry":{"type":"Point","coordinates":[-93.71658,34.308499]}},{"properties":{"city":"Hot Springs","column_5":null,"geo_score":0.61,"street address":null,"bu name":"Hot Springs","id":"a730qwt0rfom","geo_precision":"city","state":"AR"},"type":"Feature","geometry":{"type":"Point","coordinates":[-72.589811,42.101483]}},{"properties":{"city":"Perry","column_5":null,"geo_score":0.61,"street address":"22550 Nutall Rise RD","bu name":"Perry  / Cabbage Grove","id":"a730qx4wovnx","geo_precision":"street","state":"FL"},"type":"Feature","geometry":{"type":"Point","coordinates":[-83.95989,30.149549]}},{"properties":{"city":"Augusta","column_5":null,"geo_score":0.585,"street address":"30907 SUPERIOR RD.","bu name":"Augusta, GA","id":"a730qx0u6iz0","geo_precision":"city","state":"GA"},"type":"Feature","geometry":{"type":"Point","coordinates":[-81.974838,33.47097]}},{"properties":{"city":"Warrenton","column_5":null,"geo_score":0.482,"street address":"1471 Quaker RD, SE","bu name":"Warrenton","id":"a730qx0ephv4","geo_precision":"street","state":"GA"},"type":"Feature","geometry":{"type":"Point","coordinates":[-82.651097,33.395161]}},{"properties":{"city":"Junction City","column_5":null,"geo_score":0.353,"street address":"5291 JUNCTION CITY HWY","bu name":"Junction City","id":"a730qx4oob7q","geo_precision":"street","state":"GA"},"type":"Feature","geometry":{"type":"Point","coordinates":[-84.812309,33.86618]}},{"properties":{"city":"Thomson","column_5":null,"geo_score":0.444,"street address":"7856 HIGHWAY 80 NORTH","bu name":"Camak","id":"a730qwuluk1g","geo_precision":"street","state":"GA"},"type":"Feature","geometry":{"type":"Point","coordinates":[-82.647163,33.437447]}},{"properties":{"city":"Macon","column_5":null,"geo_score":0.805,"street address":"137 Pitts Chapel RD","bu name":"Ruby","id":"a730qwvc973x","geo_precision":"range","state":"GA"},"type":"Feature","geometry":{"type":"Point","coordinates":[-83.499779,32.928454]}},{"properties":{"city":"Appling","column_5":null,"geo_score":0.61,"street address":"5607 COLUMBIA RD","bu name":"Appling","id":"a730qwz59ki5","geo_precision":"street","state":"GA"},"type":"Feature","geometry":{"type":"Point","coordinates":[-82.279018,33.529241]}},{"properties":{"city":"Forsyth","column_5":null,"geo_score":0.542,"street address":"3561 Peachtree Parkway","bu name":"Forsyth","id":"a730qx0n3j8a","geo_precision":"street","state":"GA"},"type":"Feature","geometry":{"type":"Point","coordinates":[-83.620678,32.610327]}},{"properties":{"city":"Jefferson","column_5":null,"geo_score":0.683,"street address":"360 Quarry RD","bu name":"Jefferson","id":"a730qx44fyqq","geo_precision":"range","state":"GA"},"type":"Feature","geometry":{"type":"Point","coordinates":[-83.403047,33.278996]}},{"properties":{"city":"Auburn","column_5":null,"geo_score":0.698,"street address":"301 Parks Mill RD","bu name":"Auburn-GA","id":"a730qwtrx3u9","geo_precision":"range","state":"GA"},"type":"Feature","geometry":{"type":"Point","coordinates":[-84.547691,33.300358]}},{"properties":{"city":"Crawford","column_5":null,"geo_score":0.714,"street address":null,"bu name":"Crawford","id":"a730qwpolc23","geo_precision":"city","state":"GA"},"type":"Feature","geometry":{"type":"Point","coordinates":[-85.189661,32.456808]}},{"properties":{"city":"Rome","column_5":null,"geo_score":0.883,"street address":"3785 CAVE SPRINGS RD SW","bu name":"Six Mile","id":"a730qx4su0y6","geo_precision":"range","state":"GA"},"type":"Feature","geometry":{"type":"Point","coordinates":[-85.234326,34.175588]}},{"properties":{"city":"Dallas","column_5":null,"geo_score":0.707,"street address":"112 Quarry DR","bu name":"Paulding","id":"a730qx1dqfot","geo_precision":"range","state":"GA"},"type":"Feature","geometry":{"type":"Point","coordinates":[-83.823354,31.455134]}},{"properties":{"city":"Red Oak","column_5":null,"geo_score":0.52,"street address":"5414 Buffington RD","bu name":"Red Oak","id":"a730qwtqg7tf","geo_precision":"city","state":"GA"},"type":"Feature","geometry":{"type":"Point","coordinates":[-83.250433,32.352667]}},{"properties":{"city":"Tyrone","column_5":null,"geo_score":0.585,"street address":"245 Rockwood Rd.","bu name":"Tyrone","id":"a730qx2xxdzg","geo_precision":"city","state":"GA"},"type":"Feature","geometry":{"type":"Point","coordinates":[-82.861256,33.672351]}},{"properties":{"city":"Jackson","column_5":null,"geo_score":0.662,"street address":"Brownlee Road","bu name":"Butts County","id":"a730qwzzhlle","geo_precision":"street","state":"GA"},"type":"Feature","geometry":{"type":"Point","coordinates":[-81.763677,30.433595]}},{"properties":{"city":"Forsyth","column_5":null,"geo_score":0.542,"street address":"3561 Peachtree Parkway","bu name":"Forsyth Recycled Concrete","id":"a730qwwwlzkc","geo_precision":"street","state":"GA"},"type":"Feature","geometry":{"type":"Point","coordinates":[-83.620678,32.610327]}},{"properties":{"city":"Petersburg","column_5":null,"geo_score":0.654,"street address":"3503 Belleview Rd","bu name":"Petersburg, Ky Gravel","id":"a730qwqv9hls","geo_precision":"street","state":"KY"},"type":"Feature","geometry":{"type":"Point","coordinates":[-76.80104,37.018142]}},{"properties":{"city":"Williamsport","column_5":null,"geo_score":0.473,"street address":"14932 Bottom Rd","bu name":"Pinesburg","id":"a730qwv2a3zp","geo_precision":"city","state":"MD"},"type":"Feature","geometry":{"type":"Point","coordinates":[-80.762832,28.448336]}},{"properties":{"city":"Boonsboro","column_5":null,"geo_score":0.417,"street address":"20301 Benevola Church Rd","bu name":"Boonsboro","id":"a730qwwjkbrm","geo_precision":"street","state":"MD"},"type":"Feature","geometry":{"type":"Point","coordinates":[-84.29636,37.750271]}},{"properties":{"city":"Tremont","column_5":null,"geo_score":0.902,"street address":"2050 COTTON GIN RD.","bu name":"R&amp;S Sand &amp; Gravel","id":"a730qwrydgvj","geo_precision":"range","state":"MS"},"type":"Feature","geometry":{"type":"Point","coordinates":[-88.196926,34.267018]}},{"properties":{"city":"Weldon","column_5":null,"geo_score":0.81,"street address":null,"bu name":"Weldon (Wyche)","id":"a730qwyitanc","geo_precision":"city","state":"NC"},"type":"Feature","geometry":{"type":"Point","coordinates":[-78.576668,36.142092]}},{"properties":{"city":"Franklinton","column_5":null,"geo_score":0.559,"street address":"255 Materials Dr.","bu name":"Franklin","id":"a730qwowz3os","geo_precision":"city","state":"NC"},"type":"Feature","geometry":{"type":"Point","coordinates":[-80.498948,35.721251]}},{"properties":{"city":"Maysville","column_5":null,"geo_score":0.612,"street address":"US 17S","bu name":"Belgrade","id":"a730qx0aydpy","geo_precision":"street","state":"NC"},"type":"Feature","geometry":{"type":"Point","coordinates":[-77.231753,34.911773]}},{"properties":{"city":"Rocky Point","column_5":null,"geo_score":0.823,"street address":"1635 Martin Marietta Rd.","bu name":"Rocky Point","id":"a730qx03noyx","geo_precision":"range","state":"NC"},"type":"Feature","geometry":{"type":"Point","coordinates":[-77.868763,34.422455]}},{"properties":{"city":"Benson","column_5":null,"geo_score":0.61,"street address":"Hwy 301 N, St. Rd. 1330","bu name":"Benson","id":"a730qwtr26t5","geo_precision":"range","state":"NC"},"type":"Feature","geometry":{"type":"Point","coordinates":[-78.536566,35.390225]}},{"properties":{"city":"Raleigh","column_5":null,"geo_score":0.746,"street address":"6028 Traingle Dr.","bu name":"Raleigh-Durham","id":"a730qwwcpj7y","geo_precision":"range","state":"NC"},"type":"Feature","geometry":{"type":"Point","coordinates":[-78.747036,35.894059]}},{"properties":{"city":"New Bern","column_5":null,"geo_score":0.457,"street address":"1315 Old Hwy. 70 West","bu name":"Clarks","id":"a730qwxknbjs","geo_precision":"street","state":"NC"},"type":"Feature","geometry":{"type":"Point","coordinates":[-77.017648,35.056318]}},{"properties":{"city":"Garner","column_5":null,"geo_score":0.476,"street address":"1111 E. Garner Rd.","bu name":"Garner","id":"a730qx3xcq1r","geo_precision":"street","state":"NC"},"type":"Feature","geometry":{"type":"Point","coordinates":[-78.600715,35.705518]}},{"properties":{"city":"Fountain","column_5":null,"geo_score":0.857,"street address":"Allen-Gay Rd.","bu name":"Fountain","id":"a730qwy1o27y","geo_precision":"city","state":"NC"},"type":"Feature","geometry":{"type":"Point","coordinates":[-77.672752,34.840998]}},{"properties":{"city":"Castle Hayne","column_5":null,"geo_score":0.463,"street address":"5408 Holly Shelter Rd.","bu name":"Castle Hayne","id":"a730qx4288mm","geo_precision":"street","state":"NC"},"type":"Feature","geometry":{"type":"Point","coordinates":[-79.312099,35.242134]}},{"properties":{"city":"Sanford","column_5":null,"geo_score":0.525,"street address":"1227 WILLET RD","bu name":"Lemon Springs","id":"a730qwt82hdh","geo_precision":"street","state":"NC"},"type":"Feature","geometry":{"type":"Point","coordinates":[-86.968085,31.441349]}},{"properties":{"city":"Holly Springs","column_5":null,"geo_score":0.5,"street address":"7400 Buckhorn-Duncan Rd","bu name":"Fuquay","id":"a730qwypd2xe","geo_precision":"street","state":"NC"},"type":"Feature","geometry":{"type":"Point","coordinates":[-77.521891,35.406458]}},{"properties":{"city":"Richlands","column_5":null,"geo_score":0.902,"street address":"131 Duffy Field Rd.","bu name":"Onslow","id":"a730qx2npp29","geo_precision":"range","state":"NC"},"type":"Feature","geometry":{"type":"Point","coordinates":[-77.540309,34.840077]}},{"properties":{"city":"Wilson","column_5":null,"geo_score":0.902,"street address":"4063 Old Black Creek Rd.","bu name":"Wilson","id":"a730qwp20ui6","geo_precision":"range","state":"NC"},"type":"Feature","geometry":{"type":"Point","coordinates":[-77.907872,35.66956]}},{"properties":{"city":"Spring Lake","column_5":null,"geo_score":0.407,"street address":"8300 McCormick Bridge Rd.","bu name":"Cumberland","id":"a730qwp0w4tm","geo_precision":"street","state":"NC"},"type":"Feature","geometry":{"type":"Point","coordinates":[-78.154001,35.745955]}},{"properties":{"city":"Selma","column_5":null,"geo_score":0.785,"street address":"665 Bear Farm Road","bu name":"Selma","id":"a730qx35u833","geo_precision":"range","state":"NC"},"type":"Feature","geometry":{"type":"Point","coordinates":[-86.825127,34.502452]}},{"properties":{"city":"Lenoir","column_5":null,"geo_score":0.805,"street address":"1325 Bradford Mountain Rd.","bu name":"Caldwell","id":"a730qx2zwcm1","geo_precision":"range","state":"NC"},"type":"Feature","geometry":{"type":"Point","coordinates":[-81.558274,35.879839]}},{"properties":{"city":"Maiden","column_5":null,"geo_score":0.48,"street address":"1575 West Maiden Rd","bu name":"Maiden","id":"a730qwz7e29l","geo_precision":"street","state":"NC"},"type":"Feature","geometry":{"type":"Point","coordinates":[-86.349156,33.611233]}},{"properties":{"city":"Chapel Hill","column_5":null,"geo_score":0.383,"street address":"1807 Hwy 54 West,","bu name":"American Stone","id":"a730qwtf3w7q","geo_precision":"street","state":"NC"},"type":"Feature","geometry":{"type":"Point","coordinates":[-79.001775,35.902572]}},{"properties":{"city":"Woodleaf","column_5":null,"geo_score":0.902,"street address":"720 Quarry Rd.","bu name":"Woodleaf","id":"a730qwtpmwkk","geo_precision":"range","state":"NC"},"type":"Feature","geometry":{"type":"Point","coordinates":[-80.60205,35.771808]}},{"properties":{"city":"Jamestown","column_5":null,"geo_score":0.849,"street address":"5725 Riverdale Dr.","bu name":"Jamestown","id":"a730qwtl7e45","geo_precision":"range","state":"NC"},"type":"Feature","geometry":{"type":"Point","coordinates":[-79.922737,35.966143]}},{"properties":{"city":"Hickory","column_5":null,"geo_score":0.805,"street address":"1989 11th AVE SE","bu name":"Hickory","id":"a730qwq4xz8w","geo_precision":"range","state":"NC"},"type":"Feature","geometry":{"type":"Point","coordinates":[-81.299135,35.741366]}},{"properties":{"city":"Greensboro","column_5":null,"geo_score":0.493,"street address":"825 Marietta Rd.","bu name":"Pomona","id":"a730qwtvzbas","geo_precision":"street","state":"NC"},"type":"Feature","geometry":{"type":"Point","coordinates":[-79.940013,36.10585]}},{"properties":{"city":"Burlington","column_5":null,"geo_score":0.902,"street address":"1671 Huffman Mill Rd.","bu name":"Burlington","id":"a730qwt3wo4j","geo_precision":"range","state":"NC"},"type":"Feature","geometry":{"type":"Point","coordinates":[-79.507319,36.055493]}},{"properties":{"city":"Reidsville","column_5":null,"geo_score":0.571,"street address":"7639 NC 87","bu name":"Reidsville","id":"a730qwyddgxd","geo_precision":"range","state":"NC"},"type":"Feature","geometry":{"type":"Point","coordinates":[-78.031985,33.982397]}},{"properties":{"city":"Statesville","column_5":null,"geo_score":0.657,"street address":"220 Quarry Rd.","bu name":"Statesville","id":"a730qwx8o7kx","geo_precision":"range","state":"NC"},"type":"Feature","geometry":{"type":"Point","coordinates":[-80.892734,35.752925]}},{"properties":{"city":"Greensboro","column_5":null,"geo_score":0.805,"street address":"5800 Eckerson Rd.","bu name":"Hicone","id":"a730qwywtosb","geo_precision":"range","state":"NC"},"type":"Feature","geometry":{"type":"Point","coordinates":[-79.710108,36.171948]}},{"properties":{"city":"Thomasville","column_5":null,"geo_score":0.586,"street address":"691 Upperlake Rd.","bu name":"Thomasville","id":"a730qwqvj4yg","geo_precision":"street","state":"NC"},"type":"Feature","geometry":{"type":"Point","coordinates":[-80.169915,35.8559]}},{"properties":{"city":"Randleman","column_5":null,"geo_score":0.902,"street address":"2757 Hopewood Rd.","bu name":"Asheboro","id":"a730qx1bzcjm","geo_precision":"range","state":"NC"},"type":"Feature","geometry":{"type":"Point","coordinates":[-79.826472,35.771343]}},{"properties":{"city":"Kernersville","column_5":null,"geo_score":0.5,"street address":"4572 High Point Rd.","bu name":"Salem Stone","id":"a730qwz7opcj","geo_precision":"street","state":"NC"},"type":"Feature","geometry":{"type":"Point","coordinates":[-80.078143,35.893232]}},{"properties":{"city":"Haw River","column_5":null,"geo_score":0.444,"street address":"1666 NC 49 North","bu name":"East Alamance","id":"a730qwsxhcsq","geo_precision":"street","state":"NC"},"type":"Feature","geometry":{"type":"Point","coordinates":[-79.35361,36.11164]}},{"properties":{"city":"Greensboro","column_5":null,"geo_score":0.805,"street address":"3957 Liberty Rd.","bu name":"Central Rock","id":"a730qwu96170","geo_precision":"range","state":"NC"},"type":"Feature","geometry":{"type":"Point","coordinates":[-79.757138,36.010971]}},{"properties":{"city":"Star","column_5":null,"geo_score":0.805,"street address":"371 Black Ankle Rd.","bu name":"Black Ankle","id":"a730qwukcvrf","geo_precision":"street","state":"NC"},"type":"Feature","geometry":{"type":"Point","coordinates":[-79.787427,35.490808]}},{"properties":{"city":"Greensboro","column_5":null,"geo_score":0.844,"street address":"4052 Viewmont Rd","bu name":"Viewmont","id":"a730qwx9vdyk","geo_precision":"range","state":"NC"},"type":"Feature","geometry":{"type":"Point","coordinates":[-79.846039,35.999629]}},{"properties":{"city":"Kings Mountain","column_5":null,"geo_score":0.689,"street address":"262 Holliday Inn Dr.","bu name":"Kings Mountain","id":"a730qwxqrk2c","geo_precision":"street","state":"NC"},"type":"Feature","geometry":{"type":"Point","coordinates":[-81.336028,35.224157]}},{"properties":{"city":"China Grove","column_5":null,"geo_score":0.902,"street address":"2270 China Grove Rd.","bu name":"Kannapolis","id":"a730qwxxzt4a","geo_precision":"range","state":"NC"},"type":"Feature","geometry":{"type":"Point","coordinates":[-80.578958,35.520625]}},{"properties":{"city":"Monroe","column_5":null,"geo_score":0.835,"street address":"2111 Rocky River Rd.","bu name":"Bakers","id":"a730qwz6p31u","geo_precision":"range","state":"NC"},"type":"Feature","geometry":{"type":"Point","coordinates":[-80.603753,35.027657]}},{"properties":{"city":"Bessemer City","column_5":null,"geo_score":0.415,"street address":"136 Beam Lane","bu name":"Bessemer City","id":"a730qwwauo2d","geo_precision":"street","state":"NC"},"type":"Feature","geometry":{"type":"Point","coordinates":[-79.159734,36.22735]}},{"properties":{"city":"Charlotte","column_5":null,"geo_score":0.902,"street address":"4551 BEATTIES FORD RD","bu name":"Charlotte","id":"a730qwsp8wc3","geo_precision":"range","state":"NC"},"type":"Feature","geometry":{"type":"Point","coordinates":[-80.855995,35.297153]}},{"properties":{"city":"Denver","column_5":null,"geo_score":0.532,"street address":"4965 HWY 16 N","bu name":"Denver","id":"a730qx588pwu","geo_precision":"street","state":"NC"},"type":"Feature","geometry":{"type":"Point","coordinates":[-81.063433,35.558795]}},{"properties":{"city":"Charlotte","column_5":null,"geo_score":0.805,"street address":"11325 Texland BLVD","bu name":"Arrowood","id":"a730qwthkkle","geo_precision":"range","state":"NC"},"type":"Feature","geometry":{"type":"Point","coordinates":[-80.923038,35.11145]}},{"properties":{"city":"Charlotte","column_5":null,"geo_score":0.805,"street address":"11325 Texland BLVD","bu name":"Arrowood Concrete Recycling","id":"a730qx4eyfbz","geo_precision":"range","state":"NC"},"type":"Feature","geometry":{"type":"Point","coordinates":[-80.923038,35.11145]}},{"properties":{"city":"Matthews","column_5":null,"geo_score":0.488,"street address":"1601 SAM NEWELL RD","bu name":"Matthews","id":"a730qx2d360m","geo_precision":"city","state":"NC"},"type":"Feature","geometry":{"type":"Point","coordinates":[-75.952716,38.816225]}},{"properties":{"city":"Matthews","column_5":null,"geo_score":0.488,"street address":"1601 SAM NEWELL RD","bu name":"Matthews Concrete Recycling","id":"a730qws2q7lt","geo_precision":"city","state":"NC"},"type":"Feature","geometry":{"type":"Point","coordinates":[-75.952716,38.816225]}},{"properties":{"city":"Charlotte","column_5":null,"geo_score":0.902,"street address":"575 E MALLARD CREEK CHURCH RD","bu name":"Mallard Creek","id":"a730qwthii0d","geo_precision":"range","state":"NC"},"type":"Feature","geometry":{"type":"Point","coordinates":[-80.728596,35.318161]}},{"properties":{"city":"Midland","column_5":null,"geo_score":0.902,"street address":"450 Running Brook Rd.","bu name":"Rocky River","id":"a730qwqm2pb7","geo_precision":"range","state":"NC"},"type":"Feature","geometry":{"type":"Point","coordinates":[-80.571521,35.284799]}},{"properties":{"city":"Concord","column_5":null,"geo_score":0.488,"street address":"7219 WEDDINGTON RD","bu name":"Bonds","id":"a730qwukeuf9","geo_precision":"city","state":"NC"},"type":"Feature","geometry":{"type":"Point","coordinates":[-71.537572,43.208137]}},{"properties":{"city":"Rougemont","column_5":null,"geo_score":0.714,"street address":null,"bu name":"Person","id":"a730qx4hiqa4","geo_precision":"city","state":"NC"},"type":"Feature","geometry":{"type":"Point","coordinates":[-78.878578,36.205828]}},{"properties":{"city":"Yadkinville","column_5":null,"geo_score":0.69,"street address":null,"bu name":"Yadkin","id":"a730qx03dlrl","geo_precision":"city","state":"NC"},"type":"Feature","geometry":{"type":"Point","coordinates":[-81.490096,36.022353]}},{"properties":{"city":"Goldston","column_5":null,"geo_score":0.857,"street address":null,"bu name":"Chatham County","id":"a730qx3sh1w1","geo_precision":"city","state":"NC"},"type":"Feature","geometry":{"type":"Point","coordinates":[-79.363115,35.576848]}},{"properties":{"city":"Pee Dee","column_5":null,"geo_score":0.857,"street address":null,"bu name":"Pee Dee","id":"a730qwtiijbr","geo_precision":"city","state":"NC"},"type":"Feature","geometry":{"type":"Point","coordinates":[-80.043112,35.267643]}},{"properties":{"city":"Rockingham","column_5":null,"geo_score":0.857,"street address":null,"bu name":"Richmond County","id":"a730qwx20wkm","geo_precision":"city","state":"NC"},"type":"Feature","geometry":{"type":"Point","coordinates":[-79.724173,34.974134]}},{"properties":{"city":"Vansboro","column_5":null,"geo_score":0.825,"street address":null,"bu name":"Vanceboro","id":"a730qwupgiha","geo_precision":"city","state":"NC"},"type":"Feature","geometry":{"type":"Point","coordinates":[-77.177912,35.31313]}},{"properties":{"city":"Pollocksville","column_5":null,"geo_score":0.802,"street address":null,"bu name":"Pollocksville","id":"a730qwptkdre","geo_precision":"city","state":"NC"},"type":"Feature","geometry":{"type":"Point","coordinates":[-77.39385,35.111828]}},{"properties":{"city":"Vass","column_5":null,"geo_score":0.857,"street address":null,"bu name":"Vass","id":"a730qwutmqit","geo_precision":"city","state":"NC"},"type":"Feature","geometry":{"type":"Point","coordinates":[-79.337956,35.230348]}},{"properties":{"city":"Gastonia","column_5":null,"geo_score":0.768,"street address":null,"bu name":"Gaston","id":"a730qwvhqiyg","geo_precision":"city","state":"NC"},"type":"Feature","geometry":{"type":"Point","coordinates":[-78.101382,34.583223]}},{"properties":{"city":"Marshville","column_5":null,"geo_score":0.857,"street address":null,"bu name":"Marshville","id":"a730qwstcs8h","geo_precision":"city","state":"NC"},"type":"Feature","geometry":{"type":"Point","coordinates":[-80.364223,34.997268]}},{"properties":{"city":"Walnut Cove","column_5":null,"geo_score":0.818,"street address":null,"bu name":"Stokes County","id":"a730qwzxj6nt","geo_precision":"city","state":"NC"},"type":"Feature","geometry":{"type":"Point","coordinates":[-77.864982,35.307107]}},{"properties":{"city":"Hugo","column_5":null,"geo_score":0.415,"street address":"695 North 4210 Road","bu name":"Hugo","id":"a730qwqwfuvs","geo_precision":"city","state":"OK"},"type":"Feature","geometry":{"type":"Point","coordinates":[-85.368562,33.434557]}},{"properties":{"city":"Idabel","column_5":null,"geo_score":0.583,"street address":"4401 NE Lincoln Rd","bu name":"Idabel","id":"a730qwvo5j46","geo_precision":"street","state":"OK"},"type":"Feature","geometry":{"type":"Point","coordinates":[-94.803247,33.880924]}},{"properties":{"city":"Sawyer","column_5":null,"geo_score":0.429,"street address":"HWY 147 N","bu name":"Sawyer","id":"a730qwsvu8mw","geo_precision":"street","state":"OK"},"type":"Feature","geometry":{"type":"Point","coordinates":[-91.213107,40.845006]}},{"properties":{"city":"Mill Creek","column_5":null,"geo_score":0.671,"street address":"10435 W Kelly Road","bu name":"Mill Creek","id":"a730qx0xv32f","geo_precision":"street","state":"OK"},"type":"Feature","geometry":{"type":"Point","coordinates":[-87.782631,33.192475]}},{"properties":{"city":"Snyder","column_5":null,"geo_score":0.659,"street address":"22065 E. 1630 Rd.","bu name":"Snyder","id":"a730qwvyg3uk","geo_precision":"range","state":"OK"},"type":"Feature","geometry":{"type":"Point","coordinates":[-88.090215,34.258769]}},{"properties":{"city":"North Troy","column_5":null,"geo_score":0.434,"street address":"12310 W Holder","bu name":"North Troy","id":"a730qwxm0l2k","geo_precision":"city","state":"OK"},"type":"Feature","geometry":{"type":"Point","coordinates":[-83.14993,42.605589]}},{"properties":{"city":"Broken Bow","column_5":null,"geo_score":0.659,"street address":"HWY 70, 1/4 MI W OF EAGLETOWN","bu name":"Broken Bow","id":"a730qx3jq2pa","geo_precision":"street","state":"OK"},"type":"Feature","geometry":{"type":"Point","coordinates":[-92.012833,34.763687]}},{"properties":{"city":"Graniteville","column_5":null,"geo_score":0.505,"street address":"826 Ascauga Lake Rd","bu name":"Aiken","id":"a730qws4vd26","geo_precision":"street","state":"SC"},"type":"Feature","geometry":{"type":"Point","coordinates":[-111.775289,34.846407]}},{"properties":{"city":"Jamestown","column_5":null,"geo_score":0.902,"street address":"564 Quarry Road","bu name":"Georgetown II","id":"a730qx3psb39","geo_precision":"range","state":"SC"},"type":"Feature","geometry":{"type":"Point","coordinates":[-85.896251,33.953748]}},{"properties":{"city":"Jefferson","column_5":null,"geo_score":0.458,"street address":"6518 HWY 151N","bu name":"Chesterfield","id":"a730qwz03e4q","geo_precision":"city","state":"SC"},"type":"Feature","geometry":{"type":"Point","coordinates":[-86.644431,33.541771]}},{"properties":{"city":"North Columbia","column_5":null,"geo_score":0.551,"street address":"MONTICELLO TRAIL, HWY 215 N","bu name":"North Columbia","id":"a730qwrj20xv","geo_precision":"street","state":"SC"},"type":"Feature","geometry":{"type":"Point","coordinates":[-92.701759,39.220507]}},{"properties":{"city":"Cayce","column_5":null,"geo_score":0.382,"street address":"2125 State ST","bu name":"Cayce","id":"a730qx07qdl0","geo_precision":"street","state":"SC"},"type":"Feature","geometry":{"type":"Point","coordinates":[-80.758912,32.39804]}},{"properties":{"city":"Cross","column_5":null,"geo_score":0.317,"street address":"950 County Line Rd","bu name":"Berkeley","id":"a730qww31k7c","geo_precision":"street","state":"SC"},"type":"Feature","geometry":{"type":"Point","coordinates":[-86.522993,34.306459]}},{"properties":{"city":"Bethune","column_5":null,"geo_score":0.46,"street address":"4540 Timrod Road","bu name":"Loamy Sand &amp; Gravel","id":"a730qwwkvu1t","geo_precision":"city","state":"SC"},"type":"Feature","geometry":{"type":"Point","coordinates":[-94.019914,34.077613]}},{"properties":{"city":"Rock Hill","column_5":null,"geo_score":0.39,"street address":"991 HAWKFIELD RD","bu name":"Rock Hill","id":"a730qwzpbrg5","geo_precision":"city","state":"SC"},"type":"Feature","geometry":{"type":"Point","coordinates":[-80.278106,25.857596]}},{"properties":{"city":"Rion","column_5":null,"geo_score":0.771,"street address":null,"bu name":"Rion","id":"a730qx4m23vr","geo_precision":"city","state":"SC"},"type":"Feature","geometry":{"type":"Point","coordinates":[-81.768995,34.472909]}},{"properties":{"city":"Chattanooga","column_5":null,"geo_score":0.805,"street address":"2 Pelican DR","bu name":"Chattanooga","id":"a730qwy1kug8","geo_precision":"range","state":"TN"},"type":"Feature","geometry":{"type":"Point","coordinates":[-85.189346,35.069103]}},{"properties":{"city":"San Antonio","column_5":null,"geo_score":0.585,"street address":"4243 N FM 1604 West","bu name":"Beckmann","id":"a730qwvf0y4x","geo_precision":"range","state":"TX"},"type":"Feature","geometry":{"type":"Point","coordinates":[-98.411506,29.601366]}},{"properties":{"city":"San Antonio","column_5":null,"geo_score":0.793,"street address":"19265 Hwy 281N","bu name":"San Pedro","id":"a730qx1gu7pp","geo_precision":"range","state":"TX"},"type":"Feature","geometry":{"type":"Point","coordinates":[-98.46553,29.620172]}},{"properties":{"city":"Von Ormy","column_5":null,"geo_score":0.384,"street address":"11399 State Hwy 16 South","bu name":"Poteet Sand","id":"a730qx1c4kg8","geo_precision":"street","state":"TX"},"type":"Feature","geometry":{"type":"Point","coordinates":[-96.826844,29.328045]}},{"properties":{"city":"San Antonio","column_5":null,"geo_score":0.674,"street address":"11399 S HWY 211","bu name":"Highway 211","id":"a730qwx56qhb","geo_precision":"street","state":"TX"},"type":"Feature","geometry":{"type":"Point","coordinates":[-98.793409,29.560475]}},{"properties":{"city":"New Braunfels","column_5":null,"geo_score":0.774,"street address":"I-35 @ Solms Rd.","bu name":"New Braunfels","id":"a730qx0ygo52","geo_precision":"city","state":"TX"},"type":"Feature","geometry":{"type":"Point","coordinates":[-102.335299,33.172013]}},{"properties":{"city":"Uvalde","column_5":null,"geo_score":0.479,"street address":"4483 Ranch Road 1022","bu name":"Black Spur Quarry","id":"a730qwx6x8qc","geo_precision":"street","state":"TX"},"type":"Feature","geometry":{"type":"Point","coordinates":[-81.845393,32.359757]}},{"properties":{"city":"Uvalde","column_5":null,"geo_score":0.479,"street address":"4483 Ranch Road 1022","bu name":"Trap Rock","id":"a730qwt81f3k","geo_precision":"street","state":"TX"},"type":"Feature","geometry":{"type":"Point","coordinates":[-81.845393,32.359757]}},{"properties":{"city":"Uvalde","column_5":null,"geo_score":0.479,"street address":"4483 Ranch Road 1022","bu name":"LRA","id":"a730qwq8t64k","geo_precision":"street","state":"TX"},"type":"Feature","geometry":{"type":"Point","coordinates":[-81.845393,32.359757]}},{"properties":{"city":"Uvalde","column_5":null,"geo_score":0.479,"street address":"4483 Ranch Road 1022","bu name":"Bird Hill (Trap Rock)","id":"a730qwvm7ocz","geo_precision":"street","state":"TX"},"type":"Feature","geometry":{"type":"Point","coordinates":[-81.845393,32.359757]}},{"properties":{"city":"Center Point","column_5":null,"geo_score":0.543,"street address":"290A SAN Antonio Hwy","bu name":"Bedrock","id":"a730qx196oxp","geo_precision":"street","state":"TX"},"type":"Feature","geometry":{"type":"Point","coordinates":[-97.075294,32.57282]}},{"properties":{"city":"Hondo","column_5":null,"geo_score":0.49,"street address":"County Road 424","bu name":"Medina Rock","id":"a730qwy3vz96","geo_precision":"street","state":"TX"},"type":"Feature","geometry":{"type":"Point","coordinates":[-110.02187,34.185624]}},{"properties":{"city":"San Antonio","column_5":null,"geo_score":0.488,"street address":"16385 FM-1283","bu name":"Rio Medina","id":"a730qwstkgl2","geo_precision":"city","state":"TX"},"type":"Feature","geometry":{"type":"Point","coordinates":[-98.493628,29.424122]}},{"properties":{"city":"Helotes","column_5":null,"geo_score":0.805,"street address":"17982 Bandera Rd.","bu name":"Helotes","id":"a730qx3f3cl7","geo_precision":"range","state":"TX"},"type":"Feature","geometry":{"type":"Point","coordinates":[-98.71888,29.61168]}},{"properties":{"city":"Hondo","column_5":null,"geo_score":0.512,"street address":"4670 SR-173","bu name":"Hondo","id":"a730qwvlmq6m","geo_precision":"street","state":"TX"},"type":"Feature","geometry":{"type":"Point","coordinates":[-109.969422,34.155456]}},{"properties":{"city":"Mico","column_5":null,"geo_score":0.415,"street address":"17440 FM-1283","bu name":"Cobey","id":"a730qx23y9q0","geo_precision":"city","state":"TX"},"type":"Feature","geometry":{"type":"Point","coordinates":[-93.888255,35.404254]}},{"properties":{"city":"Garwood","column_5":null,"geo_score":0.463,"street address":"6747 Highway 71","bu name":"Garwood Gravel","id":"a730qws6lfku","geo_precision":"street","state":"TX"},"type":"Feature","geometry":{"type":"Point","coordinates":[-96.286792,29.21757]}},{"properties":{"city":"San Diego","column_5":null,"geo_score":0.473,"street address":"4 MI W on FM 359","bu name":"Hoffman Pit","id":"a730qwtqsxoa","geo_precision":"street","state":"TX"},"type":"Feature","geometry":{"type":"Point","coordinates":[-117.079149,32.583895]}},{"properties":{"city":"Mathis","column_5":null,"geo_score":0.524,"street address":"1 Mile N of FM359 on FM3024","bu name":"Ninety-Seven Acres Pit","id":"a730qwvup12z","geo_precision":"street","state":"TX"},"type":"Feature","geometry":{"type":"Point","coordinates":[-75.813803,38.941516]}},{"properties":{"city":"Edinberg","column_5":null,"geo_score":0.696,"street address":"2 Miles W of US281 on FM490","bu name":"Vela Pit","id":"a730qx0cxvjb","geo_precision":"city","state":"TX"},"type":"Feature","geometry":{"type":"Point","coordinates":[-93.693831,40.0814]}},{"properties":{"city":"Linn","column_5":null,"geo_score":0.439,"street address":"35700 S FM 3250","bu name":"Jerico Pit","id":"a730qwswok8n","geo_precision":"city","state":"TX"},"type":"Feature","geometry":{"type":"Point","coordinates":[-86.392739,31.557662]}},{"properties":{"city":"Chico","column_5":null,"geo_score":0.39,"street address":"856 FM 2952","bu name":"Chico","id":"a730qwr54kht","geo_precision":"city","state":"TX"},"type":"Feature","geometry":{"type":"Point","coordinates":[-91.347093,40.211157]}},{"properties":{"city":"Doswell","column_5":null,"geo_score":0.521,"street address":"12068 STONE QUARRY DR","bu name":"Doswell -VA","id":"a730qwt6gly6","geo_precision":"street","state":"VA"},"type":"Feature","geometry":{"type":"Point","coordinates":[-77.624408,37.691876]}},{"properties":{"city":"Chesterfield","column_5":null,"geo_score":0.488,"street address":"3636 WARBRO RD","bu name":"Midlothian","id":"a730qwxclag4","geo_precision":"city","state":"VA"},"type":"Feature","geometry":{"type":"Point","coordinates":[-85.52385,34.446754]}},{"properties":{"city":"Ruther Glen","column_5":null,"geo_score":0.537,"street address":"26470 Jeff Davis Hwy","bu name":"Charmel Church","id":"a730qwyfbcxc","geo_precision":"street","state":"VA"},"type":"Feature","geometry":{"type":"Point","coordinates":[-86.99902,33.410407]}},{"properties":{"city":"Rockville","column_5":null,"geo_score":0.902,"street address":"1940 ASHLAND RD","bu name":"Anderson Creek","id":"a730qx2lkwjc","geo_precision":"range","state":"VA"},"type":"Feature","geometry":{"type":"Point","coordinates":[-77.66751,37.68466]}},{"properties":{"city":"Amelia Court House","column_5":null,"geo_score":0.696,"street address":"11900 Patrick Henry Hwy (US 360)","bu name":"Amelia","id":"a730qx18x1cw","geo_precision":"street","state":"VA"},"type":"Feature","geometry":{"type":"Point","coordinates":[-77.863933,37.35628]}},{"properties":{"city":"North Garden","column_5":null,"geo_score":0.545,"street address":"2625 RED HILL RD","bu name":"Red Hill","id":"a730qwu60e0y","geo_precision":"street","state":"VA"},"type":"Feature","geometry":{"type":"Point","coordinates":[-87.292037,33.295392]}},{"properties":{"city":"Nova Scotia","column_5":null,"geo_score":0.524,"street address":"266 Lower Quarry RD, Aulds Cove","bu name":"Nova Scotia","id":"a730qwtd5lcy","geo_precision":"street","state":"BOE 2GO"},"type":"Feature","geometry":{"type":"Point","coordinates":[-83.728749,38.41871]}},{"properties":{"city":"Freeport","column_5":null,"geo_score":0.593,"street address":"Fishing Hole Road","bu name":"Bahama Rock","id":"a730qwpi265r","geo_precision":"street","state":"BA"},"type":"Feature","geometry":{"type":"Point","coordinates":[-91.754908,42.759339]}}],"is_temporal":false,"author":{"url":"","metadata":null,"contact_name":null,"contact_address":null,"source":null,"contact_phone":null},"source":"","pagination":{"sort":null,"start":0,"total":135,"limit":1000000},"state":"complete","tags":"","published":"2014-08-14T20:17:00-04:00","id":224308}