{"type":"FeatureCollection","data_type":"Dataset","url_type":null,"permissions":[{"permissions":{"download":true,"view":true},"group_id":"everyone"}],"classification":null,"title":"Management Information Systems Classwork Public School MIS Excel","count":9,"stream_id":224593,"contributor":{"url":"http://geocommons.com/users/42470","name":"Duane22"},"data_attributes":null,"calculation_params":null,"icon_link":null,"link":"http://geocommons.com/overlays/224593.json","extent":[-82.6135,28.8912,-81.9123,29.2885],"geometry_types":["point"],"unique_name":null,"name":"Management Information Systems Classwork Public School MIS Excel","feature_count":9,"description":"Public Schools ","next_feature":null,"is_raster":false,"short_classification":"Y","stats":{},"features":[{"properties":{"city":"Anthony","zip":"32617","school name":"Anthony Elementary School","geo_score":1.0,"principal name":"Ryan Bennett","id":"a68d58e71e6h","geo_precision":"range","phone number":"671-6000- 8756","address":"9501 NE Jacksonville Road","state":"FL"},"type":"Feature","geometry":{"type":"Point","coordinates":[-82.111571,29.28848]}},{"properties":{"city":"Belleview","zip":"34420","school name":"Belleview Elementary School","geo_score":0.293,"principal name":"Brenda Conner","id":"a68d58cg1eyk","geo_precision":"street","phone number":"671-6100 2354","address":"5556 SE Hwy. 484","state":"FL"},"type":"Feature","geometry":{"type":"Point","coordinates":[-82.613508,28.89123]}},{"properties":{"city":"Ocala","zip":"34474","school name":"College Park Elementary School","geo_score":0.935,"principal name":"Patricia Stout","id":"a68d58hn7d73","geo_precision":"range","phone number":"291-4040 7534","address":"1330 SW 33rd Ave","state":"FL"},"type":"Feature","geometry":{"type":"Point","coordinates":[-82.177145,29.175521]}},{"properties":{"city":"Dunnellon","zip":"34432","school name":"Dunnellon High School","geo_score":0.756,"principal name":"Michelle Lewis","id":"a68d58lnee6h","geo_precision":"street","phone number":"465-6745 1320","address":"10055 SW 180th Ave Rd","state":"FL"},"type":"Feature","geometry":{"type":"Point","coordinates":[-82.423356,29.05332]}},{"properties":{"city":"Silver Springs","zip":"34488","school name":"East Marion Elementary School","geo_score":0.875,"principal name":"Rusty Corley","id":"a68d58eg5ml8","geo_precision":"range","phone number":"671-4810 4532","address":"14550 NE 14th Street Road","state":"FL"},"type":"Feature","geometry":{"type":"Point","coordinates":[-81.912305,29.201231]}},{"properties":{"city":"Ocala","zip":"34482","school name":"Fessenden Elementary School","geo_score":0.829,"principal name":"Anna DeWese","id":"a68d58fl52go","geo_precision":"street","phone number":"671-4935 8430","address":"4200 NW 89th Place","state":"FL"},"type":"Feature","geometry":{"type":"Point","coordinates":[-82.191346,29.280779]}},{"properties":{"city":"Ocala","zip":"34479","school name":"Francis Marion Military Academy","geo_score":0.927,"principal name":"Bill Archibald","id":"a68d58pgb84s","geo_precision":"range","phone number":"291-6600 3905","address":"2091 NE 35 Street","state":"FL"},"type":"Feature","geometry":{"type":"Point","coordinates":[-82.109452,29.222992]}},{"properties":{"city":"Ocala","zip":"34471","school name":"Hillcrest School","geo_score":0.927,"principal name":"Lori Manresa","id":"a68d58qcal3s","geo_precision":"range","phone number":"671-6800 2673","address":"3143 SE 17th Street","state":"FL"},"type":"Feature","geometry":{"type":"Point","coordinates":[-82.095635,29.171552]}},{"properties":{"city":"Ocala","zip":"34472","school name":"Kingsbury Academy","geo_score":0.5,"principal name":"Beth Moore","id":"a68d58afvpil","geo_precision":"street","phone number":"245-6784 5410","address":"5895 SE 83rd Street","state":"FL"},"type":"Feature","geometry":{"type":"Point","coordinates":[-82.224347,29.102894]}}],"is_temporal":false,"author":{"url":"","metadata":"","contact_name":"Duane Thomas","contact_address":"","source":"","contact_phone":""},"source":"","pagination":{"sort":null,"start":0,"total":9,"limit":1000000},"state":"complete","tags":"duane,thomas","published":"2012-04-05T16:00:00Z","id":224593}