{"type":"FeatureCollection","data_type":"Dataset","url_type":null,"permissions":[{"permissions":{"download":true,"view":true},"group_id":"everyone"}],"classification":null,"title":"Dishmaster - ACE Stores","count":120,"stream_id":224599,"contributor":{"url":"http://geocommons.com/users/43372","name":"dishmaster"},"data_attributes":null,"calculation_params":null,"icon_link":null,"link":"http://geocommons.com/overlays/224599.json","extent":[-123.166,26.4607,-69.833,47.4855],"geometry_types":["point"],"unique_name":null,"name":"Dishmaster - ACE Stores","feature_count":120,"description":"Map showing locations of ACE Hardware stores that carry Dishmaster products","next_feature":null,"is_raster":false,"short_classification":"Y","stats":{},"features":[{"properties":{"city":"Morrilton","name":"Haynes Home Center","street1":"4 Davis Dr","geo_score":0.902,"street2":null,"zip code":"72110","id":"a6hot48g98n0","geo_precision":"range","state":"AR"},"type":"Feature","geometry":{"type":"Point","coordinates":[-92.724623,35.167573]}},{"properties":{"city":"Phoenix","name":"Walt's ACE Hardware","street1":"1940 W Indian School Rd #10","geo_score":0.805,"street2":null,"zip code":"85015-5112","id":"a6hot4322lzc","geo_precision":"street","state":"AZ"},"type":"Feature","geometry":{"type":"Point","coordinates":[-112.091312,33.494971]}},{"properties":{"city":"Bullhead City","name":"Tri-State ACE Home Center","street1":"967 Hancock Rd","geo_score":0.911,"street2":"Suite 45","zip code":"86442","id":"a6hot48mxc6x","geo_precision":"range","state":"AZ"},"type":"Feature","geometry":{"type":"Point","coordinates":[-114.614862,35.107926]}},{"properties":{"city":"Phoenix","name":"ACE Hardware","street1":"5555 N 7th Street  #106","geo_score":0.707,"street2":null,"zip code":"85014","id":"a6hot3ziiikw","geo_precision":"street","state":"AZ"},"type":"Feature","geometry":{"type":"Point","coordinates":[-112.065073,33.480207]}},{"properties":{"city":"Phoenix","name":"Howard's ACE Hardware","street1":"3111 E Indian School Rd","geo_score":1.0,"street2":null,"zip code":"85016","id":"a6hot3wlewcm","geo_precision":"range","state":"AZ"},"type":"Feature","geometry":{"type":"Point","coordinates":[-112.014912,33.495203]}},{"properties":{"city":"Scottsdale","name":"Paul's ACE Hardware","street1":"2845 N Scottsdale Rd","geo_score":0.912,"street2":null,"zip code":"85257","id":"a6hot480g1zf","geo_precision":"range","state":"AZ"},"type":"Feature","geometry":{"type":"Point","coordinates":[-111.926154,33.47976]}},{"properties":{"city":"Fountain Hills","name":"Paul's Hardware","street1":"16605 E Palisades Blvd","geo_score":1.0,"street2":null,"zip code":"85268","id":"a6hot42phza7","geo_precision":"range","state":"AZ"},"type":"Feature","geometry":{"type":"Point","coordinates":[-111.722955,33.60951]}},{"properties":{"city":"Boulder City","name":"ACE Shopper Stopper","street1":"541 Nevada Hwy","geo_score":0.902,"street2":null,"zip code":"89005","id":"a6hot4bcf5i8","geo_precision":"range","state":"AZ"},"type":"Feature","geometry":{"type":"Point","coordinates":[-114.83804,35.977291]}},{"properties":{"city":"Sun City","name":"Big K ACE Hardware","street1":"10050 W Bell Rd","geo_score":1.0,"street2":"Suite 26 A","zip code":"85351","id":"a6hot43ye8f2","geo_precision":"range","state":"AZ"},"type":"Feature","geometry":{"type":"Point","coordinates":[-112.275395,33.638153]}},{"properties":{"city":"Parker","name":"Davis Building Supply","street1":"1408 S Joshua Ave","geo_score":0.916,"street2":null,"zip code":"85344","id":"a6hot41nv1nm","geo_precision":"range","state":"AZ"},"type":"Feature","geometry":{"type":"Point","coordinates":[-114.287864,34.145817]}},{"properties":{"city":"Sun City West","name":"Big K ACE Hardware","street1":"13850 W Camino del Sol","geo_score":0.806,"street2":null,"zip code":"85375","id":"a6hot48ei7xe","geo_precision":"street","state":"AZ"},"type":"Feature","geometry":{"type":"Point","coordinates":[-112.362369,33.658977]}},{"properties":{"city":"Scottsdale","name":"Paul's ACE Hardware","street1":"8449 E McDonald Dr","geo_score":1.0,"street2":null,"zip code":"85250","id":"a6hot483x7n8","geo_precision":"range","state":"AZ"},"type":"Feature","geometry":{"type":"Point","coordinates":[-111.899203,33.523887]}},{"properties":{"city":"Irvine","name":"Irvine ACE Hardware","street1":"14230 Culver Dr","geo_score":1.0,"street2":null,"zip code":"92604","id":"a6hot405bkzs","geo_precision":"range","state":"CA"},"type":"Feature","geometry":{"type":"Point","coordinates":[-117.784751,33.707653]}},{"properties":{"city":"Fullerton","name":"Fullerton ACE Hardware","street1":"117 W Commonwealth Ave","geo_score":1.0,"street2":null,"zip code":"92832","id":"a6hot40oj58a","geo_precision":"range","state":"CA"},"type":"Feature","geometry":{"type":"Point","coordinates":[-117.924547,33.87034]}},{"properties":{"city":"Orange","name":"Lincoln ACE Hardware","street1":"420 W Lincoln Ave","geo_score":0.878,"street2":null,"zip code":"92865","id":"a6hot47an9q6","geo_precision":"range","state":"CA"},"type":"Feature","geometry":{"type":"Point","coordinates":[-117.855802,33.835232]}},{"properties":{"city":"Anaheim","name":"Crown ACE Hardware","street1":"5765 E Santa Ana Canyon Rd","geo_score":0.764,"street2":null,"zip code":"92807","id":"a6hot44wmec5","geo_precision":"street","state":"CA"},"type":"Feature","geometry":{"type":"Point","coordinates":[-117.830617,33.842822]}},{"properties":{"city":"San Gabriel","name":"Mission Hardware","street1":"501 W Valley Blvd","geo_score":1.0,"street2":null,"zip code":"91776-3793","id":"a6hot44tpucr","geo_precision":"range","state":"CA"},"type":"Feature","geometry":{"type":"Point","coordinates":[-118.106723,34.079395]}},{"properties":{"city":"Bishop","name":"High Country Lumber","street1":"444 S Main","geo_score":0.819,"street2":null,"zip code":"93514","id":"a6hot3yl2rkz","geo_precision":"range","state":"CA"},"type":"Feature","geometry":{"type":"Point","coordinates":[-118.395268,37.357911]}},{"properties":{"city":"Los Osos","name":"Miner's ACE Hardware","street1":"1080 Los Osos Valley Rd","geo_score":0.911,"street2":null,"zip code":"93402","id":"a6hot45cmb1d","geo_precision":"range","state":"CA"},"type":"Feature","geometry":{"type":"Point","coordinates":[-120.830699,35.310854]}},{"properties":{"city":"Oroville","name":"Better Deal Exchange","street1":"1845 Mitchell Ave","geo_score":1.0,"street2":null,"zip code":"95966","id":"a6hot46n9bfh","geo_precision":"range","state":"CA"},"type":"Feature","geometry":{"type":"Point","coordinates":[-121.551529,39.506545]}},{"properties":{"city":"Inyokern","name":"Gateway Hardware","street1":"6259 Hwy 178","geo_score":0.503,"street2":null,"zip code":"93527","id":"a6hot462sqx6","geo_precision":"street","state":"CA"},"type":"Feature","geometry":{"type":"Point","coordinates":[-117.812427,35.646923]}},{"properties":{"city":"La Jolla","name":"Meanley &amp; Son Hardware","street1":"7756 Girard Ave","geo_score":1.0,"street2":null,"zip code":"92037","id":"a6hot401t9fm","geo_precision":"range","state":"CA"},"type":"Feature","geometry":{"type":"Point","coordinates":[-117.273738,32.844451]}},{"properties":{"city":"Yorba Linda","name":"Arrow Hardware Company","street1":"5091 Richfield Rd","geo_score":1.0,"street2":null,"zip code":"92886","id":"a6hot46ylrqr","geo_precision":"range","state":"CA"},"type":"Feature","geometry":{"type":"Point","coordinates":[-117.826468,33.888075]}},{"properties":{"city":"Paradise","name":"Thomas ACE Hardware","street1":"5720 Clark Rd","geo_score":1.0,"street2":null,"zip code":"95969","id":"a6hot3y2s9tj","geo_precision":"range","state":"CA"},"type":"Feature","geometry":{"type":"Point","coordinates":[-121.607763,39.752751]}},{"properties":{"city":"Costa Mesa","name":"Crown ACE Hardware","street1":"2666 Harbor Blvd","geo_score":1.0,"street2":null,"zip code":"92626","id":"a6hot47y4v44","geo_precision":"range","state":"CA"},"type":"Feature","geometry":{"type":"Point","coordinates":[-117.919321,33.66958]}},{"properties":{"city":"Long Beach","name":"Rose's Hardware","street1":"5407  E Village Rd","geo_score":1.0,"street2":null,"zip code":"90808","id":"a6hot42p68hp","geo_precision":"range","state":"CA"},"type":"Feature","geometry":{"type":"Point","coordinates":[-118.126789,33.833687]}},{"properties":{"city":"Bakersfield","name":"Floyd's General Stores","street1":"2020 S Chester Ave","geo_score":1.0,"street2":null,"zip code":"93304","id":"a6hot4601yef","geo_precision":"range","state":"CA"},"type":"Feature","geometry":{"type":"Point","coordinates":[-119.016989,35.336449]}},{"properties":{"city":"Fremont","name":"Dale Hardware, Inc","street1":"37100 Post St","geo_score":1.0,"street2":null,"zip code":"94536","id":"a6hot4bi92an","geo_precision":"range","state":"CA"},"type":"Feature","geometry":{"type":"Point","coordinates":[-122.00968,37.561188]}},{"properties":{"city":"Sacramento","name":"Emigh ACE Hardware","street1":"3555 El Camino Ave","geo_score":0.852,"street2":null,"zip code":"95821","id":"a6hot45wxjxc","geo_precision":"range","state":"CA"},"type":"Feature","geometry":{"type":"Point","coordinates":[-121.381778,38.610424]}},{"properties":{"city":"Camarillo","name":"Camarillo Plumbing &amp; ACE","street1":"2401 Ventura Blvd","geo_score":0.929,"street2":null,"zip code":"93010-6615","id":"a6hot40qwh33","geo_precision":"range","state":"CA"},"type":"Feature","geometry":{"type":"Point","coordinates":[-119.037781,34.216362]}},{"properties":{"city":"San Dimas","name":"San Dimas ACE Hardware","street1":"201 W Bonita Ave","geo_score":1.0,"street2":null,"zip code":"91773","id":"a6hot44wztas","geo_precision":"range","state":"CA"},"type":"Feature","geometry":{"type":"Point","coordinates":[-117.809311,34.106659]}},{"properties":{"city":"Blythe","name":"Inland Builders Supply ACE","street1":"1224 W Hobsonway","geo_score":0.961,"street2":null,"zip code":"92225","id":"a6hot4bi9fqf","geo_precision":"range","state":"CA"},"type":"Feature","geometry":{"type":"Point","coordinates":[-114.608871,33.61015]}},{"properties":{"city":"Lake Isabella","name":"L &amp; M Lumber","street1":"4700 Lake Isabella Blvd","geo_score":0.813,"street2":"PO Box 886","zip code":"93240","id":"a6hot46yll11","geo_precision":"street","state":"CA"},"type":"Feature","geometry":{"type":"Point","coordinates":[-118.485415,35.606035]}},{"properties":{"city":"Temecula","name":"Hank's Hardware","street1":"41740 Enterprise  Cr S","geo_score":0.979,"street2":null,"zip code":"92590","id":"a6hot3wn2wac","geo_precision":"range","state":"CA"},"type":"Feature","geometry":{"type":"Point","coordinates":[-117.166285,33.517753]}},{"properties":{"city":"Corona Del Mar","name":"Crown ACE Hardware","street1":"3107 E Coast Hwy","geo_score":1.0,"street2":null,"zip code":"92625","id":"a6hot40q66ll","geo_precision":"range","state":"CA"},"type":"Feature","geometry":{"type":"Point","coordinates":[-117.871697,33.598085]}},{"properties":{"city":"Torrance","name":"Woods ACE Hardware","street1":"22217-1 Palos Verdes Blvd","geo_score":1.0,"street2":null,"zip code":"90505","id":"a6hot495irru","geo_precision":"range","state":"CA"},"type":"Feature","geometry":{"type":"Point","coordinates":[-118.369919,33.82449]}},{"properties":{"city":"Banning","name":"Banning Ace Hardware Ltd","street1":"3559 W Ramsey St Bldg E","geo_score":0.895,"street2":null,"zip code":"92220-3505","id":"a6hot47v9c3q","geo_precision":"range","state":"CA"},"type":"Feature","geometry":{"type":"Point","coordinates":[-116.915479,33.926193]}},{"properties":{"city":"Huntington Beach","name":"Springdale ACE Hardware","street1":"15960 Springdale St","geo_score":0.805,"street2":null,"zip code":"92647","id":"a6hot44urqvw","geo_precision":"range","state":"CA"},"type":"Feature","geometry":{"type":"Point","coordinates":[-118.024093,33.730213]}},{"properties":{"city":"San Bernardino","name":"K&amp;L Hardware","street1":"26091 E  Baseline","geo_score":0.752,"street2":null,"zip code":"92410","id":"a6hot4b290kh","geo_precision":"street","state":"CA"},"type":"Feature","geometry":{"type":"Point","coordinates":[-117.347257,34.12137]}},{"properties":{"city":"San Francisco","name":"Discount Builders Supply","street1":"1695 Mission St","geo_score":1.0,"street2":null,"zip code":"94103","id":"a6hot43ewhop","geo_precision":"range","state":"CA"},"type":"Feature","geometry":{"type":"Point","coordinates":[-122.419705,37.770783]}},{"properties":{"city":"Long Beach","name":"Los Altos ACE Hardware","street1":"6441 E Spring St","geo_score":1.0,"street2":null,"zip code":"90808","id":"a6hot43aukkn","geo_precision":"range","state":"CA"},"type":"Feature","geometry":{"type":"Point","coordinates":[-118.10729,33.810479]}},{"properties":{"city":"La Puente","name":"Merritt's Hardware","street1":"1302 North Hacienda Blvd","geo_score":0.939,"street2":null,"zip code":"91744","id":"a6hot3z9cp86","geo_precision":"range","state":"CA"},"type":"Feature","geometry":{"type":"Point","coordinates":[-117.949229,34.043993]}},{"properties":{"city":"Fort Morgan","name":"Mr. D's ACE Home Center","street1":"1000 E Platte Ave","geo_score":0.916,"street2":null,"zip code":"80701","id":"a6hot4bxqv62","geo_precision":"range","state":"CO"},"type":"Feature","geometry":{"type":"Point","coordinates":[-103.788552,40.254002]}},{"properties":{"city":"Delray Beach","name":"Delray ACE Hardware","street1":"50 SE 6th Ave","geo_score":0.927,"street2":null,"zip code":"33483","id":"a6hot466lr5r","geo_precision":"range","state":"FL"},"type":"Feature","geometry":{"type":"Point","coordinates":[-80.067015,26.460746]}},{"properties":{"city":"Cape Coral","name":"K&amp;L Hardware","street1":"4314 SE First Ave","geo_score":0.927,"street2":null,"zip code":"33904","id":"a6hot3w5vvyk","geo_precision":"range","state":"FL"},"type":"Feature","geometry":{"type":"Point","coordinates":[-81.971192,26.571007]}},{"properties":{"city":"North Port","name":"Babe's Hardware","street1":"14355 Tamiami Trail","geo_score":0.919,"street2":null,"zip code":"34287","id":"a6hot47fuqlo","geo_precision":"range","state":"FL"},"type":"Feature","geometry":{"type":"Point","coordinates":[-82.235175,27.043423]}},{"properties":{"city":"Englewood","name":"Babe's Hardware","street1":"450 N Indiana Ave","geo_score":1.0,"street2":null,"zip code":"34223","id":"a6hot42r8e3z","geo_precision":"range","state":"FL"},"type":"Feature","geometry":{"type":"Point","coordinates":[-82.352957,26.969119]}},{"properties":{"city":"Melbourne","name":"Eau Gallie ACE Hardware","street1":"590 Eau Gallie Blvd","geo_score":0.925,"street2":null,"zip code":"32935","id":"a6hot3yxzr4p","geo_precision":"range","state":"FL"},"type":"Feature","geometry":{"type":"Point","coordinates":[-80.627613,28.130166]}},{"properties":{"city":"Venice","name":"Babe's Hardware","street1":"140 Miami Ave  E","geo_score":0.956,"street2":null,"zip code":"34285","id":"a6hot415q70z","geo_precision":"range","state":"FL"},"type":"Feature","geometry":{"type":"Point","coordinates":[-82.443857,27.098893]}},{"properties":{"city":"Tallahassee","name":"Apalachee ACE Hardware","street1":"3626 Apalachee Parkway","geo_score":1.0,"street2":null,"zip code":"32311","id":"a6hot47lvd7g","geo_precision":"range","state":"FL"},"type":"Feature","geometry":{"type":"Point","coordinates":[-84.212688,30.428307]}},{"properties":{"city":"Atlanta","name":"Workbench ACE Hardware","street1":"4365 Roswel Rd","geo_score":0.967,"street2":null,"zip code":"30342","id":"a6hot46ecagj","geo_precision":"range","state":"GA"},"type":"Feature","geometry":{"type":"Point","coordinates":[-84.380956,33.874055]}},{"properties":{"city":"Henderson","name":"Norris ACE Home Center","street1":"1910 US Hwy 41 N","geo_score":0.888,"street2":null,"zip code":"42420","id":"a6hot470u25d","geo_precision":"range","state":"KY"},"type":"Feature","geometry":{"type":"Point","coordinates":[-87.575194,37.861587]}},{"properties":{"city":"Wakefield","name":"Harts ACE Hardware","street1":"442 Main St","geo_score":0.954,"street2":null,"zip code":"1880","id":"a6hot40lydwq","geo_precision":"range","state":"MA"},"type":"Feature","geometry":{"type":"Point","coordinates":[-71.069649,42.502325]}},{"properties":{"city":"Bath","name":"Rogers ACE Hardware","street1":"55 Congress Ave","geo_score":0.912,"street2":null,"zip code":"4530","id":"a6hot474knls","geo_precision":"range","state":"ME"},"type":"Feature","geometry":{"type":"Point","coordinates":[-69.833031,43.910526]}},{"properties":{"city":"Clarkston","name":"Clarkston ACE Hardware","street1":"6669 Dixie Hwy","geo_score":0.951,"street2":null,"zip code":"48346","id":"a6hot4ak73gh","geo_precision":"range","state":"MI"},"type":"Feature","geometry":{"type":"Point","coordinates":[-83.416171,42.718724]}},{"properties":{"city":"West Branch","name":"Green ACE Hardware","street1":"2106 S M-76","geo_score":0.727,"street2":null,"zip code":"48661","id":"a6hot4bnygr9","geo_precision":"street","state":"MI"},"type":"Feature","geometry":{"type":"Point","coordinates":[-84.214896,44.262119]}},{"properties":{"city":"St. Clair Shores","name":"St. Clair Shores ACE","street1":"28700 Harper Ave","geo_score":0.982,"street2":null,"zip code":"48081","id":"a6hot4c80mtr","geo_precision":"range","state":"MI"},"type":"Feature","geometry":{"type":"Point","coordinates":[-82.898099,42.504588]}},{"properties":{"city":"Grosse Pointe","name":"Village ACE Hardware","street1":"17101 Kercheval Ave","geo_score":0.898,"street2":null,"zip code":"48230","id":"a6hot441u1yh","geo_precision":"range","state":"MI"},"type":"Feature","geometry":{"type":"Point","coordinates":[-82.915653,42.390329]}},{"properties":{"city":"Rochester","name":"Rochester Hills ACE Hardware","street1":"345 Livernois Rd","geo_score":0.976,"street2":null,"zip code":"48307","id":"a6hot47n0jy1","geo_precision":"range","state":"MI"},"type":"Feature","geometry":{"type":"Point","coordinates":[-83.153547,42.685547]}},{"properties":{"city":"Alpena","name":"Ossineke Building Supply","street1":"4736 Werth Rd","geo_score":0.902,"street2":null,"zip code":"49707","id":"a6hot46ppo5a","geo_precision":"range","state":"MI"},"type":"Feature","geometry":{"type":"Point","coordinates":[-83.539386,44.986189]}},{"properties":{"city":"Walled Lake","name":"Melvin's ACE Hardware","street1":"690 N Pontiac Trail","geo_score":0.955,"street2":null,"zip code":"48390","id":"a6hot442s1ne","geo_precision":"range","state":"MI"},"type":"Feature","geometry":{"type":"Point","coordinates":[-83.481999,42.53695]}},{"properties":{"city":"Westland","name":"Nankin Hardware","street1":"35101 Ford Rd","geo_score":1.0,"street2":null,"zip code":"48185","id":"a6hot44bhlhc","geo_precision":"range","state":"MI"},"type":"Feature","geometry":{"type":"Point","coordinates":[-83.385302,42.324507]}},{"properties":{"city":"Allen Park","name":"Allen-Wick Hardware","street1":"16139 Wick Rd","geo_score":1.0,"street2":null,"zip code":"48101","id":"a6hot4aqdzkt","geo_precision":"range","state":"MI"},"type":"Feature","geometry":{"type":"Point","coordinates":[-83.220873,42.242313]}},{"properties":{"city":"Holland","name":"Holland ACE Hardware","street1":"835 Lincoln Ave","geo_score":0.911,"street2":null,"zip code":"49423","id":"a6hot3x65p28","geo_precision":"range","state":"MI"},"type":"Feature","geometry":{"type":"Point","coordinates":[-86.097172,42.767145]}},{"properties":{"city":"Newberry","name":"Foster's ACE Hardware","street1":"2011 Newberry Ave","geo_score":0.923,"street2":null,"zip code":"49868-1338","id":"a6hot45p76r2","geo_precision":"range","state":"MI"},"type":"Feature","geometry":{"type":"Point","coordinates":[-85.509679,46.33244]}},{"properties":{"city":"Bloomfield Hills","name":"Bloomfield Hills ACE Hardware","street1":"6650 Telegraph Rd","geo_score":0.962,"street2":null,"zip code":"48301","id":"a6hot4cfruic","geo_precision":"range","state":"MI"},"type":"Feature","geometry":{"type":"Point","coordinates":[-83.285122,42.54212]}},{"properties":{"city":"Berkly","name":"Durst Lumber &amp; ACE Hardware","street1":"2450 W 11 Mile Rd","geo_score":0.986,"street2":null,"zip code":"48072","id":"a6hot3yd5tpg","geo_precision":"range","state":"MI"},"type":"Feature","geometry":{"type":"Point","coordinates":[-83.18656,42.48871]}},{"properties":{"city":"Sault Ste Marie","name":"Parker ACE Hardware","street1":"819 Ashmun St","geo_score":0.932,"street2":null,"zip code":"49783","id":"a6hot3xnw7um","geo_precision":"range","state":"MI"},"type":"Feature","geometry":{"type":"Point","coordinates":[-84.350578,46.493739]}},{"properties":{"city":"Ossineke","name":"Ossineke Building Supply","street1":"11925 US 23 S","geo_score":0.833,"street2":null,"zip code":"49766","id":"a6hot43i6xas","geo_precision":"range","state":"MI"},"type":"Feature","geometry":{"type":"Point","coordinates":[-83.443055,44.903404]}},{"properties":{"city":"Hazel Park","name":"Tony's ACE Hardware","street1":"24011 John R Rd","geo_score":1.0,"street2":null,"zip code":"48030","id":"a6hot3y3tcb3","geo_precision":"range","state":"MI"},"type":"Feature","geometry":{"type":"Point","coordinates":[-83.104288,42.468826]}},{"properties":{"city":"Boyne City","name":"Boyne City ACE Hardware","street1":"200 Water St","geo_score":0.917,"street2":null,"zip code":"49712","id":"a6hot3xws01o","geo_precision":"range","state":"MI"},"type":"Feature","geometry":{"type":"Point","coordinates":[-85.013927,45.213627]}},{"properties":{"city":"Redford","name":"Murray's ACE Hardware","street1":"27207 Plymouth Rd","geo_score":0.916,"street2":null,"zip code":"48239","id":"a6hot4anb0v7","geo_precision":"range","state":"MI"},"type":"Feature","geometry":{"type":"Point","coordinates":[-83.311292,42.370106]}},{"properties":{"city":"Beverly Hills","name":"Beverly Hills ACE Hardware","street1":"17670 W 13 Mile Rd","geo_score":0.919,"street2":null,"zip code":"48025","id":"a6hot49bwb50","geo_precision":"range","state":"MI"},"type":"Feature","geometry":{"type":"Point","coordinates":[-83.219857,42.517175]}},{"properties":{"city":"Romeo","name":"Stones ACE Hardware Romeo","street1":"222 E Saint Clair","geo_score":0.955,"street2":null,"zip code":"48065","id":"a6hot3x88efs","geo_precision":"range","state":"MI"},"type":"Feature","geometry":{"type":"Point","coordinates":[-83.012503,42.802609]}},{"properties":{"city":"Utica","name":"Stone's ACE Hardware Utica","street1":"45645 Van Dyke Ave","geo_score":1.0,"street2":null,"zip code":"48317","id":"a6hot3z6hs8l","geo_precision":"range","state":"MI"},"type":"Feature","geometry":{"type":"Point","coordinates":[-83.032556,42.629905]}},{"properties":{"city":"Midland","name":"ACE Hardware &amp; Sports","street1":"419 E Main St","geo_score":0.913,"street2":null,"zip code":"48640","id":"a6hot41f2i53","geo_precision":"range","state":"MI"},"type":"Feature","geometry":{"type":"Point","coordinates":[-84.242969,43.611294]}},{"properties":{"city":"Oak Park","name":"Scheer's ACE Hardware","street1":"8601 W 9 Mile Rd","geo_score":1.0,"street2":null,"zip code":"48237","id":"a6hot48kcwkh","geo_precision":"range","state":"MI"},"type":"Feature","geometry":{"type":"Point","coordinates":[-83.158532,42.460173]}},{"properties":{"city":"Grand Rapids","name":"Rylee's ACE Hardware","street1":"1121 Michigan St","geo_score":0.951,"street2":null,"zip code":"49503","id":"a6hot45k6efb","geo_precision":"range","state":"MI"},"type":"Feature","geometry":{"type":"Point","coordinates":[-85.640197,42.969982]}},{"properties":{"city":"Clinton Township","name":"Stones ACE, Inc","street1":"41400 Hayes Rd","geo_score":1.0,"street2":null,"zip code":"48038","id":"a6hot49zpcbl","geo_precision":"range","state":"MI"},"type":"Feature","geometry":{"type":"Point","coordinates":[-82.972153,42.600436]}},{"properties":{"city":"Flint","name":"Tompkins Hardware","street1":"5054 Richfield Rd","geo_score":1.0,"street2":null,"zip code":"48506","id":"a6hot46dw72s","geo_precision":"range","state":"MI"},"type":"Feature","geometry":{"type":"Point","coordinates":[-83.614637,43.051291]}},{"properties":{"city":"Ann Arbor","name":"ACE Barnes Hardware, Inc","street1":"2105 W Stadium Blvd","geo_score":1.0,"street2":null,"zip code":"48103","id":"a6hot4chzmpi","geo_precision":"range","state":"MI"},"type":"Feature","geometry":{"type":"Point","coordinates":[-83.776015,42.273098]}},{"properties":{"city":"Marshall","name":"Darling Ace Hardware","street1":"855 W Michigan Ave","geo_score":0.909,"street2":null,"zip code":"49068","id":"a6hot40zle9d","geo_precision":"range","state":"MI"},"type":"Feature","geometry":{"type":"Point","coordinates":[-84.974038,42.272011]}},{"properties":{"city":"Benzonia","name":"Nugent ACE Hardware","street1":"1665 Benzie Hwy","geo_score":0.878,"street2":null,"zip code":"49616","id":"a6hot3xe4th2","geo_precision":"range","state":"MI"},"type":"Feature","geometry":{"type":"Point","coordinates":[-86.099194,44.608616]}},{"properties":{"city":"Durand","name":"Quality ACE Hardware","street1":"9090 E Lansing Rd","geo_score":0.88,"street2":null,"zip code":"48429","id":"a6hot4aixvos","geo_precision":"range","state":"MI"},"type":"Feature","geometry":{"type":"Point","coordinates":[-83.986983,42.925317]}},{"properties":{"city":"Livonia","name":"Hunt's ACE Hardware","street1":"33567 W 7 Mile Rd","geo_score":0.805,"street2":null,"zip code":"48152","id":"a6hot3y5ouzc","geo_precision":"street","state":"MI"},"type":"Feature","geometry":{"type":"Point","coordinates":[-83.341693,42.426943]}},{"properties":{"city":"Highland","name":"Five Star ACE Hardware","street1":"1135 S Milford Rd","geo_score":1.0,"street2":null,"zip code":"48357","id":"a6hot474nu2t","geo_precision":"range","state":"MI"},"type":"Feature","geometry":{"type":"Point","coordinates":[-83.616571,42.630652]}},{"properties":{"city":"Wyandotte","name":"Jerry's ACE Hardware","street1":"2245 Fort St","geo_score":0.708,"street2":null,"zip code":"48192","id":"a6hot3ziyhl9","geo_precision":"street","state":"MI"},"type":"Feature","geometry":{"type":"Point","coordinates":[-83.18018,42.203707]}},{"properties":{"city":"Acme","name":"ACE Hardware","street1":"3597 Bunker Hill","geo_score":0.76,"street2":null,"zip code":"49610","id":"a6hot49fal0s","geo_precision":"street","state":"MI"},"type":"Feature","geometry":{"type":"Point","coordinates":[-85.505828,44.764147]}},{"properties":{"city":"Grosse Pte. Woods","name":"Lochmoor Hardware, Inc","street1":"20779 Mack Ave","geo_score":0.951,"street2":null,"zip code":"48236","id":"a6hot49oygfk","geo_precision":"range","state":"MI"},"type":"Feature","geometry":{"type":"Point","coordinates":[-82.906785,42.445197]}},{"properties":{"city":"Howell","name":"Five Star ACE Hardware","street1":"5919 Crandall","geo_score":0.844,"street2":null,"zip code":"48855","id":"a6hot4chsw9l","geo_precision":"range","state":"MI"},"type":"Feature","geometry":{"type":"Point","coordinates":[-84.005459,42.684491]}},{"properties":{"city":"Ann Arbor","name":"ACE Barnes Hardware","street1":"3352 Washtenaw Ave","geo_score":1.0,"street2":null,"zip code":"48104","id":"a6hot44gg22e","geo_precision":"range","state":"MI"},"type":"Feature","geometry":{"type":"Point","coordinates":[-83.694014,42.256287]}},{"properties":{"city":"Lansing","name":"Vet's ACE Hardware","street1":"2416 N East St","geo_score":0.797,"street2":null,"zip code":"48906","id":"a6hot49nq3bk","geo_precision":"range","state":"MI"},"type":"Feature","geometry":{"type":"Point","coordinates":[-84.542861,42.759225]}},{"properties":{"city":"Grand Blanc","name":"ACE Hardware","street1":"12901 S Saginaw St","geo_score":1.0,"street2":null,"zip code":"48439","id":"a6hot4812sg1","geo_precision":"range","state":"MI"},"type":"Feature","geometry":{"type":"Point","coordinates":[-83.618453,42.918591]}},{"properties":{"city":"Mankato","name":"Arrow ACE Hardware","street1":"201 N Victory Blvd","geo_score":0.732,"street2":null,"zip code":"56001","id":"a6hot3wvyg22","geo_precision":"street","state":"MN"},"type":"Feature","geometry":{"type":"Point","coordinates":[-93.996569,44.133596]}},{"properties":{"city":"Billings","name":"Kings ACE Hardware","street1":"4170 State Ave","geo_score":0.902,"street2":null,"zip code":"59101","id":"a6hot48k1g4g","geo_precision":"range","state":"MT"},"type":"Feature","geometry":{"type":"Point","coordinates":[-108.518895,45.769891]}},{"properties":{"city":"Hickory","name":"Easons ACE Hardware","street1":"3347 S NC Hwy 127","geo_score":0.609,"street2":null,"zip code":"28602","id":"a6hot41793h9","geo_precision":"street","state":"NC"},"type":"Feature","geometry":{"type":"Point","coordinates":[-81.354946,35.697553]}},{"properties":{"city":"Defiance","name":"Janney's Hardware","street1":"1602 E Second St","geo_score":0.817,"street2":null,"zip code":"43512","id":"a6hot42jnclk","geo_precision":"range","state":"OH"},"type":"Feature","geometry":{"type":"Point","coordinates":[-84.337257,41.282737]}},{"properties":{"city":"Toledo","name":"Janney's Hardware","street1":"5820 Secor Rd","geo_score":1.0,"street2":null,"zip code":"43623","id":"a6hot49i60iq","geo_precision":"range","state":"OH"},"type":"Feature","geometry":{"type":"Point","coordinates":[-83.624182,41.721187]}},{"properties":{"city":"Toledo","name":"East Side Hardware Co","street1":"2208 Consaul St","geo_score":1.0,"street2":null,"zip code":"43605","id":"a6hot3yb7jka","geo_precision":"range","state":"OH"},"type":"Feature","geometry":{"type":"Point","coordinates":[-83.497548,41.658424]}},{"properties":{"city":"Toledo","name":"East Side Hardware Co","street1":"331 Pasadena Blvd","geo_score":0.961,"street2":null,"zip code":"43612-2566","id":"a6hot3zpn5lz","geo_precision":"range","state":"OH"},"type":"Feature","geometry":{"type":"Point","coordinates":[-83.552281,41.702456]}},{"properties":{"city":"Bowling Green","name":"Main Street ACE Hardware","street1":"136 S Main St","geo_score":0.911,"street2":null,"zip code":"43402","id":"a6hot3z0tsj8","geo_precision":"range","state":"OH"},"type":"Feature","geometry":{"type":"Point","coordinates":[-83.650414,41.374241]}},{"properties":{"city":"Columbus","name":"Zettler Town &amp; Country","street1":"4141 E Broad St","geo_score":0.91,"street2":null,"zip code":"43213","id":"a6hot46h4p2l","geo_precision":"range","state":"OH"},"type":"Feature","geometry":{"type":"Point","coordinates":[-82.890991,39.974377]}},{"properties":{"city":"Tulsa","name":"Best Electric &amp; Hardware","street1":"3647 S Peoria Ave","geo_score":1.0,"street2":null,"zip code":"74105","id":"a6hot48u4975","geo_precision":"range","state":"OK"},"type":"Feature","geometry":{"type":"Point","coordinates":[-95.975697,36.110403]}},{"properties":{"city":"Mangum","name":"Mangum Lumber &amp; ACE Hardware","street1":"200 E Lincoln St","geo_score":0.902,"street2":null,"zip code":"73554","id":"a6hot4a150ta","geo_precision":"range","state":"OK"},"type":"Feature","geometry":{"type":"Point","coordinates":[-99.50441,34.872256]}},{"properties":{"city":"Eugene","name":"Jerry's HIC","street1":"2600 Hwy 99 N","geo_score":0.867,"street2":null,"zip code":"97402","id":"a6hot441w4ta","geo_precision":"range","state":"OR"},"type":"Feature","geometry":{"type":"Point","coordinates":[-123.165888,44.096658]}},{"properties":{"city":"Forest Grove","name":"Miller's ACE Hardware","street1":"3602 Pacific Ave","geo_score":0.92,"street2":null,"zip code":"97116","id":"a6hot3xq21vk","geo_precision":"range","state":"OR"},"type":"Feature","geometry":{"type":"Point","coordinates":[-123.08418,45.520226]}},{"properties":{"city":"Fredericksburg","name":"Beidermanns ACE Hardware","street1":"1102 E Main St","geo_score":0.909,"street2":null,"zip code":"78624","id":"a6hot40n3fz3","geo_precision":"range","state":"TX"},"type":"Feature","geometry":{"type":"Point","coordinates":[-98.857136,30.264109]}},{"properties":{"city":"New Braunfels","name":"ACE Hardware","street1":"511 Hwy 81 W","geo_score":0.537,"street2":null,"zip code":"78130","id":"a6hot3zyt4zp","geo_precision":"range","state":"TX"},"type":"Feature","geometry":{"type":"Point","coordinates":[-98.174156,29.664077]}},{"properties":{"city":"San Antonio","name":"Castle Hills ACE Hardware","street1":"2361 NW Military Hwy","geo_score":0.938,"street2":null,"zip code":"78231","id":"a6hot40v54pe","geo_precision":"range","state":"TX"},"type":"Feature","geometry":{"type":"Point","coordinates":[-98.529471,29.545046]}},{"properties":{"city":"Pearland","name":"Pearland ACE Hardware","street1":"2027 N Main St","geo_score":0.921,"street2":null,"zip code":"77581","id":"a6hot407hfwb","geo_precision":"range","state":"TX"},"type":"Feature","geometry":{"type":"Point","coordinates":[-95.286151,29.569886]}},{"properties":{"city":"Marble Falls","name":"Marble Falls ACE Hardware","street1":"1400 9th St","geo_score":0.785,"street2":null,"zip code":"78654","id":"a6hot49nlosf","geo_precision":"range","state":"TX"},"type":"Feature","geometry":{"type":"Point","coordinates":[-98.27942,30.580288]}},{"properties":{"city":"Big Spring","name":"Harris Lumber &amp; Hdw","street1":"1515 E FM 700","geo_score":0.956,"street2":null,"zip code":"79720","id":"a6hot4874ld7","geo_precision":"range","state":"TX"},"type":"Feature","geometry":{"type":"Point","coordinates":[-101.453584,32.239354]}},{"properties":{"city":"Houston","name":"Chamberlin ACE Hardware","street1":"9440 Hwy 6 S","geo_score":0.805,"street2":null,"zip code":"77083","id":"a6hot49acn1d","geo_precision":"range","state":"TX"},"type":"Feature","geometry":{"type":"Point","coordinates":[-95.643378,29.675281]}},{"properties":{"city":"Houston","name":"Buffalo Hardware Company","street1":"2614 Westheimer Rd","geo_score":1.0,"street2":null,"zip code":"77098","id":"a6hot3y9ncqr","geo_precision":"range","state":"TX"},"type":"Feature","geometry":{"type":"Point","coordinates":[-95.418918,29.74231]}},{"properties":{"city":"San Antonio","name":"Sunset Ridge Home &amp; Hardware","street1":"6438 N New Braunfels Ave","geo_score":0.911,"street2":null,"zip code":"78209","id":"a6hot4a26oxo","geo_precision":"range","state":"TX"},"type":"Feature","geometry":{"type":"Point","coordinates":[-98.459249,29.488665]}},{"properties":{"city":"Houston","name":"ACE Hardware City","street1":"14455 Memorial Dr","geo_score":0.902,"street2":null,"zip code":"77079","id":"a6hot406882x","geo_precision":"range","state":"TX"},"type":"Feature","geometry":{"type":"Point","coordinates":[-95.601875,29.770169]}},{"properties":{"city":"Renton","name":"McLendon Hardware, Inc","street1":"Attn: Linda Holmes","geo_score":0.667,"street2":"440 Rainier Ave South","zip code":"98057","id":"a6hot3xutees","geo_precision":"street","state":"WA"},"type":"Feature","geometry":{"type":"Point","coordinates":[-122.222059,47.48551]}},{"properties":{"city":"Renton","name":"McLendon Hardware","street1":"715 Lind Ave SW","geo_score":0.73,"street2":null,"zip code":"98055-2306","id":"a6hot4ao7w8k","geo_precision":"street","state":"WA"},"type":"Feature","geometry":{"type":"Point","coordinates":[-122.223347,47.470558]}},{"properties":{"city":"Renton","name":"McLendon Hardware, Inc","street1":"B &amp; T Warehouse I","geo_score":0.429,"street2":"846 Lind Ave SW","zip code":"98055","id":"a6hot45ij5oy","geo_precision":"street","state":"WA"},"type":"Feature","geometry":{"type":"Point","coordinates":[-122.002265,47.196473]}},{"properties":{"city":"Lander","name":"Lander Ace Hardware","street1":"420 Main Street","geo_score":0.914,"street2":null,"zip code":"82520","id":"a6hot3zitlhl","geo_precision":"range","state":"WY"},"type":"Feature","geometry":{"type":"Point","coordinates":[-108.733566,42.83365]}}],"is_temporal":false,"author":{"url":"","metadata":"","contact_name":"","contact_address":"","source":"","contact_phone":""},"source":"","pagination":{"sort":null,"start":0,"total":120,"limit":1000000},"state":"complete","tags":"","published":"2012-04-05T15:18:41Z","id":224599}