{"type":"FeatureCollection","data_type":"Dataset","url_type":null,"permissions":[{"permissions":{"download":true,"view":true},"group_id":"everyone"}],"classification":null,"title":"ahl","count":30,"stream_id":224525,"contributor":{"url":"http://geocommons.com/users/42464","name":"kyriekirn"},"data_attributes":null,"calculation_params":null,"icon_link":null,"link":"http://geocommons.com/overlays/224525.json","extent":[-120.754,29.4633,-70.2814,43.6734],"geometry_types":["point"],"unique_name":null,"name":"ahl","feature_count":30,"description":"","next_feature":null,"is_raster":false,"short_classification":"Y","stats":{},"features":[{"properties":{"city":"Albany","affiliate":"New Jersey Devils","team name":"Albany Devils","geo_score":1.0,"postal code":"12207","arena name":"Times Union Center","id":"a62qr8qfvghb","geo_precision":"zip","state":"New York"},"type":"Feature","geometry":{"type":"Point","coordinates":[-73.750764,42.656029]}},{"properties":{"city":"Bridgeport","affiliate":"New York Islanders","team name":"Bridgeport Sound Tigers","geo_score":1.0,"postal code":"06604","arena name":"Webster Bank Arena","id":"a62qr8k8rbbp","geo_precision":"zip","state":"Connecticut"},"type":"Feature","geometry":{"type":"Point","coordinates":[-73.213907,41.192746]}},{"properties":{"city":"Hartford","affiliate":"New York Rangers","team name":"Connecticut Whale","geo_score":1.0,"postal code":"06103","arena name":"XL Center","id":"a62qr8iwcuuf","geo_precision":"zip","state":"Connecticut"},"type":"Feature","geometry":{"type":"Point","coordinates":[-72.674636,41.766349]}},{"properties":{"city":"Glens Falls","affiliate":"Philadelphia Flyers","team name":"Adirondack Phantoms","geo_score":0.959,"postal code":"12801","arena name":"Glens Falls Civic Center","id":"a62qr8swd61j","geo_precision":"zip","state":"New York"},"type":"Feature","geometry":{"type":"Point","coordinates":[-73.684007,43.300072]}},{"properties":{"city":"Wilkes-Barre","affiliate":"Pittsburgh Penguins","team name":"Wilkes-Barre/Scranton Penguins","geo_score":0.94,"postal code":"18702","arena name":"Mohegan Sun Arena","id":"a62qr8lckj3g","geo_precision":"zip","state":"Pennsylvania"},"type":"Feature","geometry":{"type":"Point","coordinates":[-75.859458,41.233542]}},{"properties":{"city":"Providence","affiliate":"Boston Bruins","team name":"Providence Bruins","geo_score":1.0,"postal code":"02903","arena name":"Dunkin' Donuts Center","id":"a62qr8neqf3u","geo_precision":"zip","state":"Rhode Island"},"type":"Feature","geometry":{"type":"Point","coordinates":[-71.4115,41.819459]}},{"properties":{"city":"Rochester","affiliate":"Buffalo Sabres","team name":"Rochester Americans","geo_score":1.0,"postal code":"14614","arena name":"Blue Cross Arena at the War Memorial","id":"a62qr8jnoibu","geo_precision":"zip","state":"New York"},"type":"Feature","geometry":{"type":"Point","coordinates":[-77.512569,43.104463]}},{"properties":{"city":"Hamilton","affiliate":"Montreal Canadiens","team name":"Hamilton Bulldogs","geo_score":0.714,"postal code":"L8R 3L4","arena name":"Copps Coliseum","id":"a62qr8oi9uio","geo_precision":"city","state":"Ontario"},"type":"Feature","geometry":{"type":"Point","coordinates":[-84.561336,39.399501]}},{"properties":{"city":"Binghamton","affiliate":"Ottawa Senators","team name":"Binghamton Senators","geo_score":0.879,"postal code":"13901","arena name":"Broome County Veterans Memorial Arena","id":"a62qr8syu26t","geo_precision":"zip","state":"New York"},"type":"Feature","geometry":{"type":"Point","coordinates":[-75.896307,42.133409]}},{"properties":{"city":"Toronto","affiliate":"Toronto Maple Leafs","team name":"Toronto Marlies","geo_score":0.633,"postal code":"M6K 3C3","arena name":"Ricoc Coliseum","id":"a62qr8j1jvs2","geo_precision":"city","state":"Ontario"},"type":"Feature","geometry":{"type":"Point","coordinates":[-86.768002,33.594533]}},{"properties":{"city":"Charlotte","affiliate":"Carolina Hurricanes","team name":"Charlotte Checkers","geo_score":1.0,"postal code":"28202","arena name":"Time Warner Cable Arena","id":"a62qr8vouk9j","geo_precision":"zip","state":"North Carolina"},"type":"Feature","geometry":{"type":"Point","coordinates":[-80.843493,35.226192]}},{"properties":{"city":"San Antonio","affiliate":"Florida Panthers","team name":"San Antonio Rampage","geo_score":0.857,"postal code":"78219","arena name":"AT&amp;T Center","id":"a62qr8ljjxex","geo_precision":"zip","state":"Texas"},"type":"Feature","geometry":{"type":"Point","coordinates":[-98.38557,29.463288]}},{"properties":{"city":"Norfolk","affiliate":"Tampa Bay Lightning","team name":"Norfolk Admirals","geo_score":1.0,"postal code":"23510","arena name":"Norfolk Scope","id":"a62qr8otcupy","geo_precision":"zip","state":"Virginia"},"type":"Feature","geometry":{"type":"Point","coordinates":[-76.292412,36.881047]}},{"properties":{"city":"Hershey","affiliate":"Washington Capitals","team name":"Hershey Bears","geo_score":0.869,"postal code":"17033","arena name":"Giant Center","id":"a62qr8qe3q93","geo_precision":"zip","state":"Pennsylvania"},"type":"Feature","geometry":{"type":"Point","coordinates":[-76.681914,40.290368]}},{"properties":{"city":"St. John's","affiliate":"Winnipeg Jets","team name":"St. John's IceCaps","geo_score":0.571,"postal code":"A1C 6K3","arena name":"Mile One Centre","id":"a62qr8o18ins","geo_precision":"city","state":"Newfoundland"},"type":"Feature","geometry":{"type":"Point","coordinates":[-120.75384,40.042949]}},{"properties":{"city":"Rockford","affiliate":"Chicago Blackhawks","team name":"Rockford IceHogs","geo_score":1.0,"postal code":"61101","arena name":"BMO Harris Bank Center","id":"a62qr8im0ld3","geo_precision":"zip","state":"Illinois"},"type":"Feature","geometry":{"type":"Point","coordinates":[-89.157198,42.33342]}},{"properties":{"city":"Springfield","affiliate":"Columbus Blue Jackets","team name":"Springfield Falcons","geo_score":1.0,"postal code":"01103","arena name":"MassMutual Center","id":"a62qr8p5dbnm","geo_precision":"zip","state":"Massachusetts"},"type":"Feature","geometry":{"type":"Point","coordinates":[-72.590783,42.103044]}},{"properties":{"city":"Grand Rapids","affiliate":"Detroit Red Wings","team name":"Grand Rapids Griffins","geo_score":1.0,"postal code":"49503","arena name":"Van Andel Arena","id":"a62qr8levqso","geo_precision":"zip","state":"Michigan"},"type":"Feature","geometry":{"type":"Point","coordinates":[-85.660693,42.956176]}},{"properties":{"city":"Milwaukee","affiliate":"Nashville Predators","team name":"Milwaukee Admirals","geo_score":1.0,"postal code":"53203","arena name":"Bradley Center","id":"a62qr8m1gn97","geo_precision":"zip","state":"Wisconsin"},"type":"Feature","geometry":{"type":"Point","coordinates":[-87.916534,43.038313]}},{"properties":{"city":"Peoria","affiliate":"St. Louis Blues","team name":"Peoria Rivermen","geo_score":1.0,"postal code":"61602","arena name":"Peoria Civic Center","id":"a62qr8qtiu0z","geo_precision":"zip","state":"Illinois"},"type":"Feature","geometry":{"type":"Point","coordinates":[-89.604898,40.683283]}},{"properties":{"city":"Abbotsford","affiliate":"Calgary Flames","team name":"Abbotsford Heat","geo_score":0.701,"postal code":"V2S 8H8","arena name":"Abbotsford Entertainment &amp; Sports Centre","id":"a62qr8kkojtu","geo_precision":"city","state":"British Columbia"},"type":"Feature","geometry":{"type":"Point","coordinates":[-85.179665,33.047346]}},{"properties":{"city":"Cleveland","affiliate":"Colorado Avalanche","team name":"Lake Erie Monsters","geo_score":1.0,"postal code":"44115","arena name":"Quicken Loans Arena","id":"a62qr8t30kks","geo_precision":"zip","state":"Ohio"},"type":"Feature","geometry":{"type":"Point","coordinates":[-81.675602,41.490351]}},{"properties":{"city":"Oklahoma City","affiliate":"Edmonton Oilers","team name":"Oklahoma City Barons","geo_score":1.0,"postal code":"73102","arena name":"Cox Convention Center","id":"a62qr8m0dl6n","geo_precision":"zip","state":"Oklahoma"},"type":"Feature","geometry":{"type":"Point","coordinates":[-97.518916,35.475209]}},{"properties":{"city":"Houston","affiliate":"Minnesota Wild","team name":"Houston Aeros","geo_score":1.0,"postal code":"77007","arena name":"Toyota Center","id":"a62qr8irvquy","geo_precision":"zip","state":"Texas"},"type":"Feature","geometry":{"type":"Point","coordinates":[-95.434241,29.83399]}},{"properties":{"city":"Rosemont","affiliate":"Vancouver Canucks","team name":"Chicago Wolves","geo_score":0.886,"postal code":"60025","arena name":"Allstate Arena","id":"a62qr8szvisx","geo_precision":"zip","state":"Illinois"},"type":"Feature","geometry":{"type":"Point","coordinates":[-87.875345,42.086694]}},{"properties":{"city":"Syracuse","affiliate":"Anaheim Ducks","team name":"Syracuse Crunch","geo_score":1.0,"postal code":"13202","arena name":"War Memorial at Oncenter","id":"a62qr8irdzf1","geo_precision":"zip","state":"New York"},"type":"Feature","geometry":{"type":"Point","coordinates":[-76.150796,43.043116]}},{"properties":{"city":"Cedar Park","affiliate":"Dallas Stars","team name":"Texas Stars","geo_score":1.0,"postal code":"78613","arena name":"Cedar Park Center","id":"a62qr8fl3r03","geo_precision":"zip","state":"Texas"},"type":"Feature","geometry":{"type":"Point","coordinates":[-97.628724,30.494032]}},{"properties":{"city":"Manchester","affiliate":"Los Angeles Kings","team name":"Manchester Monarchs","geo_score":1.0,"postal code":"03101","arena name":"Verizon Wireless Arena","id":"a62qr8l42u9b","geo_precision":"zip","state":"New Hampshire"},"type":"Feature","geometry":{"type":"Point","coordinates":[-71.462111,42.988483]}},{"properties":{"city":"Portland","affiliate":"Phoenix Coyotes","team name":"Portland Pirates","geo_score":0.889,"postal code":"04101","arena name":"Cumberland County Civic Center","id":"a62qr8iaj0dp","geo_precision":"zip","state":"Maine"},"type":"Feature","geometry":{"type":"Point","coordinates":[-70.281438,43.673415]}},{"properties":{"city":"Worcester","affiliate":"San Jose Sharks","team name":"Worcester Sharks","geo_score":1.0,"postal code":"01608","arena name":"DCU Center","id":"a62qr8luhadf","geo_precision":"zip","state":"Massachusetts"},"type":"Feature","geometry":{"type":"Point","coordinates":[-71.925696,42.293501]}}],"is_temporal":false,"author":{"url":"","metadata":null,"contact_name":null,"contact_address":null,"source":null,"contact_phone":null},"source":"","pagination":{"sort":null,"start":0,"total":30,"limit":1000000},"state":"complete","tags":"","published":"2014-08-14T20:34:00-04:00","id":224525}