{"type":"FeatureCollection","data_type":"Dataset","url_type":null,"permissions":[{"permissions":{"download":true,"view":true},"group_id":"everyone"}],"classification":null,"title":"East Region Digital First Team","count":25,"stream_id":225002,"contributor":{"url":"http://geocommons.com/users/33442","name":"ivanlajara"},"data_attributes":null,"calculation_params":null,"icon_link":null,"link":"http://geocommons.com/overlays/225002.json","extent":[-81.6434,38.3554,-71.3167,43.0943],"geometry_types":["point"],"unique_name":null,"name":"East Region Digital First Team","feature_count":25,"description":"","next_feature":null,"is_raster":false,"short_classification":"Y","stats":{},"features":[{"properties":{"city":"Lowell","twitter":"https://twitter.com/#!/LowellSunNews/","geo_score":0.902,"pinterest":null,"url":"http://www.lowellsun.com/","zip code":"1854","publication":"The Sun","google+":null,"id":"a6364ogqsgyk","geo_precision":"range","group":"MediaNews","address":"491 DUTTON \n      STREET","facebook":"https://www.facebook.com/LowellSun","state":"MA"},"type":"Feature","geometry":{"type":"Point","coordinates":[-71.316717,42.641349]}},{"properties":{"city":"North Adams","twitter":"https://twitter.com/#!/NATranscript","geo_score":0.871,"pinterest":null,"url":"http://www.thetranscript.com/","zip code":"1247","publication":"North Adams Transcript","google+":null,"id":"a6364oj80w6l","geo_precision":"street","group":"MediaNews","address":"85 Main St., Suite 2","facebook":"https://www.facebook.com/natranscript","state":"MA"},"type":"Feature","geometry":{"type":"Point","coordinates":[-73.114464,42.699619]}},{"properties":{"city":"Pittsfield","twitter":"https://twitter.com/#!/BerkshireEagle","geo_score":0.805,"pinterest":null,"url":"http://www.berkshireeagle.com/","zip code":"1202","publication":"The Berkshire Eagle","google+":null,"id":"a6364oo0lk21","geo_precision":"range","group":"MediaNews","address":"75 South Church Street","facebook":"https://www.facebook.com/berkshire.eagle","state":"MA"},"type":"Feature","geometry":{"type":"Point","coordinates":[-73.26135,42.44731]}},{"properties":{"city":"Fitchburg","twitter":"https://twitter.com/#!/sentandent","geo_score":0.913,"pinterest":null,"url":"http://www.sentinelandenterprise.com/","zip code":"1420","publication":"Sentinel &amp; Enterprise","google+":null,"id":"a6364oez5x7k","geo_precision":"range","group":"MediaNews","address":"808 Main Street","facebook":"https://www.facebook.com/SentinelandEnterprise","state":"MA"},"type":"Feature","geometry":{"type":"Point","coordinates":[-71.80469,42.585218]}},{"properties":{"city":"Hanover","twitter":"https://twitter.com/#!/theeveningsun","geo_score":0.924,"pinterest":null,"url":"http://www.eveningsun.com","zip code":"17331","publication":"The Evening Sun","google+":null,"id":"a6364oegjo44","geo_precision":"range","group":"MediaNews","address":"135 Baltimore Street","facebook":"https://www.facebook.com/hanovereveningsun","state":"PA"},"type":"Feature","geometry":{"type":"Point","coordinates":[-76.98084,39.79822]}},{"properties":{"city":"Lebanon","twitter":"https://twitter.com/#!/ldnews","geo_score":0.939,"pinterest":null,"url":"http://www.ldnews.com/","zip code":"17042","publication":"Lebanon Daily News","google+":null,"id":"a6364ordm0kh","geo_precision":"range","group":"MediaNews","address":"718 Poplar Street","facebook":"https://www.facebook.com/ldnews","state":"PA"},"type":"Feature","geometry":{"type":"Point","coordinates":[-76.423503,40.330947]}},{"properties":{"city":"York","twitter":"https://twitter.com/#!/yorkdispatch","geo_score":0.619,"pinterest":null,"url":"http://www.yorkdispatch.com/","zip code":"17401","publication":"The York Dispatch","google+":null,"id":"a6364ogywlib","geo_precision":"street","group":"MediaNews","address":"205 N. George St.","facebook":"https://www.facebook.com/YorkDispatch","state":"PA"},"type":"Feature","geometry":{"type":"Point","coordinates":[-76.727716,39.962466]}},{"properties":{"city":"York","twitter":"https://twitter.com/#!/ydrcom","geo_score":0.902,"pinterest":"http://pinterest.com/yorkdailyrecord/","url":"http://www.ydr.com/","zip code":"17408","publication":"York Daily Record - York Sunday News","google+":"https://plus.google.com/101218482590602440715/about","id":"a6364oplb1fl","geo_precision":"range","group":"MediaNews","address":"1891 Loucks Road","facebook":"https://www.facebook.com/YorkDailyRecord","state":"PA"},"type":"Feature","geometry":{"type":"Point","coordinates":[-76.775233,39.972579]}},{"properties":{"city":"Bennington","twitter":"https://twitter.com/#!/banner_news","geo_score":0.902,"pinterest":null,"url":"www.benningtonbanner.com","zip code":"5201","publication":"Bennington Banner","google+":null,"id":"a6364omaau6i","geo_precision":"range","group":"MediaNews","address":"425 Main Street,","facebook":"https://www.facebook.com/benningtonbanner","state":"VT"},"type":"Feature","geometry":{"type":"Point","coordinates":[-73.196405,42.878238]}},{"properties":{"city":"Brattleboro","twitter":"https://twitter.com/#!/BrattReformer","geo_score":0.902,"pinterest":null,"url":"http://www.reformer.com/","zip code":"5301","publication":"Brattleboro Reformer","google+":null,"id":"a6364ogcujb6","geo_precision":"range","group":"MediaNews","address":"62 Black Mountain Road","facebook":"https://www.facebook.com/brattlebororeformer","state":"VT"},"type":"Feature","geometry":{"type":"Point","coordinates":[-72.561667,42.882013]}},{"properties":{"city":"Charleston","twitter":"https://twitter.com/#!/charleywest","geo_score":0.61,"pinterest":null,"url":"http://www.dailymail.com/","zip code":"25301","publication":"Charleston Daily Mail","google+":null,"id":"a6364oj7ht7t","geo_precision":"street","group":"MediaNews","address":"1001 Virginia St. E.,","facebook":"https://www.facebook.com/charlestondailymail","state":"WV"},"type":"Feature","geometry":{"type":"Point","coordinates":[-81.643405,38.355426]}},{"properties":{"city":"New Haven","twitter":"https://twitter.com/#!/nhregister/","geo_score":1.0,"pinterest":"http://pinterest.com/nhregister/","url":"http://www.nhregister.com/","zip code":"6511","publication":"New Haven Register","google+":"https://plus.google.com/u/0/103007533258565735248/posts","id":"a6364oo0li7i","geo_precision":"range","group":"JRC","address":"40 Sargent Drive","facebook":"https://www.facebook.com/NewHavenRegister","state":"CT"},"type":"Feature","geometry":{"type":"Point","coordinates":[-72.926644,41.286575]}},{"properties":{"city":"Middletown","twitter":"https://twitter.com/#!/middletownpress","geo_score":0.902,"pinterest":null,"url":"http://www.middletownpress.com","zip code":"6457","publication":"Middletown Press","google+":null,"id":"a6364oka2szt","geo_precision":"range","group":"JRC","address":"386 Main St.","facebook":"https://www.facebook.com/middletownpress","state":"CT"},"type":"Feature","geometry":{"type":"Point","coordinates":[-72.649218,41.559694]}},{"properties":{"city":"Torrington","twitter":"https://twitter.com/#!/registercitizen/","geo_score":0.972,"pinterest":null,"url":"http://www.registercitizen.com","zip code":"6790","publication":"Torrington Register Citizen","google+":null,"id":"a6364ol7end2","geo_precision":"range","group":"JRC","address":"59 Field Street,","facebook":"https://www.facebook.com/RegisterCitizen","state":"CT"},"type":"Feature","geometry":{"type":"Point","coordinates":[-73.125661,41.806934]}},{"properties":{"city":"Trenton","twitter":"https://twitter.com/#!/trentonian","geo_score":0.927,"pinterest":null,"url":"http://www.trentonian.com/","zip code":"8618","publication":"Trentonian","google+":"https://plus.google.com/u/0/112226676402907008800/posts","id":"a6364odyagl3","geo_precision":"range","group":"JRC","address":"600 Perry Street","facebook":"https://www.facebook.com/Trentonian","state":"NJ"},"type":"Feature","geometry":{"type":"Point","coordinates":[-74.754735,40.225476]}},{"properties":{"city":"Kingston","twitter":"https://twitter.com/#!/dailyfreeman","geo_score":0.915,"pinterest":"http://www.pinterest.com/dailyfreeman","url":"http://www.dailyfreeman.com","zip code":"12401","publication":"Kingston Daily Freeman","google+":"https://plus.google.com/u/0/106441690770117571735/posts","id":"a6364or2588a","geo_precision":"range","group":"JRC","address":"79 Hurley Ave.","facebook":"http://on.fb.me/DFreeman","state":"NY"},"type":"Feature","geometry":{"type":"Point","coordinates":[-74.028394,41.936899]}},{"properties":{"city":"Troy","twitter":"https://twitter.com/#!/troyrecord/","geo_score":0.916,"pinterest":"http://pinterest.com/troyrecord/","url":"http://troyrecord.com/","zip code":"12180","publication":"Troy Record","google+":"https://plus.google.com/u/0/103272003000477208520/posts","id":"a6364oq9e9um","geo_precision":"range","group":"JRC","address":"501 Broadway","facebook":"https://www.facebook.com/troyrecord","state":"NY"},"type":"Feature","geometry":{"type":"Point","coordinates":[-73.6878,42.731013]}},{"properties":{"city":"Saratoga Springs","twitter":"https://twitter.com/#!/saratogiannews/","geo_score":0.818,"pinterest":"http://pinterest.com/saratogian/","url":"http://www.saratogian.com/","zip code":"12866","publication":"Saratogian","google+":null,"id":"a6364ofy3yzl","geo_precision":"street","group":"JRC","address":"20 Lake Avenue","facebook":"https://www.facebook.com/Saratogian","state":"NY"},"type":"Feature","geometry":{"type":"Point","coordinates":[-73.783705,43.083022]}},{"properties":{"city":"Oneida","twitter":"https://twitter.com/#!/oneidadispatch/","geo_score":0.915,"pinterest":null,"url":"http://oneidadispatch.com/","zip code":"13421","publication":"Oneida Daily Dispatch","google+":null,"id":"a6364opna2si","geo_precision":"range","group":"JRC","address":"130 Broad Street","facebook":"https://www.facebook.com/pages/Oneida-Daily-Dispatch/298810515781","state":"NY"},"type":"Feature","geometry":{"type":"Point","coordinates":[-75.65341,43.094342]}},{"properties":{"city":"Lansdale","twitter":"https://twitter.com/#!/lansreporter","geo_score":0.927,"pinterest":null,"url":"http://www.thereporteronline.com/","zip code":"19446","publication":"Lansdale Reporter","google+":null,"id":"a6364odhgt2y","geo_precision":"range","group":"JRC","address":"307 Derstine Ave.,","facebook":"https://www.facebook.com/lansreporter","state":"PA"},"type":"Feature","geometry":{"type":"Point","coordinates":[-75.287463,40.242363]}},{"properties":{"city":"Pottstown","twitter":"https://twitter.com/#!/MercuryX","geo_score":0.916,"pinterest":"http://pinterest.com/themercury/","url":"http://www.pottsmerc.com/","zip code":"19464","publication":"Pottstown Mercury","google+":null,"id":"a6364oog3vpd","geo_precision":"range","group":"JRC","address":"24 North Hanover Street,","facebook":"https://www.facebook.com/pottstown.mercury","state":"PA"},"type":"Feature","geometry":{"type":"Point","coordinates":[-75.650367,40.246032]}},{"properties":{"city":"Norristown","twitter":"https://twitter.com/#!/TimesHeraldPA/","geo_score":0.951,"pinterest":null,"url":"http://www.timesherald.com/","zip code":"19401","publication":"Norristown Times Herald","google+":null,"id":"a6364ojn3rc1","geo_precision":"range","group":"JRC","address":"410 Markley Street","facebook":"https://www.facebook.com/TimesHeraldPA","state":"PA"},"type":"Feature","geometry":{"type":"Point","coordinates":[-75.348325,40.117189]}},{"properties":{"city":"West Chester","twitter":"https://twitter.com/#!/wcdailylocal","geo_score":1.0,"pinterest":null,"url":"http://www.dailylocal.com/","zip code":"19382","publication":"West Chester Daily Local News","google+":null,"id":"a6364oiss2u7","geo_precision":"range","group":"JRC","address":"250 North Bradford Avenue","facebook":"https://www.facebook.com/dailylocalnews","state":"PA"},"type":"Feature","geometry":{"type":"Point","coordinates":[-75.617494,39.957943]}},{"properties":{"city":"Primos","twitter":"https://twitter.com/#!/delcotimes/","geo_score":0.902,"pinterest":null,"url":"http://www.delcotimes.com/","zip code":"19018","publication":"Delaware County Times","google+":null,"id":"a6364op3098m","geo_precision":"range","group":"JRC","address":"500 Mildred Ave.","facebook":"https://www.facebook.com/delcodailytimes","state":"PA"},"type":"Feature","geometry":{"type":"Point","coordinates":[-75.299774,39.92074]}},{"properties":{"city":"Chambersburg","twitter":"https://twitter.com/#!/ponews","geo_score":0.512,"pinterest":null,"url":"http://www.publicopiniononline.com/","zip code":"17201","publication":"Public Opinion","google+":null,"id":"a6364os6ggme","geo_precision":"street","group":"MediaNews","address":"77 N. Third St.","facebook":"https://www.facebook.com/publicopinionnews","state":"PA"},"type":"Feature","geometry":{"type":"Point","coordinates":[-77.657103,39.936918]}}],"is_temporal":false,"author":{"url":"","metadata":"","contact_name":"","contact_address":"","source":"","contact_phone":""},"source":"","pagination":{"sort":null,"start":0,"total":25,"limit":1000000},"state":"complete","tags":"digital,engagement,first","published":"2014-08-14T21:10:28-04:00","id":225002}