{"type":"FeatureCollection","data_type":"Dataset","url_type":null,"permissions":[{"permissions":{"download":true,"view":true},"group_id":"everyone"}],"classification":null,"title":"AFI-cust-WAL","count":218,"stream_id":225001,"contributor":{"url":"http://geocommons.com/users/185","name":"emily"},"data_attributes":null,"calculation_params":null,"icon_link":null,"link":"http://geocommons.com/overlays/225001.json","extent":[-124.083,25.5026,-70.2984,48.9061],"geometry_types":["point"],"unique_name":"","name":"AFI-cust-WAL","feature_count":218,"description":"","next_feature":null,"is_raster":false,"short_classification":"Y","stats":{},"features":[{"properties":{"city":"BRUNDIDGE","geo_score":0.857,"country":"United States","id":"a62iclm43gc6","geo_precision":"city","state":"Alabama"},"type":"Feature","geometry":{"type":"Point","coordinates":[-85.816261,31.713427]}},{"properties":{"city":"BIRMINGHAM","geo_score":0.857,"country":"United States","id":"a62iclw5zr95","geo_precision":"city","state":"Alabama"},"type":"Feature","geometry":{"type":"Point","coordinates":[-86.80249,33.520661]}},{"properties":{"city":"BESSEMER","geo_score":0.768,"country":"United States","id":"a62icll2byk0","geo_precision":"city","state":"Alabama"},"type":"Feature","geometry":{"type":"Point","coordinates":[-87.700019,33.89455]}},{"properties":{"city":"OPELIKA","geo_score":0.857,"country":"United States","id":"a62iclkpcvhf","geo_precision":"city","state":"Alabama"},"type":"Feature","geometry":{"type":"Point","coordinates":[-85.392878,32.621147]}},{"properties":{"city":"ALBERTVILLE","geo_score":0.792,"country":"United States","id":"a62iclotdfap","geo_precision":"city","state":"Alabama"},"type":"Feature","geometry":{"type":"Point","coordinates":[-86.12578,31.277947]}},{"properties":{"city":"MONTGOMERY","geo_score":0.857,"country":"United States","id":"a62icli0cgf3","geo_precision":"city","state":"Alabama"},"type":"Feature","geometry":{"type":"Point","coordinates":[-86.299969,32.366805]}},{"properties":{"city":"ANNISTON","geo_score":0.857,"country":"United States","id":"a62iclvk16na","geo_precision":"city","state":"Alabama"},"type":"Feature","geometry":{"type":"Point","coordinates":[-85.792328,33.759768]}},{"properties":{"city":"CLARKSVILLE","geo_score":0.798,"country":"United States","id":"a62iclo4tn2u","geo_precision":"city","state":"Arkansas"},"type":"Feature","geometry":{"type":"Point","coordinates":[-90.612051,35.123424]}},{"properties":{"city":"BENTONVILLE","geo_score":0.857,"country":"United States","id":"a62icljnoi5r","geo_precision":"city","state":"Arkansas"},"type":"Feature","geometry":{"type":"Point","coordinates":[-94.208817,36.372854]}},{"properties":{"city":"CASA GRANDE","geo_score":0.857,"country":"United States","id":"a62iclg3t6hh","geo_precision":"city","state":"Arizona"},"type":"Feature","geometry":{"type":"Point","coordinates":[-111.753991,32.89055]}},{"properties":{"city":"PHOENIX","geo_score":0.857,"country":"United States","id":"a62icls2puwj","geo_precision":"city","state":"Arizona"},"type":"Feature","geometry":{"type":"Point","coordinates":[-112.074037,33.448377]}},{"properties":{"city":"PLEASANTON","geo_score":0.796,"country":"United States","id":"a62icligaizb","geo_precision":"city","state":"California"},"type":"Feature","geometry":{"type":"Point","coordinates":[-120.662985,38.68296]}},{"properties":{"city":"OAKLAND","geo_score":0.857,"country":"United States","id":"a62iclqmv19p","geo_precision":"city","state":"California"},"type":"Feature","geometry":{"type":"Point","coordinates":[-122.270803,37.804372]}},{"properties":{"city":"ONTARIO","geo_score":0.857,"country":"United States","id":"a62iclvmvjxd","geo_precision":"city","state":"California"},"type":"Feature","geometry":{"type":"Point","coordinates":[-117.650888,34.063344]}},{"properties":{"city":"RANCHO CUCAMONGA","geo_score":0.857,"country":"United States","id":"a62iclj3haun","geo_precision":"city","state":"California"},"type":"Feature","geometry":{"type":"Point","coordinates":[-115.967051,34.839964]}},{"properties":{"city":"CORONA","geo_score":0.857,"country":"United States","id":"a62icluvjf2o","geo_precision":"city","state":"California"},"type":"Feature","geometry":{"type":"Point","coordinates":[-116.055617,33.752886]}},{"properties":{"city":"STOCKTON","geo_score":0.857,"country":"United States","id":"a62icltq7od9","geo_precision":"city","state":"California"},"type":"Feature","geometry":{"type":"Point","coordinates":[-121.298794,37.672196]}},{"properties":{"city":"DENVER","geo_score":0.857,"country":"United States","id":"a62icls4akuw","geo_precision":"city","state":"Colorado"},"type":"Feature","geometry":{"type":"Point","coordinates":[-104.984703,39.739154]}},{"properties":{"city":"HENDERSON","geo_score":0.857,"country":"United States","id":"a62iclkr7oc7","geo_precision":"city","state":"Colorado"},"type":"Feature","geometry":{"type":"Point","coordinates":[-104.883581,39.879235]}},{"properties":{"city":"WALLINGFORD","geo_score":0.807,"country":"United States","id":"a62iclslx5du","geo_precision":"city","state":"Connecticut"},"type":"Feature","geometry":{"type":"Point","coordinates":[-72.81892,41.449868]}},{"properties":{"city":"CHESHIRE","geo_score":0.857,"country":"United States","id":"a62iclowuxxc","geo_precision":"city","state":"Connecticut"},"type":"Feature","geometry":{"type":"Point","coordinates":[-72.927507,41.365709]}},{"properties":{"city":"JACKSONVILLE","geo_score":0.857,"country":"United States","id":"a62iclsgnv6m","geo_precision":"city","state":"Florida"},"type":"Feature","geometry":{"type":"Point","coordinates":[-81.655651,30.332184]}},{"properties":{"city":"LAKELAND","geo_score":0.857,"country":"United States","id":"a62iclpu72hr","geo_precision":"city","state":"Florida"},"type":"Feature","geometry":{"type":"Point","coordinates":[-81.949804,28.039465]}},{"properties":{"city":"ORLANDO","geo_score":0.857,"country":"United States","id":"a62iclghkuzh","geo_precision":"city","state":"Florida"},"type":"Feature","geometry":{"type":"Point","coordinates":[-81.379237,28.538336]}},{"properties":{"city":"DEERFIELD BEACH","geo_score":0.857,"country":"United States","id":"a62icls7njs4","geo_precision":"city","state":"Florida"},"type":"Feature","geometry":{"type":"Point","coordinates":[-80.140769,26.273761]}},{"properties":{"city":"WINTERHAVEN","geo_score":0.857,"country":"United States","id":"a62iclmrvbhk","geo_precision":"city","state":"Florida"},"type":"Feature","geometry":{"type":"Point","coordinates":[-81.762456,27.987284]}},{"properties":{"city":"QUINCY","geo_score":0.857,"country":"United States","id":"a62iclhyhj5f","geo_precision":"city","state":"Florida"},"type":"Feature","geometry":{"type":"Point","coordinates":[-84.63183,30.555675]}},{"properties":{"city":"MACCLENNY","geo_score":0.857,"country":"United States","id":"a62iclq5jnxy","geo_precision":"city","state":"Florida"},"type":"Feature","geometry":{"type":"Point","coordinates":[-82.160139,30.284628]}},{"properties":{"city":"LAKE CITY","geo_score":0.857,"country":"United States","id":"a62iclie3wzb","geo_precision":"city","state":"Florida"},"type":"Feature","geometry":{"type":"Point","coordinates":[-82.68778,30.105451]}},{"properties":{"city":"ARCADIA","geo_score":0.857,"country":"United States","id":"a62iclpj2a8k","geo_precision":"city","state":"Florida"},"type":"Feature","geometry":{"type":"Point","coordinates":[-81.858416,27.215883]}},{"properties":{"city":"TAMPA","geo_score":0.857,"country":"United States","id":"a62iclnphbe8","geo_precision":"city","state":"Florida"},"type":"Feature","geometry":{"type":"Point","coordinates":[-82.458428,27.947522]}},{"properties":{"city":"PLANT CITY","geo_score":0.857,"country":"United States","id":"a62iclk1wqzi","geo_precision":"city","state":"Florida"},"type":"Feature","geometry":{"type":"Point","coordinates":[-82.134741,28.029627]}},{"properties":{"city":"MIAMI","geo_score":0.857,"country":"United States","id":"a62iclhbrnm8","geo_precision":"city","state":"Florida"},"type":"Feature","geometry":{"type":"Point","coordinates":[-80.193659,25.774266]}},{"properties":{"city":"HAINES CITY","geo_score":0.857,"country":"United States","id":"a62iclntflyz","geo_precision":"city","state":"Florida"},"type":"Feature","geometry":{"type":"Point","coordinates":[-81.592933,28.075834]}},{"properties":{"city":"POMPANO BEACH","geo_score":0.796,"country":"United States","id":"a62iclsl4tt5","geo_precision":"city","state":"Florida"},"type":"Feature","geometry":{"type":"Point","coordinates":[-80.106988,26.282858]}},{"properties":{"city":"DAVIE","geo_score":0.857,"country":"United States","id":"a62icluifh7u","geo_precision":"city","state":"Florida"},"type":"Feature","geometry":{"type":"Point","coordinates":[-80.233104,26.062867]}},{"properties":{"city":"PENSACOLA","geo_score":0.857,"country":"United States","id":"a62icls01j7a","geo_precision":"city","state":"Florida"},"type":"Feature","geometry":{"type":"Point","coordinates":[-87.216915,30.421309]}},{"properties":{"city":"MEDLEY","geo_score":0.776,"country":"United States","id":"a62iclmtjvhq","geo_precision":"city","state":"Florida"},"type":"Feature","geometry":{"type":"Point","coordinates":[-80.443112,25.50261]}},{"properties":{"city":"RIVIERA BEACH","geo_score":0.857,"country":"United States","id":"a62iclmwpi8f","geo_precision":"city","state":"Florida"},"type":"Feature","geometry":{"type":"Point","coordinates":[-80.058097,26.775341]}},{"properties":{"city":"DACULA","geo_score":0.735,"country":"United States","id":"a62iclktgv3a","geo_precision":"city","state":"Georgia"},"type":"Feature","geometry":{"type":"Point","coordinates":[-83.366831,34.707595]}},{"properties":{"city":"DOUGLAS","geo_score":0.857,"country":"United States","id":"a62iclpapgym","geo_precision":"city","state":"Georgia"},"type":"Feature","geometry":{"type":"Point","coordinates":[-82.857131,31.509338]}},{"properties":{"city":"MONROE","geo_score":0.857,"country":"United States","id":"a62iclrmfti3","geo_precision":"city","state":"Georgia"},"type":"Feature","geometry":{"type":"Point","coordinates":[-83.701264,33.788322]}},{"properties":{"city":"ATLANTA","geo_score":0.857,"country":"United States","id":"a62iclrd7nur","geo_precision":"city","state":"Georgia"},"type":"Feature","geometry":{"type":"Point","coordinates":[-84.387982,33.748995]}},{"properties":{"city":"MIDLAND","geo_score":0.857,"country":"United States","id":"a62icljxlq24","geo_precision":"city","state":"Georgia"},"type":"Feature","geometry":{"type":"Point","coordinates":[-84.850953,32.565782]}},{"properties":{"city":"NORCROSS","geo_score":0.857,"country":"United States","id":"a62iclhekkeg","geo_precision":"city","state":"Georgia"},"type":"Feature","geometry":{"type":"Point","coordinates":[-84.213531,33.941213]}},{"properties":{"city":"COLLEGE PARK","geo_score":0.857,"country":"United States","id":"a62iclhzkk1n","geo_precision":"city","state":"Georgia"},"type":"Feature","geometry":{"type":"Point","coordinates":[-84.449373,33.653443]}},{"properties":{"city":"CHARITON","geo_score":0.786,"country":"United States","id":"a62iclsgqlba","geo_precision":"city","state":"Iowa"},"type":"Feature","geometry":{"type":"Point","coordinates":[-92.591301,41.833883]}},{"properties":{"city":"BOONE","geo_score":0.857,"country":"United States","id":"a62iclkn89s1","geo_precision":"city","state":"Iowa"},"type":"Feature","geometry":{"type":"Point","coordinates":[-93.904897,42.0425]}},{"properties":{"city":"CEDAR RAPIDS","geo_score":0.857,"country":"United States","id":"a62icluxxnt9","geo_precision":"city","state":"Iowa"},"type":"Feature","geometry":{"type":"Point","coordinates":[-91.644068,42.008333]}},{"properties":{"city":"ANKENY","geo_score":0.857,"country":"United States","id":"a62iclu4klqc","geo_precision":"city","state":"Iowa"},"type":"Feature","geometry":{"type":"Point","coordinates":[-93.572173,41.672687]}},{"properties":{"city":"CEDAR FALLS","geo_score":0.729,"country":"United States","id":"a62iclv4mlu0","geo_precision":"city","state":"Iowa"},"type":"Feature","geometry":{"type":"Point","coordinates":[-91.639591,43.392194]}},{"properties":{"city":"OLNEY","geo_score":0.771,"country":"United States","id":"a62icljw5epj","geo_precision":"city","state":"Illinois"},"type":"Feature","geometry":{"type":"Point","coordinates":[-90.938752,40.785595]}},{"properties":{"city":"JOLIET","geo_score":0.738,"country":"United States","id":"a62iclpve5kl","geo_precision":"city","state":"Illinois"},"type":"Feature","geometry":{"type":"Point","coordinates":[-90.667345,39.124215]}},{"properties":{"city":"STERLING","geo_score":0.802,"country":"United States","id":"a62iclj1rbex","geo_precision":"city","state":"Illinois"},"type":"Feature","geometry":{"type":"Point","coordinates":[-90.039828,38.626439]}},{"properties":{"city":"DES PLAINES","geo_score":0.743,"country":"United States","id":"a62iclpfdsjc","geo_precision":"city","state":"Illinois"},"type":"Feature","geometry":{"type":"Point","coordinates":[-89.79483,39.985327]}},{"properties":{"city":"CHICAGO","geo_score":0.857,"country":"United States","id":"a62iclmu6h5y","geo_precision":"city","state":"Illinois"},"type":"Feature","geometry":{"type":"Point","coordinates":[-87.650052,41.850033]}},{"properties":{"city":"TAYLORVILLE","geo_score":0.857,"country":"United States","id":"a62iclt1ec8i","geo_precision":"city","state":"Illinois"},"type":"Feature","geometry":{"type":"Point","coordinates":[-89.34063,39.559092]}},{"properties":{"city":"ALSIP","geo_score":0.857,"country":"United States","id":"a62iclollrhs","geo_precision":"city","state":"Illinois"},"type":"Feature","geometry":{"type":"Point","coordinates":[-87.738662,41.668922]}},{"properties":{"city":"NORTHLAKE","geo_score":0.857,"country":"United States","id":"a62iclvx6kps","geo_precision":"city","state":"Illinois"},"type":"Feature","geometry":{"type":"Point","coordinates":[-87.895619,41.917253]}},{"properties":{"city":"TROY","geo_score":0.762,"country":"United States","id":"a62icll1lpko","geo_precision":"city","state":"Illinois"},"type":"Feature","geometry":{"type":"Point","coordinates":[-87.603084,40.718925]}},{"properties":{"city":"LOMBARD","geo_score":0.798,"country":"United States","id":"a62iclu9amej","geo_precision":"city","state":"Illinois"},"type":"Feature","geometry":{"type":"Point","coordinates":[-89.658431,41.221148]}},{"properties":{"city":"BENSENVILLE","geo_score":0.857,"country":"United States","id":"a62icls20yx3","geo_precision":"city","state":"Illinois"},"type":"Feature","geometry":{"type":"Point","coordinates":[-88.088716,41.839679]}},{"properties":{"city":"BOLINGBROOK","geo_score":0.857,"country":"United States","id":"a62icls8tq8j","geo_precision":"city","state":"Illinois"},"type":"Feature","geometry":{"type":"Point","coordinates":[-88.068396,41.698642]}},{"properties":{"city":"MELROSE PARK","geo_score":0.805,"country":"United States","id":"a62iclrs4kgt","geo_precision":"city","state":"Illinois"},"type":"Feature","geometry":{"type":"Point","coordinates":[-87.764196,39.223372]}},{"properties":{"city":"PEORIA","geo_score":0.857,"country":"United States","id":"a62iclm7jvaf","geo_precision":"city","state":"Illinois"},"type":"Feature","geometry":{"type":"Point","coordinates":[-89.588986,40.693649]}},{"properties":{"city":"BARTLETT","geo_score":0.857,"country":"United States","id":"a62icljlkpet","geo_precision":"city","state":"Illinois"},"type":"Feature","geometry":{"type":"Point","coordinates":[-88.207293,41.980242]}},{"properties":{"city":"AUBURN","geo_score":0.857,"country":"United States","id":"a62iclpyglfx","geo_precision":"city","state":"Indiana"},"type":"Feature","geometry":{"type":"Point","coordinates":[-85.027689,41.377758]}},{"properties":{"city":"GAS CITY","geo_score":0.714,"country":"United States","id":"a62iclkhmv07","geo_precision":"city","state":"Indiana"},"type":"Feature","geometry":{"type":"Point","coordinates":[-85.395255,41.127825]}},{"properties":{"city":"DALE","geo_score":0.857,"country":"United States","id":"a62iclt7swxe","geo_precision":"city","state":"Indiana"},"type":"Feature","geometry":{"type":"Point","coordinates":[-86.946217,38.149611]}},{"properties":{"city":"FORT WAYNE","geo_score":0.857,"country":"United States","id":"a62iclr3i117","geo_precision":"city","state":"Indiana"},"type":"Feature","geometry":{"type":"Point","coordinates":[-85.12886,41.130604]}},{"properties":{"city":"WESTVILLE","geo_score":0.81,"country":"United States","id":"a62icloydp4m","geo_precision":"city","state":"Indiana"},"type":"Feature","geometry":{"type":"Point","coordinates":[-86.125716,40.097028]}},{"properties":{"city":"YORKTOWN","geo_score":0.857,"country":"United States","id":"a62iclt6o7li","geo_precision":"city","state":"Indiana"},"type":"Feature","geometry":{"type":"Point","coordinates":[-85.509272,40.19855]}},{"properties":{"city":"INDIANAPOLIS","geo_score":0.857,"country":"United States","id":"a62iclkj59h5","geo_precision":"city","state":"Indiana"},"type":"Feature","geometry":{"type":"Point","coordinates":[-86.158042,39.768377]}},{"properties":{"city":"FISHERS","geo_score":0.857,"country":"United States","id":"a62iclr5wg7x","geo_precision":"city","state":"Indiana"},"type":"Feature","geometry":{"type":"Point","coordinates":[-85.964894,39.967406]}},{"properties":{"city":"LAFAYETTE","geo_score":0.857,"country":"United States","id":"a62iclvvq9sn","geo_precision":"city","state":"Indiana"},"type":"Feature","geometry":{"type":"Point","coordinates":[-86.830286,40.39905]}},{"properties":{"city":"FT WAYNE","geo_score":0.755,"country":"United States","id":"a62iclul1omy","geo_precision":"city","state":"Indiana"},"type":"Feature","geometry":{"type":"Point","coordinates":[-85.149971,40.553379]}},{"properties":{"city":"MUNSTER","geo_score":0.857,"country":"United States","id":"a62iclpkebg3","geo_precision":"city","state":"Indiana"},"type":"Feature","geometry":{"type":"Point","coordinates":[-87.502585,41.550535]}},{"properties":{"city":"NEW HAVEN","geo_score":0.857,"country":"United States","id":"a62iclnhi5ne","geo_precision":"city","state":"Indiana"},"type":"Feature","geometry":{"type":"Point","coordinates":[-84.962038,41.102098]}},{"properties":{"city":"KANSAS CITY","geo_score":0.857,"country":"United States","id":"a62iclm78f31","geo_precision":"city","state":"Kansas"},"type":"Feature","geometry":{"type":"Point","coordinates":[-94.627457,39.114171]}},{"properties":{"city":"ELWOOD","geo_score":0.857,"country":"United States","id":"a62iclhf47pz","geo_precision":"city","state":"Kansas"},"type":"Feature","geometry":{"type":"Point","coordinates":[-94.882439,39.757262]}},{"properties":{"city":"JUNCTION CITY","geo_score":0.857,"country":"United States","id":"a62iclh66fzw","geo_precision":"city","state":"Kansas"},"type":"Feature","geometry":{"type":"Point","coordinates":[-96.783359,39.026465]}},{"properties":{"city":"HUTCHINSON","geo_score":0.857,"country":"United States","id":"a62iclivhjxd","geo_precision":"city","state":"Kansas"},"type":"Feature","geometry":{"type":"Point","coordinates":[-97.929774,38.060845]}},{"properties":{"city":"LONDON","geo_score":0.81,"country":"United States","id":"a62iclv7wa8k","geo_precision":"city","state":"Kentucky"},"type":"Feature","geometry":{"type":"Point","coordinates":[-87.918635,36.686718]}},{"properties":{"city":"SHEPHERDSVILLE","geo_score":0.857,"country":"United States","id":"a62iclip0gv1","geo_precision":"city","state":"Kentucky"},"type":"Feature","geometry":{"type":"Point","coordinates":[-85.704609,37.959505]}},{"properties":{"city":"LOUISVILLE","geo_score":0.857,"country":"United States","id":"a62iclvdqq89","geo_precision":"city","state":"Kentucky"},"type":"Feature","geometry":{"type":"Point","coordinates":[-85.759407,38.254238]}},{"properties":{"city":"ROBERT","geo_score":0.857,"country":"United States","id":"a62icloj47ca","geo_precision":"city","state":"Louisiana"},"type":"Feature","geometry":{"type":"Point","coordinates":[-90.300373,30.533384]}},{"properties":{"city":"BATON ROUGE","geo_score":0.857,"country":"United States","id":"a62iclmfopvx","geo_precision":"city","state":"Louisiana"},"type":"Feature","geometry":{"type":"Point","coordinates":[-91.154551,30.450746]}},{"properties":{"city":"HAMMOND","geo_score":0.857,"country":"United States","id":"a62iclj30wz0","geo_precision":"city","state":"Louisiana"},"type":"Feature","geometry":{"type":"Point","coordinates":[-90.464466,30.549037]}},{"properties":{"city":"NEW ORLEANS","geo_score":0.857,"country":"United States","id":"a62iclutalbl","geo_precision":"city","state":"Louisiana"},"type":"Feature","geometry":{"type":"Point","coordinates":[-89.930956,30.068812]}},{"properties":{"city":"SHREVEPORT","geo_score":0.857,"country":"United States","id":"a62iclrdifwd","geo_precision":"city","state":"Louisiana"},"type":"Feature","geometry":{"type":"Point","coordinates":[-93.750179,32.525152]}},{"properties":{"city":"HATFIELD","geo_score":0.714,"country":"United States","id":"a62icljzy2t5","geo_precision":"city","state":"Massachussets"},"type":"Feature","geometry":{"type":"Point","coordinates":[-82.368478,37.724544]}},{"properties":{"city":"NORTH HATFIELD","geo_score":0.659,"country":"United States","id":"a62iclh92juq","geo_precision":"city","state":"Massachussets"},"type":"Feature","geometry":{"type":"Point","coordinates":[-82.368478,37.724544]}},{"properties":{"city":"NEW WINDSOR","geo_score":0.755,"country":"United States","id":"a62iclpg2kzr","geo_precision":"city","state":"Maryland"},"type":"Feature","geometry":{"type":"Point","coordinates":[-76.711916,39.310384]}},{"properties":{"city":"LEWISTON","geo_score":0.786,"country":"United States","id":"a62iclgd3r4d","geo_precision":"city","state":"Maine"},"type":"Feature","geometry":{"type":"Point","coordinates":[-70.298388,44.046185]}},{"properties":{"city":"BYRON CENTER","geo_score":0.766,"country":"United States","id":"a62iclpva3bx","geo_precision":"city","state":"Michigan"},"type":"Feature","geometry":{"type":"Point","coordinates":[-83.2694,43.844737]}},{"properties":{"city":"ALPENA","geo_score":0.81,"country":"United States","id":"a62iclj3mngh","geo_precision":"city","state":"Michigan"},"type":"Feature","geometry":{"type":"Point","coordinates":[-85.685035,43.072803]}},{"properties":{"city":"BATTLE CREEK","geo_score":0.753,"country":"United States","id":"a62icluse83q","geo_precision":"city","state":"Michigan"},"type":"Feature","geometry":{"type":"Point","coordinates":[-85.860379,43.712217]}},{"properties":{"city":"GRAND RAPIDS","geo_score":0.857,"country":"United States","id":"a62iclpkgi61","geo_precision":"city","state":"Michigan"},"type":"Feature","geometry":{"type":"Point","coordinates":[-85.668086,42.96336]}},{"properties":{"city":"DEARBORN","geo_score":0.857,"country":"United States","id":"a62iclv8k5gt","geo_precision":"city","state":"Michigan"},"type":"Feature","geometry":{"type":"Point","coordinates":[-83.177625,42.310037]}},{"properties":{"city":"TAYLOR","geo_score":0.714,"country":"United States","id":"a62iclrkqakc","geo_precision":"city","state":"Michigan"},"type":"Feature","geometry":{"type":"Point","coordinates":[-83.11659,42.295872]}},{"properties":{"city":"MENOMINEE","geo_score":0.857,"country":"United States","id":"a62iclh9k3dw","geo_precision":"city","state":"Michigan"},"type":"Feature","geometry":{"type":"Point","coordinates":[-87.56772,45.228959]}},{"properties":{"city":"DETROIT","geo_score":0.857,"country":"United States","id":"a62icluyjwdi","geo_precision":"city","state":"Michigan"},"type":"Feature","geometry":{"type":"Point","coordinates":[-83.045754,42.331427]}},{"properties":{"city":"BRIDGEPORT","geo_score":0.857,"country":"United States","id":"a62iclrk1riq","geo_precision":"city","state":"Michigan"},"type":"Feature","geometry":{"type":"Point","coordinates":[-83.832323,43.343016]}},{"properties":{"city":"WARREN","geo_score":0.857,"country":"United States","id":"a62iclv6lxsb","geo_precision":"city","state":"Michigan"},"type":"Feature","geometry":{"type":"Point","coordinates":[-82.995121,42.474786]}},{"properties":{"city":"DEARBORN HEIGHTS","geo_score":0.79,"country":"United States","id":"a62iclwc7rpg","geo_precision":"city","state":"Michigan"},"type":"Feature","geometry":{"type":"Point","coordinates":[-83.177625,42.310037]}},{"properties":{"city":"HEMLOCK","geo_score":0.857,"country":"United States","id":"a62icltr8zsw","geo_precision":"city","state":"Michigan"},"type":"Feature","geometry":{"type":"Point","coordinates":[-84.230091,43.428523]}},{"properties":{"city":"REDFORD TOWNSHIP","geo_score":0.781,"country":"United States","id":"a62iclk7z0vd","geo_precision":"city","state":"Michigan"},"type":"Feature","geometry":{"type":"Point","coordinates":[-83.282029,42.392286]}},{"properties":{"city":"BRIGHTON","geo_score":0.786,"country":"United States","id":"a62icluwhb7q","geo_precision":"city","state":"Michigan"},"type":"Feature","geometry":{"type":"Point","coordinates":[-84.284696,43.007804]}},{"properties":{"city":"TRAVERSE CITY","geo_score":0.821,"country":"United States","id":"a62iclq1lgmr","geo_precision":"city","state":"Michigan"},"type":"Feature","geometry":{"type":"Point","coordinates":[-88.234001,47.194369]}},{"properties":{"city":"HOPKINS","geo_score":0.857,"country":"United States","id":"a62iclk3xoec","geo_precision":"city","state":"Minnesota"},"type":"Feature","geometry":{"type":"Point","coordinates":[-93.43723,44.952763]}},{"properties":{"city":"ST CLOUD","geo_score":0.755,"country":"United States","id":"a62iclnh4lmm","geo_precision":"city","state":"Minnesota"},"type":"Feature","geometry":{"type":"Point","coordinates":[-91.979323,43.894685]}},{"properties":{"city":"ST PAUL","geo_score":0.762,"country":"United States","id":"a62iclm0rxp0","geo_precision":"city","state":"Minnesota"},"type":"Feature","geometry":{"type":"Point","coordinates":[-92.259625,47.415205]}},{"properties":{"city":"ROGERS","geo_score":0.857,"country":"United States","id":"a62iclooz7z8","geo_precision":"city","state":"Minnesota"},"type":"Feature","geometry":{"type":"Point","coordinates":[-93.574586,45.168896]}},{"properties":{"city":"LAKEVILLE","geo_score":0.857,"country":"United States","id":"a62iclvq8stt","geo_precision":"city","state":"Minnesota"},"type":"Feature","geometry":{"type":"Point","coordinates":[-93.25812,44.633421]}},{"properties":{"city":"RICE","geo_score":0.75,"country":"United States","id":"a62iclme8j53","geo_precision":"city","state":"Minnesota"},"type":"Feature","geometry":{"type":"Point","coordinates":[-95.920274,48.906094]}},{"properties":{"city":"GOLDEN VALLEY","geo_score":0.738,"country":"United States","id":"a62iclw7wq48","geo_precision":"city","state":"Minnesota"},"type":"Feature","geometry":{"type":"Point","coordinates":[-92.268224,44.063298]}},{"properties":{"city":"SPRINGFIELD","geo_score":0.792,"country":"United States","id":"a62iclt4tbco","geo_precision":"city","state":"Missouri"},"type":"Feature","geometry":{"type":"Point","coordinates":[-91.237925,38.295605]}},{"properties":{"city":"MOBERLY","geo_score":0.857,"country":"United States","id":"a62icltk1eb9","geo_precision":"city","state":"Missouri"},"type":"Feature","geometry":{"type":"Point","coordinates":[-92.428348,39.425513]}},{"properties":{"city":"HARRISONVILLE","geo_score":0.857,"country":"United States","id":"a62iclg70i1z","geo_precision":"city","state":"Missouri"},"type":"Feature","geometry":{"type":"Point","coordinates":[-94.321556,38.615239]}},{"properties":{"city":"BRIDGETON","geo_score":0.795,"country":"United States","id":"a62icll7o4if","geo_precision":"city","state":"Missouri"},"type":"Feature","geometry":{"type":"Point","coordinates":[-90.386505,38.74644]}},{"properties":{"city":"HAZELWOOD","geo_score":0.857,"country":"United States","id":"a62icllum3tw","geo_precision":"city","state":"Missouri"},"type":"Feature","geometry":{"type":"Point","coordinates":[-90.399166,38.7844]}},{"properties":{"city":"INDEPENDENCE","geo_score":0.857,"country":"United States","id":"a62iclnizfh6","geo_precision":"city","state":"Missouri"},"type":"Feature","geometry":{"type":"Point","coordinates":[-94.409828,39.107798]}},{"properties":{"city":"NEW ALBANY","geo_score":0.667,"country":"United States","id":"a62icltxhohc","geo_precision":"city","state":"Mississipi"},"type":"Feature","geometry":{"type":"Point","coordinates":[-73.756232,42.652579]}},{"properties":{"city":"SOUTHAVEN","geo_score":0.7,"country":"United States","id":"a62iclfyvgfi","geo_precision":"city","state":"Mississipi"},"type":"Feature","geometry":{"type":"Point","coordinates":[-87.137255,41.541983]}},{"properties":{"city":"INDIANOLA","geo_score":0.714,"country":"United States","id":"a62iclnz1nkl","geo_precision":"city","state":"Mississipi"},"type":"Feature","geometry":{"type":"Point","coordinates":[-124.083115,40.812629]}},{"properties":{"city":"BLACK MOUNTAIN","geo_score":0.736,"country":"United States","id":"a62iclkju8ii","geo_precision":"city","state":"North Carolina"},"type":"Feature","geometry":{"type":"Point","coordinates":[-78.566691,36.451463]}},{"properties":{"city":"HICKORY","geo_score":0.857,"country":"United States","id":"a62iclv6wj05","geo_precision":"city","state":"North Carolina"},"type":"Feature","geometry":{"type":"Point","coordinates":[-81.308224,35.758221]}},{"properties":{"city":"CHARLOTTE","geo_score":0.857,"country":"United States","id":"a62iclucftxu","geo_precision":"city","state":"North Carolina"},"type":"Feature","geometry":{"type":"Point","coordinates":[-80.843127,35.227087]}},{"properties":{"city":"FARGO","geo_score":0.857,"country":"United States","id":"a62icllhoc3o","geo_precision":"city","state":"North Dakota"},"type":"Feature","geometry":{"type":"Point","coordinates":[-96.990615,46.92536]}},{"properties":{"city":"BISMARK","geo_score":0.839,"country":"United States","id":"a62iclgtei3a","geo_precision":"city","state":"North Dakota"},"type":"Feature","geometry":{"type":"Point","coordinates":[-100.769066,46.810594]}},{"properties":{"city":"MINOT","geo_score":0.776,"country":"United States","id":"a62iclog4csz","geo_precision":"city","state":"North Dakota"},"type":"Feature","geometry":{"type":"Point","coordinates":[-102.636569,48.331131]}},{"properties":{"city":"NORFOLK","geo_score":0.857,"country":"United States","id":"a62iclhcul5o","geo_precision":"city","state":"Nebraska"},"type":"Feature","geometry":{"type":"Point","coordinates":[-97.601189,41.99641]}},{"properties":{"city":"NORTH PLATTE","geo_score":0.857,"country":"United States","id":"a62iclgwu7lb","geo_precision":"city","state":"Nebraska"},"type":"Feature","geometry":{"type":"Point","coordinates":[-100.74907,41.102555]}},{"properties":{"city":"OMAHA","geo_score":0.857,"country":"United States","id":"a62iclsazx29","geo_precision":"city","state":"Nebraska"},"type":"Feature","geometry":{"type":"Point","coordinates":[-95.937792,41.25861]}},{"properties":{"city":"LINCOLN","geo_score":0.857,"country":"United States","id":"a62iclrb924g","geo_precision":"city","state":"Nebraska"},"type":"Feature","geometry":{"type":"Point","coordinates":[-96.66696,40.800001]}},{"properties":{"city":"RIDGEFIELD","geo_score":0.857,"country":"United States","id":"a62iclri0hpj","geo_precision":"city","state":"New Jersey"},"type":"Feature","geometry":{"type":"Point","coordinates":[-74.004233,40.83315]}},{"properties":{"city":"KEASBY","geo_score":0.837,"country":"United States","id":"a62iclkb6uae","geo_precision":"city","state":"New Jersey"},"type":"Feature","geometry":{"type":"Point","coordinates":[-74.306961,40.517559]}},{"properties":{"city":"AVENEL","geo_score":0.857,"country":"United States","id":"a62iclr1g3h6","geo_precision":"city","state":"New Jersey"},"type":"Feature","geometry":{"type":"Point","coordinates":[-74.27524,40.582845]}},{"properties":{"city":"PORT NEWARK","geo_score":0.8,"country":"United States","id":"a62iclngwrac","geo_precision":"city","state":"New Jersey"},"type":"Feature","geometry":{"type":"Point","coordinates":[-74.172367,40.735657]}},{"properties":{"city":"CARLSTADT","geo_score":0.857,"country":"United States","id":"a62iclgop4bp","geo_precision":"city","state":"New Jersey"},"type":"Feature","geometry":{"type":"Point","coordinates":[-74.076055,40.828399]}},{"properties":{"city":"NEWARK","geo_score":0.857,"country":"United States","id":"a62iclg4y1ls","geo_precision":"city","state":"New Jersey"},"type":"Feature","geometry":{"type":"Point","coordinates":[-74.172367,40.735657]}},{"properties":{"city":"HARRISON","geo_score":0.857,"country":"United States","id":"a62iclofdjlm","geo_precision":"city","state":"New Jersey"},"type":"Feature","geometry":{"type":"Point","coordinates":[-74.150787,40.744501]}},{"properties":{"city":"ELIZABETH","geo_score":0.857,"country":"United States","id":"a62iclkwgker","geo_precision":"city","state":"New Jersey"},"type":"Feature","geometry":{"type":"Point","coordinates":[-74.210701,40.663992]}},{"properties":{"city":"SWEDESBORO","geo_score":0.857,"country":"United States","id":"a62icllnp74y","geo_precision":"city","state":"New Jersey"},"type":"Feature","geometry":{"type":"Point","coordinates":[-75.318049,39.75274]}},{"properties":{"city":"VINELAND","geo_score":0.857,"country":"United States","id":"a62iclk0bkmb","geo_precision":"city","state":"New Jersey"},"type":"Feature","geometry":{"type":"Point","coordinates":[-75.025676,39.392671]}},{"properties":{"city":"SOUTH PLAINFIELD","geo_score":0.81,"country":"United States","id":"a62iclpnc7x2","geo_precision":"city","state":"New Jersey"},"type":"Feature","geometry":{"type":"Point","coordinates":[-74.414995,40.615202]}},{"properties":{"city":"LOS LUNAS","geo_score":0.75,"country":"United States","id":"a62iclvt0og3","geo_precision":"city","state":"New Mexico"},"type":"Feature","geometry":{"type":"Point","coordinates":[-105.836957,34.652009]}},{"properties":{"city":"JOHNSTOWN","geo_score":0.857,"country":"United States","id":"a62iclhyr48q","geo_precision":"city","state":"New York"},"type":"Feature","geometry":{"type":"Point","coordinates":[-74.355438,43.090543]}},{"properties":{"city":"LANCASTER","geo_score":0.857,"country":"United States","id":"a62iclr0rr8f","geo_precision":"city","state":"New York"},"type":"Feature","geometry":{"type":"Point","coordinates":[-78.632137,42.907658]}},{"properties":{"city":"OLEAN","geo_score":0.857,"country":"United States","id":"a62icll6iv80","geo_precision":"city","state":"New York"},"type":"Feature","geometry":{"type":"Point","coordinates":[-78.425973,42.082142]}},{"properties":{"city":"BUFFALO","geo_score":0.857,"country":"United States","id":"a62iclmf2r9b","geo_precision":"city","state":"New York"},"type":"Feature","geometry":{"type":"Point","coordinates":[-78.878369,42.886447]}},{"properties":{"city":"WOODSIDE","geo_score":0.857,"country":"United States","id":"a62iclr4f17c","geo_precision":"city","state":"New York"},"type":"Feature","geometry":{"type":"Point","coordinates":[-73.905445,40.748372]}},{"properties":{"city":"BROOKLYN","geo_score":0.857,"country":"United States","id":"a62iclixkjma","geo_precision":"city","state":"New York"},"type":"Feature","geometry":{"type":"Point","coordinates":[-78.748363,42.433118]}},{"properties":{"city":"HICKSVILLE","geo_score":0.857,"country":"United States","id":"a62iclgejiku","geo_precision":"city","state":"New York"},"type":"Feature","geometry":{"type":"Point","coordinates":[-73.525125,40.768433]}},{"properties":{"city":"WINTERSVILLE","geo_score":0.798,"country":"United States","id":"a62icluuj88z","geo_precision":"city","state":"Ohio"},"type":"Feature","geometry":{"type":"Point","coordinates":[-81.416505,40.103959]}},{"properties":{"city":"DELPHOS","geo_score":0.857,"country":"United States","id":"a62iclhem70f","geo_precision":"city","state":"Ohio"},"type":"Feature","geometry":{"type":"Point","coordinates":[-84.311596,40.794444]}},{"properties":{"city":"WASHINGTON COURT HOUSE","geo_score":0.857,"country":"United States","id":"a62icll7lm7m","geo_precision":"city","state":"Ohio"},"type":"Feature","geometry":{"type":"Point","coordinates":[-83.455012,39.536986]}},{"properties":{"city":"LIMA","geo_score":0.857,"country":"United States","id":"a62iclv388g1","geo_precision":"city","state":"Ohio"},"type":"Feature","geometry":{"type":"Point","coordinates":[-84.105226,40.742551]}},{"properties":{"city":"FAIRFIELD","geo_score":0.806,"country":"United States","id":"a62iclu8veqo","geo_precision":"city","state":"Ohio"},"type":"Feature","geometry":{"type":"Point","coordinates":[-82.475156,39.915898]}},{"properties":{"city":"TOLEDO","geo_score":0.857,"country":"United States","id":"a62icltx7d2h","geo_precision":"city","state":"Ohio"},"type":"Feature","geometry":{"type":"Point","coordinates":[-83.555212,41.663938]}},{"properties":{"city":"CINCINNATI","geo_score":0.857,"country":"United States","id":"a62iclmvx24y","geo_precision":"city","state":"Ohio"},"type":"Feature","geometry":{"type":"Point","coordinates":[-84.456886,39.162004]}},{"properties":{"city":"XENIA","geo_score":0.743,"country":"United States","id":"a62icluucmud","geo_precision":"city","state":"Ohio"},"type":"Feature","geometry":{"type":"Point","coordinates":[-84.328004,41.622829]}},{"properties":{"city":"CANTON","geo_score":0.857,"country":"United States","id":"a62iclsu3ujo","geo_precision":"city","state":"Ohio"},"type":"Feature","geometry":{"type":"Point","coordinates":[-81.378447,40.798947]}},{"properties":{"city":"VALLEY VIEW","geo_score":0.8,"country":"United States","id":"a62icllltmuh","geo_precision":"city","state":"Ohio"},"type":"Feature","geometry":{"type":"Point","coordinates":[-80.948144,40.865614]}},{"properties":{"city":"LORAIN","geo_score":0.857,"country":"United States","id":"a62iclsn3hjp","geo_precision":"city","state":"Ohio"},"type":"Feature","geometry":{"type":"Point","coordinates":[-82.166534,41.450991]}},{"properties":{"city":"COLUMBUS","geo_score":0.776,"country":"United States","id":"a62iclpb2hch","geo_precision":"city","state":"Ohio"},"type":"Feature","geometry":{"type":"Point","coordinates":[-82.695724,39.998397]}},{"properties":{"city":"JACKSON","geo_score":0.786,"country":"United States","id":"a62iclmxz0no","geo_precision":"city","state":"Ohio"},"type":"Feature","geometry":{"type":"Point","coordinates":[-80.703969,40.175627]}},{"properties":{"city":"DENNISON","geo_score":0.857,"country":"United States","id":"a62iclkth70x","geo_precision":"city","state":"Ohio"},"type":"Feature","geometry":{"type":"Point","coordinates":[-81.352297,40.416656]}},{"properties":{"city":"WARRENSVILLE HEIGHTS","geo_score":0.857,"country":"United States","id":"a62iclk6mnte","geo_precision":"city","state":"Ohio"},"type":"Feature","geometry":{"type":"Point","coordinates":[-81.536233,41.435054]}},{"properties":{"city":"BARTLESVILLE","geo_score":0.857,"country":"United States","id":"a62iclscwem0","geo_precision":"city","state":"Oklahoma"},"type":"Feature","geometry":{"type":"Point","coordinates":[-95.970182,36.759485]}},{"properties":{"city":"OKLAHOMA CITY","geo_score":0.857,"country":"United States","id":"a62iclvm8xb9","geo_precision":"city","state":"Oklahoma"},"type":"Feature","geometry":{"type":"Point","coordinates":[-97.516428,35.46756]}},{"properties":{"city":"PAULS VALLEY","geo_score":0.857,"country":"United States","id":"a62icljerqq9","geo_precision":"city","state":"Oklahoma"},"type":"Feature","geometry":{"type":"Point","coordinates":[-97.308819,34.759696]}},{"properties":{"city":"WILSONVILLE","geo_score":0.857,"country":"United States","id":"a62iclphjqaj","geo_precision":"city","state":"Oregon"},"type":"Feature","geometry":{"type":"Point","coordinates":[-122.785518,45.308493]}},{"properties":{"city":"NEW STANTON","geo_score":0.755,"country":"United States","id":"a62iclm3yl8h","geo_precision":"city","state":"Pennsylvania"},"type":"Feature","geometry":{"type":"Point","coordinates":[-79.60004,40.212571]}},{"properties":{"city":"PITTSBURGH","geo_score":0.857,"country":"United States","id":"a62iclqdtvb3","geo_precision":"city","state":"Pennsylvania"},"type":"Feature","geometry":{"type":"Point","coordinates":[-79.995886,40.440625]}},{"properties":{"city":"BEDFORD","geo_score":0.857,"country":"United States","id":"a62iclwdnogv","geo_precision":"city","state":"Pennsylvania"},"type":"Feature","geometry":{"type":"Point","coordinates":[-78.574759,39.95464]}},{"properties":{"city":"POTTSVILLE","geo_score":0.843,"country":"United States","id":"a62iclrr5h4v","geo_precision":"city","state":"Pennsylvania"},"type":"Feature","geometry":{"type":"Point","coordinates":[-79.740606,41.256171]}},{"properties":{"city":"HARMONY","geo_score":0.857,"country":"United States","id":"a62icloiefke","geo_precision":"city","state":"Pennsylvania"},"type":"Feature","geometry":{"type":"Point","coordinates":[-78.970312,40.968398]}},{"properties":{"city":"PITTSTON","geo_score":0.777,"country":"United States","id":"a62iclpg855d","geo_precision":"city","state":"Pennsylvania"},"type":"Feature","geometry":{"type":"Point","coordinates":[-75.66491,40.236485]}},{"properties":{"city":"DUBOIS","geo_score":0.857,"country":"United States","id":"a62iclqzkxa8","geo_precision":"city","state":"Pennsylvania"},"type":"Feature","geometry":{"type":"Point","coordinates":[-78.720302,41.118045]}},{"properties":{"city":"EAST PROVIDENCE","geo_score":0.816,"country":"United States","id":"a62iclt03jmo","geo_precision":"city","state":"Rhode Island"},"type":"Feature","geometry":{"type":"Point","coordinates":[-71.412834,41.823989]}},{"properties":{"city":"FORT MILL","geo_score":0.857,"country":"United States","id":"a62iclgz6qkr","geo_precision":"city","state":"South Carolina"},"type":"Feature","geometry":{"type":"Point","coordinates":[-80.990828,35.050243]}},{"properties":{"city":"GREENVILLE","geo_score":0.857,"country":"United States","id":"a62iclu2wrce","geo_precision":"city","state":"South Carolina"},"type":"Feature","geometry":{"type":"Point","coordinates":[-82.402871,34.848567]}},{"properties":{"city":"NORTH CHARLESTON","geo_score":0.857,"country":"United States","id":"a62iclvh3gz4","geo_precision":"city","state":"South Carolina"},"type":"Feature","geometry":{"type":"Point","coordinates":[-79.97481,32.85462]}},{"properties":{"city":"PAGELAND","geo_score":0.857,"country":"United States","id":"a62iclokkkt9","geo_precision":"city","state":"South Carolina"},"type":"Feature","geometry":{"type":"Point","coordinates":[-80.3751,34.768882]}},{"properties":{"city":"ABERDEEN","geo_score":0.857,"country":"United States","id":"a62icls442i0","geo_precision":"city","state":"South Dakota"},"type":"Feature","geometry":{"type":"Point","coordinates":[-98.410405,45.476172]}},{"properties":{"city":"GOODLETTSVILLE","geo_score":0.765,"country":"United States","id":"a62iclwdwsqm","geo_precision":"city","state":"Tennessee"},"type":"Feature","geometry":{"type":"Point","coordinates":[-83.581003,35.904534]}},{"properties":{"city":"SHELBYVILLE","geo_score":0.857,"country":"United States","id":"a62iclrfzvgi","geo_precision":"city","state":"Tennessee"},"type":"Feature","geometry":{"type":"Point","coordinates":[-86.462357,35.486335]}},{"properties":{"city":"COPPELL","geo_score":0.857,"country":"United States","id":"a62iclgwg1bb","geo_precision":"city","state":"Texas"},"type":"Feature","geometry":{"type":"Point","coordinates":[-96.777626,32.767268]}},{"properties":{"city":"TYLER","geo_score":0.738,"country":"United States","id":"a62icliyssvu","geo_precision":"city","state":"Texas"},"type":"Feature","geometry":{"type":"Point","coordinates":[-94.459924,32.153495]}},{"properties":{"city":"HOUSTON","geo_score":0.816,"country":"United States","id":"a62iclpfbri9","geo_precision":"city","state":"Texas"},"type":"Feature","geometry":{"type":"Point","coordinates":[-96.919704,29.845783]}},{"properties":{"city":"AMARILLO","geo_score":0.857,"country":"United States","id":"a62iclkpn63u","geo_precision":"city","state":"Texas"},"type":"Feature","geometry":{"type":"Point","coordinates":[-101.831297,35.221997]}},{"properties":{"city":"FORT WORTH","geo_score":0.746,"country":"United States","id":"a62iclkay3h9","geo_precision":"city","state":"Texas"},"type":"Feature","geometry":{"type":"Point","coordinates":[-95.262161,31.108239]}},{"properties":{"city":"CLEBURNE","geo_score":0.857,"country":"United States","id":"a62iclujexmd","geo_precision":"city","state":"Texas"},"type":"Feature","geometry":{"type":"Point","coordinates":[-97.440849,32.317774]}},{"properties":{"city":"TERRELL","geo_score":0.857,"country":"United States","id":"a62iclpkwlut","geo_precision":"city","state":"Texas"},"type":"Feature","geometry":{"type":"Point","coordinates":[-96.25138,32.641903]}},{"properties":{"city":"NEW CANEY","geo_score":0.804,"country":"United States","id":"a62icltr870y","geo_precision":"city","state":"Texas"},"type":"Feature","geometry":{"type":"Point","coordinates":[-95.854678,28.963589]}},{"properties":{"city":"TEMPLE","geo_score":0.81,"country":"United States","id":"a62iclncc0vc","geo_precision":"city","state":"Texas"},"type":"Feature","geometry":{"type":"Point","coordinates":[-95.071613,33.714275]}},{"properties":{"city":"SAN ANTONIO","geo_score":0.857,"country":"United States","id":"a62iclilklbc","geo_precision":"city","state":"Texas"},"type":"Feature","geometry":{"type":"Point","coordinates":[-98.493628,29.424122]}},{"properties":{"city":"ABILENE","geo_score":0.857,"country":"United States","id":"a62iclr8i3hx","geo_precision":"city","state":"Texas"},"type":"Feature","geometry":{"type":"Point","coordinates":[-99.80213,32.344457]}},{"properties":{"city":"SPANISH FORK","geo_score":0.857,"country":"United States","id":"a62icllp7yuw","geo_precision":"city","state":"Utah"},"type":"Feature","geometry":{"type":"Point","coordinates":[-111.649086,40.069946]}},{"properties":{"city":"LOUISA","geo_score":0.857,"country":"United States","id":"a62iclqt23ks","geo_precision":"city","state":"Virginia"},"type":"Feature","geometry":{"type":"Point","coordinates":[-77.967416,37.998422]}},{"properties":{"city":"WINCHESTER","geo_score":0.857,"country":"United States","id":"a62icltb1cgy","geo_precision":"city","state":"Virginia"},"type":"Feature","geometry":{"type":"Point","coordinates":[-78.16856,39.169668]}},{"properties":{"city":"ASHLAND","geo_score":0.857,"country":"United States","id":"a62icllsnzc0","geo_precision":"city","state":"Virginia"},"type":"Feature","geometry":{"type":"Point","coordinates":[-77.480128,37.754912]}},{"properties":{"city":"GRANDVIEW","geo_score":0.762,"country":"United States","id":"a62iclqt6ncl","geo_precision":"city","state":"Washington"},"type":"Feature","geometry":{"type":"Point","coordinates":[-121.798489,48.074894]}},{"properties":{"city":"SEATTLE","geo_score":0.857,"country":"United States","id":"a62icln4qddn","geo_precision":"city","state":"Washington"},"type":"Feature","geometry":{"type":"Point","coordinates":[-122.332071,47.60621]}},{"properties":{"city":"FIFE","geo_score":0.857,"country":"United States","id":"a62iclq0kepg","geo_precision":"city","state":"Washington"},"type":"Feature","geometry":{"type":"Point","coordinates":[-122.357066,47.239267]}},{"properties":{"city":"TOMAH","geo_score":0.857,"country":"United States","id":"a62iclun7mw0","geo_precision":"city","state":"Wisconsin"},"type":"Feature","geometry":{"type":"Point","coordinates":[-90.473336,43.983826]}},{"properties":{"city":"GREEN BAY","geo_score":0.857,"country":"United States","id":"a62icljiclnz","geo_precision":"city","state":"Wisconsin"},"type":"Feature","geometry":{"type":"Point","coordinates":[-88.019826,44.519159]}},{"properties":{"city":"OCONOMOWOC","geo_score":0.816,"country":"United States","id":"a62icljugmys","geo_precision":"city","state":"Wisconsin"},"type":"Feature","geometry":{"type":"Point","coordinates":[-88.459265,43.104451]}},{"properties":{"city":"MADISON","geo_score":0.857,"country":"United States","id":"a62iclk408ez","geo_precision":"city","state":"Wisconsin"},"type":"Feature","geometry":{"type":"Point","coordinates":[-89.40123,43.073052]}},{"properties":{"city":"MILWAUKEE","geo_score":0.857,"country":"United States","id":"a62iclp1c4kq","geo_precision":"city","state":"Wisconsin"},"type":"Feature","geometry":{"type":"Point","coordinates":[-87.906474,43.038903]}},{"properties":{"city":"STEVENS POINT","geo_score":0.821,"country":"United States","id":"a62iclska2cz","geo_precision":"city","state":"Wisconsin"},"type":"Feature","geometry":{"type":"Point","coordinates":[-91.171532,44.036351]}},{"properties":{"city":"KENOSHA","geo_score":0.796,"country":"United States","id":"a62iclt7hbyv","geo_precision":"city","state":"Wisconsin"},"type":"Feature","geometry":{"type":"Point","coordinates":[-88.190381,44.615548]}},{"properties":{"city":"PLEASANT PRAIRIE","geo_score":0.819,"country":"United States","id":"a62iclpdo6os","geo_precision":"city","state":"Wisconsin"},"type":"Feature","geometry":{"type":"Point","coordinates":[-90.073457,43.054717]}},{"properties":{"city":"SUPERIOR","geo_score":0.857,"country":"United States","id":"a62iclk7n1sd","geo_precision":"city","state":"Wisconsin"},"type":"Feature","geometry":{"type":"Point","coordinates":[-92.117578,46.574982]}},{"properties":{"city":"VERONA","geo_score":0.857,"country":"United States","id":"a62iclunk229","geo_precision":"city","state":"Wisconsin"},"type":"Feature","geometry":{"type":"Point","coordinates":[-89.566512,42.995697]}},{"properties":{"city":"MILTON","geo_score":0.821,"country":"United States","id":"a62iclp7tcd1","geo_precision":"city","state":"West Virginia"},"type":"Feature","geometry":{"type":"Point","coordinates":[-81.617338,38.044827]}},{"properties":{"city":"CHEYENNE","geo_score":0.857,"country":"United States","id":"a62icltbrv79","geo_precision":"city","state":"Wyoming"},"type":"Feature","geometry":{"type":"Point","coordinates":[-104.820246,41.139981]}}],"is_temporal":false,"author":{"url":"","metadata":"","contact_name":"","contact_address":"","source":"","contact_phone":""},"source":"","pagination":{"sort":null,"start":0,"total":218,"limit":1000000},"state":"complete","tags":"","published":"2014-08-14T21:10:25-04:00","id":225001}