{"type":"FeatureCollection","data_type":"Dataset","url_type":null,"permissions":[{"permissions":{"download":true,"view":true},"group_id":"everyone"}],"classification":null,"title":"WE Europe Coverage","count":49,"stream_id":22522,"contributor":{"url":"http://geocommons.com/users/10808","name":"sommelier"},"data_attributes":null,"calculation_params":null,"icon_link":null,"link":"http://geocommons.com/overlays/22522.json","extent":[-28.5494,27.7347,46.7108,71.1547],"geometry_types":[],"unique_name":null,"name":"WE Europe Coverage","feature_count":49,"description":"","next_feature":null,"is_raster":false,"short_classification":"Y","stats":{"GMI_CNTRY":{"max":10.0,"mean":0.448979591836735,"variance":2.66921768707483,"stdev":1.63377406243178,"min":0.0,"median":0.0}},"features":[{"properties":{"NAME":"Albania","id":"a6dj4ko5fadc","REGION":"Europe","GMI_CNTRY":0.0},"type":"Feature","geometry":null},{"properties":{"NAME":"Andorra","id":"a6dj4kz6bqg3","REGION":"Europe","GMI_CNTRY":0.0},"type":"Feature","geometry":null},{"properties":{"NAME":"Armenia","id":"a6dj4l1v2kgf","REGION":"Asia","GMI_CNTRY":0.0},"type":"Feature","geometry":null},{"properties":{"NAME":"Austria","id":"a6dj4kt5egg7","REGION":"Europe","GMI_CNTRY":2.0},"type":"Feature","geometry":null},{"properties":{"NAME":"Belgium","id":"a6dj4kv9aabn","REGION":"Europe","GMI_CNTRY":0.0},"type":"Feature","geometry":null},{"properties":{"NAME":"Bosnia and Herzegovina","id":"a6dj4kvxpjyf","REGION":"Europe","GMI_CNTRY":0.0},"type":"Feature","geometry":null},{"properties":{"NAME":"Bulgaria","id":"a6dj4l1e9utr","REGION":"Europe","GMI_CNTRY":0.0},"type":"Feature","geometry":null},{"properties":{"NAME":"Byelarus","id":"a6dj4kytlwo7","REGION":"Europe","GMI_CNTRY":0.0},"type":"Feature","geometry":null},{"properties":{"NAME":"Croatia","id":"a6dj4l34grcz","REGION":"Europe","GMI_CNTRY":0.0},"type":"Feature","geometry":null},{"properties":{"NAME":"Cyprus","id":"a6dj4l0wca63","REGION":"Asia","GMI_CNTRY":0.0},"type":"Feature","geometry":null},{"properties":{"NAME":"Czech Republic","id":"a6dj4kvgw4tx","REGION":"Europe","GMI_CNTRY":0.0},"type":"Feature","geometry":null},{"properties":{"NAME":"Denmark","id":"a6dj4kvxga68","REGION":"Europe","GMI_CNTRY":0.0},"type":"Feature","geometry":null},{"properties":{"NAME":"Estonia","id":"a6dj4l38nwf8","REGION":"Europe","GMI_CNTRY":0.0},"type":"Feature","geometry":null},{"properties":{"NAME":"Finland","id":"a6dj4kvmh7o6","REGION":"Europe","GMI_CNTRY":0.0},"type":"Feature","geometry":null},{"properties":{"NAME":"France","id":"a6dj4l1qdkxu","REGION":"Europe","GMI_CNTRY":0.0},"type":"Feature","geometry":null},{"properties":{"NAME":"Gaza Strip","id":"a6dj4kqd9ppl","REGION":"Asia","GMI_CNTRY":0.0},"type":"Feature","geometry":null},{"properties":{"NAME":"Georgia","id":"a6dj4kzmguq4","REGION":"Asia","GMI_CNTRY":0.0},"type":"Feature","geometry":null},{"properties":{"NAME":"Germany","id":"a6dj4kzsh8qx","REGION":"Europe","GMI_CNTRY":1.0},"type":"Feature","geometry":null},{"properties":{"NAME":"Greece","id":"a6dj4kue7mi1","REGION":"Europe","GMI_CNTRY":1.0},"type":"Feature","geometry":null},{"properties":{"NAME":"Hungary","id":"a6dj4knutn9i","REGION":"Europe","GMI_CNTRY":0.0},"type":"Feature","geometry":null},{"properties":{"NAME":"Iceland","id":"a6dj4kod1ldf","REGION":"Europe","GMI_CNTRY":0.0},"type":"Feature","geometry":null},{"properties":{"NAME":"Ireland","id":"a6dj4kpscjef","REGION":"Europe","GMI_CNTRY":0.0},"type":"Feature","geometry":null},{"properties":{"NAME":"Israel","id":"a6dj4kxijwpb","REGION":"Asia","GMI_CNTRY":0.0},"type":"Feature","geometry":null},{"properties":{"NAME":"Italy","id":"a6dj4kzvw605","REGION":"Europe","GMI_CNTRY":10.0},"type":"Feature","geometry":null},{"properties":{"NAME":"Jordan","id":"a6dj4kz35fuc","REGION":"Asia","GMI_CNTRY":0.0},"type":"Feature","geometry":null},{"properties":{"NAME":"Latvia","id":"a6dj4kwadso5","REGION":"Europe","GMI_CNTRY":0.0},"type":"Feature","geometry":null},{"properties":{"NAME":"Lebanon","id":"a6dj4l352xh6","REGION":"Asia","GMI_CNTRY":0.0},"type":"Feature","geometry":null},{"properties":{"NAME":"Liechtenstein","id":"a6dj4kyfgr0e","REGION":"Europe","GMI_CNTRY":0.0},"type":"Feature","geometry":null},{"properties":{"NAME":"Lithuania","id":"a6dj4ktb9no3","REGION":"Europe","GMI_CNTRY":0.0},"type":"Feature","geometry":null},{"properties":{"NAME":"Luxembourg","id":"a6dj4kplqfq0","REGION":"Europe","GMI_CNTRY":0.0},"type":"Feature","geometry":null},{"properties":{"NAME":"Macedonia","id":"a6dj4kwt05em","REGION":"Europe","GMI_CNTRY":0.0},"type":"Feature","geometry":null},{"properties":{"NAME":"Malta","id":"a6dj4kwjy3mh","REGION":"Pacific","GMI_CNTRY":0.0},"type":"Feature","geometry":null},{"properties":{"NAME":"Monaco","id":"a6dj4l2afhnm","REGION":"Europe","GMI_CNTRY":0.0},"type":"Feature","geometry":null},{"properties":{"NAME":"Netherlands","id":"a6dj4kooriav","REGION":"Europe","GMI_CNTRY":0.0},"type":"Feature","geometry":null},{"properties":{"NAME":"Norway","id":"a6dj4kosphvp","REGION":"Europe","GMI_CNTRY":0.0},"type":"Feature","geometry":null},{"properties":{"NAME":"Poland","id":"a6dj4kyxgbeh","REGION":"Europe","GMI_CNTRY":0.0},"type":"Feature","geometry":null},{"properties":{"NAME":"Portugal","id":"a6dj4kxlyb1s","REGION":"Europe","GMI_CNTRY":4.0},"type":"Feature","geometry":null},{"properties":{"NAME":"Romania","id":"a6dj4kujpnzx","REGION":"Europe","GMI_CNTRY":0.0},"type":"Feature","geometry":null},{"properties":{"NAME":"San Marino","id":"a6dj4l0bn01c","REGION":"Europe","GMI_CNTRY":0.0},"type":"Feature","geometry":null},{"properties":{"NAME":"Slovakia","id":"a6dj4l260w8d","REGION":"Europe","GMI_CNTRY":0.0},"type":"Feature","geometry":null},{"properties":{"NAME":"Slovenia","id":"a6dj4ktwemsb","REGION":"Europe","GMI_CNTRY":0.0},"type":"Feature","geometry":null},{"properties":{"NAME":"Spain","id":"a6dj4ko26rfq","REGION":"Europe","GMI_CNTRY":4.0},"type":"Feature","geometry":null},{"properties":{"NAME":"Sweden","id":"a6dj4kqqqz6h","REGION":"Europe","GMI_CNTRY":0.0},"type":"Feature","geometry":null},{"properties":{"NAME":"Switzerland","id":"a6dj4kquc2xp","REGION":"Europe","GMI_CNTRY":0.0},"type":"Feature","geometry":null},{"properties":{"NAME":"Syria","id":"a6dj4l3ybxzv","REGION":"Asia","GMI_CNTRY":0.0},"type":"Feature","geometry":null},{"properties":{"NAME":"Turkey","id":"a6dj4krhc9dt","REGION":"Asia","GMI_CNTRY":0.0},"type":"Feature","geometry":null},{"properties":{"NAME":"Ukraine","id":"a6dj4kqkabxo","REGION":"Europe","GMI_CNTRY":0.0},"type":"Feature","geometry":null},{"properties":{"NAME":"United Kingdom","id":"a6dj4kpf3js7","REGION":"Europe","GMI_CNTRY":0.0},"type":"Feature","geometry":null},{"properties":{"NAME":"Yugoslavia","id":"a6dj4ksi9a6a","REGION":"Europe","GMI_CNTRY":0.0},"type":"Feature","geometry":null}],"is_temporal":false,"author":{"url":"","metadata":"","contact_name":"","contact_address":"","source":"","contact_phone":""},"source":"","pagination":{"sort":null,"start":0,"total":49,"limit":1000000},"state":"complete","tags":"","published":"2014-08-10T14:50:07-04:00","id":22522}