{"type":"FeatureCollection","data_type":"Dataset","url_type":null,"permissions":[{"permissions":{"download":true,"view":true},"group_id":"everyone"}],"classification":null,"title":"I-GO car sharing solar canopy locations","count":11,"stream_id":225369,"contributor":{"url":"http://geocommons.com/users/10732","name":"stevevance"},"data_attributes":null,"calculation_params":null,"icon_link":null,"link":"http://geocommons.com/overlays/225369.json","extent":[-89.2337,37.6977,-87.6267,42.0644],"geometry_types":["point"],"unique_name":null,"name":"I-GO car sharing solar canopy locations","feature_count":11,"description":"","next_feature":null,"is_raster":false,"short_classification":"Y","stats":{},"features":[{"properties":{"geo_precision0":"range","city":"Chicago","name":"Jewel Osco","geo_score0":0.805,"geo_score":0.805,"id":"a62l9nju96iv","geo_precision":"range","address":"5516 N Clark Street","state":"Illinois"},"type":"Feature","geometry":{"type":"Point","coordinates":[-87.668488,41.982174]}},{"properties":{"geo_precision0":"range","city":"Chicago","name":"Jewel Osco","geo_score0":0.752,"geo_score":0.752,"id":"a62l9nctxr7b","geo_precision":"range","address":"5343 N Broadway","state":"Illinois"},"type":"Feature","geometry":{"type":"Point","coordinates":[-87.659935,41.978922]}},{"properties":{"geo_precision0":"range","city":"Chicago","name":"Jewel Osco","geo_score0":0.721,"geo_score":0.721,"id":"a62l9nlgerpr","geo_precision":"range","address":"101 W 87th Street","state":"Illinois"},"type":"Feature","geometry":{"type":"Point","coordinates":[-87.627565,41.73627]}},{"properties":{"geo_precision0":"range","city":"Oak Park","name":"Jewel Osco","geo_score0":0.805,"geo_score":0.805,"id":"a62l9nfnn7nh","geo_precision":"range","address":"438 Madison Street","state":"Illinois"},"type":"Feature","geometry":{"type":"Point","coordinates":[-89.082418,37.806789]}},{"properties":{"geo_precision0":"range","city":"Evanston","name":"Municipal Lot 3","geo_score0":0.902,"geo_score":0.902,"id":"a62l9nbqhsah","geo_precision":"range","address":"1702 Chicago Avenue","state":"Illinois"},"type":"Feature","geometry":{"type":"Point","coordinates":[-87.6789,42.047778]}},{"properties":{"geo_precision0":"range","city":"Evanston","name":"Municipal Lot 4","geo_score0":0.902,"geo_score":0.902,"id":"a62l9nde7g1t","geo_precision":"range","address":"2122 Central Street","state":"Illinois"},"type":"Feature","geometry":{"type":"Point","coordinates":[-87.702657,42.064369]}},{"properties":{"geo_precision0":"street","city":"Evanston","name":"Municipal Lot 32","geo_score0":0.708,"geo_score":0.708,"id":"a62l9njidtze","geo_precision":"street","address":"825 Hinman Avenue","state":"Illinois"},"type":"Feature","geometry":{"type":"Point","coordinates":[-87.678773,42.041163]}},{"properties":{"geo_precision0":"street","city":"Oak Park","name":"Municipal Lot","geo_score0":0.391,"geo_score":0.391,"id":"a62l9nhhrore","geo_precision":"street","address":"1028 W North Boulevard","state":"Illinois"},"type":"Feature","geometry":{"type":"Point","coordinates":[-89.233746,37.735645]}},{"properties":{"geo_precision0":"range","city":"Oak Park","name":"Municipal Lot","geo_score0":0.805,"geo_score":0.805,"id":"a62l9nbq8csi","geo_precision":"range","address":"123 Madison Street","state":"Illinois"},"type":"Feature","geometry":{"type":"Point","coordinates":[-88.13309,37.697716]}},{"properties":{"geo_precision0":"range","city":"Chicago","name":"Uncommon Ground","geo_score0":0.805,"geo_score":0.805,"id":"a62l9n9wqi78","geo_precision":"range","address":"1401 W Devon Avenue","state":"Illinois"},"type":"Feature","geometry":{"type":"Point","coordinates":[-87.665504,41.998135]}},{"properties":{"geo_precision0":"range","city":"Chicago","name":"IIT","geo_score0":0.805,"geo_score":0.805,"id":"a62l9nipfx03","geo_precision":"range","address":"3201 S State Street","state":"Illinois"},"type":"Feature","geometry":{"type":"Point","coordinates":[-87.626741,41.836436]}}],"is_temporal":false,"author":{"url":"","metadata":"","contact_name":"","contact_address":"","source":"","contact_phone":""},"source":"","pagination":{"sort":null,"start":0,"total":11,"limit":1000000},"state":"complete","tags":"car,car sharing","published":"2014-08-14T21:36:46-04:00","id":225369}