{"type":"FeatureCollection","data_type":"Dataset","url_type":null,"permissions":[{"permissions":{"download":true,"view":true},"group_id":"everyone"}],"classification":null,"title":"NFL stadiums ","count":32,"stream_id":226362,"contributor":{"url":"http://geocommons.com/users/42771","name":"jeremy reynolds"},"data_attributes":null,"calculation_params":null,"icon_link":null,"link":"http://geocommons.com/overlays/226362.json","extent":[-122.232,26.0841,-71.2696,47.6555],"geometry_types":["point"],"unique_name":null,"name":"NFL stadiums ","feature_count":32,"description":"This map has all the NFL team's locations.","next_feature":null,"is_raster":false,"short_classification":"Y","stats":{},"features":[{"properties":{"city":"Orchard Park","geo_score":0.823,"zip code":"14127","team":"Buffalo Bills","id":"a64z5j4oatvc","geo_precision":"street","address":"One Bills Drive","state":"New York"},"type":"Feature","geometry":{"type":"Point","coordinates":[-78.786144,42.771296]}},{"properties":{"city":"Davie","geo_score":0.843,"zip code":"33314","team":"Miami Dolphins","id":"a64z5jaa2n14","geo_precision":"range","address":"7500 SW 30th Street","state":"Florida"},"type":"Feature","geometry":{"type":"Point","coordinates":[-80.247038,26.084053]}},{"properties":{"city":"Irving","geo_score":0.964,"zip code":"75063","team":"Dallas Cowboys","id":"a64z5je51jtc","geo_precision":"street","address":"One Cowboys Parkway","state":"Texas"},"type":"Feature","geometry":{"type":"Point","coordinates":[-96.945993,32.939301]}},{"properties":{"city":"E.Rutherford","geo_score":0.87,"zip code":"7073","team":"New York Giants","id":"a64z5j9noo5w","geo_precision":"zip","address":"Giants Stadium","state":"New Jersey"},"type":"Feature","geometry":{"type":"Point","coordinates":[-74.110698,40.846489]}},{"properties":{"city":"Foxboro5","geo_score":0.858,"zip code":"2035","team":"New England Patriots","id":"a64z5jfwvnqt","geo_precision":"range","address":"60 Washington Street","state":"Massachusetts"},"type":"Feature","geometry":{"type":"Point","coordinates":[-71.269637,42.092066]}},{"properties":{"city":"Hempstead","geo_score":0.965,"zip code":"11550","team":"New York Jets","id":"a64z5jb2go1i","geo_precision":"range","address":"1000 Fulton Avenue","state":"New York"},"type":"Feature","geometry":{"type":"Point","coordinates":[-73.603644,40.714282]}},{"properties":{"city":"Philadelphia","geo_score":0.5,"zip code":"19145","team":"Philadelphia Eagles","id":"a64z5j8pmk82","geo_precision":"street","address":"One NovaCare Way","state":"Pennsylvania"},"type":"Feature","geometry":{"type":"Point","coordinates":[-75.177183,39.891238]}},{"properties":{"city":"Ashburn","geo_score":0.902,"zip code":"20147","team":"Washington Redskins","id":"a64z5j3cwv6t","geo_precision":"range","address":"21300 Redskin Park Drive","state":"Virgina"},"type":"Feature","geometry":{"type":"Point","coordinates":[-77.445342,39.026784]}},{"properties":{"city":"Owings Mills","geo_score":0.911,"zip code":"21117","team":"Baltimore Ravens","id":"a64z5jc9fji1","geo_precision":"range","address":"11001 Owings Mills Blvd","state":"Maryland"},"type":"Feature","geometry":{"type":"Point","coordinates":[-76.780427,39.426826]}},{"properties":{"city":"Cincinnati","geo_score":0.697,"zip code":"45202","team":"Cincinnati Bengals","id":"a64z5jclrozv","geo_precision":"street","address":"One Paul Brown Stadium","state":"Ohio"},"type":"Feature","geometry":{"type":"Point","coordinates":[-84.511451,39.09485]}},{"properties":{"city":"Lake Forest","geo_score":0.972,"zip code":"60045","team":"Chicago Bears","id":"a64z5jghpz47","geo_precision":"range","address":"1000 Football Drive","state":"Illinois"},"type":"Feature","geometry":{"type":"Point","coordinates":[-87.897269,42.242919]}},{"properties":{"city":"Pontiac","geo_score":0.805,"zip code":"48341","team":"Detroit Lions","id":"a64z5j58k9l8","geo_precision":"range","address":"1200 Featherstone Road","state":"Michigan"},"type":"Feature","geometry":{"type":"Point","coordinates":[-83.255382,42.649019]}},{"properties":{"city":"Berea","geo_score":1.0,"zip code":"44017","team":"Cleveland Browns","id":"a64z5jclrcwo","geo_precision":"range","address":"76 Lou Groza Blvd.","state":"Ohio"},"type":"Feature","geometry":{"type":"Point","coordinates":[-81.851852,41.382046]}},{"properties":{"city":"Pittsburgh","geo_score":0.463,"zip code":"15203","team":"Pittsburgh Steelers","id":"a64z5j6p5wsh","geo_precision":"street","address":"3400 South Water Street","state":"Pennsylvania"},"type":"Feature","geometry":{"type":"Point","coordinates":[-79.910424,40.467822]}},{"properties":{"city":"Green Bay","geo_score":0.831,"zip code":"54304","team":"Green Bay Packers","id":"a64z5jcjsdog","geo_precision":"range","address":"1265 Lombardi Drive","state":"Wisconsin"},"type":"Feature","geometry":{"type":"Point","coordinates":[-88.059882,44.503105]}},{"properties":{"city":"Eden Prarie","geo_score":0.805,"zip code":"55344","team":"Minnesota Vikings","id":"a64z5jg44fhq","geo_precision":"range","address":"9520 Viking Drive","state":"Minnnesota"},"type":"Feature","geometry":{"type":"Point","coordinates":[-93.398977,44.860044]}},{"properties":{"city":"Houston","geo_score":0.449,"zip code":"77002","team":"Houston Texans","id":"a64z5j3qoomp","geo_precision":"street","address":"711 Louisiana, 33rd Floor","state":"Texas"},"type":"Feature","geometry":{"type":"Point","coordinates":[-95.362608,29.764747]}},{"properties":{"city":"Indianapolis","geo_score":0.468,"zip code":"46253","team":"Indianapolis Colts","id":"a64z5je94hkg","geo_precision":"street","address":"PO Box 535000","state":"Indiana"},"type":"Feature","geometry":{"type":"Point","coordinates":[-86.147936,39.723966]}},{"properties":{"city":"Flowery Branch","geo_score":0.571,"zip code":"30542","team":"Atlanta Falcons","id":"a64z5jgweg1k","geo_precision":"street","address":"One Falcon Place","state":"Georgia"},"type":"Feature","geometry":{"type":"Point","coordinates":[-83.895465,34.56666]}},{"properties":{"city":"Charlotte","geo_score":1.0,"zip code":"28202","team":"Carolina Panthers","id":"a64z5j6ufa0f","geo_precision":"range","address":"800 S Mint St","state":"North Carolina"},"type":"Feature","geometry":{"type":"Point","coordinates":[-80.851692,35.224509]}},{"properties":{"city":"Jacksonville","geo_score":0.657,"zip code":"32202","team":"Jacksonville Jaguars","id":"a64z5jd1d2yb","geo_precision":"street","address":"One Stadium Place","state":"Florida"},"type":"Feature","geometry":{"type":"Point","coordinates":[-81.657219,30.336637]}},{"properties":{"city":"Nashville","geo_score":0.835,"zip code":"37219","team":"Tennessee Oilers","id":"a64z5j4k10u8","geo_precision":"range","address":"460 Great Circle Road","state":"Tennesee"},"type":"Feature","geometry":{"type":"Point","coordinates":[-86.800954,36.199525]}},{"properties":{"city":"Metairie","geo_score":0.693,"zip code":"70003","team":"New Orleans Saints","id":"a64z5j3ty479","geo_precision":"street","address":"8500 Airline Highway","state":"Lousianna"},"type":"Feature","geometry":{"type":"Point","coordinates":[-90.229843,29.979055]}},{"properties":{"city":"Tampa","geo_score":0.964,"zip code":"33607","team":"Tampa Bay Buccaneers","id":"a64z5j6b1zni","geo_precision":"street","address":"One Buccaneer Place","state":"Florida"},"type":"Feature","geometry":{"type":"Point","coordinates":[-82.524024,27.96311]}},{"properties":{"city":"Englewood","geo_score":1.0,"zip code":"80112","team":"Denver Broncos","id":"a64z5jdctumc","geo_precision":"range","address":"13665 Broncos Parkway","state":"Colorado"},"type":"Feature","geometry":{"type":"Point","coordinates":[-104.830396,39.577715]}},{"properties":{"city":"Kansas City","geo_score":0.836,"zip code":"64129","team":"Kansas City Chiefs","id":"a64z5jdqkjpt","geo_precision":"street","address":"One Arrowhead Drive","state":"Missouri"},"type":"Feature","geometry":{"type":"Point","coordinates":[-94.486482,39.049002]}},{"properties":{"city":"Phoenix","geo_score":0.286,"zip code":"85001","team":"Arizona Cardinals","id":"a64z5jh7oy1m","geo_precision":"street","address":"PO Box 888","state":"Arizona"},"type":"Feature","geometry":{"type":"Point","coordinates":[-111.975785,33.330106]}},{"properties":{"city":"Santa Clara","geo_score":0.912,"zip code":"95054","team":"San Francisco 49ers","id":"a64z5j4uxmkr","geo_precision":"range","address":"4949 Centennial Blvd","state":"California"},"type":"Feature","geometry":{"type":"Point","coordinates":[-121.968666,37.403421]}},{"properties":{"city":"Oakland","geo_score":0.93,"zip code":"94502","team":"Oakland Raiders","id":"a64z5jahaej5","geo_precision":"range","address":"1220 Harbor Bay Parkway","state":"California"},"type":"Feature","geometry":{"type":"Point","coordinates":[-122.232453,37.726009]}},{"properties":{"city":"San Diego","geo_score":0.364,"zip code":"92160","team":"San Diego Chargers","id":"a64z5j1yzl2c","geo_precision":"street","address":"PO Box 609609","state":"California"},"type":"Feature","geometry":{"type":"Point","coordinates":[-117.22478,32.731612]}},{"properties":{"city":"Kirkland","geo_score":0.829,"zip code":"98033","team":"Seattle Seahawks","id":"a64z5j7d7nmp","geo_precision":"range","address":"11220 NE 53rd Street","state":"Washington"},"type":"Feature","geometry":{"type":"Point","coordinates":[-122.190536,47.655519]}},{"properties":{"city":"St. Louis","geo_score":0.446,"zip code":"63045","team":"St. Louis Rams","id":"a64z5j39zylu","geo_precision":"street","address":"One Rams Way","state":"Missouri"},"type":"Feature","geometry":{"type":"Point","coordinates":[-90.549308,38.592892]}}],"is_temporal":false,"author":{"url":"","metadata":"","contact_name":"","contact_address":"","source":"","contact_phone":""},"source":"","pagination":{"sort":null,"start":0,"total":32,"limit":1000000},"state":"complete","tags":"address,nfl,stadiums","published":"2012-04-10T16:00:00Z","id":226362}