{"type":"FeatureCollection","data_type":"Dataset","url_type":null,"permissions":[{"permissions":{"download":true,"view":true},"group_id":"everyone"}],"classification":null,"title":"Bost Italy","count":706,"stream_id":226429,"contributor":{"url":"http://geocommons.com/users/37863","name":"cherijgers"},"data_attributes":null,"calculation_params":null,"icon_link":null,"link":"http://geocommons.com/overlays/226429.json","extent":[-122.672,29.9497,18.364,47.4771],"geometry_types":["point"],"unique_name":null,"name":"Bost Italy","feature_count":706,"description":"","next_feature":null,"is_raster":false,"short_classification":"Y","stats":{"latitude":{"max":47.4770768,"mean":42.5218668526163,"variance":7.76797559846586,"stdev":2.7871088242955,"min":29.949711,"median":42.379929},"network capability":{"max":18,"mean":12.9602272727273,"variance":13.6769365058839,"stdev":3.69823424161909,"min":10,"median":10},"longitude":{"max":18.3639552,"mean":6.62814113808139,"variance":642.527666929849,"stdev":25.3481294562311,"min":-122.6720866,"median":12.2527649}},"features":[{"properties":{"city":"ABANO TERME","latitude":45.3482549,"network capability":10,"longitude":11.7866953,"id":"a62a7dyyi62z"},"type":"Feature","geometry":{"type":"Point","coordinates":[11.7866953,45.3482549]}},{"properties":{"city":"ACERRA","latitude":39.7542465,"network capability":12,"longitude":-104.7871004,"id":"a62a7eav0vzr"},"type":"Feature","geometry":{"type":"Point","coordinates":[-104.7871004,39.7542465]}},{"properties":{"city":"ACQUAVIVA DELLE FONTI","latitude":40.8933795,"network capability":18,"longitude":16.846333,"id":"a62a7e11p3ts"},"type":"Feature","geometry":{"type":"Point","coordinates":[16.846333,40.8933795]}},{"properties":{"city":"ACQUI TERME","latitude":44.6790453,"network capability":12,"longitude":8.4505416,"id":"a62a7e4j4p9x"},"type":"Feature","geometry":{"type":"Point","coordinates":[8.4505416,44.6790453]}},{"properties":{"city":"ACQUI TERME","latitude":44.6794261,"network capability":12,"longitude":8.4609699,"id":"a62a7e8cx8mk"},"type":"Feature","geometry":{"type":"Point","coordinates":[8.4609699,44.6794261]}},{"properties":{"city":"AGRIGENTO","latitude":37.3539894,"network capability":18,"longitude":13.6099141,"id":"a62a7dzom7x8"},"type":"Feature","geometry":{"type":"Point","coordinates":[13.6099141,37.3539894]}},{"properties":{"city":"AGRIGENTO","latitude":37.3539894,"network capability":18,"longitude":13.6099141,"id":"a62a7ec4o23t"},"type":"Feature","geometry":{"type":"Point","coordinates":[13.6099141,37.3539894]}},{"properties":{"city":"AGROPOLI","latitude":40.4136016,"network capability":18,"longitude":14.9930448,"id":"a62a7e3pxvux"},"type":"Feature","geometry":{"type":"Point","coordinates":[14.9930448,40.4136016]}},{"properties":{"city":"AGROPOLI","latitude":40.3494189,"network capability":18,"longitude":14.9930448,"id":"a62a7dyxeh9z"},"type":"Feature","geometry":{"type":"Point","coordinates":[14.9930448,40.3494189]}},{"properties":{"city":"ALBENGA","latitude":44.0483611,"network capability":18,"longitude":8.2152092,"id":"a62a7e68hkvf"},"type":"Feature","geometry":{"type":"Point","coordinates":[8.2152092,44.0483611]}},{"properties":{"city":"ALESSANDRIA","latitude":44.9153962,"network capability":10,"longitude":8.6204103,"id":"a62a7e7l5qm7"},"type":"Feature","geometry":{"type":"Point","coordinates":[8.6204103,44.9153962]}},{"properties":{"city":"ALESSANDRIA","latitude":44.8373368,"network capability":10,"longitude":8.8705169,"id":"a62a7dz8lnlv"},"type":"Feature","geometry":{"type":"Point","coordinates":[8.8705169,44.8373368]}},{"properties":{"city":"ALESSANDRIA","latitude":44.9073603,"network capability":10,"longitude":8.6171714,"id":"a62a7ee69koo"},"type":"Feature","geometry":{"type":"Point","coordinates":[8.6171714,44.9073603]}},{"properties":{"city":"ALTAMURA","latitude":40.8335644,"network capability":18,"longitude":16.5524804,"id":"a62a7ee0os73"},"type":"Feature","geometry":{"type":"Point","coordinates":[16.5524804,40.8335644]}},{"properties":{"city":"ANCONA","latitude":43.6117892,"network capability":10,"longitude":13.5345544,"id":"a62a7e7ihtk3"},"type":"Feature","geometry":{"type":"Point","coordinates":[13.5345544,43.6117892]}},{"properties":{"city":"ANDRIA","latitude":41.2279766,"network capability":18,"longitude":16.2903163,"id":"a62a7e67smpv"},"type":"Feature","geometry":{"type":"Point","coordinates":[16.2903163,41.2279766]}},{"properties":{"city":"AOSTA","latitude":45.7397456,"network capability":10,"longitude":7.319979,"id":"a62a7ea9dvg0"},"type":"Feature","geometry":{"type":"Point","coordinates":[7.319979,45.7397456]}},{"properties":{"city":"AOSTA","latitude":45.7206724,"network capability":10,"longitude":7.3001637,"id":"a62a7e31ioz4"},"type":"Feature","geometry":{"type":"Point","coordinates":[7.3001637,45.7206724]}},{"properties":{"city":"APRILIA","latitude":41.5904549,"network capability":10,"longitude":12.6532018,"id":"a62a7e7z4wbf"},"type":"Feature","geometry":{"type":"Point","coordinates":[12.6532018,41.5904549]}},{"properties":{"city":"ARCORE","latitude":45.6240705,"network capability":10,"longitude":9.3196775,"id":"a62a7e502liy"},"type":"Feature","geometry":{"type":"Point","coordinates":[9.3196775,45.6240705]}},{"properties":{"city":"ARENZANO","latitude":44.4004547,"network capability":12,"longitude":8.6641943,"id":"a62a7e24gyc0"},"type":"Feature","geometry":{"type":"Point","coordinates":[8.6641943,44.4004547]}},{"properties":{"city":"AREZZO","latitude":43.4577212,"network capability":10,"longitude":11.870716,"id":"a62a7e5s9ze8"},"type":"Feature","geometry":{"type":"Point","coordinates":[11.870716,43.4577212]}},{"properties":{"city":"ARZIGNANO","latitude":45.5223828,"network capability":18,"longitude":11.333579,"id":"a62a7ea6ozfp"},"type":"Feature","geometry":{"type":"Point","coordinates":[11.333579,45.5223828]}},{"properties":{"city":"ASCOLI PICENO","latitude":42.8517887,"network capability":10,"longitude":13.6177815,"id":"a62a7e8p6ay3"},"type":"Feature","geometry":{"type":"Point","coordinates":[13.6177815,42.8517887]}},{"properties":{"city":"ASTI","latitude":44.9107447,"network capability":10,"longitude":8.1974465,"id":"a62a7ecbxcf3"},"type":"Feature","geometry":{"type":"Point","coordinates":[8.1974465,44.9107447]}},{"properties":{"city":"ASTI","latitude":44.90506,"network capability":10,"longitude":8.2029152,"id":"a62a7e5fyxe8"},"type":"Feature","geometry":{"type":"Point","coordinates":[8.2029152,44.90506]}},{"properties":{"city":"ATRI","latitude":42.5784277,"network capability":18,"longitude":13.9791924,"id":"a62a7e8gnoxy"},"type":"Feature","geometry":{"type":"Point","coordinates":[13.9791924,42.5784277]}},{"properties":{"city":"AUGUSTA","latitude":37.2383274,"network capability":18,"longitude":15.237628,"id":"a62a7ea4304t"},"type":"Feature","geometry":{"type":"Point","coordinates":[15.237628,37.2383274]}},{"properties":{"city":"AVELLINO","latitude":40.9147487,"network capability":10,"longitude":14.7927229,"id":"a62a7e9s32h6"},"type":"Feature","geometry":{"type":"Point","coordinates":[14.7927229,40.9147487]}},{"properties":{"city":"AVELLINO","latitude":40.918319,"network capability":10,"longitude":14.7715271,"id":"a62a7e2ikske"},"type":"Feature","geometry":{"type":"Point","coordinates":[14.7715271,40.918319]}},{"properties":{"city":"AVELLINO","latitude":40.9165581,"network capability":10,"longitude":14.7917507,"id":"a62a7e237fy6"},"type":"Feature","geometry":{"type":"Point","coordinates":[14.7917507,40.9165581]}},{"properties":{"city":"AVERSA","latitude":40.9674151,"network capability":10,"longitude":14.2109393,"id":"a62a7dyowxo8"},"type":"Feature","geometry":{"type":"Point","coordinates":[14.2109393,40.9674151]}},{"properties":{"city":"AVEZZANO","latitude":42.0522349,"network capability":12,"longitude":13.4192474,"id":"a62a7e8m8msw"},"type":"Feature","geometry":{"type":"Point","coordinates":[13.4192474,42.0522349]}},{"properties":{"city":"AVOLA","latitude":null,"network capability":18,"longitude":null,"id":"a62a7e5ji2v4"},"type":"Feature","geometry":null},{"properties":{"city":"BAGNO A RIPOLI","latitude":43.7316773,"network capability":12,"longitude":11.3099507,"id":"a62a7e2nhnr7"},"type":"Feature","geometry":{"type":"Point","coordinates":[11.3099507,43.7316773]}},{"properties":{"city":"BARBIANO - COTIGNOLA","latitude":44.3823672,"network capability":12,"longitude":11.8854211,"id":"a62a7e42xwbp"},"type":"Feature","geometry":{"type":"Point","coordinates":[11.8854211,44.3823672]}},{"properties":{"city":"BARBIANO - COTIGNOLA","latitude":44.3823672,"network capability":12,"longitude":11.8854211,"id":"a62a7e7rpge7"},"type":"Feature","geometry":{"type":"Point","coordinates":[11.8854211,44.3823672]}},{"properties":{"city":"BARI","latitude":41.1116397,"network capability":12,"longitude":16.8623977,"id":"a62a7e3l1p8d"},"type":"Feature","geometry":{"type":"Point","coordinates":[16.8623977,41.1116397]}},{"properties":{"city":"BARI","latitude":41.0920496,"network capability":12,"longitude":16.9725268,"id":"a62a7e71inkn"},"type":"Feature","geometry":{"type":"Point","coordinates":[16.9725268,41.0920496]}},{"properties":{"city":"BARI","latitude":41.1010277,"network capability":12,"longitude":16.8637993,"id":"a62a7e5cbxu4"},"type":"Feature","geometry":{"type":"Point","coordinates":[16.8637993,41.1010277]}},{"properties":{"city":"BARI","latitude":41.1081853,"network capability":12,"longitude":16.8616818,"id":"a62a7e07pmay"},"type":"Feature","geometry":{"type":"Point","coordinates":[16.8616818,41.1081853]}},{"properties":{"city":"BARI","latitude":41.1041863,"network capability":12,"longitude":16.8576956,"id":"a62a7dzd9658"},"type":"Feature","geometry":{"type":"Point","coordinates":[16.8576956,41.1041863]}},{"properties":{"city":"BARI","latitude":41.1216508,"network capability":12,"longitude":16.8760217,"id":"a62a7dyxwcn0"},"type":"Feature","geometry":{"type":"Point","coordinates":[16.8760217,41.1216508]}},{"properties":{"city":"BARI","latitude":41.098597,"network capability":12,"longitude":16.850648,"id":"a62a7ech3tna"},"type":"Feature","geometry":{"type":"Point","coordinates":[16.850648,41.098597]}},{"properties":{"city":"BARI","latitude":41.0962929,"network capability":12,"longitude":16.8539217,"id":"a62a7e828bv8"},"type":"Feature","geometry":{"type":"Point","coordinates":[16.8539217,41.0962929]}},{"properties":{"city":"BARI","latitude":41.1358567,"network capability":12,"longitude":16.8444465,"id":"a62a7e2zkdyf"},"type":"Feature","geometry":{"type":"Point","coordinates":[16.8444465,41.1358567]}},{"properties":{"city":"BARI","latitude":41.1207573,"network capability":12,"longitude":16.8673959,"id":"a62a7e0i3t0z"},"type":"Feature","geometry":{"type":"Point","coordinates":[16.8673959,41.1207573]}},{"properties":{"city":"BARLETTA","latitude":41.3154091,"network capability":18,"longitude":16.254966,"id":"a62a7dyjulel"},"type":"Feature","geometry":{"type":"Point","coordinates":[16.254966,41.3154091]}},{"properties":{"city":"BARONISSI","latitude":40.7383311,"network capability":18,"longitude":14.7677366,"id":"a62a7dzbrc1w"},"type":"Feature","geometry":{"type":"Point","coordinates":[14.7677366,40.7383311]}},{"properties":{"city":"BASSANO DEL GRAPPA","latitude":45.7490632,"network capability":10,"longitude":11.7467131,"id":"a62a7e6kzq33"},"type":"Feature","geometry":{"type":"Point","coordinates":[11.7467131,45.7490632]}},{"properties":{"city":"BELLUNO","latitude":46.1375364,"network capability":10,"longitude":12.20531,"id":"a62a7e22vj93"},"type":"Feature","geometry":{"type":"Point","coordinates":[12.20531,46.1375364]}},{"properties":{"city":"BELVEDERE MARITTIMO","latitude":39.621771,"network capability":18,"longitude":15.847587,"id":"a62a7edu7h35"},"type":"Feature","geometry":{"type":"Point","coordinates":[15.847587,39.621771]}},{"properties":{"city":"BELVEDERE MARITTIMO","latitude":39.621771,"network capability":18,"longitude":15.847587,"id":"a62a7e2uhlgs"},"type":"Feature","geometry":{"type":"Point","coordinates":[15.847587,39.621771]}},{"properties":{"city":"BELVEDERE MARITTIMO","latitude":39.6312722,"network capability":18,"longitude":15.8550179,"id":"a62a7e1ygt7e"},"type":"Feature","geometry":{"type":"Point","coordinates":[15.8550179,39.6312722]}},{"properties":{"city":"BENEVENTO","latitude":41.1357737,"network capability":18,"longitude":14.7727282,"id":"a62a7e996jd8"},"type":"Feature","geometry":{"type":"Point","coordinates":[14.7727282,41.1357737]}},{"properties":{"city":"BENEVENTO","latitude":41.1259386,"network capability":18,"longitude":14.7986582,"id":"a62a7dydgaba"},"type":"Feature","geometry":{"type":"Point","coordinates":[14.7986582,41.1259386]}},{"properties":{"city":"BENEVENTO","latitude":41.1181814,"network capability":18,"longitude":14.7977973,"id":"a62a7e8x1ueu"},"type":"Feature","geometry":{"type":"Point","coordinates":[14.7977973,41.1181814]}},{"properties":{"city":"BENTIVOGLIO","latitude":44.635237,"network capability":10,"longitude":11.4194941,"id":"a62a7eaavmyi"},"type":"Feature","geometry":{"type":"Point","coordinates":[11.4194941,44.635237]}},{"properties":{"city":"BERGAMO","latitude":45.6888558,"network capability":10,"longitude":9.6786787,"id":"a62a7dz8h0oi"},"type":"Feature","geometry":{"type":"Point","coordinates":[9.6786787,45.6888558]}},{"properties":{"city":"BERGAMO","latitude":45.6991501,"network capability":10,"longitude":9.6534382,"id":"a62a7e6xng1c"},"type":"Feature","geometry":{"type":"Point","coordinates":[9.6534382,45.6991501]}},{"properties":{"city":"BERGAMO","latitude":45.6958828,"network capability":10,"longitude":9.6578692,"id":"a62a7ea1j40h"},"type":"Feature","geometry":{"type":"Point","coordinates":[9.6578692,45.6958828]}},{"properties":{"city":"BERGAMO","latitude":45.6955421,"network capability":10,"longitude":9.6667288,"id":"a62a7eb4xdjy"},"type":"Feature","geometry":{"type":"Point","coordinates":[9.6667288,45.6955421]}},{"properties":{"city":"BERGAMO","latitude":45.6936405,"network capability":10,"longitude":9.6677549,"id":"a62a7e34o7ns"},"type":"Feature","geometry":{"type":"Point","coordinates":[9.6677549,45.6936405]}},{"properties":{"city":"BERGAMO","latitude":45.6782674,"network capability":10,"longitude":9.6803564,"id":"a62a7dzduo4w"},"type":"Feature","geometry":{"type":"Point","coordinates":[9.6803564,45.6782674]}},{"properties":{"city":"BIBBIENA","latitude":43.6462498,"network capability":18,"longitude":11.8341154,"id":"a62a7e02o19x"},"type":"Feature","geometry":{"type":"Point","coordinates":[11.8341154,43.6462498]}},{"properties":{"city":"BIELLA","latitude":45.5710971,"network capability":10,"longitude":8.0514823,"id":"a62a7dycquh6"},"type":"Feature","geometry":{"type":"Point","coordinates":[8.0514823,45.5710971]}},{"properties":{"city":"BIELLA","latitude":45.5678383,"network capability":10,"longitude":8.0585469,"id":"a62a7e6ac881"},"type":"Feature","geometry":{"type":"Point","coordinates":[8.0585469,45.5678383]}},{"properties":{"city":"BISCEGLIE (BA)","latitude":41.1300523,"network capability":18,"longitude":16.5383961,"id":"a62a7e0r6be4"},"type":"Feature","geometry":{"type":"Point","coordinates":[16.5383961,41.1300523]}},{"properties":{"city":"BOLOGNA","latitude":44.4905822,"network capability":10,"longitude":11.3640002,"id":"a62a7edthejp"},"type":"Feature","geometry":{"type":"Point","coordinates":[11.3640002,44.4905822]}},{"properties":{"city":"BOLOGNA","latitude":44.4897123,"network capability":10,"longitude":11.3469839,"id":"a62a7eberu2y"},"type":"Feature","geometry":{"type":"Point","coordinates":[11.3469839,44.4897123]}},{"properties":{"city":"BOLOGNA","latitude":44.5012263,"network capability":10,"longitude":11.3518412,"id":"a62a7e58vyoc"},"type":"Feature","geometry":{"type":"Point","coordinates":[11.3518412,44.5012263]}},{"properties":{"city":"BOLZANO","latitude":46.4998987,"network capability":10,"longitude":11.310347,"id":"a62a7dzrnkzs"},"type":"Feature","geometry":{"type":"Point","coordinates":[11.310347,46.4998987]}},{"properties":{"city":"BORGO SAN LORENZO","latitude":43.9574183,"network capability":18,"longitude":11.3789368,"id":"a62a7e180zmw"},"type":"Feature","geometry":{"type":"Point","coordinates":[11.3789368,43.9574183]}},{"properties":{"city":"BORGO VALSUGANA","latitude":46.0563312,"network capability":18,"longitude":11.4645938,"id":"a62a7edsgohz"},"type":"Feature","geometry":{"type":"Point","coordinates":[11.4645938,46.0563312]}},{"properties":{"city":"BORGOSESIA","latitude":45.7184448,"network capability":10,"longitude":8.2778303,"id":"a62a7edtjqat"},"type":"Feature","geometry":{"type":"Point","coordinates":[8.2778303,45.7184448]}},{"properties":{"city":"BOVALINO","latitude":38.1517786,"network capability":18,"longitude":16.1794495,"id":"a62a7e3g1ye8"},"type":"Feature","geometry":{"type":"Point","coordinates":[16.1794495,38.1517786]}},{"properties":{"city":"BRENO","latitude":45.956089,"network capability":18,"longitude":10.3055408,"id":"a62a7dzp7ead"},"type":"Feature","geometry":{"type":"Point","coordinates":[10.3055408,45.956089]}},{"properties":{"city":"BRESCIA","latitude":45.5529494,"network capability":10,"longitude":10.181114,"id":"a62a7eafngf6"},"type":"Feature","geometry":{"type":"Point","coordinates":[10.181114,45.5529494]}},{"properties":{"city":"BRESCIA","latitude":45.5551774,"network capability":10,"longitude":10.2325349,"id":"a62a7e9h84ne"},"type":"Feature","geometry":{"type":"Point","coordinates":[10.2325349,45.5551774]}},{"properties":{"city":"BRESCIA","latitude":45.5344882,"network capability":10,"longitude":10.2162962,"id":"a62a7eemd9v5"},"type":"Feature","geometry":{"type":"Point","coordinates":[10.2162962,45.5344882]}},{"properties":{"city":"BRESCIA","latitude":45.5194102,"network capability":10,"longitude":10.2359462,"id":"a62a7ebxd7ws"},"type":"Feature","geometry":{"type":"Point","coordinates":[10.2359462,45.5194102]}},{"properties":{"city":"BRESCIANA BOTTARONE","latitude":41.29254,"network capability":18,"longitude":12.573465,"id":"a62a7e6a3axn"},"type":"Feature","geometry":{"type":"Point","coordinates":[12.573465,41.29254]}},{"properties":{"city":"BRINDISI","latitude":40.6446244,"network capability":18,"longitude":17.9378104,"id":"a62a7e7e6mko"},"type":"Feature","geometry":{"type":"Point","coordinates":[17.9378104,40.6446244]}},{"properties":{"city":"BUSSANA DI SANREMO","latitude":43.8224872,"network capability":18,"longitude":7.8396894,"id":"a62a7e1x1btd"},"type":"Feature","geometry":{"type":"Point","coordinates":[7.8396894,43.8224872]}},{"properties":{"city":"BUSSOLENGO","latitude":45.472871,"network capability":10,"longitude":10.851379,"id":"a62a7e5dcphi"},"type":"Feature","geometry":{"type":"Point","coordinates":[10.851379,45.472871]}},{"properties":{"city":"BUSTO ARSIZIO","latitude":45.6213146,"network capability":10,"longitude":8.8472698,"id":"a62a7e27hl8e"},"type":"Feature","geometry":{"type":"Point","coordinates":[8.8472698,45.6213146]}},{"properties":{"city":"BUSTO ARSIZIO","latitude":45.6330715,"network capability":10,"longitude":8.8465559,"id":"a62a7e194068"},"type":"Feature","geometry":{"type":"Point","coordinates":[8.8465559,45.6330715]}},{"properties":{"city":"CAGLIARI","latitude":39.2154086,"network capability":18,"longitude":9.1093239,"id":"a62a7e2qsylu"},"type":"Feature","geometry":{"type":"Point","coordinates":[9.1093239,39.2154086]}},{"properties":{"city":"CAGLIARI","latitude":39.2196687,"network capability":18,"longitude":9.1119849,"id":"a62a7e1pstgs"},"type":"Feature","geometry":{"type":"Point","coordinates":[9.1119849,39.2196687]}},{"properties":{"city":"CALTANISSETTA","latitude":37.4881527,"network capability":18,"longitude":14.0246769,"id":"a62a7e8xlczc"},"type":"Feature","geometry":{"type":"Point","coordinates":[14.0246769,37.4881527]}},{"properties":{"city":"CAMPOBASSO","latitude":41.5550967,"network capability":18,"longitude":14.6579167,"id":"a62a7e626lv1"},"type":"Feature","geometry":{"type":"Point","coordinates":[14.6579167,41.5550967]}},{"properties":{"city":"CAMPOSAMPIERO","latitude":45.5656922,"network capability":12,"longitude":11.929582,"id":"a62a7ebzwjam"},"type":"Feature","geometry":{"type":"Point","coordinates":[11.929582,45.5656922]}},{"properties":{"city":"CANICATTI'","latitude":37.378174,"network capability":18,"longitude":13.835975,"id":"a62a7e8c7m1b"},"type":"Feature","geometry":{"type":"Point","coordinates":[13.835975,37.378174]}},{"properties":{"city":"CARAVAGGIO","latitude":45.5242222,"network capability":18,"longitude":9.6418888,"id":"a62a7ecdgo3k"},"type":"Feature","geometry":{"type":"Point","coordinates":[9.6418888,45.5242222]}},{"properties":{"city":"CARBONARA DI BARI","latitude":41.0764499,"network capability":18,"longitude":16.864705,"id":"a62a7e7ye3qn"},"type":"Feature","geometry":{"type":"Point","coordinates":[16.864705,41.0764499]}},{"properties":{"city":"CARBONIA","latitude":39.1786285,"network capability":18,"longitude":8.5108896,"id":"a62a7e3ipbg1"},"type":"Feature","geometry":{"type":"Point","coordinates":[8.5108896,39.1786285]}},{"properties":{"city":"CARPI","latitude":44.7743391,"network capability":10,"longitude":10.8786352,"id":"a62a7e3eo1zu"},"type":"Feature","geometry":{"type":"Point","coordinates":[10.8786352,44.7743391]}},{"properties":{"city":"CASALE MONFERRATO","latitude":45.1218264,"network capability":12,"longitude":8.4445721,"id":"a62a7e04rkhy"},"type":"Feature","geometry":{"type":"Point","coordinates":[8.4445721,45.1218264]}},{"properties":{"city":"CASALE MONFERRATO","latitude":45.1218264,"network capability":12,"longitude":8.4445721,"id":"a62a7e2g8kq3"},"type":"Feature","geometry":{"type":"Point","coordinates":[8.4445721,45.1218264]}},{"properties":{"city":"CASALE MONFERRATO","latitude":45.1323252,"network capability":12,"longitude":8.4526537,"id":"a62a7eerz6ry"},"type":"Feature","geometry":{"type":"Point","coordinates":[8.4526537,45.1323252]}},{"properties":{"city":"CASARANO","latitude":35.2192722,"network capability":12,"longitude":-98.2431747,"id":"a62a7dzqis8e"},"type":"Feature","geometry":{"type":"Point","coordinates":[-98.2431747,35.2192722]}},{"properties":{"city":"CASERTA","latitude":41.0862705,"network capability":10,"longitude":14.3315428,"id":"a62a7e6pfi69"},"type":"Feature","geometry":{"type":"Point","coordinates":[14.3315428,41.0862705]}},{"properties":{"city":"CASERTA","latitude":41.0719218,"network capability":10,"longitude":14.3412747,"id":"a62a7e7auwx6"},"type":"Feature","geometry":{"type":"Point","coordinates":[14.3412747,41.0719218]}},{"properties":{"city":"CASERTA","latitude":41.0719218,"network capability":10,"longitude":14.3412747,"id":"a62a7e1ztf64"},"type":"Feature","geometry":{"type":"Point","coordinates":[14.3412747,41.0719218]}},{"properties":{"city":"CASERTA","latitude":41.1926994,"network capability":10,"longitude":14.1733551,"id":"a62a7e9v4kas"},"type":"Feature","geometry":{"type":"Point","coordinates":[14.1733551,41.1926994]}},{"properties":{"city":"CASSANO M.","latitude":40.8915792,"network capability":18,"longitude":16.7674104,"id":"a62a7e83murv"},"type":"Feature","geometry":{"type":"Point","coordinates":[16.7674104,40.8915792]}},{"properties":{"city":"CASSANO MAGNAGO","latitude":45.6736112,"network capability":10,"longitude":8.8239776,"id":"a62a7e687xq5"},"type":"Feature","geometry":{"type":"Point","coordinates":[8.8239776,45.6736112]}},{"properties":{"city":"CASSINO","latitude":41.4928703,"network capability":10,"longitude":13.8382649,"id":"a62a7e9k8roc"},"type":"Feature","geometry":{"type":"Point","coordinates":[13.8382649,41.4928703]}},{"properties":{"city":"CASSINO","latitude":41.5033807,"network capability":10,"longitude":13.848181,"id":"a62a7e970ds3"},"type":"Feature","geometry":{"type":"Point","coordinates":[13.848181,41.5033807]}},{"properties":{"city":"CASTEL DI SANGRO","latitude":37.413571,"network capability":18,"longitude":-97.633113,"id":"a62a7e2eydzd"},"type":"Feature","geometry":{"type":"Point","coordinates":[-97.633113,37.413571]}},{"properties":{"city":"CASTEL VOLTURNO","latitude":39.5756558,"network capability":18,"longitude":-104.9564084,"id":"a62a7ed0ed9b"},"type":"Feature","geometry":{"type":"Point","coordinates":[-104.9564084,39.5756558]}},{"properties":{"city":"CASTELCERINO DI SOAVE","latitude":null,"network capability":12,"longitude":null,"id":"a62a7e69uicb"},"type":"Feature","geometry":null},{"properties":{"city":"CASTELFRANCO VENETO","latitude":45.6737758,"network capability":12,"longitude":11.9291599,"id":"a62a7e04m94m"},"type":"Feature","geometry":{"type":"Point","coordinates":[11.9291599,45.6737758]}},{"properties":{"city":"CASTELLAMMARE DI STABIA","latitude":40.7071872,"network capability":18,"longitude":14.48225,"id":"a62a7e3yw4wo"},"type":"Feature","geometry":{"type":"Point","coordinates":[14.48225,40.7071872]}},{"properties":{"city":"CASTELLANETA","latitude":40.6318483,"network capability":18,"longitude":16.9351821,"id":"a62a7eaga1p8"},"type":"Feature","geometry":{"type":"Point","coordinates":[16.9351821,40.6318483]}},{"properties":{"city":"CASTELLANZA","latitude":45.6099097,"network capability":10,"longitude":8.906652,"id":"a62a7e89k85w"},"type":"Feature","geometry":{"type":"Point","coordinates":[8.906652,45.6099097]}},{"properties":{"city":"CASTELLANZA","latitude":45.6014757,"network capability":10,"longitude":8.8794997,"id":"a62a7e3mvj6b"},"type":"Feature","geometry":{"type":"Point","coordinates":[8.8794997,45.6014757]}},{"properties":{"city":"CASTELNUOVO GARFAGNANA","latitude":44.111904,"network capability":18,"longitude":10.4141905,"id":"a62a7ebyspjj"},"type":"Feature","geometry":{"type":"Point","coordinates":[10.4141905,44.111904]}},{"properties":{"city":"CASTELVETRANO","latitude":37.6846835,"network capability":18,"longitude":12.7921922,"id":"a62a7e8bzmk7"},"type":"Feature","geometry":{"type":"Point","coordinates":[12.7921922,37.6846835]}},{"properties":{"city":"CASTIGLIONE DELLE STIVIERE","latitude":45.3884487,"network capability":12,"longitude":10.4928096,"id":"a62a7e9rzrq5"},"type":"Feature","geometry":{"type":"Point","coordinates":[10.4928096,45.3884487]}},{"properties":{"city":"CASTROVILLARI","latitude":39.8185678,"network capability":18,"longitude":16.2177526,"id":"a62a7e5x35be"},"type":"Feature","geometry":{"type":"Point","coordinates":[16.2177526,39.8185678]}},{"properties":{"city":"CATANIA","latitude":37.2583724,"network capability":18,"longitude":-121.918866,"id":"a62a7e5xsr2c"},"type":"Feature","geometry":{"type":"Point","coordinates":[-121.918866,37.2583724]}},{"properties":{"city":"CATANIA","latitude":37.5296377,"network capability":18,"longitude":15.0686932,"id":"a62a7e06eonw"},"type":"Feature","geometry":{"type":"Point","coordinates":[15.0686932,37.5296377]}},{"properties":{"city":"CATANIA","latitude":37.5405996,"network capability":18,"longitude":15.1205713,"id":"a62a7dyvt8rw"},"type":"Feature","geometry":{"type":"Point","coordinates":[15.1205713,37.5405996]}},{"properties":{"city":"CATANIA","latitude":37.5081492,"network capability":18,"longitude":15.0838335,"id":"a62a7e6fdd1b"},"type":"Feature","geometry":{"type":"Point","coordinates":[15.0838335,37.5081492]}},{"properties":{"city":"CATANIA","latitude":37.5296377,"network capability":18,"longitude":15.0686932,"id":"a62a7edxipfc"},"type":"Feature","geometry":{"type":"Point","coordinates":[15.0686932,37.5296377]}},{"properties":{"city":"CATANIA","latitude":37.522742,"network capability":18,"longitude":15.0873775,"id":"a62a7e1fxj93"},"type":"Feature","geometry":{"type":"Point","coordinates":[15.0873775,37.522742]}},{"properties":{"city":"CATANIA","latitude":37.5105447,"network capability":18,"longitude":15.0778156,"id":"a62a7e5l0esb"},"type":"Feature","geometry":{"type":"Point","coordinates":[15.0778156,37.5105447]}},{"properties":{"city":"CATANIA","latitude":37.532878,"network capability":18,"longitude":15.0757221,"id":"a62a7e4a991n"},"type":"Feature","geometry":{"type":"Point","coordinates":[15.0757221,37.532878]}},{"properties":{"city":"CATANIA","latitude":37.5048584,"network capability":18,"longitude":15.0810928,"id":"a62a7e387p98"},"type":"Feature","geometry":{"type":"Point","coordinates":[15.0810928,37.5048584]}},{"properties":{"city":"CATANIA","latitude":37.5253329,"network capability":18,"longitude":15.0662289,"id":"a62a7e3f5mfy"},"type":"Feature","geometry":{"type":"Point","coordinates":[15.0662289,37.5253329]}},{"properties":{"city":"CATANZARO","latitude":38.9203775,"network capability":18,"longitude":16.5840108,"id":"a62a7dzqkc28"},"type":"Feature","geometry":{"type":"Point","coordinates":[16.5840108,38.9203775]}},{"properties":{"city":"CATANZARO","latitude":38.9183803,"network capability":18,"longitude":16.5848965,"id":"a62a7e6p94ni"},"type":"Feature","geometry":{"type":"Point","coordinates":[16.5848965,38.9183803]}},{"properties":{"city":"CATANZARO","latitude":38.9179199,"network capability":18,"longitude":16.5851982,"id":"a62a7eaknr30"},"type":"Feature","geometry":{"type":"Point","coordinates":[16.5851982,38.9179199]}},{"properties":{"city":"CATANZARO","latitude":38.9131764,"network capability":18,"longitude":16.5703849,"id":"a62a7e8fapow"},"type":"Feature","geometry":{"type":"Point","coordinates":[16.5703849,38.9131764]}},{"properties":{"city":"CECINA","latitude":43.3152326,"network capability":12,"longitude":10.5281588,"id":"a62a7ea4wx2s"},"type":"Feature","geometry":{"type":"Point","coordinates":[10.5281588,43.3152326]}},{"properties":{"city":"CEFALU'","latitude":38.0246873,"network capability":18,"longitude":14.0161603,"id":"a62a7e5ztj4n"},"type":"Feature","geometry":{"type":"Point","coordinates":[14.0161603,38.0246873]}},{"properties":{"city":"CENTO","latitude":44.7240414,"network capability":10,"longitude":11.2908095,"id":"a62a7e7n94k4"},"type":"Feature","geometry":{"type":"Point","coordinates":[11.2908095,44.7240414]}},{"properties":{"city":"CERIGNOLA","latitude":41.2693388,"network capability":18,"longitude":15.9081753,"id":"a62a7e9goe2z"},"type":"Feature","geometry":{"type":"Point","coordinates":[15.9081753,41.2693388]}},{"properties":{"city":"CERNUSCO SUL NAVIGLIO","latitude":45.5232973,"network capability":10,"longitude":9.3283701,"id":"a62a7e5miut0"},"type":"Feature","geometry":{"type":"Point","coordinates":[9.3283701,45.5232973]}},{"properties":{"city":"CESENA","latitude":38.8762106,"network capability":10,"longitude":-86.8997918,"id":"a62a7edjlm55"},"type":"Feature","geometry":{"type":"Point","coordinates":[-86.8997918,38.8762106]}},{"properties":{"city":"CHIAVARI","latitude":44.318896,"network capability":10,"longitude":9.3245165,"id":"a62a7eb816b5"},"type":"Feature","geometry":{"type":"Point","coordinates":[9.3245165,44.318896]}},{"properties":{"city":"CHIERI","latitude":45.0113508,"network capability":10,"longitude":7.8243118,"id":"a62a7e6qbrx6"},"type":"Feature","geometry":{"type":"Point","coordinates":[7.8243118,45.0113508]}},{"properties":{"city":"CHIETI","latitude":42.379929,"network capability":10,"longitude":14.1884406,"id":"a62a7e3qcxwx"},"type":"Feature","geometry":{"type":"Point","coordinates":[14.1884406,42.379929]}},{"properties":{"city":"CHIETI","latitude":42.3641249,"network capability":10,"longitude":14.1505106,"id":"a62a7edfwnk8"},"type":"Feature","geometry":{"type":"Point","coordinates":[14.1505106,42.3641249]}},{"properties":{"city":"CHIETI","latitude":42.3642565,"network capability":10,"longitude":14.1707064,"id":"a62a7e524h53"},"type":"Feature","geometry":{"type":"Point","coordinates":[14.1707064,42.3642565]}},{"properties":{"city":"CHIETI SCALO","latitude":42.403115,"network capability":10,"longitude":14.189465,"id":"a62a7e9ayapv"},"type":"Feature","geometry":{"type":"Point","coordinates":[14.189465,42.403115]}},{"properties":{"city":"CHIVASSO","latitude":40.8721452,"network capability":10,"longitude":-73.9212858,"id":"a62a7edup3ii"},"type":"Feature","geometry":{"type":"Point","coordinates":[-73.9212858,40.8721452]}},{"properties":{"city":"CIRIE'","latitude":45.222089,"network capability":10,"longitude":7.6079229,"id":"a62a7e4fivwr"},"type":"Feature","geometry":{"type":"Point","coordinates":[7.6079229,45.222089]}},{"properties":{"city":"CITTA' DI CASTELLO","latitude":43.4698407,"network capability":18,"longitude":12.2476698,"id":"a62a7e3lqyaw"},"type":"Feature","geometry":{"type":"Point","coordinates":[12.2476698,43.4698407]}},{"properties":{"city":"CITTADELLA","latitude":45.6454855,"network capability":12,"longitude":11.7860639,"id":"a62a7edyxmfn"},"type":"Feature","geometry":{"type":"Point","coordinates":[11.7860639,45.6454855]}},{"properties":{"city":"CIVIDALE DEL FRIULI","latitude":46.0988768,"network capability":12,"longitude":13.4290456,"id":"a62a7e4o23hx"},"type":"Feature","geometry":{"type":"Point","coordinates":[13.4290456,46.0988768]}},{"properties":{"city":"CIVITAVECCHIA","latitude":42.0979803,"network capability":10,"longitude":11.7978556,"id":"a62a7e1h5z5x"},"type":"Feature","geometry":{"type":"Point","coordinates":[11.7978556,42.0979803]}},{"properties":{"city":"CLES","latitude":35.5000984,"network capability":18,"longitude":-89.9813445,"id":"a62a7e5hc4h0"},"type":"Feature","geometry":{"type":"Point","coordinates":[-89.9813445,35.5000984]}},{"properties":{"city":"CODOGNO","latitude":45.1597413,"network capability":18,"longitude":9.711098,"id":"a62a7e62mads"},"type":"Feature","geometry":{"type":"Point","coordinates":[9.711098,45.1597413]}},{"properties":{"city":"COLLEGNO","latitude":45.0832692,"network capability":10,"longitude":7.5751174,"id":"a62a7e05tidc"},"type":"Feature","geometry":{"type":"Point","coordinates":[7.5751174,45.0832692]}},{"properties":{"city":"COLLEGNO","latitude":45.0832692,"network capability":10,"longitude":7.5751174,"id":"a62a7e5sk7ce"},"type":"Feature","geometry":{"type":"Point","coordinates":[7.5751174,45.0832692]}},{"properties":{"city":"COLLEGNO","latitude":45.0784247,"network capability":10,"longitude":7.5593243,"id":"a62a7eb6i6ic"},"type":"Feature","geometry":{"type":"Point","coordinates":[7.5593243,45.0784247]}},{"properties":{"city":"COMISO","latitude":45.2145929,"network capability":18,"longitude":-122.6720866,"id":"a62a7e3qesbc"},"type":"Feature","geometry":{"type":"Point","coordinates":[-122.6720866,45.2145929]}},{"properties":{"city":"COMO","latitude":45.7902943,"network capability":10,"longitude":9.0901162,"id":"a62a7e8r2cdz"},"type":"Feature","geometry":{"type":"Point","coordinates":[9.0901162,45.7902943]}},{"properties":{"city":"COMO","latitude":45.8102332,"network capability":10,"longitude":9.0877495,"id":"a62a7eajwpc8"},"type":"Feature","geometry":{"type":"Point","coordinates":[9.0877495,45.8102332]}},{"properties":{"city":"COMO","latitude":45.8383912,"network capability":10,"longitude":9.0383322,"id":"a62a7e3e1v00"},"type":"Feature","geometry":{"type":"Point","coordinates":[9.0383322,45.8383912]}},{"properties":{"city":"COMO","latitude":46.0823498,"network capability":10,"longitude":9.1463911,"id":"a62a7e42ad8g"},"type":"Feature","geometry":{"type":"Point","coordinates":[9.1463911,46.0823498]}},{"properties":{"city":"CONEGLIANO","latitude":45.8806952,"network capability":10,"longitude":12.2892662,"id":"a62a7eba5spq"},"type":"Feature","geometry":{"type":"Point","coordinates":[12.2892662,45.8806952]}},{"properties":{"city":"COPERTINO","latitude":40.3412479,"network capability":18,"longitude":18.0434567,"id":"a62a7dyrleu2"},"type":"Feature","geometry":{"type":"Point","coordinates":[18.0434567,40.3412479]}},{"properties":{"city":"CORTONA","latitude":43.2749431,"network capability":18,"longitude":11.9871572,"id":"a62a7e88tfyh"},"type":"Feature","geometry":{"type":"Point","coordinates":[11.9871572,43.2749431]}},{"properties":{"city":"COSENZA","latitude":39.3041594,"network capability":18,"longitude":16.2534564,"id":"a62a7ecj7ffh"},"type":"Feature","geometry":{"type":"Point","coordinates":[16.2534564,39.3041594]}},{"properties":{"city":"COSENZA","latitude":39.292549,"network capability":18,"longitude":16.2546387,"id":"a62a7eeg2uvj"},"type":"Feature","geometry":{"type":"Point","coordinates":[16.2546387,39.292549]}},{"properties":{"city":"COSENZA","latitude":39.2937098,"network capability":18,"longitude":16.2382341,"id":"a62a7e9dr1n9"},"type":"Feature","geometry":{"type":"Point","coordinates":[16.2382341,39.2937098]}},{"properties":{"city":"COSENZA","latitude":39.2981996,"network capability":18,"longitude":16.2538921,"id":"a62a7e408o54"},"type":"Feature","geometry":{"type":"Point","coordinates":[16.2538921,39.2981996]}},{"properties":{"city":"COSSATO","latitude":45.5680341,"network capability":10,"longitude":8.1874119,"id":"a62a7e6p1qpm"},"type":"Feature","geometry":{"type":"Point","coordinates":[8.1874119,45.5680341]}},{"properties":{"city":"CREMA","latitude":45.3546049,"network capability":10,"longitude":9.6811412,"id":"a62a7ecyk846"},"type":"Feature","geometry":{"type":"Point","coordinates":[9.6811412,45.3546049]}},{"properties":{"city":"CREMONA","latitude":45.1294633,"network capability":10,"longitude":10.0516452,"id":"a62a7eej0axw"},"type":"Feature","geometry":{"type":"Point","coordinates":[10.0516452,45.1294633]}},{"properties":{"city":"CREMONA","latitude":45.1461607,"network capability":10,"longitude":10.0129793,"id":"a62a7e4bx06i"},"type":"Feature","geometry":{"type":"Point","coordinates":[10.0129793,45.1461607]}},{"properties":{"city":"CROTONE","latitude":39.0806728,"network capability":18,"longitude":17.1271465,"id":"a62a7e77wkng"},"type":"Feature","geometry":{"type":"Point","coordinates":[17.1271465,39.0806728]}},{"properties":{"city":"CROTONE","latitude":39.0812821,"network capability":18,"longitude":17.1248099,"id":"a62a7e6xfb3d"},"type":"Feature","geometry":{"type":"Point","coordinates":[17.1248099,39.0812821]}},{"properties":{"city":"CUNEO","latitude":44.3828518,"network capability":10,"longitude":7.5429367,"id":"a62a7dzm3v2s"},"type":"Feature","geometry":{"type":"Point","coordinates":[7.5429367,44.3828518]}},{"properties":{"city":"CUNEO","latitude":44.3848276,"network capability":10,"longitude":7.5362805,"id":"a62a7e4xv2jz"},"type":"Feature","geometry":{"type":"Point","coordinates":[7.5362805,44.3848276]}},{"properties":{"city":"CUTROFIANO","latitude":40.1421997,"network capability":null,"longitude":18.1972059,"id":"a62a7e9dhg1s"},"type":"Feature","geometry":{"type":"Point","coordinates":[18.1972059,40.1421997]}},{"properties":{"city":"DESENZANO DEL GARDA","latitude":45.4708354,"network capability":18,"longitude":10.520103,"id":"a62a7e8hzuta"},"type":"Feature","geometry":{"type":"Point","coordinates":[10.520103,45.4708354]}},{"properties":{"city":"DOLO","latitude":45.420243,"network capability":12,"longitude":12.0675593,"id":"a62a7eb1dapq"},"type":"Feature","geometry":{"type":"Point","coordinates":[12.0675593,45.420243]}},{"properties":{"city":"EBOLI","latitude":40.6166842,"network capability":18,"longitude":15.0579233,"id":"a62a7e4ckwv9"},"type":"Feature","geometry":{"type":"Point","coordinates":[15.0579233,40.6166842]}},{"properties":{"city":"EMPOLI","latitude":43.7222595,"network capability":10,"longitude":10.946183,"id":"a62a7ebqj90t"},"type":"Feature","geometry":{"type":"Point","coordinates":[10.946183,43.7222595]}},{"properties":{"city":"ENNA","latitude":37.5638742,"network capability":18,"longitude":14.2712505,"id":"a62a7e00kq4b"},"type":"Feature","geometry":{"type":"Point","coordinates":[14.2712505,37.5638742]}},{"properties":{"city":"FAENZA","latitude":44.2877996,"network capability":10,"longitude":11.8722685,"id":"a62a7e91dt11"},"type":"Feature","geometry":{"type":"Point","coordinates":[11.8722685,44.2877996]}},{"properties":{"city":"FANO","latitude":43.8385855,"network capability":10,"longitude":13.0211949,"id":"a62a7dyzcadw"},"type":"Feature","geometry":{"type":"Point","coordinates":[13.0211949,43.8385855]}},{"properties":{"city":"FANO","latitude":43.8385855,"network capability":10,"longitude":13.0211949,"id":"a62a7eaht2l2"},"type":"Feature","geometry":{"type":"Point","coordinates":[13.0211949,43.8385855]}},{"properties":{"city":"FANO","latitude":43.8464222,"network capability":10,"longitude":13.0157632,"id":"a62a7e11gy68"},"type":"Feature","geometry":{"type":"Point","coordinates":[13.0157632,43.8464222]}},{"properties":{"city":"FELTRE","latitude":46.0215876,"network capability":10,"longitude":11.9063253,"id":"a62a7dyhip6h"},"type":"Feature","geometry":{"type":"Point","coordinates":[11.9063253,46.0215876]}},{"properties":{"city":"FERMO","latitude":43.1629474,"network capability":10,"longitude":13.7235965,"id":"a62a7e3q8xwe"},"type":"Feature","geometry":{"type":"Point","coordinates":[13.7235965,43.1629474]}},{"properties":{"city":"FERRARA","latitude":44.8265305,"network capability":10,"longitude":11.635847,"id":"a62a7e9tody6"},"type":"Feature","geometry":{"type":"Point","coordinates":[11.635847,44.8265305]}},{"properties":{"city":"FERRARA","latitude":44.8405577,"network capability":10,"longitude":11.6088686,"id":"a62a7e6cesyz"},"type":"Feature","geometry":{"type":"Point","coordinates":[11.6088686,44.8405577]}},{"properties":{"city":"FERRARA","latitude":44.832303,"network capability":10,"longitude":11.6318615,"id":"a62a7e1v3tun"},"type":"Feature","geometry":{"type":"Point","coordinates":[11.6318615,44.832303]}},{"properties":{"city":"FERRAZZANO","latitude":41.5352894,"network capability":18,"longitude":14.6638647,"id":"a62a7e2tj97y"},"type":"Feature","geometry":{"type":"Point","coordinates":[14.6638647,41.5352894]}},{"properties":{"city":"FIGLINE VALDARNO","latitude":43.6200305,"network capability":10,"longitude":11.4729304,"id":"a62a7edx4epl"},"type":"Feature","geometry":{"type":"Point","coordinates":[11.4729304,43.6200305]}},{"properties":{"city":"FIGLINE VALDARNO","latitude":41.7136523,"network capability":10,"longitude":-93.9266502,"id":"a62a7ecet4t0"},"type":"Feature","geometry":{"type":"Point","coordinates":[-93.9266502,41.7136523]}},{"properties":{"city":"FIRENZE","latitude":43.7702745,"network capability":10,"longitude":11.2852608,"id":"a62a7e17i5lu"},"type":"Feature","geometry":{"type":"Point","coordinates":[11.2852608,43.7702745]}},{"properties":{"city":"FIRENZE","latitude":43.8032481,"network capability":10,"longitude":11.2456171,"id":"a62a7ebwnrqx"},"type":"Feature","geometry":{"type":"Point","coordinates":[11.2456171,43.8032481]}},{"properties":{"city":"FIRENZE","latitude":43.7599404,"network capability":10,"longitude":11.2720835,"id":"a62a7dz1fqaf"},"type":"Feature","geometry":{"type":"Point","coordinates":[11.2720835,43.7599404]}},{"properties":{"city":"FIRENZE","latitude":40.8457465,"network capability":10,"longitude":-93.4801349,"id":"a62a7e1a24yw"},"type":"Feature","geometry":{"type":"Point","coordinates":[-93.4801349,40.8457465]}},{"properties":{"city":"FIRENZE","latitude":43.7675862,"network capability":10,"longitude":11.2849217,"id":"a62a7edg9d4y"},"type":"Feature","geometry":{"type":"Point","coordinates":[11.2849217,43.7675862]}},{"properties":{"city":"FIRENZE","latitude":43.7830512,"network capability":10,"longitude":11.2709235,"id":"a62a7ed8l9i8"},"type":"Feature","geometry":{"type":"Point","coordinates":[11.2709235,43.7830512]}},{"properties":{"city":"FIRENZE","latitude":43.7687324,"network capability":10,"longitude":11.2569013,"id":"a62a7e64vc9f"},"type":"Feature","geometry":{"type":"Point","coordinates":[11.2569013,43.7687324]}},{"properties":{"city":"FIRENZE","latitude":43.7964372,"network capability":10,"longitude":11.2157443,"id":"a62a7e9wcral"},"type":"Feature","geometry":{"type":"Point","coordinates":[11.2157443,43.7964372]}},{"properties":{"city":"FOGGIA","latitude":41.4579377,"network capability":12,"longitude":15.5277482,"id":"a62a7e4zzki5"},"type":"Feature","geometry":{"type":"Point","coordinates":[15.5277482,41.4579377]}},{"properties":{"city":"FOGGIA","latitude":41.4561264,"network capability":12,"longitude":15.5509456,"id":"a62a7ed8txp1"},"type":"Feature","geometry":{"type":"Point","coordinates":[15.5509456,41.4561264]}},{"properties":{"city":"FOGGIA","latitude":41.449843,"network capability":12,"longitude":15.5574331,"id":"a62a7ecdmfpa"},"type":"Feature","geometry":{"type":"Point","coordinates":[15.5574331,41.449843]}},{"properties":{"city":"FOGGIA","latitude":41.4561554,"network capability":12,"longitude":15.5573652,"id":"a62a7ea3rj6m"},"type":"Feature","geometry":{"type":"Point","coordinates":[15.5573652,41.4561554]}},{"properties":{"city":"FOGGIA","latitude":41.4677283,"network capability":12,"longitude":15.5271229,"id":"a62a7e8q09da"},"type":"Feature","geometry":{"type":"Point","coordinates":[15.5271229,41.4677283]}},{"properties":{"city":"FOLIGNO","latitude":42.9570943,"network capability":18,"longitude":12.7071188,"id":"a62a7e1rnknf"},"type":"Feature","geometry":{"type":"Point","coordinates":[12.7071188,42.9570943]}},{"properties":{"city":"FONTENO","latitude":45.7898707,"network capability":18,"longitude":9.9951625,"id":"a62a7ee10uf9"},"type":"Feature","geometry":{"type":"Point","coordinates":[9.9951625,45.7898707]}},{"properties":{"city":"FORLI","latitude":44.2373001,"network capability":10,"longitude":12.0029752,"id":"a62a7e8xx063"},"type":"Feature","geometry":{"type":"Point","coordinates":[12.0029752,44.2373001]}},{"properties":{"city":"FORLI'","latitude":44.2192396,"network capability":10,"longitude":12.0475108,"id":"a62a7ebiixsm"},"type":"Feature","geometry":{"type":"Point","coordinates":[12.0475108,44.2192396]}},{"properties":{"city":"FORMIA","latitude":null,"network capability":18,"longitude":null,"id":"a62a7dzriqkt"},"type":"Feature","geometry":null},{"properties":{"city":"FRANCAVILLA FONTANA","latitude":40.5368406,"network capability":18,"longitude":17.5787942,"id":"a62a7ecr6zgd"},"type":"Feature","geometry":{"type":"Point","coordinates":[17.5787942,40.5368406]}},{"properties":{"city":"FROSINONE","latitude":41.6401367,"network capability":10,"longitude":13.3519019,"id":"a62a7dzw1atu"},"type":"Feature","geometry":{"type":"Point","coordinates":[13.3519019,41.6401367]}},{"properties":{"city":"FROSINONE","latitude":41.6523013,"network capability":10,"longitude":13.3523172,"id":"a62a7e2vhxj6"},"type":"Feature","geometry":{"type":"Point","coordinates":[13.3523172,41.6523013]}},{"properties":{"city":"FUCECCHIO","latitude":43.7305072,"network capability":10,"longitude":10.8074167,"id":"a62a7e2rpsya"},"type":"Feature","geometry":{"type":"Point","coordinates":[10.8074167,43.7305072]}},{"properties":{"city":"GAGLIANO DEL CAPO","latitude":39.8455912,"network capability":18,"longitude":18.3639552,"id":"a62a7e10omzk"},"type":"Feature","geometry":{"type":"Point","coordinates":[18.3639552,39.8455912]}},{"properties":{"city":"GALATINA","latitude":40.1747546,"network capability":18,"longitude":18.1582701,"id":"a62a7e0hcc20"},"type":"Feature","geometry":{"type":"Point","coordinates":[18.1582701,40.1747546]}},{"properties":{"city":"GALATINA","latitude":35.6264403,"network capability":18,"longitude":-97.5138947,"id":"a62a7e4w4xa1"},"type":"Feature","geometry":{"type":"Point","coordinates":[-97.5138947,35.6264403]}},{"properties":{"city":"GALLARATE","latitude":45.6566908,"network capability":10,"longitude":8.7933542,"id":"a62a7e1jog0w"},"type":"Feature","geometry":{"type":"Point","coordinates":[8.7933542,45.6566908]}},{"properties":{"city":"GALLIPOLI","latitude":35.6172323,"network capability":18,"longitude":-98.1557066,"id":"a62a7edd5w04"},"type":"Feature","geometry":{"type":"Point","coordinates":[-98.1557066,35.6172323]}},{"properties":{"city":"GARBAGNATE MILANESE","latitude":45.5811356,"network capability":10,"longitude":9.089504,"id":"a62a7e8zytwe"},"type":"Feature","geometry":{"type":"Point","coordinates":[9.089504,45.5811356]}},{"properties":{"city":"GAVARDO","latitude":45.5872787,"network capability":18,"longitude":10.4380826,"id":"a62a7e05j47e"},"type":"Feature","geometry":{"type":"Point","coordinates":[10.4380826,45.5872787]}},{"properties":{"city":"GENOVA","latitude":44.4008422,"network capability":10,"longitude":8.9642359,"id":"a62a7ea6ehbr"},"type":"Feature","geometry":{"type":"Point","coordinates":[8.9642359,44.4008422]}},{"properties":{"city":"GENOVA","latitude":44.4136,"network capability":10,"longitude":8.8947116,"id":"a62a7e7k8ao2"},"type":"Feature","geometry":{"type":"Point","coordinates":[8.8947116,44.4136]}},{"properties":{"city":"GENOVA","latitude":44.3980353,"network capability":10,"longitude":8.9425096,"id":"a62a7eegil81"},"type":"Feature","geometry":{"type":"Point","coordinates":[8.9425096,44.3980353]}},{"properties":{"city":"GENOVA","latitude":44.4072119,"network capability":10,"longitude":8.9698977,"id":"a62a7e1k2qa4"},"type":"Feature","geometry":{"type":"Point","coordinates":[8.9698977,44.4072119]}},{"properties":{"city":"GENOVA","latitude":44.3914819,"network capability":10,"longitude":8.9882748,"id":"a62a7e9e8lvw"},"type":"Feature","geometry":{"type":"Point","coordinates":[8.9882748,44.3914819]}},{"properties":{"city":"GENOVA","latitude":44.4121993,"network capability":10,"longitude":8.9368643,"id":"a62a7dyts8q4"},"type":"Feature","geometry":{"type":"Point","coordinates":[8.9368643,44.4121993]}},{"properties":{"city":"GENOVA","latitude":44.4121993,"network capability":10,"longitude":8.9368643,"id":"a62a7edt5lt1"},"type":"Feature","geometry":{"type":"Point","coordinates":[8.9368643,44.4121993]}},{"properties":{"city":"GENOVA","latitude":44.4057903,"network capability":10,"longitude":8.9748392,"id":"a62a7e1vefrm"},"type":"Feature","geometry":{"type":"Point","coordinates":[8.9748392,44.4057903]}},{"properties":{"city":"GENOVA","latitude":44.4989038,"network capability":10,"longitude":8.9007103,"id":"a62a7e2l0c2t"},"type":"Feature","geometry":{"type":"Point","coordinates":[8.9007103,44.4989038]}},{"properties":{"city":"GENOVA","latitude":44.3990862,"network capability":10,"longitude":8.9570633,"id":"a62a7e1gynhu"},"type":"Feature","geometry":{"type":"Point","coordinates":[8.9570633,44.3990862]}},{"properties":{"city":"GIULIANOVA","latitude":42.7439311,"network capability":10,"longitude":13.9643988,"id":"a62a7eb8mm3d"},"type":"Feature","geometry":{"type":"Point","coordinates":[13.9643988,42.7439311]}},{"properties":{"city":"GORIZIA","latitude":45.9344702,"network capability":10,"longitude":13.6323552,"id":"a62a7e55cope"},"type":"Feature","geometry":{"type":"Point","coordinates":[13.6323552,45.9344702]}},{"properties":{"city":"GORLA MINORE","latitude":45.6485199,"network capability":12,"longitude":8.8964753,"id":"a62a7dzgfnjj"},"type":"Feature","geometry":{"type":"Point","coordinates":[8.8964753,45.6485199]}},{"properties":{"city":"GRAVEDONA","latitude":46.1427793,"network capability":18,"longitude":9.2995946,"id":"a62a7eeq01om"},"type":"Feature","geometry":{"type":"Point","coordinates":[9.2995946,46.1427793]}},{"properties":{"city":"GRAVINA IN PUGLIA","latitude":null,"network capability":18,"longitude":null,"id":"a62a7e7qgzzm"},"type":"Feature","geometry":null},{"properties":{"city":"GROSSETO","latitude":42.7584377,"network capability":10,"longitude":11.1005099,"id":"a62a7e2ssw3w"},"type":"Feature","geometry":{"type":"Point","coordinates":[11.1005099,42.7584377]}},{"properties":{"city":"GUBBIO","latitude":null,"network capability":18,"longitude":null,"id":"a62a7e0aplcy"},"type":"Feature","geometry":null},{"properties":{"city":"IMOLA","latitude":44.509736,"network capability":10,"longitude":11.8297735,"id":"a62a7dzo2su8"},"type":"Feature","geometry":{"type":"Point","coordinates":[11.8297735,44.509736]}},{"properties":{"city":"IMOLA","latitude":44.3611949,"network capability":10,"longitude":11.6943693,"id":"a62a7ed8nccj"},"type":"Feature","geometry":{"type":"Point","coordinates":[11.6943693,44.3611949]}},{"properties":{"city":"IMOLA","latitude":44.3495695,"network capability":10,"longitude":11.6820462,"id":"a62a7eb440pd"},"type":"Feature","geometry":{"type":"Point","coordinates":[11.6820462,44.3495695]}},{"properties":{"city":"IMPERIA","latitude":43.9036234,"network capability":10,"longitude":8.0160906,"id":"a62a7ea5q7v8"},"type":"Feature","geometry":{"type":"Point","coordinates":[8.0160906,43.9036234]}},{"properties":{"city":"ISERNIA","latitude":41.5850335,"network capability":18,"longitude":14.2239781,"id":"a62a7e0emie6"},"type":"Feature","geometry":{"type":"Point","coordinates":[14.2239781,41.5850335]}},{"properties":{"city":"IVREA","latitude":45.4656254,"network capability":10,"longitude":7.8699363,"id":"a62a7e0j2alr"},"type":"Feature","geometry":{"type":"Point","coordinates":[7.8699363,45.4656254]}},{"properties":{"city":"IVREA","latitude":null,"network capability":10,"longitude":null,"id":"a62a7dyhhdpi"},"type":"Feature","geometry":null},{"properties":{"city":"LA SPEZIA","latitude":44.1116034,"network capability":10,"longitude":9.8340708,"id":"a62a7ed8kcee"},"type":"Feature","geometry":{"type":"Point","coordinates":[9.8340708,44.1116034]}},{"properties":{"city":"LA SPEZIA","latitude":44.1067367,"network capability":10,"longitude":9.8292189,"id":"a62a7e9laoao"},"type":"Feature","geometry":{"type":"Point","coordinates":[9.8292189,44.1067367]}},{"properties":{"city":"LAGONEGRO","latitude":40.1292666,"network capability":18,"longitude":15.7620962,"id":"a62a7eajqlev"},"type":"Feature","geometry":{"type":"Point","coordinates":[15.7620962,40.1292666]}},{"properties":{"city":"LAGOSANTO","latitude":44.7758942,"network capability":18,"longitude":12.1197496,"id":"a62a7e6ypn3g"},"type":"Feature","geometry":{"type":"Point","coordinates":[12.1197496,44.7758942]}},{"properties":{"city":"LANCIANO","latitude":42.2309869,"network capability":18,"longitude":14.3968606,"id":"a62a7e5jrqco"},"type":"Feature","geometry":{"type":"Point","coordinates":[14.3968606,42.2309869]}},{"properties":{"city":"LANUSEI","latitude":39.877261,"network capability":18,"longitude":9.5481668,"id":"a62a7e6f4z5e"},"type":"Feature","geometry":{"type":"Point","coordinates":[9.5481668,39.877261]}},{"properties":{"city":"L'AQUILA","latitude":42.3617905,"network capability":12,"longitude":13.3683817,"id":"a62a7dyle90x"},"type":"Feature","geometry":{"type":"Point","coordinates":[13.3683817,42.3617905]}},{"properties":{"city":"LATERZA","latitude":40.628532,"network capability":18,"longitude":16.791165,"id":"a62a7e783334"},"type":"Feature","geometry":{"type":"Point","coordinates":[16.791165,40.628532]}},{"properties":{"city":"LECCE","latitude":40.3532912,"network capability":12,"longitude":18.1740146,"id":"a62a7ec6jojp"},"type":"Feature","geometry":{"type":"Point","coordinates":[18.1740146,40.3532912]}},{"properties":{"city":"LECCE","latitude":40.3468193,"network capability":12,"longitude":18.1788239,"id":"a62a7e03vg9r"},"type":"Feature","geometry":{"type":"Point","coordinates":[18.1788239,40.3468193]}},{"properties":{"city":"LECCE","latitude":40.3431347,"network capability":12,"longitude":18.1883713,"id":"a62a7edy1fay"},"type":"Feature","geometry":{"type":"Point","coordinates":[18.1883713,40.3431347]}},{"properties":{"city":"LECCO","latitude":45.8533745,"network capability":10,"longitude":9.4127246,"id":"a62a7ee1ln1s"},"type":"Feature","geometry":{"type":"Point","coordinates":[9.4127246,45.8533745]}},{"properties":{"city":"LEGNAGO","latitude":45.1860051,"network capability":18,"longitude":11.3143274,"id":"a62a7e29ytk5"},"type":"Feature","geometry":{"type":"Point","coordinates":[11.3143274,45.1860051]}},{"properties":{"city":"LEGNANO","latitude":45.583609,"network capability":10,"longitude":8.8879333,"id":"a62a7ecoikt6"},"type":"Feature","geometry":{"type":"Point","coordinates":[8.8879333,45.583609]}},{"properties":{"city":"LEGNANO","latitude":45.5963392,"network capability":10,"longitude":8.9296568,"id":"a62a7ed6012f"},"type":"Feature","geometry":{"type":"Point","coordinates":[8.9296568,45.5963392]}},{"properties":{"city":"LEGNANO","latitude":45.5954143,"network capability":10,"longitude":8.911528,"id":"a62a7e3aazwg"},"type":"Feature","geometry":{"type":"Point","coordinates":[8.911528,45.5954143]}},{"properties":{"city":"LENTINI","latitude":37.2819526,"network capability":18,"longitude":14.9986827,"id":"a62a7e31xjon"},"type":"Feature","geometry":{"type":"Point","coordinates":[14.9986827,37.2819526]}},{"properties":{"city":"LIBERI","latitude":41.2230768,"network capability":18,"longitude":14.2802336,"id":"a62a7e5tbxzj"},"type":"Feature","geometry":{"type":"Point","coordinates":[14.2802336,41.2230768]}},{"properties":{"city":"LICATA","latitude":33.1467885,"network capability":18,"longitude":-117.0087877,"id":"a62a7e0jxrgl"},"type":"Feature","geometry":{"type":"Point","coordinates":[-117.0087877,33.1467885]}},{"properties":{"city":"LIDO DI CAMAIORE","latitude":43.9114958,"network capability":12,"longitude":10.2238078,"id":"a62a7e5xbtg8"},"type":"Feature","geometry":{"type":"Point","coordinates":[10.2238078,43.9114958]}},{"properties":{"city":"LIVORNO","latitude":43.5127672,"network capability":10,"longitude":10.3483953,"id":"a62a7edbkbbp"},"type":"Feature","geometry":{"type":"Point","coordinates":[10.3483953,43.5127672]}},{"properties":{"city":"LOCRI","latitude":38.2382295,"network capability":18,"longitude":16.2428576,"id":"a62a7eb14zxr"},"type":"Feature","geometry":{"type":"Point","coordinates":[16.2428576,38.2382295]}},{"properties":{"city":"LODI","latitude":45.3128778,"network capability":10,"longitude":9.4978501,"id":"a62a7dym7tv3"},"type":"Feature","geometry":{"type":"Point","coordinates":[9.4978501,45.3128778]}},{"properties":{"city":"LOVERE","latitude":45.8178851,"network capability":18,"longitude":10.0751158,"id":"a62a7dyqib3b"},"type":"Feature","geometry":{"type":"Point","coordinates":[10.0751158,45.8178851]}},{"properties":{"city":"LUCCA","latitude":43.9080197,"network capability":10,"longitude":10.6008173,"id":"a62a7e7engqi"},"type":"Feature","geometry":{"type":"Point","coordinates":[10.6008173,43.9080197]}},{"properties":{"city":"LUGO","latitude":44.4168208,"network capability":12,"longitude":11.9181205,"id":"a62a7e4if44q"},"type":"Feature","geometry":{"type":"Point","coordinates":[11.9181205,44.4168208]}},{"properties":{"city":"MACERATA","latitude":43.3007462,"network capability":10,"longitude":13.456262,"id":"a62a7e8dvm9o"},"type":"Feature","geometry":{"type":"Point","coordinates":[13.456262,43.3007462]}},{"properties":{"city":"MADDALONI","latitude":41.0390892,"network capability":12,"longitude":14.3722455,"id":"a62a7e7er01q"},"type":"Feature","geometry":{"type":"Point","coordinates":[14.3722455,41.0390892]}},{"properties":{"city":"MANDURIA","latitude":40.4037986,"network capability":18,"longitude":17.6170047,"id":"a62a7e2l1abw"},"type":"Feature","geometry":{"type":"Point","coordinates":[17.6170047,40.4037986]}},{"properties":{"city":"MANERBIO","latitude":45.356625,"network capability":18,"longitude":10.1443084,"id":"a62a7e06wla6"},"type":"Feature","geometry":{"type":"Point","coordinates":[10.1443084,45.356625]}},{"properties":{"city":"MANFREDONIA","latitude":41.6328244,"network capability":18,"longitude":15.9196355,"id":"a62a7e03otqh"},"type":"Feature","geometry":{"type":"Point","coordinates":[15.9196355,41.6328244]}},{"properties":{"city":"MANFREDONIA","latitude":41.6294053,"network capability":18,"longitude":15.9160636,"id":"a62a7ebh3j8b"},"type":"Feature","geometry":{"type":"Point","coordinates":[15.9160636,41.6294053]}},{"properties":{"city":"MANTOVA","latitude":45.14805,"network capability":10,"longitude":10.7748396,"id":"a62a7ecqnf1y"},"type":"Feature","geometry":{"type":"Point","coordinates":[10.7748396,45.14805]}},{"properties":{"city":"MARANO DI NAPOLI","latitude":40.8951677,"network capability":12,"longitude":14.1852102,"id":"a62a7e2auj5c"},"type":"Feature","geometry":{"type":"Point","coordinates":[14.1852102,40.8951677]}},{"properties":{"city":"MARANO VICENTINO","latitude":45.6895837,"network capability":10,"longitude":11.4307787,"id":"a62a7e1qoxtv"},"type":"Feature","geometry":{"type":"Point","coordinates":[11.4307787,45.6895837]}},{"properties":{"city":"MARINA DI CAMEROTA","latitude":39.997638,"network capability":18,"longitude":15.3713255,"id":"a62a7eefgrqn"},"type":"Feature","geometry":{"type":"Point","coordinates":[15.3713255,39.997638]}},{"properties":{"city":"MARSALA","latitude":34.1934312,"network capability":18,"longitude":-118.0478826,"id":"a62a7ecq71pi"},"type":"Feature","geometry":{"type":"Point","coordinates":[-118.0478826,34.1934312]}},{"properties":{"city":"MASCALUCIA","latitude":37.5735544,"network capability":18,"longitude":15.0536226,"id":"a62a7ee4lq5s"},"type":"Feature","geometry":{"type":"Point","coordinates":[15.0536226,37.5735544]}},{"properties":{"city":"MASSA","latitude":44.029739,"network capability":10,"longitude":10.1392783,"id":"a62a7ee3ozz4"},"type":"Feature","geometry":{"type":"Point","coordinates":[10.1392783,44.029739]}},{"properties":{"city":"MASSA","latitude":44.030973,"network capability":10,"longitude":10.1255068,"id":"a62a7e2cbu8j"},"type":"Feature","geometry":{"type":"Point","coordinates":[10.1255068,44.030973]}},{"properties":{"city":"MASSA CARRARA","latitude":44.0421213,"network capability":10,"longitude":10.1340553,"id":"a62a7e1bbs6q"},"type":"Feature","geometry":{"type":"Point","coordinates":[10.1340553,44.0421213]}},{"properties":{"city":"MATERA","latitude":40.6521426,"network capability":18,"longitude":16.6165243,"id":"a62a7e65299q"},"type":"Feature","geometry":{"type":"Point","coordinates":[16.6165243,40.6521426]}},{"properties":{"city":"MAZARA DEL VALLO","latitude":37.658058,"network capability":18,"longitude":12.600866,"id":"a62a7e5qwdtf"},"type":"Feature","geometry":{"type":"Point","coordinates":[12.600866,37.658058]}},{"properties":{"city":"MERANO","latitude":46.6771642,"network capability":18,"longitude":11.156629,"id":"a62a7ebuuj1y"},"type":"Feature","geometry":{"type":"Point","coordinates":[11.156629,46.6771642]}},{"properties":{"city":"MERATE","latitude":45.7049254,"network capability":18,"longitude":9.4016972,"id":"a62a7e1lo60m"},"type":"Feature","geometry":{"type":"Point","coordinates":[9.4016972,45.7049254]}},{"properties":{"city":"MERATE","latitude":null,"network capability":18,"longitude":null,"id":"a62a7e1nudln"},"type":"Feature","geometry":null},{"properties":{"city":"MERATE","latitude":45.6960431,"network capability":18,"longitude":9.4111671,"id":"a62a7e8if4md"},"type":"Feature","geometry":{"type":"Point","coordinates":[9.4111671,45.6960431]}},{"properties":{"city":"MERCATO SAN SEVERINO","latitude":40.7757277,"network capability":18,"longitude":14.7460384,"id":"a62a7e0zirha"},"type":"Feature","geometry":{"type":"Point","coordinates":[14.7460384,40.7757277]}},{"properties":{"city":"MERCOGLIANO","latitude":40.9225095,"network capability":10,"longitude":14.7456774,"id":"a62a7e9kq48s"},"type":"Feature","geometry":{"type":"Point","coordinates":[14.7456774,40.9225095]}},{"properties":{"city":"MESSINA","latitude":38.1428213,"network capability":18,"longitude":15.5275402,"id":"a62a7e00q7pr"},"type":"Feature","geometry":{"type":"Point","coordinates":[15.5275402,38.1428213]}},{"properties":{"city":"MESSINA","latitude":47.4494702,"network capability":18,"longitude":-122.307217,"id":"a62a7e7ldhra"},"type":"Feature","geometry":{"type":"Point","coordinates":[-122.307217,47.4494702]}},{"properties":{"city":"MESSINA","latitude":38.1795782,"network capability":18,"longitude":15.5542985,"id":"a62a7e1aebd8"},"type":"Feature","geometry":{"type":"Point","coordinates":[15.5542985,38.1795782]}},{"properties":{"city":"MESSINA","latitude":47.4475151,"network capability":18,"longitude":-122.3567244,"id":"a62a7e49a6e0"},"type":"Feature","geometry":{"type":"Point","coordinates":[-122.3567244,47.4475151]}},{"properties":{"city":"MESSINA","latitude":38.1794311,"network capability":18,"longitude":15.549069,"id":"a62a7e4tnsqy"},"type":"Feature","geometry":{"type":"Point","coordinates":[15.549069,38.1794311]}},{"properties":{"city":"MESSINA","latitude":38.1811417,"network capability":18,"longitude":15.5450905,"id":"a62a7e1k2pxo"},"type":"Feature","geometry":{"type":"Point","coordinates":[15.5450905,38.1811417]}},{"properties":{"city":"MESSINA","latitude":38.2140103,"network capability":18,"longitude":15.5613516,"id":"a62a7e3umvll"},"type":"Feature","geometry":{"type":"Point","coordinates":[15.5613516,38.2140103]}},{"properties":{"city":"MESSINA","latitude":47.4475151,"network capability":18,"longitude":-122.3567244,"id":"a62a7ecm6t89"},"type":"Feature","geometry":{"type":"Point","coordinates":[-122.3567244,47.4475151]}},{"properties":{"city":"MILANO","latitude":45.5091592,"network capability":10,"longitude":9.1888556,"id":"a62a7ee4fksg"},"type":"Feature","geometry":{"type":"Point","coordinates":[9.1888556,45.5091592]}},{"properties":{"city":"MILANO","latitude":45.4843436,"network capability":10,"longitude":9.1535053,"id":"a62a7e4ks0fq"},"type":"Feature","geometry":{"type":"Point","coordinates":[9.1535053,45.4843436]}},{"properties":{"city":"MILANO","latitude":45.4436099,"network capability":10,"longitude":9.2625173,"id":"a62a7e8f7jfm"},"type":"Feature","geometry":{"type":"Point","coordinates":[9.2625173,45.4436099]}},{"properties":{"city":"MILANO","latitude":45.4619385,"network capability":10,"longitude":9.2078515,"id":"a62a7e0i7m9k"},"type":"Feature","geometry":{"type":"Point","coordinates":[9.2078515,45.4619385]}},{"properties":{"city":"MILANO","latitude":45.4851876,"network capability":10,"longitude":9.165059,"id":"a62a7edqahhk"},"type":"Feature","geometry":{"type":"Point","coordinates":[9.165059,45.4851876]}},{"properties":{"city":"MILANO","latitude":45.4509429,"network capability":10,"longitude":9.2549525,"id":"a62a7eec3m6i"},"type":"Feature","geometry":{"type":"Point","coordinates":[9.2549525,45.4509429]}},{"properties":{"city":"MILANO","latitude":45.4317483,"network capability":10,"longitude":9.1478464,"id":"a62a7e2v0uoz"},"type":"Feature","geometry":{"type":"Point","coordinates":[9.1478464,45.4317483]}},{"properties":{"city":"MILANO","latitude":45.4658386,"network capability":10,"longitude":9.2299663,"id":"a62a7ecodeu7"},"type":"Feature","geometry":{"type":"Point","coordinates":[9.2299663,45.4658386]}},{"properties":{"city":"MILANO","latitude":45.4621154,"network capability":10,"longitude":9.2421438,"id":"a62a7e62svsu"},"type":"Feature","geometry":{"type":"Point","coordinates":[9.2421438,45.4621154]}},{"properties":{"city":"MILANO","latitude":45.5152175,"network capability":10,"longitude":9.1230819,"id":"a62a7e6y16rd"},"type":"Feature","geometry":{"type":"Point","coordinates":[9.1230819,45.5152175]}},{"properties":{"city":"MILANO","latitude":45.5061366,"network capability":10,"longitude":9.2671774,"id":"a62a7e7w506u"},"type":"Feature","geometry":{"type":"Point","coordinates":[9.2671774,45.5061366]}},{"properties":{"city":"MILANO","latitude":45.4621488,"network capability":10,"longitude":9.1929998,"id":"a62a7ea9qok3"},"type":"Feature","geometry":{"type":"Point","coordinates":[9.1929998,45.4621488]}},{"properties":{"city":"MILANO","latitude":45.4701976,"network capability":10,"longitude":9.1131096,"id":"a62a7e2tjjsv"},"type":"Feature","geometry":{"type":"Point","coordinates":[9.1131096,45.4701976]}},{"properties":{"city":"MILANO","latitude":45.4828839,"network capability":10,"longitude":9.2263776,"id":"a62a7e4umtcg"},"type":"Feature","geometry":{"type":"Point","coordinates":[9.2263776,45.4828839]}},{"properties":{"city":"MILANO","latitude":45.4641032,"network capability":10,"longitude":9.219096,"id":"a62a7e5lcjkj"},"type":"Feature","geometry":{"type":"Point","coordinates":[9.219096,45.4641032]}},{"properties":{"city":"MILANO","latitude":45.462885,"network capability":10,"longitude":9.1718974,"id":"a62a7e2aiji5"},"type":"Feature","geometry":{"type":"Point","coordinates":[9.1718974,45.462885]}},{"properties":{"city":"MILANO","latitude":38.8193117,"network capability":10,"longitude":-77.4587239,"id":"a62a7e4td9v9"},"type":"Feature","geometry":{"type":"Point","coordinates":[-77.4587239,38.8193117]}},{"properties":{"city":"MILANO","latitude":45.433142,"network capability":10,"longitude":9.1588667,"id":"a62a7ec4yg8k"},"type":"Feature","geometry":{"type":"Point","coordinates":[9.1588667,45.433142]}},{"properties":{"city":"MILANO","latitude":45.4694677,"network capability":10,"longitude":9.1658304,"id":"a62a7ebob2qc"},"type":"Feature","geometry":{"type":"Point","coordinates":[9.1658304,45.4694677]}},{"properties":{"city":"MILANO","latitude":45.4619385,"network capability":10,"longitude":9.2078515,"id":"a62a7e73qxko"},"type":"Feature","geometry":{"type":"Point","coordinates":[9.2078515,45.4619385]}},{"properties":{"city":"MILANO","latitude":45.4509429,"network capability":10,"longitude":9.2549525,"id":"a62a7dzvzyr9"},"type":"Feature","geometry":{"type":"Point","coordinates":[9.2549525,45.4509429]}},{"properties":{"city":"MILANO","latitude":45.4606056,"network capability":10,"longitude":9.1962899,"id":"a62a7eer2bd2"},"type":"Feature","geometry":{"type":"Point","coordinates":[9.1962899,45.4606056]}},{"properties":{"city":"MILANO","latitude":45.462885,"network capability":10,"longitude":9.1718974,"id":"a62a7e0tes43"},"type":"Feature","geometry":{"type":"Point","coordinates":[9.1718974,45.462885]}},{"properties":{"city":"MILANO","latitude":45.4851876,"network capability":10,"longitude":9.165059,"id":"a62a7dyotnlf"},"type":"Feature","geometry":{"type":"Point","coordinates":[9.165059,45.4851876]}},{"properties":{"city":"MILANO","latitude":45.4619768,"network capability":10,"longitude":9.2133217,"id":"a62a7eedmepq"},"type":"Feature","geometry":{"type":"Point","coordinates":[9.2133217,45.4619768]}},{"properties":{"city":"MILANO","latitude":45.4628287,"network capability":10,"longitude":9.2027121,"id":"a62a7e9i05pn"},"type":"Feature","geometry":{"type":"Point","coordinates":[9.2027121,45.4628287]}},{"properties":{"city":"MILANO","latitude":45.4597824,"network capability":10,"longitude":9.2000452,"id":"a62a7e5b6phh"},"type":"Feature","geometry":{"type":"Point","coordinates":[9.2000452,45.4597824]}},{"properties":{"city":"MILANO","latitude":45.4614949,"network capability":10,"longitude":9.2053574,"id":"a62a7e14fvyd"},"type":"Feature","geometry":{"type":"Point","coordinates":[9.2053574,45.4614949]}},{"properties":{"city":"MILANO","latitude":45.4955973,"network capability":10,"longitude":9.2029463,"id":"a62a7dzmmqjd"},"type":"Feature","geometry":{"type":"Point","coordinates":[9.2029463,45.4955973]}},{"properties":{"city":"MILANO","latitude":45.4849405,"network capability":10,"longitude":9.2102369,"id":"a62a7dz3tzgb"},"type":"Feature","geometry":{"type":"Point","coordinates":[9.2102369,45.4849405]}},{"properties":{"city":"MILAZZO","latitude":47.4770768,"network capability":18,"longitude":-122.21943,"id":"a62a7eawud8j"},"type":"Feature","geometry":{"type":"Point","coordinates":[-122.21943,47.4770768]}},{"properties":{"city":"MIRANDOLA","latitude":44.8819852,"network capability":10,"longitude":11.0642276,"id":"a62a7e413lig"},"type":"Feature","geometry":{"type":"Point","coordinates":[11.0642276,44.8819852]}},{"properties":{"city":"MIRANO","latitude":45.4977879,"network capability":10,"longitude":12.1141909,"id":"a62a7eclyc0b"},"type":"Feature","geometry":{"type":"Point","coordinates":[12.1141909,45.4977879]}},{"properties":{"city":"MIRANO","latitude":45.4572307,"network capability":10,"longitude":12.0977464,"id":"a62a7e7b2kwl"},"type":"Feature","geometry":{"type":"Point","coordinates":[12.0977464,45.4572307]}},{"properties":{"city":"MODENA","latitude":44.6470793,"network capability":10,"longitude":10.9314176,"id":"a62a7ee11d4n"},"type":"Feature","geometry":{"type":"Point","coordinates":[10.9314176,44.6470793]}},{"properties":{"city":"MODENA","latitude":44.6263907,"network capability":10,"longitude":10.9248893,"id":"a62a7ebnolcd"},"type":"Feature","geometry":{"type":"Point","coordinates":[10.9248893,44.6263907]}},{"properties":{"city":"MODENA","latitude":44.6365082,"network capability":10,"longitude":10.9422159,"id":"a62a7e0hl191"},"type":"Feature","geometry":{"type":"Point","coordinates":[10.9422159,44.6365082]}},{"properties":{"city":"MODENA","latitude":44.6263907,"network capability":10,"longitude":10.9248893,"id":"a62a7e3txba4"},"type":"Feature","geometry":{"type":"Point","coordinates":[10.9248893,44.6263907]}},{"properties":{"city":"MODICA","latitude":36.8349074,"network capability":18,"longitude":14.7723451,"id":"a62a7eb3hq9w"},"type":"Feature","geometry":{"type":"Point","coordinates":[14.7723451,36.8349074]}},{"properties":{"city":"MODUGNO (BARI)","latitude":null,"network capability":12,"longitude":null,"id":"a62a7e8ivb2r"},"type":"Feature","geometry":null},{"properties":{"city":"MONCALIERI","latitude":44.9971087,"network capability":10,"longitude":7.6850573,"id":"a62a7e5lzn9w"},"type":"Feature","geometry":{"type":"Point","coordinates":[7.6850573,44.9971087]}},{"properties":{"city":"MONDOVI'","latitude":44.3876841,"network capability":10,"longitude":7.8299604,"id":"a62a7dz2iooz"},"type":"Feature","geometry":{"type":"Point","coordinates":[7.8299604,44.3876841]}},{"properties":{"city":"MONFALCONE","latitude":45.8076708,"network capability":10,"longitude":13.5257575,"id":"a62a7e0f7s04"},"type":"Feature","geometry":{"type":"Point","coordinates":[13.5257575,45.8076708]}},{"properties":{"city":"MONOPOLI","latitude":40.9484592,"network capability":18,"longitude":17.2977647,"id":"a62a7e33vldk"},"type":"Feature","geometry":{"type":"Point","coordinates":[17.2977647,40.9484592]}},{"properties":{"city":"MONSELICE","latitude":45.2387948,"network capability":12,"longitude":11.7595945,"id":"a62a7e6w9cxq"},"type":"Feature","geometry":{"type":"Point","coordinates":[11.7595945,45.2387948]}},{"properties":{"city":"MONTEBELLUNA","latitude":45.7756231,"network capability":10,"longitude":12.0348494,"id":"a62a7e7791uv"},"type":"Feature","geometry":{"type":"Point","coordinates":[12.0348494,45.7756231]}},{"properties":{"city":"MONTERONI DI LECCE","latitude":40.3250582,"network capability":18,"longitude":18.0926143,"id":"a62a7dzv9z44"},"type":"Feature","geometry":{"type":"Point","coordinates":[18.0926143,40.3250582]}},{"properties":{"city":"MONTEROTONDO","latitude":42.0506001,"network capability":10,"longitude":12.6199245,"id":"a62a7e0eiruf"},"type":"Feature","geometry":{"type":"Point","coordinates":[12.6199245,42.0506001]}},{"properties":{"city":"MONTEVARCHI","latitude":43.5433001,"network capability":10,"longitude":11.5545784,"id":"a62a7e8q3x9f"},"type":"Feature","geometry":{"type":"Point","coordinates":[11.5545784,43.5433001]}},{"properties":{"city":"MONZA","latitude":45.5998786,"network capability":10,"longitude":9.2565863,"id":"a62a7ebb6hn1"},"type":"Feature","geometry":{"type":"Point","coordinates":[9.2565863,45.5998786]}},{"properties":{"city":"MONZA","latitude":45.5948844,"network capability":10,"longitude":9.2497685,"id":"a62a7e9p2g72"},"type":"Feature","geometry":{"type":"Point","coordinates":[9.2497685,45.5948844]}},{"properties":{"city":"MUGNANO DI NAPOLI","latitude":40.910178,"network capability":12,"longitude":14.1958982,"id":"a62a7e2y4kew"},"type":"Feature","geometry":{"type":"Point","coordinates":[14.1958982,40.910178]}},{"properties":{"city":"NAPOLI","latitude":40.8271512,"network capability":10,"longitude":14.2186773,"id":"a62a7e2o2ho2"},"type":"Feature","geometry":{"type":"Point","coordinates":[14.2186773,40.8271512]}},{"properties":{"city":"NAPOLI","latitude":40.8657498,"network capability":10,"longitude":14.2266947,"id":"a62a7e4k6m5e"},"type":"Feature","geometry":{"type":"Point","coordinates":[14.2266947,40.8657498]}},{"properties":{"city":"NAPOLI","latitude":40.8163888,"network capability":10,"longitude":14.2006996,"id":"a62a7eac4t2t"},"type":"Feature","geometry":{"type":"Point","coordinates":[14.2006996,40.8163888]}},{"properties":{"city":"NAPOLI","latitude":39.8199284,"network capability":10,"longitude":14.6690154,"id":"a62a7e0bapxo"},"type":"Feature","geometry":{"type":"Point","coordinates":[14.6690154,39.8199284]}},{"properties":{"city":"NAPOLI","latitude":40.5560959,"network capability":10,"longitude":14.2216948,"id":"a62a7e56ldr8"},"type":"Feature","geometry":{"type":"Point","coordinates":[14.2216948,40.5560959]}},{"properties":{"city":"NAPOLI","latitude":40.8357279,"network capability":10,"longitude":14.2132446,"id":"a62a7e2ducil"},"type":"Feature","geometry":{"type":"Point","coordinates":[14.2132446,40.8357279]}},{"properties":{"city":"NAPOLI","latitude":40.8628764,"network capability":10,"longitude":14.2202728,"id":"a62a7e431qkr"},"type":"Feature","geometry":{"type":"Point","coordinates":[14.2202728,40.8628764]}},{"properties":{"city":"NAPOLI","latitude":40.866509,"network capability":10,"longitude":14.2157457,"id":"a62a7e9gc3bx"},"type":"Feature","geometry":{"type":"Point","coordinates":[14.2157457,40.866509]}},{"properties":{"city":"NAPOLI","latitude":39.8199284,"network capability":10,"longitude":14.6690154,"id":"a62a7dzjmqmr"},"type":"Feature","geometry":{"type":"Point","coordinates":[14.6690154,39.8199284]}},{"properties":{"city":"NAPOLI","latitude":39.8199284,"network capability":10,"longitude":14.6690154,"id":"a62a7e5h80i5"},"type":"Feature","geometry":{"type":"Point","coordinates":[14.6690154,39.8199284]}},{"properties":{"city":"NAPOLI","latitude":40.8518693,"network capability":10,"longitude":14.2312353,"id":"a62a7ebp3xp9"},"type":"Feature","geometry":{"type":"Point","coordinates":[14.2312353,40.8518693]}},{"properties":{"city":"NAPOLI","latitude":40.8493805,"network capability":10,"longitude":14.2297231,"id":"a62a7e1cy3i5"},"type":"Feature","geometry":{"type":"Point","coordinates":[14.2297231,40.8493805]}},{"properties":{"city":"Napoli","latitude":39.8199284,"network capability":10,"longitude":14.6690154,"id":"a62a7eedolfy"},"type":"Feature","geometry":{"type":"Point","coordinates":[14.6690154,39.8199284]}},{"properties":{"city":"Napoli","latitude":39.8199284,"network capability":10,"longitude":14.6690154,"id":"a62a7ecve2xy"},"type":"Feature","geometry":{"type":"Point","coordinates":[14.6690154,39.8199284]}},{"properties":{"city":"Napoli","latitude":39.8199284,"network capability":10,"longitude":14.6690154,"id":"a62a7e4dm279"},"type":"Feature","geometry":{"type":"Point","coordinates":[14.6690154,39.8199284]}},{"properties":{"city":"Napoli","latitude":39.8199284,"network capability":10,"longitude":14.6690154,"id":"a62a7ec1j53v"},"type":"Feature","geometry":{"type":"Point","coordinates":[14.6690154,39.8199284]}},{"properties":{"city":"Napoli","latitude":39.8199284,"network capability":10,"longitude":14.6690154,"id":"a62a7ebslryk"},"type":"Feature","geometry":{"type":"Point","coordinates":[14.6690154,39.8199284]}},{"properties":{"city":"Napoli","latitude":39.8199284,"network capability":10,"longitude":14.6690154,"id":"a62a7edo7ly0"},"type":"Feature","geometry":{"type":"Point","coordinates":[14.6690154,39.8199284]}},{"properties":{"city":"Napoli","latitude":39.8199284,"network capability":10,"longitude":14.6690154,"id":"a62a7eak86vk"},"type":"Feature","geometry":{"type":"Point","coordinates":[14.6690154,39.8199284]}},{"properties":{"city":"Napoli","latitude":39.8199284,"network capability":10,"longitude":14.6690154,"id":"a62a7edzm4k8"},"type":"Feature","geometry":{"type":"Point","coordinates":[14.6690154,39.8199284]}},{"properties":{"city":"Napoli","latitude":39.8199284,"network capability":10,"longitude":14.6690154,"id":"a62a7e86sgvo"},"type":"Feature","geometry":{"type":"Point","coordinates":[14.6690154,39.8199284]}},{"properties":{"city":"Napoli","latitude":39.8199284,"network capability":10,"longitude":14.6690154,"id":"a62a7ecaxyk3"},"type":"Feature","geometry":{"type":"Point","coordinates":[14.6690154,39.8199284]}},{"properties":{"city":"Napoli","latitude":39.8199284,"network capability":10,"longitude":14.6690154,"id":"a62a7edgng6s"},"type":"Feature","geometry":{"type":"Point","coordinates":[14.6690154,39.8199284]}},{"properties":{"city":"Napoli","latitude":39.8199284,"network capability":10,"longitude":14.6690154,"id":"a62a7e3skmgd"},"type":"Feature","geometry":{"type":"Point","coordinates":[14.6690154,39.8199284]}},{"properties":{"city":"Napoli","latitude":39.8199284,"network capability":10,"longitude":14.6690154,"id":"a62a7e3nsm61"},"type":"Feature","geometry":{"type":"Point","coordinates":[14.6690154,39.8199284]}},{"properties":{"city":"Napoli","latitude":39.8199284,"network capability":10,"longitude":14.6690154,"id":"a62a7e19knai"},"type":"Feature","geometry":{"type":"Point","coordinates":[14.6690154,39.8199284]}},{"properties":{"city":"Napoli","latitude":39.8199284,"network capability":10,"longitude":14.6690154,"id":"a62a7e8y1fe6"},"type":"Feature","geometry":{"type":"Point","coordinates":[14.6690154,39.8199284]}},{"properties":{"city":"Napoli","latitude":39.8199284,"network capability":10,"longitude":14.6690154,"id":"a62a7ecl77k8"},"type":"Feature","geometry":{"type":"Point","coordinates":[14.6690154,39.8199284]}},{"properties":{"city":"Napoli","latitude":39.8199284,"network capability":10,"longitude":14.6690154,"id":"a62a7eavwptj"},"type":"Feature","geometry":{"type":"Point","coordinates":[14.6690154,39.8199284]}},{"properties":{"city":"Napoli","latitude":39.8199284,"network capability":10,"longitude":14.6690154,"id":"a62a7e1h79uz"},"type":"Feature","geometry":{"type":"Point","coordinates":[14.6690154,39.8199284]}},{"properties":{"city":"Napoli","latitude":39.8199284,"network capability":10,"longitude":14.6690154,"id":"a62a7dyx2roj"},"type":"Feature","geometry":{"type":"Point","coordinates":[14.6690154,39.8199284]}},{"properties":{"city":"Napoli","latitude":39.8199284,"network capability":10,"longitude":14.6690154,"id":"a62a7eegi7zj"},"type":"Feature","geometry":{"type":"Point","coordinates":[14.6690154,39.8199284]}},{"properties":{"city":"Napoli","latitude":39.8199284,"network capability":10,"longitude":14.6690154,"id":"a62a7e5t8gdd"},"type":"Feature","geometry":{"type":"Point","coordinates":[14.6690154,39.8199284]}},{"properties":{"city":"NAPOLI","latitude":39.8199284,"network capability":10,"longitude":14.6690154,"id":"a62a7e3tqmeu"},"type":"Feature","geometry":{"type":"Point","coordinates":[14.6690154,39.8199284]}},{"properties":{"city":"NAPOLI","latitude":39.8199284,"network capability":10,"longitude":14.6690154,"id":"a62a7e6enl24"},"type":"Feature","geometry":{"type":"Point","coordinates":[14.6690154,39.8199284]}},{"properties":{"city":"Napoli","latitude":39.8199284,"network capability":10,"longitude":14.6690154,"id":"a62a7ebxwoo2"},"type":"Feature","geometry":{"type":"Point","coordinates":[14.6690154,39.8199284]}},{"properties":{"city":"Napoli","latitude":39.8199284,"network capability":10,"longitude":14.6690154,"id":"a62a7e0hz6fl"},"type":"Feature","geometry":{"type":"Point","coordinates":[14.6690154,39.8199284]}},{"properties":{"city":"NAPOLI","latitude":40.8338745,"network capability":10,"longitude":14.2390542,"id":"a62a7e8puvna"},"type":"Feature","geometry":{"type":"Point","coordinates":[14.2390542,40.8338745]}},{"properties":{"city":"NAPOLI","latitude":40.8645927,"network capability":10,"longitude":14.2184865,"id":"a62a7dyyg9od"},"type":"Feature","geometry":{"type":"Point","coordinates":[14.2184865,40.8645927]}},{"properties":{"city":"NAPOLI","latitude":40.862886,"network capability":10,"longitude":14.2201537,"id":"a62a7dzc4agh"},"type":"Feature","geometry":{"type":"Point","coordinates":[14.2201537,40.862886]}},{"properties":{"city":"NAPOLI-FUORIGROTTA","latitude":39.7393313,"network capability":18,"longitude":-104.8629746,"id":"a62a7e12eaaz"},"type":"Feature","geometry":{"type":"Point","coordinates":[-104.8629746,39.7393313]}},{"properties":{"city":"NEGRAR","latitude":45.530167,"network capability":12,"longitude":10.936507,"id":"a62a7e0n5jj1"},"type":"Feature","geometry":{"type":"Point","coordinates":[10.936507,45.530167]}},{"properties":{"city":"NESIMA","latitude":37.5094144,"network capability":18,"longitude":15.0450888,"id":"a62a7e3sdgmw"},"type":"Feature","geometry":{"type":"Point","coordinates":[15.0450888,37.5094144]}},{"properties":{"city":"NOCI","latitude":40.7953,"network capability":18,"longitude":17.124365,"id":"a62a7e0shxcq"},"type":"Feature","geometry":{"type":"Point","coordinates":[17.124365,40.7953]}},{"properties":{"city":"NOLA","latitude":40.9262998,"network capability":10,"longitude":14.5441819,"id":"a62a7e3f116f"},"type":"Feature","geometry":{"type":"Point","coordinates":[14.5441819,40.9262998]}},{"properties":{"city":"NOLA","latitude":40.9444817,"network capability":10,"longitude":14.5423525,"id":"a62a7e5e1zmm"},"type":"Feature","geometry":{"type":"Point","coordinates":[14.5423525,40.9444817]}},{"properties":{"city":"NOLA","latitude":40.9288695,"network capability":10,"longitude":14.528633,"id":"a62a7edavkj1"},"type":"Feature","geometry":{"type":"Point","coordinates":[14.528633,40.9288695]}},{"properties":{"city":"NOVARA","latitude":45.4514982,"network capability":10,"longitude":8.6223893,"id":"a62a7edttu3w"},"type":"Feature","geometry":{"type":"Point","coordinates":[8.6223893,45.4514982]}},{"properties":{"city":"NOVARA","latitude":45.4526636,"network capability":10,"longitude":8.6200202,"id":"a62a7ecvlufa"},"type":"Feature","geometry":{"type":"Point","coordinates":[8.6200202,45.4526636]}},{"properties":{"city":"NOVARA","latitude":45.4439383,"network capability":10,"longitude":8.6226128,"id":"a62a7e52saav"},"type":"Feature","geometry":{"type":"Point","coordinates":[8.6226128,45.4439383]}},{"properties":{"city":"NOVEDRATE","latitude":45.7012104,"network capability":18,"longitude":9.1455243,"id":"a62a7ebm47uk"},"type":"Feature","geometry":{"type":"Point","coordinates":[9.1455243,45.7012104]}},{"properties":{"city":"NOVI LIGURE","latitude":44.7584129,"network capability":10,"longitude":8.7939998,"id":"a62a7eelnslc"},"type":"Feature","geometry":{"type":"Point","coordinates":[8.7939998,44.7584129]}},{"properties":{"city":"NUORO","latitude":40.3225991,"network capability":18,"longitude":9.3300225,"id":"a62a7ec69vo7"},"type":"Feature","geometry":{"type":"Point","coordinates":[9.3300225,40.3225991]}},{"properties":{"city":"ODERZO","latitude":null,"network capability":18,"longitude":null,"id":"a62a7e1arjho"},"type":"Feature","geometry":null},{"properties":{"city":"OLBIA","latitude":40.906914,"network capability":18,"longitude":9.5122515,"id":"a62a7e7471yf"},"type":"Feature","geometry":{"type":"Point","coordinates":[9.5122515,40.906914]}},{"properties":{"city":"OLIVETO CITRA","latitude":40.4960215,"network capability":18,"longitude":-111.8687825,"id":"a62a7ec2bmmd"},"type":"Feature","geometry":{"type":"Point","coordinates":[-111.8687825,40.4960215]}},{"properties":{"city":"OME","latitude":45.6202172,"network capability":18,"longitude":10.1176647,"id":"a62a7ea2xgmf"},"type":"Feature","geometry":{"type":"Point","coordinates":[10.1176647,45.6202172]}},{"properties":{"city":"OMEGNA","latitude":45.873861,"network capability":10,"longitude":8.4121142,"id":"a62a7e8o42gt"},"type":"Feature","geometry":{"type":"Point","coordinates":[8.4121142,45.873861]}},{"properties":{"city":"OPPEANO","latitude":45.3258368,"network capability":18,"longitude":11.0886441,"id":"a62a7eczhnem"},"type":"Feature","geometry":{"type":"Point","coordinates":[11.0886441,45.3258368]}},{"properties":{"city":"ORBASSANO","latitude":45.0286585,"network capability":10,"longitude":7.5589945,"id":"a62a7e333hhu"},"type":"Feature","geometry":{"type":"Point","coordinates":[7.5589945,45.0286585]}},{"properties":{"city":"ORISTANO","latitude":39.9240045,"network capability":18,"longitude":8.533806,"id":"a62a7e4rep8b"},"type":"Feature","geometry":{"type":"Point","coordinates":[8.533806,39.9240045]}},{"properties":{"city":"ORVIETO","latitude":42.7164699,"network capability":10,"longitude":12.1115691,"id":"a62a7e4kab6x"},"type":"Feature","geometry":{"type":"Point","coordinates":[12.1115691,42.7164699]}},{"properties":{"city":"OSPIATE DI BOLLATE","latitude":45.5430536,"network capability":12,"longitude":9.0934822,"id":"a62a7e5wuqqy"},"type":"Feature","geometry":{"type":"Point","coordinates":[9.0934822,45.5430536]}},{"properties":{"city":"OSTUNI","latitude":40.7261656,"network capability":18,"longitude":17.574058,"id":"a62a7e2zbeo8"},"type":"Feature","geometry":{"type":"Point","coordinates":[17.574058,40.7261656]}},{"properties":{"city":"PADERNO DUGNANO","latitude":45.5703022,"network capability":10,"longitude":9.1565955,"id":"a62a7dz001jx"},"type":"Feature","geometry":{"type":"Point","coordinates":[9.1565955,45.5703022]}},{"properties":{"city":"PADOVA","latitude":45.4031529,"network capability":10,"longitude":11.8883432,"id":"a62a7e1mdj46"},"type":"Feature","geometry":{"type":"Point","coordinates":[11.8883432,45.4031529]}},{"properties":{"city":"PADOVA","latitude":45.4100642,"network capability":10,"longitude":11.9107429,"id":"a62a7e5qyn00"},"type":"Feature","geometry":{"type":"Point","coordinates":[11.9107429,45.4100642]}},{"properties":{"city":"PAGANI","latitude":40.739875,"network capability":18,"longitude":14.6047787,"id":"a62a7e25n2k1"},"type":"Feature","geometry":{"type":"Point","coordinates":[14.6047787,40.739875]}},{"properties":{"city":"PAGANI","latitude":40.741325,"network capability":18,"longitude":14.6233626,"id":"a62a7dz54910"},"type":"Feature","geometry":{"type":"Point","coordinates":[14.6233626,40.741325]}},{"properties":{"city":"PAGANI","latitude":40.739875,"network capability":18,"longitude":14.6047787,"id":"a62a7eagxfsi"},"type":"Feature","geometry":{"type":"Point","coordinates":[14.6047787,40.739875]}},{"properties":{"city":"PAGANI","latitude":40.739875,"network capability":18,"longitude":14.6047787,"id":"a62a7e4zpfpt"},"type":"Feature","geometry":{"type":"Point","coordinates":[14.6047787,40.739875]}},{"properties":{"city":"PAGANI","latitude":40.739875,"network capability":18,"longitude":14.6047787,"id":"a62a7e839czs"},"type":"Feature","geometry":{"type":"Point","coordinates":[14.6047787,40.739875]}},{"properties":{"city":"PAGANI  - SALERNO","latitude":40.741256,"network capability":18,"longitude":14.6231489,"id":"a62a7e2nyuf6"},"type":"Feature","geometry":{"type":"Point","coordinates":[14.6231489,40.741256]}},{"properties":{"city":"PALERMO","latitude":38.1045351,"network capability":18,"longitude":13.3889069,"id":"a62a7e3cxjq8"},"type":"Feature","geometry":{"type":"Point","coordinates":[13.3889069,38.1045351]}},{"properties":{"city":"PALERMO","latitude":38.1584254,"network capability":18,"longitude":13.3249625,"id":"a62a7eek99ix"},"type":"Feature","geometry":{"type":"Point","coordinates":[13.3249625,38.1584254]}},{"properties":{"city":"PALERMO","latitude":38.1255868,"network capability":18,"longitude":13.3474527,"id":"a62a7dz3p16n"},"type":"Feature","geometry":{"type":"Point","coordinates":[13.3474527,38.1255868]}},{"properties":{"city":"PALERMO","latitude":38.1526354,"network capability":18,"longitude":13.3388336,"id":"a62a7ed5a0wc"},"type":"Feature","geometry":{"type":"Point","coordinates":[13.3388336,38.1526354]}},{"properties":{"city":"PALERMO","latitude":38.1151546,"network capability":18,"longitude":13.3646716,"id":"a62a7ea6rwka"},"type":"Feature","geometry":{"type":"Point","coordinates":[13.3646716,38.1151546]}},{"properties":{"city":"PALERMO","latitude":38.1228232,"network capability":18,"longitude":13.3551287,"id":"a62a7eblkfx0"},"type":"Feature","geometry":{"type":"Point","coordinates":[13.3551287,38.1228232]}},{"properties":{"city":"PALERMO","latitude":38.1174592,"network capability":18,"longitude":13.3291838,"id":"a62a7e40xehq"},"type":"Feature","geometry":{"type":"Point","coordinates":[13.3291838,38.1174592]}},{"properties":{"city":"PALERMO","latitude":38.1584254,"network capability":18,"longitude":13.3249625,"id":"a62a7edjjacb"},"type":"Feature","geometry":{"type":"Point","coordinates":[13.3249625,38.1584254]}},{"properties":{"city":"PALERMO","latitude":38.1040308,"network capability":18,"longitude":13.355329,"id":"a62a7e2wjkle"},"type":"Feature","geometry":{"type":"Point","coordinates":[13.355329,38.1040308]}},{"properties":{"city":"PALERMO","latitude":38.1053034,"network capability":18,"longitude":13.3538692,"id":"a62a7e57w3gc"},"type":"Feature","geometry":{"type":"Point","coordinates":[13.3538692,38.1053034]}},{"properties":{"city":"PALERMO","latitude":38.1269345,"network capability":18,"longitude":13.3501672,"id":"a62a7eaigezk"},"type":"Feature","geometry":{"type":"Point","coordinates":[13.3501672,38.1269345]}},{"properties":{"city":"PANNARANO","latitude":41.0063933,"network capability":18,"longitude":14.7065099,"id":"a62a7e11w864"},"type":"Feature","geometry":{"type":"Point","coordinates":[14.7065099,41.0063933]}},{"properties":{"city":"PANNARANO","latitude":41.0063933,"network capability":18,"longitude":14.7065099,"id":"a62a7e9pdpv1"},"type":"Feature","geometry":{"type":"Point","coordinates":[14.7065099,41.0063933]}},{"properties":{"city":"PANTELLERIA","latitude":34.15,"network capability":18,"longitude":-118.0,"id":"a62a7e2erisz"},"type":"Feature","geometry":{"type":"Point","coordinates":[-118.0,34.15]}},{"properties":{"city":"PAOLA","latitude":39.3537952,"network capability":18,"longitude":16.0419527,"id":"a62a7ebm0245"},"type":"Feature","geometry":{"type":"Point","coordinates":[16.0419527,39.3537952]}},{"properties":{"city":"PARCO MONTEDONZELLI- ISOLATO 26 -NA","latitude":39.7393313,"network capability":18,"longitude":-104.8629746,"id":"a62a7e54ypuy"},"type":"Feature","geometry":{"type":"Point","coordinates":[-104.8629746,39.7393313]}},{"properties":{"city":"PARMA","latitude":44.8052021,"network capability":10,"longitude":10.3098028,"id":"a62a7e3zwe0a"},"type":"Feature","geometry":{"type":"Point","coordinates":[10.3098028,44.8052021]}},{"properties":{"city":"PARMA","latitude":44.8007284,"network capability":10,"longitude":10.3145543,"id":"a62a7e3biv2w"},"type":"Feature","geometry":{"type":"Point","coordinates":[10.3145543,44.8007284]}},{"properties":{"city":"PARTINICO","latitude":38.043646,"network capability":18,"longitude":13.1421598,"id":"a62a7e5ir0ow"},"type":"Feature","geometry":{"type":"Point","coordinates":[13.1421598,38.043646]}},{"properties":{"city":"PATTI","latitude":38.1419233,"network capability":18,"longitude":14.9671296,"id":"a62a7e47maf6"},"type":"Feature","geometry":{"type":"Point","coordinates":[14.9671296,38.1419233]}},{"properties":{"city":"PAVIA","latitude":45.1925554,"network capability":10,"longitude":9.1678982,"id":"a62a7e2h2y18"},"type":"Feature","geometry":{"type":"Point","coordinates":[9.1678982,45.1925554]}},{"properties":{"city":"PAVIA","latitude":45.2022001,"network capability":10,"longitude":9.1536035,"id":"a62a7eaywxw9"},"type":"Feature","geometry":{"type":"Point","coordinates":[9.1536035,45.2022001]}},{"properties":{"city":"PAVIA","latitude":45.2040565,"network capability":10,"longitude":9.1412331,"id":"a62a7e6tyccu"},"type":"Feature","geometry":{"type":"Point","coordinates":[9.1412331,45.2040565]}},{"properties":{"city":"PAVIA","latitude":45.1956915,"network capability":10,"longitude":9.1486869,"id":"a62a7e3382a9"},"type":"Feature","geometry":{"type":"Point","coordinates":[9.1486869,45.1956915]}},{"properties":{"city":"PAVIA","latitude":45.1925554,"network capability":10,"longitude":9.1678982,"id":"a62a7ebrmexk"},"type":"Feature","geometry":{"type":"Point","coordinates":[9.1678982,45.1925554]}},{"properties":{"city":"PEDARA","latitude":37.6180363,"network capability":18,"longitude":15.0525832,"id":"a62a7ecw06ih"},"type":"Feature","geometry":{"type":"Point","coordinates":[15.0525832,37.6180363]}},{"properties":{"city":"PERUGIA","latitude":43.0717239,"network capability":10,"longitude":12.3219523,"id":"a62a7e2go8gk"},"type":"Feature","geometry":{"type":"Point","coordinates":[12.3219523,43.0717239]}},{"properties":{"city":"PESARO","latitude":43.9143106,"network capability":10,"longitude":12.9171018,"id":"a62a7edptnq1"},"type":"Feature","geometry":{"type":"Point","coordinates":[12.9171018,43.9143106]}},{"properties":{"city":"PESCARA","latitude":42.4643557,"network capability":10,"longitude":14.1993279,"id":"a62a7eat0d0n"},"type":"Feature","geometry":{"type":"Point","coordinates":[14.1993279,42.4643557]}},{"properties":{"city":"PESCARA","latitude":42.4818021,"network capability":10,"longitude":14.1979608,"id":"a62a7eazu1m8"},"type":"Feature","geometry":{"type":"Point","coordinates":[14.1979608,42.4818021]}},{"properties":{"city":"PESCHIERA DEL GARDA","latitude":45.4439367,"network capability":12,"longitude":10.706163,"id":"a62a7e8cydlx"},"type":"Feature","geometry":{"type":"Point","coordinates":[10.706163,45.4439367]}},{"properties":{"city":"PIACENZA","latitude":45.0568027,"network capability":10,"longitude":9.6767157,"id":"a62a7e8ie4ac"},"type":"Feature","geometry":{"type":"Point","coordinates":[9.6767157,45.0568027]}},{"properties":{"city":"PIACENZA","latitude":45.0476377,"network capability":10,"longitude":9.6744254,"id":"a62a7ebhbbso"},"type":"Feature","geometry":{"type":"Point","coordinates":[9.6744254,45.0476377]}},{"properties":{"city":"PIEDIMONTE MATESE","latitude":41.3607822,"network capability":18,"longitude":14.3643299,"id":"a62a7e5q228x"},"type":"Feature","geometry":{"type":"Point","coordinates":[14.3643299,41.3607822]}},{"properties":{"city":"PIEVE DI CORIANO","latitude":45.0360711,"network capability":18,"longitude":11.1170972,"id":"a62a7e2i0zzz"},"type":"Feature","geometry":{"type":"Point","coordinates":[11.1170972,45.0360711]}},{"properties":{"city":"PIOMBINO","latitude":42.9261025,"network capability":18,"longitude":10.5302012,"id":"a62a7ecot0eg"},"type":"Feature","geometry":{"type":"Point","coordinates":[10.5302012,42.9261025]}},{"properties":{"city":"PIOMBINO","latitude":42.9392783,"network capability":18,"longitude":10.5098331,"id":"a62a7e473boc"},"type":"Feature","geometry":{"type":"Point","coordinates":[10.5098331,42.9392783]}},{"properties":{"city":"PIOVE DI SACCO","latitude":45.291756,"network capability":12,"longitude":12.0310592,"id":"a62a7e588430"},"type":"Feature","geometry":{"type":"Point","coordinates":[12.0310592,45.291756]}},{"properties":{"city":"PIOVE DI SACCO","latitude":45.291756,"network capability":12,"longitude":12.0310592,"id":"a62a7e0tk0fp"},"type":"Feature","geometry":{"type":"Point","coordinates":[12.0310592,45.291756]}},{"properties":{"city":"PISA","latitude":43.7164449,"network capability":10,"longitude":10.4099497,"id":"a62a7ebq8ayh"},"type":"Feature","geometry":{"type":"Point","coordinates":[10.4099497,43.7164449]}},{"properties":{"city":"PISA","latitude":43.7199024,"network capability":10,"longitude":10.3940437,"id":"a62a7e7l5zh5"},"type":"Feature","geometry":{"type":"Point","coordinates":[10.3940437,43.7199024]}},{"properties":{"city":"PISA","latitude":43.7183571,"network capability":10,"longitude":10.3885283,"id":"a62a7e6fw7q9"},"type":"Feature","geometry":{"type":"Point","coordinates":[10.3885283,43.7183571]}},{"properties":{"city":"PISA","latitude":43.7217701,"network capability":10,"longitude":10.3957909,"id":"a62a7eauo5q5"},"type":"Feature","geometry":{"type":"Point","coordinates":[10.3957909,43.7217701]}},{"properties":{"city":"PISA","latitude":43.7170282,"network capability":10,"longitude":10.392876,"id":"a62a7eee5wzh"},"type":"Feature","geometry":{"type":"Point","coordinates":[10.392876,43.7170282]}},{"properties":{"city":"PISTOIA","latitude":43.9274963,"network capability":10,"longitude":10.9105994,"id":"a62a7eaxhq6s"},"type":"Feature","geometry":{"type":"Point","coordinates":[10.9105994,43.9274963]}},{"properties":{"city":"PISTOIA","latitude":43.9383011,"network capability":10,"longitude":10.9187715,"id":"a62a7e3a0q3t"},"type":"Feature","geometry":{"type":"Point","coordinates":[10.9187715,43.9383011]}},{"properties":{"city":"POLICORO","latitude":40.2106289,"network capability":18,"longitude":16.6485412,"id":"a62a7e37uprx"},"type":"Feature","geometry":{"type":"Point","coordinates":[16.6485412,40.2106289]}},{"properties":{"city":"POLIGNANO A MARE","latitude":29.949711,"network capability":18,"longitude":-89.9602133,"id":"a62a7eer2847"},"type":"Feature","geometry":{"type":"Point","coordinates":[-89.9602133,29.949711]}},{"properties":{"city":"POLISTENA","latitude":38.4098656,"network capability":18,"longitude":16.074878,"id":"a62a7edf7g5y"},"type":"Feature","geometry":{"type":"Point","coordinates":[16.074878,38.4098656]}},{"properties":{"city":"POLLA","latitude":40.518288,"network capability":18,"longitude":15.5028117,"id":"a62a7eai5vcl"},"type":"Feature","geometry":{"type":"Point","coordinates":[15.5028117,40.518288]}},{"properties":{"city":"PONTE BUGGIANESE","latitude":43.8379949,"network capability":18,"longitude":10.760113,"id":"a62a7e6i5wse"},"type":"Feature","geometry":{"type":"Point","coordinates":[10.760113,43.8379949]}},{"properties":{"city":"PONTE S.PIETRO","latitude":45.6978912,"network capability":18,"longitude":9.574934,"id":"a62a7dyrk8tn"},"type":"Feature","geometry":{"type":"Point","coordinates":[9.574934,45.6978912]}},{"properties":{"city":"PONTEDERA","latitude":43.6597439,"network capability":10,"longitude":10.6333651,"id":"a62a7eck70gn"},"type":"Feature","geometry":{"type":"Point","coordinates":[10.6333651,43.6597439]}},{"properties":{"city":"POPOLI","latitude":null,"network capability":18,"longitude":null,"id":"a62a7e7o7oli"},"type":"Feature","geometry":null},{"properties":{"city":"PORDENONE","latitude":45.9663777,"network capability":10,"longitude":12.6531039,"id":"a62a7dydh48b"},"type":"Feature","geometry":{"type":"Point","coordinates":[12.6531039,45.9663777]}},{"properties":{"city":"PORRETTA TERME","latitude":44.1515587,"network capability":18,"longitude":10.9807543,"id":"a62a7e1kutit"},"type":"Feature","geometry":{"type":"Point","coordinates":[10.9807543,44.1515587]}},{"properties":{"city":"PORTICHETTO","latitude":45.7567648,"network capability":10,"longitude":9.0475974,"id":"a62a7e43tk3v"},"type":"Feature","geometry":{"type":"Point","coordinates":[9.0475974,45.7567648]}},{"properties":{"city":"PORTO VIRO","latitude":45.0257424,"network capability":18,"longitude":12.2235032,"id":"a62a7ea0286q"},"type":"Feature","geometry":{"type":"Point","coordinates":[12.2235032,45.0257424]}},{"properties":{"city":"PORTOFERRAIO","latitude":42.7458224,"network capability":18,"longitude":10.3747119,"id":"a62a7e97mv2s"},"type":"Feature","geometry":{"type":"Point","coordinates":[10.3747119,42.7458224]}},{"properties":{"city":"PORTOGRUARO","latitude":45.7714778,"network capability":10,"longitude":12.8404929,"id":"a62a7e68rta6"},"type":"Feature","geometry":{"type":"Point","coordinates":[12.8404929,45.7714778]}},{"properties":{"city":"POTENZA","latitude":40.6372425,"network capability":18,"longitude":15.8022214,"id":"a62a7ee3ev9t"},"type":"Feature","geometry":{"type":"Point","coordinates":[15.8022214,40.6372425]}},{"properties":{"city":"POTENZA","latitude":40.6236076,"network capability":18,"longitude":15.7950628,"id":"a62a7e0ap0ow"},"type":"Feature","geometry":{"type":"Point","coordinates":[15.7950628,40.6236076]}},{"properties":{"city":"POTENZA","latitude":40.6373635,"network capability":18,"longitude":15.8089995,"id":"a62a7ea5w1ar"},"type":"Feature","geometry":{"type":"Point","coordinates":[15.8089995,40.6373635]}},{"properties":{"city":"POTENZA","latitude":40.6551246,"network capability":18,"longitude":15.7973721,"id":"a62a7ea3c2rt"},"type":"Feature","geometry":{"type":"Point","coordinates":[15.7973721,40.6551246]}},{"properties":{"city":"POZZUOLI","latitude":40.8708404,"network capability":18,"longitude":14.085843,"id":"a62a7eevbyoj"},"type":"Feature","geometry":{"type":"Point","coordinates":[14.085843,40.8708404]}},{"properties":{"city":"POZZUOLI","latitude":40.8341859,"network capability":18,"longitude":14.0834035,"id":"a62a7e8wkw10"},"type":"Feature","geometry":{"type":"Point","coordinates":[14.0834035,40.8341859]}},{"properties":{"city":"POZZUOLI","latitude":40.8250299,"network capability":18,"longitude":14.1216659,"id":"a62a7e7yet8h"},"type":"Feature","geometry":{"type":"Point","coordinates":[14.1216659,40.8250299]}},{"properties":{"city":"PRATO","latitude":43.8619458,"network capability":10,"longitude":11.1085017,"id":"a62a7eemcgn6"},"type":"Feature","geometry":{"type":"Point","coordinates":[11.1085017,43.8619458]}},{"properties":{"city":"PUTIGNANO","latitude":40.8528148,"network capability":18,"longitude":17.1222037,"id":"a62a7eddu4fo"},"type":"Feature","geometry":{"type":"Point","coordinates":[17.1222037,40.8528148]}},{"properties":{"city":"PUTIGNANO","latitude":40.8525152,"network capability":18,"longitude":17.1183497,"id":"a62a7e9td4i8"},"type":"Feature","geometry":{"type":"Point","coordinates":[17.1183497,40.8525152]}},{"properties":{"city":"QUARTO","latitude":40.8749881,"network capability":18,"longitude":14.1452261,"id":"a62a7e65uuew"},"type":"Feature","geometry":{"type":"Point","coordinates":[14.1452261,40.8749881]}},{"properties":{"city":"QUINTO AL MARE","latitude":44.3864614,"network capability":10,"longitude":9.0178115,"id":"a62a7e82qye6"},"type":"Feature","geometry":{"type":"Point","coordinates":[9.0178115,44.3864614]}},{"properties":{"city":"RAGUSA","latitude":36.9221512,"network capability":18,"longitude":14.7435544,"id":"a62a7e43jb4h"},"type":"Feature","geometry":{"type":"Point","coordinates":[14.7435544,36.9221512]}},{"properties":{"city":"RAGUSA","latitude":36.9189621,"network capability":18,"longitude":14.7280181,"id":"a62a7ecd7qxv"},"type":"Feature","geometry":{"type":"Point","coordinates":[14.7280181,36.9189621]}},{"properties":{"city":"RAGUSA","latitude":36.9188892,"network capability":18,"longitude":14.7046136,"id":"a62a7e76xbal"},"type":"Feature","geometry":{"type":"Point","coordinates":[14.7046136,36.9188892]}},{"properties":{"city":"RAPALLO","latitude":44.3529128,"network capability":10,"longitude":9.2165479,"id":"a62a7eayzg36"},"type":"Feature","geometry":{"type":"Point","coordinates":[9.2165479,44.3529128]}},{"properties":{"city":"RAPALLO","latitude":44.3552248,"network capability":10,"longitude":9.2166005,"id":"a62a7e62qidz"},"type":"Feature","geometry":{"type":"Point","coordinates":[9.2166005,44.3552248]}},{"properties":{"city":"RAVENNA","latitude":44.4144537,"network capability":10,"longitude":12.1984781,"id":"a62a7e8mo98y"},"type":"Feature","geometry":{"type":"Point","coordinates":[12.1984781,44.4144537]}},{"properties":{"city":"RAVENNA","latitude":44.4250778,"network capability":10,"longitude":12.2041134,"id":"a62a7e5wjgh3"},"type":"Feature","geometry":{"type":"Point","coordinates":[12.2041134,44.4250778]}},{"properties":{"city":"REGGIO CALABRIA","latitude":38.1156347,"network capability":18,"longitude":15.6615098,"id":"a62a7dyd2dav"},"type":"Feature","geometry":{"type":"Point","coordinates":[15.6615098,38.1156347]}},{"properties":{"city":"REGGIO CALABRIA","latitude":38.114629,"network capability":18,"longitude":15.6502035,"id":"a62a7dz74le8"},"type":"Feature","geometry":{"type":"Point","coordinates":[15.6502035,38.114629]}},{"properties":{"city":"REGGIO CALABRIA","latitude":38.1173135,"network capability":18,"longitude":15.6511385,"id":"a62a7e6atpg2"},"type":"Feature","geometry":{"type":"Point","coordinates":[15.6511385,38.1173135]}},{"properties":{"city":"REGGIO EMILIA","latitude":44.6852871,"network capability":10,"longitude":10.629424,"id":"a62a7e6gv7yd"},"type":"Feature","geometry":{"type":"Point","coordinates":[10.629424,44.6852871]}},{"properties":{"city":"RHO","latitude":45.5206672,"network capability":10,"longitude":9.0496645,"id":"a62a7e9exc1u"},"type":"Feature","geometry":{"type":"Point","coordinates":[9.0496645,45.5206672]}},{"properties":{"city":"RHO","latitude":45.5331229,"network capability":10,"longitude":9.0345893,"id":"a62a7e6fgx8y"},"type":"Feature","geometry":{"type":"Point","coordinates":[9.0345893,45.5331229]}},{"properties":{"city":"RIBERA","latitude":37.4985627,"network capability":18,"longitude":13.2582458,"id":"a62a7e4v9l8u"},"type":"Feature","geometry":{"type":"Point","coordinates":[13.2582458,37.4985627]}},{"properties":{"city":"RICCIONE","latitude":38.9788069,"network capability":10,"longitude":-87.3612205,"id":"a62a7e09lp3m"},"type":"Feature","geometry":{"type":"Point","coordinates":[-87.3612205,38.9788069]}},{"properties":{"city":"RIETI","latitude":42.4105264,"network capability":10,"longitude":12.8841322,"id":"a62a7e8y46ge"},"type":"Feature","geometry":{"type":"Point","coordinates":[12.8841322,42.4105264]}},{"properties":{"city":"RIETI","latitude":42.4204904,"network capability":10,"longitude":12.9066795,"id":"a62a7ecu8mbm"},"type":"Feature","geometry":{"type":"Point","coordinates":[12.9066795,42.4204904]}},{"properties":{"city":"RIMINI","latitude":44.0403267,"network capability":10,"longitude":12.5787878,"id":"a62a7e2i0ik9"},"type":"Feature","geometry":{"type":"Point","coordinates":[12.5787878,44.0403267]}},{"properties":{"city":"RIVALTA DI TORINO","latitude":45.0232402,"network capability":10,"longitude":7.5218111,"id":"a62a7e460pq7"},"type":"Feature","geometry":{"type":"Point","coordinates":[7.5218111,45.0232402]}},{"properties":{"city":"ROMA","latitude":41.9128121,"network capability":10,"longitude":12.5414141,"id":"a62a7edmy415"},"type":"Feature","geometry":{"type":"Point","coordinates":[12.5414141,41.9128121]}},{"properties":{"city":"ROMA","latitude":41.8346097,"network capability":10,"longitude":12.5128246,"id":"a62a7e12uot8"},"type":"Feature","geometry":{"type":"Point","coordinates":[12.5128246,41.8346097]}},{"properties":{"city":"ROMA","latitude":41.963735,"network capability":10,"longitude":12.446123,"id":"a62a7e6yc09s"},"type":"Feature","geometry":{"type":"Point","coordinates":[12.446123,41.963735]}},{"properties":{"city":"ROMA","latitude":41.9729819,"network capability":10,"longitude":12.4430195,"id":"a62a7e4q12iy"},"type":"Feature","geometry":{"type":"Point","coordinates":[12.4430195,41.9729819]}},{"properties":{"city":"ROMA","latitude":41.9153325,"network capability":10,"longitude":12.5130372,"id":"a62a7e4nytuw"},"type":"Feature","geometry":{"type":"Point","coordinates":[12.5130372,41.9153325]}},{"properties":{"city":"ROMA","latitude":41.8593453,"network capability":10,"longitude":12.6271437,"id":"a62a7e0r3bac"},"type":"Feature","geometry":{"type":"Point","coordinates":[12.6271437,41.8593453]}},{"properties":{"city":"ROMA","latitude":41.9268714,"network capability":10,"longitude":12.4292785,"id":"a62a7e9fav35"},"type":"Feature","geometry":{"type":"Point","coordinates":[12.4292785,41.9268714]}},{"properties":{"city":"ROMA","latitude":41.8857899,"network capability":10,"longitude":12.5432626,"id":"a62a7edaeif1"},"type":"Feature","geometry":{"type":"Point","coordinates":[12.5432626,41.8857899]}},{"properties":{"city":"ROMA","latitude":41.9331284,"network capability":10,"longitude":12.4264607,"id":"a62a7e47ausu"},"type":"Feature","geometry":{"type":"Point","coordinates":[12.4264607,41.9331284]}},{"properties":{"city":"ROMA","latitude":41.8524639,"network capability":10,"longitude":12.4357208,"id":"a62a7ec6qoxz"},"type":"Feature","geometry":{"type":"Point","coordinates":[12.4357208,41.8524639]}},{"properties":{"city":"ROMA","latitude":41.9409226,"network capability":10,"longitude":12.4195932,"id":"a62a7e5aup59"},"type":"Feature","geometry":{"type":"Point","coordinates":[12.4195932,41.9409226]}},{"properties":{"city":"ROMA","latitude":41.8664057,"network capability":10,"longitude":12.4503353,"id":"a62a7e53eid1"},"type":"Feature","geometry":{"type":"Point","coordinates":[12.4503353,41.8664057]}},{"properties":{"city":"ROMA","latitude":41.8748413,"network capability":10,"longitude":12.4566796,"id":"a62a7dydy6jr"},"type":"Feature","geometry":{"type":"Point","coordinates":[12.4566796,41.8748413]}},{"properties":{"city":"ROMA","latitude":41.8857473,"network capability":10,"longitude":12.3998349,"id":"a62a7ee870jk"},"type":"Feature","geometry":{"type":"Point","coordinates":[12.3998349,41.8857473]}},{"properties":{"city":"ROMA","latitude":41.838926,"network capability":10,"longitude":12.4944118,"id":"a62a7ea4vwdy"},"type":"Feature","geometry":{"type":"Point","coordinates":[12.4944118,41.838926]}},{"properties":{"city":"ROMA","latitude":41.8908014,"network capability":10,"longitude":12.4778824,"id":"a62a7ednpjaf"},"type":"Feature","geometry":{"type":"Point","coordinates":[12.4778824,41.8908014]}},{"properties":{"city":"ROMA","latitude":41.8977339,"network capability":10,"longitude":12.4611154,"id":"a62a7dz0khz5"},"type":"Feature","geometry":{"type":"Point","coordinates":[12.4611154,41.8977339]}},{"properties":{"city":"ROMA","latitude":41.8963303,"network capability":10,"longitude":12.4197903,"id":"a62a7e8od9j5"},"type":"Feature","geometry":{"type":"Point","coordinates":[12.4197903,41.8963303]}},{"properties":{"city":"ROMA","latitude":41.8834247,"network capability":10,"longitude":12.4997815,"id":"a62a7e1y1pl8"},"type":"Feature","geometry":{"type":"Point","coordinates":[12.4997815,41.8834247]}},{"properties":{"city":"ROMA","latitude":41.8982028,"network capability":10,"longitude":12.4386921,"id":"a62a7e73qkb0"},"type":"Feature","geometry":{"type":"Point","coordinates":[12.4386921,41.8982028]}},{"properties":{"city":"ROMA","latitude":41.8830149,"network capability":10,"longitude":12.4633261,"id":"a62a7e00tm93"},"type":"Feature","geometry":{"type":"Point","coordinates":[12.4633261,41.8830149]}},{"properties":{"city":"ROMA","latitude":41.9183167,"network capability":10,"longitude":12.4206261,"id":"a62a7e8m8s1a"},"type":"Feature","geometry":{"type":"Point","coordinates":[12.4206261,41.9183167]}},{"properties":{"city":"ROMA","latitude":41.7697168,"network capability":10,"longitude":12.3740285,"id":"a62a7ebc40pa"},"type":"Feature","geometry":{"type":"Point","coordinates":[12.3740285,41.7697168]}},{"properties":{"city":"ROMA","latitude":41.9153325,"network capability":10,"longitude":12.5130372,"id":"a62a7dykihk9"},"type":"Feature","geometry":{"type":"Point","coordinates":[12.5130372,41.9153325]}},{"properties":{"city":"ROMA","latitude":41.7697168,"network capability":10,"longitude":12.3740285,"id":"a62a7eegvyrz"},"type":"Feature","geometry":{"type":"Point","coordinates":[12.3740285,41.7697168]}},{"properties":{"city":"ROMA","latitude":41.7697168,"network capability":10,"longitude":12.3740285,"id":"a62a7ebblfr7"},"type":"Feature","geometry":{"type":"Point","coordinates":[12.3740285,41.7697168]}},{"properties":{"city":"ROMA","latitude":41.9271593,"network capability":10,"longitude":12.447048,"id":"a62a7e6xtj6r"},"type":"Feature","geometry":{"type":"Point","coordinates":[12.447048,41.9271593]}},{"properties":{"city":"ROMA","latitude":41.938471,"network capability":10,"longitude":12.5446174,"id":"a62a7ebour5o"},"type":"Feature","geometry":{"type":"Point","coordinates":[12.5446174,41.938471]}},{"properties":{"city":"ROMA","latitude":41.9456281,"network capability":10,"longitude":12.5576947,"id":"a62a7ea9ar0e"},"type":"Feature","geometry":{"type":"Point","coordinates":[12.5576947,41.9456281]}},{"properties":{"city":"ROMA","latitude":41.8587831,"network capability":10,"longitude":12.4868421,"id":"a62a7edv08fz"},"type":"Feature","geometry":{"type":"Point","coordinates":[12.4868421,41.8587831]}},{"properties":{"city":"ROMA","latitude":41.9480391,"network capability":10,"longitude":12.4472777,"id":"a62a7e87202g"},"type":"Feature","geometry":{"type":"Point","coordinates":[12.4472777,41.9480391]}},{"properties":{"city":"ROMA","latitude":41.8815645,"network capability":10,"longitude":12.5129374,"id":"a62a7e5idgze"},"type":"Feature","geometry":{"type":"Point","coordinates":[12.5129374,41.8815645]}},{"properties":{"city":"ROMA","latitude":41.7378431,"network capability":10,"longitude":12.3647149,"id":"a62a7e3fpdio"},"type":"Feature","geometry":{"type":"Point","coordinates":[12.3647149,41.7378431]}},{"properties":{"city":"ROMA","latitude":41.9327442,"network capability":10,"longitude":12.510467,"id":"a62a7e93w5ai"},"type":"Feature","geometry":{"type":"Point","coordinates":[12.510467,41.9327442]}},{"properties":{"city":"ROMA","latitude":41.9293661,"network capability":10,"longitude":12.5121896,"id":"a62a7dz2lvg2"},"type":"Feature","geometry":{"type":"Point","coordinates":[12.5121896,41.9293661]}},{"properties":{"city":"ROMA","latitude":41.8064214,"network capability":10,"longitude":12.4328946,"id":"a62a7e815o1t"},"type":"Feature","geometry":{"type":"Point","coordinates":[12.4328946,41.8064214]}},{"properties":{"city":"ROMA","latitude":41.9216296,"network capability":10,"longitude":12.5052698,"id":"a62a7edhtce4"},"type":"Feature","geometry":{"type":"Point","coordinates":[12.5052698,41.9216296]}},{"properties":{"city":"ROMA","latitude":41.9202626,"network capability":10,"longitude":12.4976686,"id":"a62a7eeu5rf6"},"type":"Feature","geometry":{"type":"Point","coordinates":[12.4976686,41.9202626]}},{"properties":{"city":"ROMA","latitude":41.9480095,"network capability":10,"longitude":12.5493699,"id":"a62a7e9fqyyx"},"type":"Feature","geometry":{"type":"Point","coordinates":[12.5493699,41.9480095]}},{"properties":{"city":"ROMA","latitude":41.7697168,"network capability":10,"longitude":12.3740285,"id":"a62a7ecif7cz"},"type":"Feature","geometry":{"type":"Point","coordinates":[12.3740285,41.7697168]}},{"properties":{"city":"ROMA","latitude":41.7530189,"network capability":10,"longitude":12.3585946,"id":"a62a7e1v5niw"},"type":"Feature","geometry":{"type":"Point","coordinates":[12.3585946,41.7530189]}},{"properties":{"city":"ROMA","latitude":41.9235793,"network capability":10,"longitude":12.4877898,"id":"a62a7e2xrkga"},"type":"Feature","geometry":{"type":"Point","coordinates":[12.4877898,41.9235793]}},{"properties":{"city":"ROMA","latitude":41.886859,"network capability":10,"longitude":12.505095,"id":"a62a7e07ljy2"},"type":"Feature","geometry":{"type":"Point","coordinates":[12.505095,41.886859]}},{"properties":{"city":"ROMA","latitude":41.8704265,"network capability":10,"longitude":12.4679585,"id":"a62a7ea7168o"},"type":"Feature","geometry":{"type":"Point","coordinates":[12.4679585,41.8704265]}},{"properties":{"city":"ROMA","latitude":41.9281722,"network capability":10,"longitude":12.4192374,"id":"a62a7e0y8ib9"},"type":"Feature","geometry":{"type":"Point","coordinates":[12.4192374,41.9281722]}},{"properties":{"city":"ROMA","latitude":41.816915,"network capability":10,"longitude":12.477121,"id":"a62a7e3o0ib1"},"type":"Feature","geometry":{"type":"Point","coordinates":[12.477121,41.816915]}},{"properties":{"city":"ROMA","latitude":41.816915,"network capability":10,"longitude":12.477121,"id":"a62a7easvbve"},"type":"Feature","geometry":{"type":"Point","coordinates":[12.477121,41.816915]}},{"properties":{"city":"ROMA","latitude":41.8976797,"network capability":10,"longitude":12.5373541,"id":"a62a7e1gglwe"},"type":"Feature","geometry":{"type":"Point","coordinates":[12.5373541,41.8976797]}},{"properties":{"city":"ROMA","latitude":41.956588,"network capability":10,"longitude":12.4142019,"id":"a62a7e2za50i"},"type":"Feature","geometry":{"type":"Point","coordinates":[12.4142019,41.956588]}},{"properties":{"city":"ROMA","latitude":41.9359356,"network capability":10,"longitude":12.5138153,"id":"a62a7ebu164c"},"type":"Feature","geometry":{"type":"Point","coordinates":[12.5138153,41.9359356]}},{"properties":{"city":"ROMA","latitude":41.9480095,"network capability":10,"longitude":12.5493699,"id":"a62a7e5gbtnm"},"type":"Feature","geometry":{"type":"Point","coordinates":[12.5493699,41.9480095]}},{"properties":{"city":"ROMA","latitude":41.9310564,"network capability":10,"longitude":12.5139828,"id":"a62a7e8ulp5y"},"type":"Feature","geometry":{"type":"Point","coordinates":[12.5139828,41.9310564]}},{"properties":{"city":"ROVERETO","latitude":35.2571148,"network capability":12,"longitude":-89.3606298,"id":"a62a7edgnurm"},"type":"Feature","geometry":{"type":"Point","coordinates":[-89.3606298,35.2571148]}},{"properties":{"city":"ROVIGO","latitude":45.0748351,"network capability":10,"longitude":11.8114389,"id":"a62a7eeckh0n"},"type":"Feature","geometry":{"type":"Point","coordinates":[11.8114389,45.0748351]}},{"properties":{"city":"ROZZANO (MI)","latitude":45.3720262,"network capability":10,"longitude":9.1676517,"id":"a62a7e2sf6jn"},"type":"Feature","geometry":{"type":"Point","coordinates":[9.1676517,45.3720262]}},{"properties":{"city":"RUFFANO","latitude":39.9868676,"network capability":18,"longitude":18.2424532,"id":"a62a7e3rp9m3"},"type":"Feature","geometry":{"type":"Point","coordinates":[18.2424532,39.9868676]}},{"properties":{"city":"S AGATA DI MILITELLO","latitude":38.0687753,"network capability":18,"longitude":14.6352627,"id":"a62a7e1opbtt"},"type":"Feature","geometry":{"type":"Point","coordinates":[14.6352627,38.0687753]}},{"properties":{"city":"S.GIOVANNI ROTONDO","latitude":41.7055032,"network capability":18,"longitude":15.724788,"id":"a62a7e6ua7dc"},"type":"Feature","geometry":{"type":"Point","coordinates":[15.724788,41.7055032]}},{"properties":{"city":"S.MARIA CAPUA VETERE","latitude":41.0767862,"network capability":12,"longitude":14.2606077,"id":"a62a7e8s6y56"},"type":"Feature","geometry":{"type":"Point","coordinates":[14.2606077,41.0767862]}},{"properties":{"city":"SALERNO","latitude":40.6805911,"network capability":12,"longitude":14.7722154,"id":"a62a7e6vdbod"},"type":"Feature","geometry":{"type":"Point","coordinates":[14.7722154,40.6805911]}},{"properties":{"city":"SALERNO","latitude":40.6805911,"network capability":12,"longitude":14.7722154,"id":"a62a7e0yktee"},"type":"Feature","geometry":{"type":"Point","coordinates":[14.7722154,40.6805911]}},{"properties":{"city":"SALERNO","latitude":40.6805911,"network capability":12,"longitude":14.7722154,"id":"a62a7e1v0yn8"},"type":"Feature","geometry":{"type":"Point","coordinates":[14.7722154,40.6805911]}},{"properties":{"city":"SALERNO","latitude":40.6469761,"network capability":12,"longitude":14.8304394,"id":"a62a7ecudzu3"},"type":"Feature","geometry":{"type":"Point","coordinates":[14.8304394,40.6469761]}},{"properties":{"city":"Salerno","latitude":40.6820025,"network capability":12,"longitude":14.7693074,"id":"a62a7eajbqnw"},"type":"Feature","geometry":{"type":"Point","coordinates":[14.7693074,40.6820025]}},{"properties":{"city":"SALERNO","latitude":40.6814633,"network capability":12,"longitude":14.7777389,"id":"a62a7e3g66mk"},"type":"Feature","geometry":{"type":"Point","coordinates":[14.7777389,40.6814633]}},{"properties":{"city":"SALERNO","latitude":40.7692929,"network capability":12,"longitude":-111.8907844,"id":"a62a7ecmt909"},"type":"Feature","geometry":{"type":"Point","coordinates":[-111.8907844,40.7692929]}},{"properties":{"city":"SALERNO","latitude":40.6780308,"network capability":12,"longitude":14.7681847,"id":"a62a7e491q9u"},"type":"Feature","geometry":{"type":"Point","coordinates":[14.7681847,40.6780308]}},{"properties":{"city":"SALERNO","latitude":40.7692929,"network capability":12,"longitude":-111.8907844,"id":"a62a7e9my9t2"},"type":"Feature","geometry":{"type":"Point","coordinates":[-111.8907844,40.7692929]}},{"properties":{"city":"SAN DONA' DI PIAVE (VE)","latitude":45.6300524,"network capability":10,"longitude":12.5727376,"id":"a62a7ea613tr"},"type":"Feature","geometry":{"type":"Point","coordinates":[12.5727376,45.6300524]}},{"properties":{"city":"SAN DONATO MILANESE","latitude":45.4125002,"network capability":10,"longitude":9.2754007,"id":"a62a7e6imn01"},"type":"Feature","geometry":{"type":"Point","coordinates":[9.2754007,45.4125002]}},{"properties":{"city":"SAN FELICE A CANCELLO","latitude":41.0166216,"network capability":18,"longitude":14.4889999,"id":"a62a7e5ei7uq"},"type":"Feature","geometry":{"type":"Point","coordinates":[14.4889999,41.0166216]}},{"properties":{"city":"SAN GAVINO MONREALE","latitude":39.5509504,"network capability":18,"longitude":8.7915366,"id":"a62a7dzwz9o1"},"type":"Feature","geometry":{"type":"Point","coordinates":[8.7915366,39.5509504]}},{"properties":{"city":"SAN GIOVANNI BIANCO","latitude":45.8709442,"network capability":18,"longitude":9.6545979,"id":"a62a7e2fp4yb"},"type":"Feature","geometry":{"type":"Point","coordinates":[9.6545979,45.8709442]}},{"properties":{"city":"SAN GIOVANNI ROTONDO","latitude":41.7060021,"network capability":18,"longitude":15.7349167,"id":"a62a7e4yx4os"},"type":"Feature","geometry":{"type":"Point","coordinates":[15.7349167,41.7060021]}},{"properties":{"city":"SAN GIOVANNI ROTONDO","latitude":null,"network capability":18,"longitude":null,"id":"a62a7ebn4e2m"},"type":"Feature","geometry":null},{"properties":{"city":"SAN LUCIDO","latitude":39.3097635,"network capability":18,"longitude":16.0483278,"id":"a62a7e08oyh0"},"type":"Feature","geometry":{"type":"Point","coordinates":[16.0483278,39.3097635]}},{"properties":{"city":"SAN NICOLO' A TORDINO","latitude":42.6982173,"network capability":10,"longitude":13.793982,"id":"a62a7e4nz9te"},"type":"Feature","geometry":{"type":"Point","coordinates":[13.793982,42.6982173]}},{"properties":{"city":"SANSEPOLCRO","latitude":43.571171,"network capability":18,"longitude":12.1506719,"id":"a62a7e8nt4vj"},"type":"Feature","geometry":{"type":"Point","coordinates":[12.1506719,43.571171]}},{"properties":{"city":"SARONNO","latitude":45.6288895,"network capability":10,"longitude":9.0408849,"id":"a62a7e73jhh5"},"type":"Feature","geometry":{"type":"Point","coordinates":[9.0408849,45.6288895]}},{"properties":{"city":"SASSARI","latitude":40.7195207,"network capability":18,"longitude":8.5541286,"id":"a62a7e05kllw"},"type":"Feature","geometry":{"type":"Point","coordinates":[8.5541286,40.7195207]}},{"properties":{"city":"SASSARI","latitude":40.7524069,"network capability":18,"longitude":8.5408967,"id":"a62a7ebpqo25"},"type":"Feature","geometry":{"type":"Point","coordinates":[8.5408967,40.7524069]}},{"properties":{"city":"SASSUOLO","latitude":44.5331012,"network capability":10,"longitude":10.7940754,"id":"a62a7ec2nhiw"},"type":"Feature","geometry":{"type":"Point","coordinates":[10.7940754,44.5331012]}},{"properties":{"city":"SAVONA","latitude":44.3065026,"network capability":10,"longitude":8.4818826,"id":"a62a7e63o6bg"},"type":"Feature","geometry":{"type":"Point","coordinates":[8.4818826,44.3065026]}},{"properties":{"city":"SAVONA","latitude":44.3065026,"network capability":10,"longitude":8.4818826,"id":"a62a7e4mczfy"},"type":"Feature","geometry":{"type":"Point","coordinates":[8.4818826,44.3065026]}},{"properties":{"city":"SCANZOROSCIATE","latitude":45.7097755,"network capability":10,"longitude":9.7329855,"id":"a62a7dyczfjp"},"type":"Feature","geometry":{"type":"Point","coordinates":[9.7329855,45.7097755]}},{"properties":{"city":"SCHIO","latitude":45.7124852,"network capability":10,"longitude":11.3691071,"id":"a62a7e0cn60p"},"type":"Feature","geometry":{"type":"Point","coordinates":[11.3691071,45.7124852]}},{"properties":{"city":"SCHIO","latitude":45.7202803,"network capability":10,"longitude":11.3560752,"id":"a62a7e9w91q8"},"type":"Feature","geometry":{"type":"Point","coordinates":[11.3560752,45.7202803]}},{"properties":{"city":"SCORRANO","latitude":40.091723,"network capability":18,"longitude":18.2965645,"id":"a62a7e4dr28r"},"type":"Feature","geometry":{"type":"Point","coordinates":[18.2965645,40.091723]}},{"properties":{"city":"SECUGNAGO","latitude":null,"network capability":18,"longitude":null,"id":"a62a7e4gzzzu"},"type":"Feature","geometry":null},{"properties":{"city":"SECUGNAGO","latitude":null,"network capability":18,"longitude":null,"id":"a62a7e5v3s19"},"type":"Feature","geometry":null},{"properties":{"city":"SELARGIUS","latitude":39.2555819,"network capability":18,"longitude":9.1021531,"id":"a62a7ea82at1"},"type":"Feature","geometry":{"type":"Point","coordinates":[9.1021531,39.2555819]}},{"properties":{"city":"Seregno","latitude":45.6340446,"network capability":10,"longitude":9.1989815,"id":"a62a7e0sp46s"},"type":"Feature","geometry":{"type":"Point","coordinates":[9.1989815,45.6340446]}},{"properties":{"city":"SERIATE","latitude":45.6824372,"network capability":10,"longitude":9.7158733,"id":"a62a7dznbzcz"},"type":"Feature","geometry":{"type":"Point","coordinates":[9.7158733,45.6824372]}},{"properties":{"city":"SESSA AURUNCA","latitude":41.2405535,"network capability":18,"longitude":13.9975729,"id":"a62a7e7mj2wt"},"type":"Feature","geometry":{"type":"Point","coordinates":[13.9975729,41.2405535]}},{"properties":{"city":"SIBARI STAZIONE","latitude":34.9895867,"network capability":18,"longitude":-105.652983,"id":"a62a7ea0u8u7"},"type":"Feature","geometry":{"type":"Point","coordinates":[-105.652983,34.9895867]}},{"properties":{"city":"SIENA","latitude":null,"network capability":10,"longitude":null,"id":"a62a7e0z9ifz"},"type":"Feature","geometry":null},{"properties":{"city":"SIENA","latitude":null,"network capability":10,"longitude":null,"id":"a62a7e928bck"},"type":"Feature","geometry":null},{"properties":{"city":"SIRACUSA","latitude":37.1019036,"network capability":18,"longitude":15.2709833,"id":"a62a7e8mc98j"},"type":"Feature","geometry":{"type":"Point","coordinates":[15.2709833,37.1019036]}},{"properties":{"city":"SIRACUSA","latitude":37.0686757,"network capability":18,"longitude":15.2846192,"id":"a62a7e2qk7wp"},"type":"Feature","geometry":{"type":"Point","coordinates":[15.2846192,37.0686757]}},{"properties":{"city":"SONDRIO","latitude":46.1708913,"network capability":10,"longitude":9.8799176,"id":"a62a7ecrv4yv"},"type":"Feature","geometry":{"type":"Point","coordinates":[9.8799176,46.1708913]}},{"properties":{"city":"SONDRIO","latitude":46.1708913,"network capability":10,"longitude":9.8799176,"id":"a62a7e3cm2x0"},"type":"Feature","geometry":{"type":"Point","coordinates":[9.8799176,46.1708913]}},{"properties":{"city":"SORRENTO","latitude":40.6265545,"network capability":18,"longitude":14.3782004,"id":"a62a7ec2kasc"},"type":"Feature","geometry":{"type":"Point","coordinates":[14.3782004,40.6265545]}},{"properties":{"city":"SORRENTO","latitude":40.6270837,"network capability":18,"longitude":14.3834486,"id":"a62a7e2dk7eu"},"type":"Feature","geometry":{"type":"Point","coordinates":[14.3834486,40.6270837]}},{"properties":{"city":"SOTTOMARINA","latitude":45.1979645,"network capability":12,"longitude":12.2847147,"id":"a62a7ec4oako"},"type":"Feature","geometry":{"type":"Point","coordinates":[12.2847147,45.1979645]}},{"properties":{"city":"SOVIZZO","latitude":45.5181125,"network capability":10,"longitude":11.4322496,"id":"a62a7ec1r7ud"},"type":"Feature","geometry":{"type":"Point","coordinates":[11.4322496,45.5181125]}},{"properties":{"city":"STATO DELLA CITTA DEL VATICANO","latitude":null,"network capability":null,"longitude":null,"id":"a62a7e52j2cx"},"type":"Feature","geometry":null},{"properties":{"city":"SULMONA","latitude":42.1571619,"network capability":18,"longitude":14.0027317,"id":"a62a7e2jbsd6"},"type":"Feature","geometry":{"type":"Point","coordinates":[14.0027317,42.1571619]}},{"properties":{"city":"SULMONA","latitude":42.0515517,"network capability":18,"longitude":13.9328444,"id":"a62a7dzjqova"},"type":"Feature","geometry":{"type":"Point","coordinates":[13.9328444,42.0515517]}},{"properties":{"city":"SUPERSANO","latitude":40.0217346,"network capability":18,"longitude":18.2400585,"id":"a62a7ean44x4"},"type":"Feature","geometry":{"type":"Point","coordinates":[18.2400585,40.0217346]}},{"properties":{"city":"TARANTO","latitude":40.464519,"network capability":12,"longitude":17.2454273,"id":"a62a7ea5bj07"},"type":"Feature","geometry":{"type":"Point","coordinates":[17.2454273,40.464519]}},{"properties":{"city":"TARANTO","latitude":40.4472831,"network capability":12,"longitude":17.2694075,"id":"a62a7e1oqygk"},"type":"Feature","geometry":{"type":"Point","coordinates":[17.2694075,40.4472831]}},{"properties":{"city":"TARANTO","latitude":40.4560953,"network capability":12,"longitude":17.2582766,"id":"a62a7e1qbqtu"},"type":"Feature","geometry":{"type":"Point","coordinates":[17.2582766,40.4560953]}},{"properties":{"city":"TARANTO","latitude":40.5151541,"network capability":12,"longitude":17.2537141,"id":"a62a7dzx7a4s"},"type":"Feature","geometry":{"type":"Point","coordinates":[17.2537141,40.5151541]}},{"properties":{"city":"TARQUINIA","latitude":42.2506485,"network capability":18,"longitude":11.7590742,"id":"a62a7ec08i5a"},"type":"Feature","geometry":{"type":"Point","coordinates":[11.7590742,42.2506485]}},{"properties":{"city":"TERAMO","latitude":42.6622465,"network capability":10,"longitude":13.7010882,"id":"a62a7e9hfmkq"},"type":"Feature","geometry":{"type":"Point","coordinates":[13.7010882,42.6622465]}},{"properties":{"city":"TERLIZZI","latitude":41.132175,"network capability":18,"longitude":16.5350391,"id":"a62a7e5zi2dt"},"type":"Feature","geometry":{"type":"Point","coordinates":[16.5350391,41.132175]}},{"properties":{"city":"TERMOLI","latitude":41.9971872,"network capability":10,"longitude":14.9931841,"id":"a62a7eb6wiu5"},"type":"Feature","geometry":{"type":"Point","coordinates":[14.9931841,41.9971872]}},{"properties":{"city":"TERNI","latitude":42.5553715,"network capability":10,"longitude":12.6569884,"id":"a62a7e4dr4hy"},"type":"Feature","geometry":{"type":"Point","coordinates":[12.6569884,42.5553715]}},{"properties":{"city":"TERNI","latitude":42.5672263,"network capability":10,"longitude":12.645595,"id":"a62a7eel77cx"},"type":"Feature","geometry":{"type":"Point","coordinates":[12.645595,42.5672263]}},{"properties":{"city":"TERNI","latitude":42.5647988,"network capability":10,"longitude":12.650158,"id":"a62a7e7z7trn"},"type":"Feature","geometry":{"type":"Point","coordinates":[12.650158,42.5647988]}},{"properties":{"city":"THIENE","latitude":45.7021136,"network capability":10,"longitude":11.4806544,"id":"a62a7e7vfwtr"},"type":"Feature","geometry":{"type":"Point","coordinates":[11.4806544,45.7021136]}},{"properties":{"city":"TIVOLI","latitude":41.9548676,"network capability":18,"longitude":12.7917159,"id":"a62a7e2xr1gv"},"type":"Feature","geometry":{"type":"Point","coordinates":[12.7917159,41.9548676]}},{"properties":{"city":"TIVOLI","latitude":41.9605662,"network capability":18,"longitude":12.801754,"id":"a62a7ecvwk3o"},"type":"Feature","geometry":{"type":"Point","coordinates":[12.801754,41.9605662]}},{"properties":{"city":"TOLMEZZO","latitude":46.4052059,"network capability":18,"longitude":13.0074131,"id":"a62a7edyq7a1"},"type":"Feature","geometry":{"type":"Point","coordinates":[13.0074131,46.4052059]}},{"properties":{"city":"TORINO","latitude":45.0906549,"network capability":10,"longitude":7.7435574,"id":"a62a7eardu7f"},"type":"Feature","geometry":{"type":"Point","coordinates":[7.7435574,45.0906549]}},{"properties":{"city":"TORINO","latitude":45.0417974,"network capability":10,"longitude":7.674918,"id":"a62a7eav9qx8"},"type":"Feature","geometry":{"type":"Point","coordinates":[7.674918,45.0417974]}},{"properties":{"city":"TORINO","latitude":45.0575435,"network capability":10,"longitude":7.6586699,"id":"a62a7ed4zy30"},"type":"Feature","geometry":{"type":"Point","coordinates":[7.6586699,45.0575435]}},{"properties":{"city":"TORINO","latitude":45.0791906,"network capability":10,"longitude":7.6803898,"id":"a62a7e5dilmj"},"type":"Feature","geometry":{"type":"Point","coordinates":[7.6803898,45.0791906]}},{"properties":{"city":"TORINO","latitude":45.0521835,"network capability":10,"longitude":7.6675298,"id":"a62a7e1cta9k"},"type":"Feature","geometry":{"type":"Point","coordinates":[7.6675298,45.0521835]}},{"properties":{"city":"TORINO","latitude":45.0672029,"network capability":10,"longitude":7.6285069,"id":"a62a7e6w4e74"},"type":"Feature","geometry":{"type":"Point","coordinates":[7.6285069,45.0672029]}},{"properties":{"city":"TORINO","latitude":45.0885342,"network capability":10,"longitude":7.6586471,"id":"a62a7dzuprd4"},"type":"Feature","geometry":{"type":"Point","coordinates":[7.6586471,45.0885342]}},{"properties":{"city":"TORINO","latitude":40.7577789,"network capability":10,"longitude":-73.9725344,"id":"a62a7dzgcdvs"},"type":"Feature","geometry":{"type":"Point","coordinates":[-73.9725344,40.7577789]}},{"properties":{"city":"TORINO","latitude":45.0603231,"network capability":10,"longitude":7.6730362,"id":"a62a7eeiq6rc"},"type":"Feature","geometry":{"type":"Point","coordinates":[7.6730362,45.0603231]}},{"properties":{"city":"TORINO","latitude":45.0587925,"network capability":10,"longitude":7.6620635,"id":"a62a7e8swmzu"},"type":"Feature","geometry":{"type":"Point","coordinates":[7.6620635,45.0587925]}},{"properties":{"city":"TORINO","latitude":45.0543874,"network capability":10,"longitude":7.6806617,"id":"a62a7e3guc9s"},"type":"Feature","geometry":{"type":"Point","coordinates":[7.6806617,45.0543874]}},{"properties":{"city":"TORINO","latitude":40.76,"network capability":10,"longitude":-73.97,"id":"a62a7e2z3f1f"},"type":"Feature","geometry":{"type":"Point","coordinates":[-73.97,40.76]}},{"properties":{"city":"TORINO","latitude":45.0206725,"network capability":10,"longitude":7.6238608,"id":"a62a7e8x70oa"},"type":"Feature","geometry":{"type":"Point","coordinates":[7.6238608,45.0206725]}},{"properties":{"city":"TORINO","latitude":45.0227789,"network capability":10,"longitude":7.655809,"id":"a62a7eb2a7oj"},"type":"Feature","geometry":{"type":"Point","coordinates":[7.655809,45.0227789]}},{"properties":{"city":"TORRE DEL GRECO","latitude":40.810032,"network capability":18,"longitude":14.388506,"id":"a62a7ebcwifi"},"type":"Feature","geometry":{"type":"Point","coordinates":[14.388506,40.810032]}},{"properties":{"city":"TORRETTE DI ANCONA","latitude":43.6064499,"network capability":10,"longitude":13.4547732,"id":"a62a7e87kh0v"},"type":"Feature","geometry":{"type":"Point","coordinates":[13.4547732,43.6064499]}},{"properties":{"city":"TRADATE","latitude":45.7229592,"network capability":10,"longitude":8.9003742,"id":"a62a7eadfj4t"},"type":"Feature","geometry":{"type":"Point","coordinates":[8.9003742,45.7229592]}},{"properties":{"city":"TRADATE","latitude":45.7178621,"network capability":10,"longitude":8.908582,"id":"a62a7ebc2eh9"},"type":"Feature","geometry":{"type":"Point","coordinates":[8.908582,45.7178621]}},{"properties":{"city":"TRAPANI","latitude":38.0156496,"network capability":18,"longitude":12.5182486,"id":"a62a7eck8lky"},"type":"Feature","geometry":{"type":"Point","coordinates":[12.5182486,38.0156496]}},{"properties":{"city":"TRECASTAGNI","latitude":37.6066709,"network capability":18,"longitude":15.0772883,"id":"a62a7ebq5u0z"},"type":"Feature","geometry":{"type":"Point","coordinates":[15.0772883,37.6066709]}},{"properties":{"city":"TRENTO","latitude":46.0500365,"network capability":10,"longitude":11.1238058,"id":"a62a7e8h4pw1"},"type":"Feature","geometry":{"type":"Point","coordinates":[11.1238058,46.0500365]}},{"properties":{"city":"TRENTO","latitude":46.0626162,"network capability":10,"longitude":11.1265501,"id":"a62a7e0a8vso"},"type":"Feature","geometry":{"type":"Point","coordinates":[11.1265501,46.0626162]}},{"properties":{"city":"TRENZANO","latitude":45.4771485,"network capability":18,"longitude":10.0121373,"id":"a62a7e8dqvkw"},"type":"Feature","geometry":{"type":"Point","coordinates":[10.0121373,45.4771485]}},{"properties":{"city":"TREPUZZI","latitude":40.4055275,"network capability":18,"longitude":18.0764068,"id":"a62a7e1qdx8p"},"type":"Feature","geometry":{"type":"Point","coordinates":[18.0764068,40.4055275]}},{"properties":{"city":"TREVIGLIO","latitude":null,"network capability":10,"longitude":null,"id":"a62a7e867fpb"},"type":"Feature","geometry":null},{"properties":{"city":"TREVISO","latitude":45.6685018,"network capability":10,"longitude":12.2527649,"id":"a62a7ed4ml1v"},"type":"Feature","geometry":{"type":"Point","coordinates":[12.2527649,45.6685018]}},{"properties":{"city":"TRICASE","latitude":39.934271,"network capability":18,"longitude":18.356995,"id":"a62a7ebsrv8q"},"type":"Feature","geometry":{"type":"Point","coordinates":[18.356995,39.934271]}},{"properties":{"city":"TRICERRO","latitude":45.2336199,"network capability":18,"longitude":8.3235149,"id":"a62a7e01y4qe"},"type":"Feature","geometry":{"type":"Point","coordinates":[8.3235149,45.2336199]}},{"properties":{"city":"TRIESTE","latitude":45.6524362,"network capability":10,"longitude":13.7869812,"id":"a62a7e2f57cg"},"type":"Feature","geometry":{"type":"Point","coordinates":[13.7869812,45.6524362]}},{"properties":{"city":"UDINE","latitude":46.0770002,"network capability":10,"longitude":13.2303941,"id":"a62a7e0vs208"},"type":"Feature","geometry":{"type":"Point","coordinates":[13.2303941,46.0770002]}},{"properties":{"city":"UDINE","latitude":46.0547306,"network capability":10,"longitude":13.242339,"id":"a62a7ebpnluv"},"type":"Feature","geometry":{"type":"Point","coordinates":[13.242339,46.0547306]}},{"properties":{"city":"URBINO","latitude":43.7333528,"network capability":12,"longitude":12.6321227,"id":"a62a7easkte8"},"type":"Feature","geometry":{"type":"Point","coordinates":[12.6321227,43.7333528]}},{"properties":{"city":"VARESE","latitude":45.8079118,"network capability":10,"longitude":8.8373219,"id":"a62a7edkz9mu"},"type":"Feature","geometry":{"type":"Point","coordinates":[8.8373219,45.8079118]}},{"properties":{"city":"VASTO","latitude":42.1181928,"network capability":12,"longitude":14.7106277,"id":"a62a7e9d5ozp"},"type":"Feature","geometry":{"type":"Point","coordinates":[14.7106277,42.1181928]}},{"properties":{"city":"VENEZIA","latitude":45.4197604,"network capability":18,"longitude":12.3799285,"id":"a62a7e5vqqyz"},"type":"Feature","geometry":{"type":"Point","coordinates":[12.3799285,45.4197604]}},{"properties":{"city":"VENEZIA - MESTRE","latitude":45.5111811,"network capability":10,"longitude":12.2315105,"id":"a62a7ebskrvc"},"type":"Feature","geometry":{"type":"Point","coordinates":[12.2315105,45.5111811]}},{"properties":{"city":"VENEZIA - MESTRE","latitude":45.5111811,"network capability":10,"longitude":12.2315105,"id":"a62a7ebotn8p"},"type":"Feature","geometry":{"type":"Point","coordinates":[12.2315105,45.5111811]}},{"properties":{"city":"VENOSA","latitude":40.9592297,"network capability":18,"longitude":15.806932,"id":"a62a7e30ze53"},"type":"Feature","geometry":{"type":"Point","coordinates":[15.806932,40.9592297]}},{"properties":{"city":"VERBANIA PALLANZA","latitude":45.9294206,"network capability":10,"longitude":8.5510464,"id":"a62a7ed1ox0t"},"type":"Feature","geometry":{"type":"Point","coordinates":[8.5510464,45.9294206]}},{"properties":{"city":"VERCELLI","latitude":45.3183489,"network capability":12,"longitude":8.4149533,"id":"a62a7e1pytcn"},"type":"Feature","geometry":{"type":"Point","coordinates":[8.4149533,45.3183489]}},{"properties":{"city":"VERCELLI","latitude":45.3133846,"network capability":12,"longitude":8.4230623,"id":"a62a7e11ar1s"},"type":"Feature","geometry":{"type":"Point","coordinates":[8.4230623,45.3133846]}},{"properties":{"city":"VERONA","latitude":45.4346417,"network capability":10,"longitude":10.9867951,"id":"a62a7ecesc5d"},"type":"Feature","geometry":{"type":"Point","coordinates":[10.9867951,45.4346417]}},{"properties":{"city":"VERONA","latitude":45.4516255,"network capability":10,"longitude":10.9854952,"id":"a62a7eagw2gw"},"type":"Feature","geometry":{"type":"Point","coordinates":[10.9854952,45.4516255]}},{"properties":{"city":"VERONA","latitude":45.4516255,"network capability":10,"longitude":10.9854952,"id":"a62a7e3zwz50"},"type":"Feature","geometry":{"type":"Point","coordinates":[10.9854952,45.4516255]}},{"properties":{"city":"VETTO","latitude":44.48579,"network capability":18,"longitude":10.3386298,"id":"a62a7e42mn3t"},"type":"Feature","geometry":{"type":"Point","coordinates":[10.3386298,44.48579]}},{"properties":{"city":"VIBO VALENTIA","latitude":38.6754889,"network capability":18,"longitude":16.0962889,"id":"a62a7e38u9p6"},"type":"Feature","geometry":{"type":"Point","coordinates":[16.0962889,38.6754889]}},{"properties":{"city":"VICENZA","latitude":45.5573116,"network capability":10,"longitude":11.5486605,"id":"a62a7e8jrpyr"},"type":"Feature","geometry":{"type":"Point","coordinates":[11.5486605,45.5573116]}},{"properties":{"city":"VICO EQUENSE","latitude":40.7011024,"network capability":18,"longitude":14.4855634,"id":"a62a7e5g8iog"},"type":"Feature","geometry":{"type":"Point","coordinates":[14.4855634,40.7011024]}},{"properties":{"city":"VICOMOSCANO","latitude":44.9742183,"network capability":18,"longitude":10.4557631,"id":"a62a7e483bb7"},"type":"Feature","geometry":{"type":"Point","coordinates":[10.4557631,44.9742183]}},{"properties":{"city":"VIGEVANO","latitude":45.3069478,"network capability":12,"longitude":8.8693295,"id":"a62a7e2z1u2h"},"type":"Feature","geometry":{"type":"Point","coordinates":[8.8693295,45.3069478]}},{"properties":{"city":"VIGNOLA","latitude":null,"network capability":10,"longitude":null,"id":"a62a7e4u472t"},"type":"Feature","geometry":null},{"properties":{"city":"VIGODARZERE","latitude":45.453757,"network capability":10,"longitude":11.8821495,"id":"a62a7dyegcdf"},"type":"Feature","geometry":{"type":"Point","coordinates":[11.8821495,45.453757]}},{"properties":{"city":"VILLA LITERNO","latitude":37.9314796,"network capability":18,"longitude":-104.053676,"id":"a62a7ee237v8"},"type":"Feature","geometry":{"type":"Point","coordinates":[-104.053676,37.9314796]}},{"properties":{"city":"VILLAFRANCA","latitude":45.3479428,"network capability":18,"longitude":10.8398529,"id":"a62a7e4vyr92"},"type":"Feature","geometry":{"type":"Point","coordinates":[10.8398529,45.3479428]}},{"properties":{"city":"VIMERCATE","latitude":45.6084625,"network capability":10,"longitude":9.3580982,"id":"a62a7e6dnmu5"},"type":"Feature","geometry":{"type":"Point","coordinates":[9.3580982,45.6084625]}},{"properties":{"city":"VIMERCATE","latitude":45.6133675,"network capability":10,"longitude":9.3680247,"id":"a62a7e30u5uu"},"type":"Feature","geometry":{"type":"Point","coordinates":[9.3680247,45.6133675]}},{"properties":{"city":"VITERBO","latitude":42.4152245,"network capability":10,"longitude":12.3470206,"id":"a62a7e4s1vep"},"type":"Feature","geometry":{"type":"Point","coordinates":[12.3470206,42.4152245]}},{"properties":{"city":"VITTORIA","latitude":45.483324,"network capability":18,"longitude":-122.2217055,"id":"a62a7e9k7fkq"},"type":"Feature","geometry":{"type":"Point","coordinates":[-122.2217055,45.483324]}},{"properties":{"city":"VIZZOLO PREDABISSI","latitude":45.360891,"network capability":12,"longitude":9.3438838,"id":"a62a7e72en83"},"type":"Feature","geometry":{"type":"Point","coordinates":[9.3438838,45.360891]}},{"properties":{"city":"VOGHERA","latitude":44.9927988,"network capability":18,"longitude":9.0175053,"id":"a62a7edhmcw7"},"type":"Feature","geometry":{"type":"Point","coordinates":[9.0175053,44.9927988]}}],"is_temporal":false,"author":{"url":"","metadata":"","contact_name":"","contact_address":"","source":"","contact_phone":""},"source":"","pagination":{"sort":null,"start":0,"total":706,"limit":1000000},"state":"complete","tags":"","published":"2014-08-14T22:47:22-04:00","id":226429}