{"type":"FeatureCollection","data_type":"Dataset","url_type":null,"permissions":[{"permissions":{"download":true,"view":true},"group_id":"everyone"}],"classification":null,"title":"Book1","count":1105,"stream_id":226422,"contributor":{"url":"http://geocommons.com/users/43657","name":"santosh43"},"data_attributes":null,"calculation_params":null,"icon_link":null,"link":"http://geocommons.com/overlays/226422.json","extent":[0.0,0.0,0.0,0.0],"geometry_types":[],"unique_name":null,"name":"Book1","feature_count":1105,"description":"","next_feature":null,"is_raster":false,"short_classification":"Y","stats":{},"features":[{"properties":{"status":"Not Completed","geo_score":0.0,"id":"a68qm3wzy2du","geo_precision":"unmatched","state":"WA"},"type":"Feature","geometry":null},{"properties":{"status":"Not Completed","geo_score":0.0,"id":"a68qm3yah7ft","geo_precision":"unmatched","state":"AZ"},"type":"Feature","geometry":null},{"properties":{"status":"Not Completed","geo_score":0.0,"id":"a68qm453d5ee","geo_precision":"unmatched","state":"CA"},"type":"Feature","geometry":null},{"properties":{"status":"Not Completed","geo_score":0.0,"id":"a68qm4946oq8","geo_precision":"unmatched","state":"KS"},"type":"Feature","geometry":null},{"properties":{"status":"Not Completed","geo_score":0.0,"id":"a68qm42z1lg0","geo_precision":"unmatched","state":"AZ"},"type":"Feature","geometry":null},{"properties":{"status":"Not Completed","geo_score":0.0,"id":"a68qm4a6xb5p","geo_precision":"unmatched","state":"MO"},"type":"Feature","geometry":null},{"properties":{"status":"Not Completed","geo_score":0.0,"id":"a68qm40uxtzz","geo_precision":"unmatched","state":"CA"},"type":"Feature","geometry":null},{"properties":{"status":"Completed","geo_score":0.0,"id":"a68qm42m61iw","geo_precision":"unmatched","state":"CA"},"type":"Feature","geometry":null},{"properties":{"status":"Completed","geo_score":0.0,"id":"a68qm4bezjpm","geo_precision":"unmatched","state":"CA"},"type":"Feature","geometry":null},{"properties":{"status":"Completed","geo_score":0.0,"id":"a68qm44efn6o","geo_precision":"unmatched","state":"CA"},"type":"Feature","geometry":null},{"properties":{"status":"Completed","geo_score":0.0,"id":"a68qm451zopc","geo_precision":"unmatched","state":"CA"},"type":"Feature","geometry":null},{"properties":{"status":"Completed","geo_score":0.0,"id":"a68qm43m99o7","geo_precision":"unmatched","state":"CA"},"type":"Feature","geometry":null},{"properties":{"status":"Completed","geo_score":0.0,"id":"a68qm40h3v8t","geo_precision":"unmatched","state":"CA"},"type":"Feature","geometry":null},{"properties":{"status":"Completed","geo_score":0.0,"id":"a68qm3w95jlk","geo_precision":"unmatched","state":"CA"},"type":"Feature","geometry":null},{"properties":{"status":"Completed","geo_score":0.0,"id":"a68qm402nhv5","geo_precision":"unmatched","state":"NC"},"type":"Feature","geometry":null},{"properties":{"status":"Not Completed","geo_score":0.0,"id":"a68qm4aji22x","geo_precision":"unmatched","state":"NC"},"type":"Feature","geometry":null},{"properties":{"status":"Completed","geo_score":0.0,"id":"a68qm47054e4","geo_precision":"unmatched","state":"NC"},"type":"Feature","geometry":null},{"properties":{"status":"Completed","geo_score":0.0,"id":"a68qm45a3hsp","geo_precision":"unmatched","state":"TX"},"type":"Feature","geometry":null},{"properties":{"status":"Completed","geo_score":0.0,"id":"a68qm40djudw","geo_precision":"unmatched","state":"TX"},"type":"Feature","geometry":null},{"properties":{"status":"Completed","geo_score":0.0,"id":"a68qm461fv7q","geo_precision":"unmatched","state":"CO"},"type":"Feature","geometry":null},{"properties":{"status":"Completed","geo_score":0.0,"id":"a68qm49x8sga","geo_precision":"unmatched","state":"CA"},"type":"Feature","geometry":null},{"properties":{"status":"Not Completed","geo_score":0.0,"id":"a68qm439v8v7","geo_precision":"unmatched","state":"TX"},"type":"Feature","geometry":null},{"properties":{"status":"Completed","geo_score":0.0,"id":"a68qm43eumme","geo_precision":"unmatched","state":"CO"},"type":"Feature","geometry":null},{"properties":{"status":"Not Completed","geo_score":0.0,"id":"a68qm4b7o7xq","geo_precision":"unmatched","state":"CO"},"type":"Feature","geometry":null},{"properties":{"status":"Completed","geo_score":0.0,"id":"a68qm3xw7vhn","geo_precision":"unmatched","state":"CA"},"type":"Feature","geometry":null},{"properties":{"status":"Completed","geo_score":0.0,"id":"a68qm3xv2wq8","geo_precision":"unmatched","state":"CO"},"type":"Feature","geometry":null},{"properties":{"status":"Completed","geo_score":0.0,"id":"a68qm47u8oof","geo_precision":"unmatched","state":"CO"},"type":"Feature","geometry":null},{"properties":{"status":"Completed","geo_score":0.0,"id":"a68qm480huqv","geo_precision":"unmatched","state":"TX"},"type":"Feature","geometry":null},{"properties":{"status":"Completed","geo_score":0.0,"id":"a68qm3vaeemi","geo_precision":"unmatched","state":"NC"},"type":"Feature","geometry":null},{"properties":{"status":"Completed","geo_score":0.0,"id":"a68qm451tuk0","geo_precision":"unmatched","state":"NC"},"type":"Feature","geometry":null},{"properties":{"status":"Completed","geo_score":0.0,"id":"a68qm47luu6c","geo_precision":"unmatched","state":"CA"},"type":"Feature","geometry":null},{"properties":{"status":"Not Completed","geo_score":0.0,"id":"a68qm4857drw","geo_precision":"unmatched","state":"NC"},"type":"Feature","geometry":null},{"properties":{"status":"Completed","geo_score":0.0,"id":"a68qm3zovewc","geo_precision":"unmatched","state":"NC"},"type":"Feature","geometry":null},{"properties":{"status":"Completed","geo_score":0.0,"id":"a68qm3z5c6s4","geo_precision":"unmatched","state":"NJ"},"type":"Feature","geometry":null},{"properties":{"status":"Completed","geo_score":0.0,"id":"a68qm450s7vu","geo_precision":"unmatched","state":"CA"},"type":"Feature","geometry":null},{"properties":{"status":"Completed","geo_score":0.0,"id":"a68qm47f7auc","geo_precision":"unmatched","state":"CA"},"type":"Feature","geometry":null},{"properties":{"status":"Completed","geo_score":0.0,"id":"a68qm3x1uanm","geo_precision":"unmatched","state":"VA"},"type":"Feature","geometry":null},{"properties":{"status":"Not Completed","geo_score":0.0,"id":"a68qm4ag3e7k","geo_precision":"unmatched","state":"VA"},"type":"Feature","geometry":null},{"properties":{"status":"Not Completed","geo_score":0.0,"id":"a68qm3yk2jvi","geo_precision":"unmatched","state":"VA"},"type":"Feature","geometry":null},{"properties":{"status":"Not Completed","geo_score":0.0,"id":"a68qm3wppwh0","geo_precision":"unmatched","state":"NC"},"type":"Feature","geometry":null},{"properties":{"status":"Not Completed","geo_score":0.0,"id":"a68qm41mbqd5","geo_precision":"unmatched","state":"VA"},"type":"Feature","geometry":null},{"properties":{"status":"Not Completed","geo_score":0.0,"id":"a68qm3ycz9pn","geo_precision":"unmatched","state":"CA"},"type":"Feature","geometry":null},{"properties":{"status":"Completed","geo_score":0.0,"id":"a68qm3zx2208","geo_precision":"unmatched","state":"CA"},"type":"Feature","geometry":null},{"properties":{"status":"Completed","geo_score":0.0,"id":"a68qm3yqwnck","geo_precision":"unmatched","state":"VA"},"type":"Feature","geometry":null},{"properties":{"status":"Completed","geo_score":0.0,"id":"a68qm4akllxg","geo_precision":"unmatched","state":"NC"},"type":"Feature","geometry":null},{"properties":{"status":"Completed","geo_score":0.0,"id":"a68qm3w7b08w","geo_precision":"unmatched","state":"CA"},"type":"Feature","geometry":null},{"properties":{"status":"Not Completed","geo_score":0.0,"id":"a68qm42iua11","geo_precision":"unmatched","state":"NJ"},"type":"Feature","geometry":null},{"properties":{"status":"Completed","geo_score":0.0,"id":"a68qm45ksocw","geo_precision":"unmatched","state":"NC"},"type":"Feature","geometry":null},{"properties":{"status":"Completed","geo_score":0.0,"id":"a68qm411z5t9","geo_precision":"unmatched","state":"NJ"},"type":"Feature","geometry":null},{"properties":{"status":"Completed","geo_score":0.0,"id":"a68qm455fbc3","geo_precision":"unmatched","state":"NJ"},"type":"Feature","geometry":null},{"properties":{"status":"Completed","geo_score":0.0,"id":"a68qm4a7ybzg","geo_precision":"unmatched","state":"NC"},"type":"Feature","geometry":null},{"properties":{"status":"Not Completed","geo_score":0.0,"id":"a68qm3w9gna5","geo_precision":"unmatched","state":"NC"},"type":"Feature","geometry":null},{"properties":{"status":"Completed","geo_score":0.0,"id":"a68qm3wg9hbl","geo_precision":"unmatched","state":"CA"},"type":"Feature","geometry":null},{"properties":{"status":"Completed","geo_score":0.0,"id":"a68qm45n4ctd","geo_precision":"unmatched","state":"NC"},"type":"Feature","geometry":null},{"properties":{"status":"Completed","geo_score":0.0,"id":"a68qm40chsej","geo_precision":"unmatched","state":"NJ"},"type":"Feature","geometry":null},{"properties":{"status":"Not Completed","geo_score":0.0,"id":"a68qm43jxx7t","geo_precision":"unmatched","state":"VA"},"type":"Feature","geometry":null},{"properties":{"status":"Not Completed","geo_score":0.0,"id":"a68qm3yogpmn","geo_precision":"unmatched","state":"NC"},"type":"Feature","geometry":null},{"properties":{"status":"Completed","geo_score":0.0,"id":"a68qm3xdaxg7","geo_precision":"unmatched","state":"CA"},"type":"Feature","geometry":null},{"properties":{"status":"Completed","geo_score":0.0,"id":"a68qm49bko6y","geo_precision":"unmatched","state":"CA"},"type":"Feature","geometry":null},{"properties":{"status":"Completed","geo_score":0.0,"id":"a68qm46gmdrf","geo_precision":"unmatched","state":"CA"},"type":"Feature","geometry":null},{"properties":{"status":"Completed","geo_score":0.0,"id":"a68qm4755fys","geo_precision":"unmatched","state":"CA"},"type":"Feature","geometry":null},{"properties":{"status":"Completed","geo_score":0.0,"id":"a68qm3w97byx","geo_precision":"unmatched","state":"CA"},"type":"Feature","geometry":null},{"properties":{"status":"Completed","geo_score":0.0,"id":"a68qm3zw9rts","geo_precision":"unmatched","state":"TX"},"type":"Feature","geometry":null},{"properties":{"status":"Not Completed","geo_score":0.0,"id":"a68qm478rlks","geo_precision":"unmatched","state":"VA"},"type":"Feature","geometry":null},{"properties":{"status":"Completed","geo_score":0.0,"id":"a68qm439ygan","geo_precision":"unmatched","state":"NC"},"type":"Feature","geometry":null},{"properties":{"status":"Completed","geo_score":0.0,"id":"a68qm44g1ug0","geo_precision":"unmatched","state":"CA"},"type":"Feature","geometry":null},{"properties":{"status":"Completed","geo_score":0.0,"id":"a68qm3x1wd1y","geo_precision":"unmatched","state":"VA"},"type":"Feature","geometry":null},{"properties":{"status":"Completed","geo_score":0.0,"id":"a68qm3vgboia","geo_precision":"unmatched","state":"NC"},"type":"Feature","geometry":null},{"properties":{"status":"Completed","geo_score":0.0,"id":"a68qm40suya9","geo_precision":"unmatched","state":"CA"},"type":"Feature","geometry":null},{"properties":{"status":"Completed","geo_score":0.0,"id":"a68qm469e6tt","geo_precision":"unmatched","state":"CA"},"type":"Feature","geometry":null},{"properties":{"status":"Completed","geo_score":0.0,"id":"a68qm3xjrlfa","geo_precision":"unmatched","state":"NC"},"type":"Feature","geometry":null},{"properties":{"status":"Completed","geo_score":0.0,"id":"a68qm3xwguvp","geo_precision":"unmatched","state":"NJ"},"type":"Feature","geometry":null},{"properties":{"status":"Not Completed","geo_score":0.0,"id":"a68qm3xgijhh","geo_precision":"unmatched","state":"CA"},"type":"Feature","geometry":null},{"properties":{"status":"Completed","geo_score":0.0,"id":"a68qm3z1ed00","geo_precision":"unmatched","state":"TX"},"type":"Feature","geometry":null},{"properties":{"status":"Not Completed","geo_score":0.0,"id":"a68qm3x4ns0h","geo_precision":"unmatched","state":"NJ"},"type":"Feature","geometry":null},{"properties":{"status":"Completed","geo_score":0.0,"id":"a68qm3zy32e5","geo_precision":"unmatched","state":"CA"},"type":"Feature","geometry":null},{"properties":{"status":"Completed","geo_score":0.0,"id":"a68qm42z8e8q","geo_precision":"unmatched","state":"CA"},"type":"Feature","geometry":null},{"properties":{"status":"Completed","geo_score":0.0,"id":"a68qm429nu2a","geo_precision":"unmatched","state":"CA"},"type":"Feature","geometry":null},{"properties":{"status":"Completed","geo_score":0.0,"id":"a68qm45atfsj","geo_precision":"unmatched","state":"NC"},"type":"Feature","geometry":null},{"properties":{"status":"Completed","geo_score":0.0,"id":"a68qm3xcuhkb","geo_precision":"unmatched","state":"CA"},"type":"Feature","geometry":null},{"properties":{"status":"Completed","geo_score":0.0,"id":"a68qm3z0u8zh","geo_precision":"unmatched","state":"CA"},"type":"Feature","geometry":null},{"properties":{"status":"Completed","geo_score":0.0,"id":"a68qm3zdjttn","geo_precision":"unmatched","state":"CA"},"type":"Feature","geometry":null},{"properties":{"status":"Completed","geo_score":0.0,"id":"a68qm3z2y9yp","geo_precision":"unmatched","state":"CA"},"type":"Feature","geometry":null},{"properties":{"status":"Completed","geo_score":0.0,"id":"a68qm44bn5f6","geo_precision":"unmatched","state":"CA"},"type":"Feature","geometry":null},{"properties":{"status":"Completed","geo_score":0.0,"id":"a68qm48q08qc","geo_precision":"unmatched","state":"NJ"},"type":"Feature","geometry":null},{"properties":{"status":"Not Completed","geo_score":0.0,"id":"a68qm49v8ehy","geo_precision":"unmatched","state":"CA"},"type":"Feature","geometry":null},{"properties":{"status":"Completed","geo_score":0.0,"id":"a68qm49ead5t","geo_precision":"unmatched","state":"TX"},"type":"Feature","geometry":null},{"properties":{"status":"Completed","geo_score":0.0,"id":"a68qm4058asb","geo_precision":"unmatched","state":"CA"},"type":"Feature","geometry":null},{"properties":{"status":"Completed","geo_score":0.0,"id":"a68qm4a0bco6","geo_precision":"unmatched","state":"NJ"},"type":"Feature","geometry":null},{"properties":{"status":"Completed","geo_score":0.0,"id":"a68qm3w8x1ot","geo_precision":"unmatched","state":"NC"},"type":"Feature","geometry":null},{"properties":{"status":"Completed","geo_score":0.0,"id":"a68qm3yz5s48","geo_precision":"unmatched","state":"VA"},"type":"Feature","geometry":null},{"properties":{"status":"Not Completed","geo_score":0.0,"id":"a68qm40wdx32","geo_precision":"unmatched","state":"CA"},"type":"Feature","geometry":null},{"properties":{"status":"Completed","geo_score":0.0,"id":"a68qm4886wmb","geo_precision":"unmatched","state":"NJ"},"type":"Feature","geometry":null},{"properties":{"status":"Completed","geo_score":0.0,"id":"a68qm4a6uvcq","geo_precision":"unmatched","state":"NJ"},"type":"Feature","geometry":null},{"properties":{"status":"Completed","geo_score":0.0,"id":"a68qm42h5vw0","geo_precision":"unmatched","state":"TX"},"type":"Feature","geometry":null},{"properties":{"status":"Not Completed","geo_score":0.0,"id":"a68qm45er2ef","geo_precision":"unmatched","state":"KS"},"type":"Feature","geometry":null},{"properties":{"status":"Completed","geo_score":0.0,"id":"a68qm458imil","geo_precision":"unmatched","state":"NV"},"type":"Feature","geometry":null},{"properties":{"status":"Completed","geo_score":0.0,"id":"a68qm48yx1ay","geo_precision":"unmatched","state":"TN"},"type":"Feature","geometry":null},{"properties":{"status":"Completed","geo_score":0.0,"id":"a68qm4072bbn","geo_precision":"unmatched","state":"TN"},"type":"Feature","geometry":null},{"properties":{"status":"Completed","geo_score":0.0,"id":"a68qm4777uzy","geo_precision":"unmatched","state":"TN"},"type":"Feature","geometry":null},{"properties":{"status":"Not Completed","geo_score":0.0,"id":"a68qm3zzjhfv","geo_precision":"unmatched","state":"TN"},"type":"Feature","geometry":null},{"properties":{"status":"Completed","geo_score":0.0,"id":"a68qm3vglopy","geo_precision":"unmatched","state":"TN"},"type":"Feature","geometry":null},{"properties":{"status":"Not Completed","geo_score":0.0,"id":"a68qm484nf88","geo_precision":"unmatched","state":"KS"},"type":"Feature","geometry":null},{"properties":{"status":"Not Completed","geo_score":0.0,"id":"a68qm408kqak","geo_precision":"unmatched","state":"OK"},"type":"Feature","geometry":null},{"properties":{"status":"Completed","geo_score":0.0,"id":"a68qm443z0g1","geo_precision":"unmatched","state":"OK"},"type":"Feature","geometry":null},{"properties":{"status":"Not Completed","geo_score":0.0,"id":"a68qm46uh556","geo_precision":"unmatched","state":"NJ"},"type":"Feature","geometry":null},{"properties":{"status":"Not Completed","geo_score":0.0,"id":"a68qm3zz0irj","geo_precision":"unmatched","state":"NJ"},"type":"Feature","geometry":null},{"properties":{"status":"Completed","geo_score":0.0,"id":"a68qm41euooy","geo_precision":"unmatched","state":"NC"},"type":"Feature","geometry":null},{"properties":{"status":"Completed","geo_score":0.0,"id":"a68qm480whyr","geo_precision":"unmatched","state":"NJ"},"type":"Feature","geometry":null},{"properties":{"status":"Completed","geo_score":0.0,"id":"a68qm4bopc9a","geo_precision":"unmatched","state":"VA"},"type":"Feature","geometry":null},{"properties":{"status":"Completed","geo_score":0.0,"id":"a68qm49h19xu","geo_precision":"unmatched","state":"NC"},"type":"Feature","geometry":null},{"properties":{"status":"Completed","geo_score":0.0,"id":"a68qm4bmek91","geo_precision":"unmatched","state":"VA"},"type":"Feature","geometry":null},{"properties":{"status":"Completed","geo_score":0.0,"id":"a68qm48loki2","geo_precision":"unmatched","state":"CA"},"type":"Feature","geometry":null},{"properties":{"status":"Completed","geo_score":0.0,"id":"a68qm4424bk1","geo_precision":"unmatched","state":"KY"},"type":"Feature","geometry":null},{"properties":{"status":"Not Completed","geo_score":0.0,"id":"a68qm4787w9y","geo_precision":"unmatched","state":"SC"},"type":"Feature","geometry":null},{"properties":{"status":"Completed","geo_score":0.0,"id":"a68qm3z8cyx3","geo_precision":"unmatched","state":"KY"},"type":"Feature","geometry":null},{"properties":{"status":"Not Completed","geo_score":0.0,"id":"a68qm46yhgu5","geo_precision":"unmatched","state":"MS"},"type":"Feature","geometry":null},{"properties":{"status":"Completed","geo_score":0.0,"id":"a68qm3yo5idq","geo_precision":"unmatched","state":"MS"},"type":"Feature","geometry":null},{"properties":{"status":"Completed","geo_score":0.0,"id":"a68qm461wsna","geo_precision":"unmatched","state":"WI"},"type":"Feature","geometry":null},{"properties":{"status":"Not Completed","geo_score":0.0,"id":"a68qm48y1xdk","geo_precision":"unmatched","state":"AL"},"type":"Feature","geometry":null},{"properties":{"status":"Not Completed","geo_score":0.0,"id":"a68qm411stbq","geo_precision":"unmatched","state":"SC"},"type":"Feature","geometry":null},{"properties":{"status":"Not Completed","geo_score":0.0,"id":"a68qm4aik9es","geo_precision":"unmatched","state":"SC"},"type":"Feature","geometry":null},{"properties":{"status":"Completed","geo_score":0.0,"id":"a68qm492na9d","geo_precision":"unmatched","state":"AL"},"type":"Feature","geometry":null},{"properties":{"status":"Completed","geo_score":0.0,"id":"a68qm3vm5z2d","geo_precision":"unmatched","state":"AL"},"type":"Feature","geometry":null},{"properties":{"status":"Completed","geo_score":0.0,"id":"a68qm4aqp8fp","geo_precision":"unmatched","state":"AL"},"type":"Feature","geometry":null},{"properties":{"status":"Not Completed","geo_score":0.0,"id":"a68qm431u08i","geo_precision":"unmatched","state":"MS"},"type":"Feature","geometry":null},{"properties":{"status":"Completed","geo_score":0.0,"id":"a68qm45vdaeg","geo_precision":"unmatched","state":"WI"},"type":"Feature","geometry":null},{"properties":{"status":"Not Completed","geo_score":0.0,"id":"a68qm3zv7gae","geo_precision":"unmatched","state":"NC"},"type":"Feature","geometry":null},{"properties":{"status":"Completed","geo_score":0.0,"id":"a68qm43rocxs","geo_precision":"unmatched","state":"SC"},"type":"Feature","geometry":null},{"properties":{"status":"Completed","geo_score":0.0,"id":"a68qm4b11ync","geo_precision":"unmatched","state":"AL"},"type":"Feature","geometry":null},{"properties":{"status":"Completed","geo_score":0.0,"id":"a68qm4apl6ed","geo_precision":"unmatched","state":"AL"},"type":"Feature","geometry":null},{"properties":{"status":"Not Completed","geo_score":0.0,"id":"a68qm41hdme8","geo_precision":"unmatched","state":"AL"},"type":"Feature","geometry":null},{"properties":{"status":"Not Completed","geo_score":0.0,"id":"a68qm46rqtjy","geo_precision":"unmatched","state":"AL"},"type":"Feature","geometry":null},{"properties":{"status":"Completed","geo_score":0.0,"id":"a68qm41gqvts","geo_precision":"unmatched","state":"MS"},"type":"Feature","geometry":null},{"properties":{"status":"Completed","geo_score":0.0,"id":"a68qm43x6h1k","geo_precision":"unmatched","state":"MS"},"type":"Feature","geometry":null},{"properties":{"status":"Completed","geo_score":0.0,"id":"a68qm3yxqyph","geo_precision":"unmatched","state":"WI"},"type":"Feature","geometry":null},{"properties":{"status":"Completed","geo_score":0.0,"id":"a68qm450ewfw","geo_precision":"unmatched","state":"OH"},"type":"Feature","geometry":null},{"properties":{"status":"Completed","geo_score":0.0,"id":"a68qm3wby65o","geo_precision":"unmatched","state":"OH"},"type":"Feature","geometry":null},{"properties":{"status":"Not Completed","geo_score":0.0,"id":"a68qm497vw9m","geo_precision":"unmatched","state":"NJ"},"type":"Feature","geometry":null},{"properties":{"status":"Not Completed","geo_score":0.0,"id":"a68qm473dtt0","geo_precision":"unmatched","state":"VA"},"type":"Feature","geometry":null},{"properties":{"status":"Completed","geo_score":0.0,"id":"a68qm3y4p95d","geo_precision":"unmatched","state":"AL"},"type":"Feature","geometry":null},{"properties":{"status":"Completed","geo_score":0.0,"id":"a68qm48j9o4z","geo_precision":"unmatched","state":"AL"},"type":"Feature","geometry":null},{"properties":{"status":"Completed","geo_score":0.0,"id":"a68qm40s2dlu","geo_precision":"unmatched","state":"OH"},"type":"Feature","geometry":null},{"properties":{"status":"Completed","geo_score":0.0,"id":"a68qm3wj0opd","geo_precision":"unmatched","state":"NY"},"type":"Feature","geometry":null},{"properties":{"status":"Not Completed","geo_score":0.0,"id":"a68qm4741gne","geo_precision":"unmatched","state":"NE"},"type":"Feature","geometry":null},{"properties":{"status":"Completed","geo_score":0.0,"id":"a68qm4apb1cl","geo_precision":"unmatched","state":"WI"},"type":"Feature","geometry":null},{"properties":{"status":"Not Completed","geo_score":0.0,"id":"a68qm4blk14i","geo_precision":"unmatched","state":"NE"},"type":"Feature","geometry":null},{"properties":{"status":"Completed","geo_score":0.0,"id":"a68qm45ej2lo","geo_precision":"unmatched","state":"OH"},"type":"Feature","geometry":null},{"properties":{"status":"Not Completed","geo_score":0.0,"id":"a68qm4achlpo","geo_precision":"unmatched","state":"NC"},"type":"Feature","geometry":null},{"properties":{"status":"Not Completed","geo_score":0.0,"id":"a68qm464hoi8","geo_precision":"unmatched","state":"VA"},"type":"Feature","geometry":null},{"properties":{"status":"Not Completed","geo_score":0.0,"id":"a68qm3xh8gkx","geo_precision":"unmatched","state":"CO"},"type":"Feature","geometry":null},{"properties":{"status":"Completed","geo_score":0.0,"id":"a68qm4211qoe","geo_precision":"unmatched","state":"CA"},"type":"Feature","geometry":null},{"properties":{"status":"Completed","geo_score":0.0,"id":"a68qm411kk9w","geo_precision":"unmatched","state":"GA"},"type":"Feature","geometry":null},{"properties":{"status":"Not Completed","geo_score":0.0,"id":"a68qm4bjkwyx","geo_precision":"unmatched","state":"GA"},"type":"Feature","geometry":null},{"properties":{"status":"Not Completed","geo_score":0.0,"id":"a68qm44npwgg","geo_precision":"unmatched","state":"GA"},"type":"Feature","geometry":null},{"properties":{"status":"Completed","geo_score":0.0,"id":"a68qm46gefn6","geo_precision":"unmatched","state":"OH"},"type":"Feature","geometry":null},{"properties":{"status":"Completed","geo_score":0.0,"id":"a68qm40q1b1h","geo_precision":"unmatched","state":"OH"},"type":"Feature","geometry":null},{"properties":{"status":"Completed","geo_score":0.0,"id":"a68qm3v9k9fn","geo_precision":"unmatched","state":"OH"},"type":"Feature","geometry":null},{"properties":{"status":"Completed","geo_score":0.0,"id":"a68qm49alx8p","geo_precision":"unmatched","state":"OH"},"type":"Feature","geometry":null},{"properties":{"status":"Completed","geo_score":0.0,"id":"a68qm3w6f8jp","geo_precision":"unmatched","state":"OH"},"type":"Feature","geometry":null},{"properties":{"status":"Not Completed","geo_score":0.0,"id":"a68qm41kszcq","geo_precision":"unmatched","state":"GA"},"type":"Feature","geometry":null},{"properties":{"status":"Completed","geo_score":0.0,"id":"a68qm445bv14","geo_precision":"unmatched","state":"GA"},"type":"Feature","geometry":null},{"properties":{"status":"Completed","geo_score":0.0,"id":"a68qm3y3a87n","geo_precision":"unmatched","state":"TN"},"type":"Feature","geometry":null},{"properties":{"status":"Completed","geo_score":0.0,"id":"a68qm449bbfa","geo_precision":"unmatched","state":"GA"},"type":"Feature","geometry":null},{"properties":{"status":"Not Completed","geo_score":0.0,"id":"a68qm44i25mq","geo_precision":"unmatched","state":"GA"},"type":"Feature","geometry":null},{"properties":{"status":"Completed","geo_score":0.0,"id":"a68qm412umxp","geo_precision":"unmatched","state":"AR"},"type":"Feature","geometry":null},{"properties":{"status":"Completed","geo_score":0.0,"id":"a68qm49l53bn","geo_precision":"unmatched","state":"CT"},"type":"Feature","geometry":null},{"properties":{"status":"Completed","geo_score":0.0,"id":"a68qm3zhz5rl","geo_precision":"unmatched","state":"SC"},"type":"Feature","geometry":null},{"properties":{"status":"Not Completed","geo_score":0.0,"id":"a68qm3zauhqj","geo_precision":"unmatched","state":"TN"},"type":"Feature","geometry":null},{"properties":{"status":"Not Completed","geo_score":0.0,"id":"a68qm467n5o5","geo_precision":"unmatched","state":"TN"},"type":"Feature","geometry":null},{"properties":{"status":"Completed","geo_score":0.0,"id":"a68qm3zabxzi","geo_precision":"unmatched","state":"TN"},"type":"Feature","geometry":null},{"properties":{"status":"Not Completed","geo_score":0.0,"id":"a68qm3xjv4ql","geo_precision":"unmatched","state":"GA"},"type":"Feature","geometry":null},{"properties":{"status":"Completed","geo_score":0.0,"id":"a68qm4aqjad8","geo_precision":"unmatched","state":"GA"},"type":"Feature","geometry":null},{"properties":{"status":"Completed","geo_score":0.0,"id":"a68qm3zmcb4x","geo_precision":"unmatched","state":"AR"},"type":"Feature","geometry":null},{"properties":{"status":"Completed","geo_score":0.0,"id":"a68qm3wymsz9","geo_precision":"unmatched","state":"OH"},"type":"Feature","geometry":null},{"properties":{"status":"Completed","geo_score":0.0,"id":"a68qm44sphpo","geo_precision":"unmatched","state":"OH"},"type":"Feature","geometry":null},{"properties":{"status":"Completed","geo_score":0.0,"id":"a68qm40rlm0y","geo_precision":"unmatched","state":"OH"},"type":"Feature","geometry":null},{"properties":{"status":"Completed","geo_score":0.0,"id":"a68qm44j0yyj","geo_precision":"unmatched","state":"OH"},"type":"Feature","geometry":null},{"properties":{"status":"Completed","geo_score":0.0,"id":"a68qm47zzjvr","geo_precision":"unmatched","state":"PA"},"type":"Feature","geometry":null},{"properties":{"status":"Not Completed","geo_score":0.0,"id":"a68qm473a3cj","geo_precision":"unmatched","state":"NY"},"type":"Feature","geometry":null},{"properties":{"status":"Not Completed","geo_score":0.0,"id":"a68qm4ayexko","geo_precision":"unmatched","state":"TN"},"type":"Feature","geometry":null},{"properties":{"status":"Completed","geo_score":0.0,"id":"a68qm45y2xgy","geo_precision":"unmatched","state":"TN"},"type":"Feature","geometry":null},{"properties":{"status":"Not Completed","geo_score":0.0,"id":"a68qm46oxeo6","geo_precision":"unmatched","state":"PA"},"type":"Feature","geometry":null},{"properties":{"status":"Completed","geo_score":0.0,"id":"a68qm3wozwiu","geo_precision":"unmatched","state":"NY"},"type":"Feature","geometry":null},{"properties":{"status":"Completed","geo_score":0.0,"id":"a68qm45bkh1m","geo_precision":"unmatched","state":"PA"},"type":"Feature","geometry":null},{"properties":{"status":"Not Completed","geo_score":0.0,"id":"a68qm4appfqa","geo_precision":"unmatched","state":"NY"},"type":"Feature","geometry":null},{"properties":{"status":"Completed","geo_score":0.0,"id":"a68qm43l0fc8","geo_precision":"unmatched","state":"OH"},"type":"Feature","geometry":null},{"properties":{"status":"Not Completed","geo_score":0.0,"id":"a68qm3z7frx8","geo_precision":"unmatched","state":"NY"},"type":"Feature","geometry":null},{"properties":{"status":"Completed","geo_score":0.0,"id":"a68qm44ev1qy","geo_precision":"unmatched","state":"NY"},"type":"Feature","geometry":null},{"properties":{"status":"Not Completed","geo_score":0.0,"id":"a68qm41ofjwj","geo_precision":"unmatched","state":"NY"},"type":"Feature","geometry":null},{"properties":{"status":"Completed","geo_score":0.0,"id":"a68qm3wifuhy","geo_precision":"unmatched","state":"TN"},"type":"Feature","geometry":null},{"properties":{"status":"Not Completed","geo_score":0.0,"id":"a68qm43hs6im","geo_precision":"unmatched","state":"GA"},"type":"Feature","geometry":null},{"properties":{"status":"Completed","geo_score":0.0,"id":"a68qm4373w14","geo_precision":"unmatched","state":"NY"},"type":"Feature","geometry":null},{"properties":{"status":"Completed","geo_score":0.0,"id":"a68qm49x59uk","geo_precision":"unmatched","state":"OH"},"type":"Feature","geometry":null},{"properties":{"status":"Completed","geo_score":0.0,"id":"a68qm4b5agca","geo_precision":"unmatched","state":"PA"},"type":"Feature","geometry":null},{"properties":{"status":"Completed","geo_score":0.0,"id":"a68qm49gr3y3","geo_precision":"unmatched","state":"LA"},"type":"Feature","geometry":null},{"properties":{"status":"Not Completed","geo_score":0.0,"id":"a68qm3zqnrja","geo_precision":"unmatched","state":"LA"},"type":"Feature","geometry":null},{"properties":{"status":"Completed","geo_score":0.0,"id":"a68qm495nqk1","geo_precision":"unmatched","state":"LA"},"type":"Feature","geometry":null},{"properties":{"status":"Completed","geo_score":0.0,"id":"a68qm42ajdtn","geo_precision":"unmatched","state":"LA"},"type":"Feature","geometry":null},{"properties":{"status":"Completed","geo_score":0.0,"id":"a68qm45qw2m0","geo_precision":"unmatched","state":"KY"},"type":"Feature","geometry":null},{"properties":{"status":"Completed","geo_score":0.0,"id":"a68qm3x47upj","geo_precision":"unmatched","state":"CT"},"type":"Feature","geometry":null},{"properties":{"status":"Completed","geo_score":0.0,"id":"a68qm420tqzz","geo_precision":"unmatched","state":"NE"},"type":"Feature","geometry":null},{"properties":{"status":"Completed","geo_score":0.0,"id":"a68qm4829t4x","geo_precision":"unmatched","state":"NY"},"type":"Feature","geometry":null},{"properties":{"status":"Completed","geo_score":0.0,"id":"a68qm4agybey","geo_precision":"unmatched","state":"OH"},"type":"Feature","geometry":null},{"properties":{"status":"Completed","geo_score":0.0,"id":"a68qm43czrk1","geo_precision":"unmatched","state":"PA"},"type":"Feature","geometry":null},{"properties":{"status":"Completed","geo_score":0.0,"id":"a68qm3xb1vl1","geo_precision":"unmatched","state":"OK"},"type":"Feature","geometry":null},{"properties":{"status":"Completed","geo_score":0.0,"id":"a68qm47djdsm","geo_precision":"unmatched","state":"LA"},"type":"Feature","geometry":null},{"properties":{"status":"Completed","geo_score":0.0,"id":"a68qm430pk53","geo_precision":"unmatched","state":"LA"},"type":"Feature","geometry":null},{"properties":{"status":"Completed","geo_score":0.0,"id":"a68qm44yk9nr","geo_precision":"unmatched","state":"LA"},"type":"Feature","geometry":null},{"properties":{"status":"Not Completed","geo_score":0.0,"id":"a68qm3xom5id","geo_precision":"unmatched","state":"MS"},"type":"Feature","geometry":null},{"properties":{"status":"Completed","geo_score":0.0,"id":"a68qm44aeoux","geo_precision":"unmatched","state":"CT"},"type":"Feature","geometry":null},{"properties":{"status":"Completed","geo_score":0.0,"id":"a68qm3ys7nyf","geo_precision":"unmatched","state":"CT"},"type":"Feature","geometry":null},{"properties":{"status":"Completed","geo_score":0.0,"id":"a68qm3wgff7b","geo_precision":"unmatched","state":"PA"},"type":"Feature","geometry":null},{"properties":{"status":"Not Completed","geo_score":0.0,"id":"a68qm45qdsmi","geo_precision":"unmatched","state":"OH"},"type":"Feature","geometry":null},{"properties":{"status":"Completed","geo_score":0.0,"id":"a68qm479bqij","geo_precision":"unmatched","state":"PA"},"type":"Feature","geometry":null},{"properties":{"status":"Completed","geo_score":0.0,"id":"a68qm4a486aa","geo_precision":"unmatched","state":"PA"},"type":"Feature","geometry":null},{"properties":{"status":"Completed","geo_score":0.0,"id":"a68qm4azizhp","geo_precision":"unmatched","state":"AZ"},"type":"Feature","geometry":null},{"properties":{"status":"Completed","geo_score":0.0,"id":"a68qm49d1lur","geo_precision":"unmatched","state":"OK"},"type":"Feature","geometry":null},{"properties":{"status":"Completed","geo_score":0.0,"id":"a68qm46refv5","geo_precision":"unmatched","state":"OK"},"type":"Feature","geometry":null},{"properties":{"status":"Completed","geo_score":0.0,"id":"a68qm45ucy4q","geo_precision":"unmatched","state":"OK"},"type":"Feature","geometry":null},{"properties":{"status":"Completed","geo_score":0.0,"id":"a68qm3yntcmg","geo_precision":"unmatched","state":"AR"},"type":"Feature","geometry":null},{"properties":{"status":"Completed","geo_score":0.0,"id":"a68qm3x4krz2","geo_precision":"unmatched","state":"LA"},"type":"Feature","geometry":null},{"properties":{"status":"Completed","geo_score":0.0,"id":"a68qm3zz6pbr","geo_precision":"unmatched","state":"LA"},"type":"Feature","geometry":null},{"properties":{"status":"Completed","geo_score":0.0,"id":"a68qm41sehgi","geo_precision":"unmatched","state":"LA"},"type":"Feature","geometry":null},{"properties":{"status":"Completed","geo_score":0.0,"id":"a68qm436blmq","geo_precision":"unmatched","state":"CT"},"type":"Feature","geometry":null},{"properties":{"status":"Completed","geo_score":0.0,"id":"a68qm45olvq6","geo_precision":"unmatched","state":"CT"},"type":"Feature","geometry":null},{"properties":{"status":"Completed","geo_score":0.0,"id":"a68qm42i7yiz","geo_precision":"unmatched","state":"IL"},"type":"Feature","geometry":null},{"properties":{"status":"Completed","geo_score":0.0,"id":"a68qm3ypxa8z","geo_precision":"unmatched","state":"FL"},"type":"Feature","geometry":null},{"properties":{"status":"Completed","geo_score":0.0,"id":"a68qm3vbcklk","geo_precision":"unmatched","state":"TX"},"type":"Feature","geometry":null},{"properties":{"status":"Completed","geo_score":0.0,"id":"a68qm47sugb0","geo_precision":"unmatched","state":"CA"},"type":"Feature","geometry":null},{"properties":{"status":"Not Completed","geo_score":0.0,"id":"a68qm43je3su","geo_precision":"unmatched","state":"AR"},"type":"Feature","geometry":null},{"properties":{"status":"Completed","geo_score":0.0,"id":"a68qm45f6qa8","geo_precision":"unmatched","state":"AR"},"type":"Feature","geometry":null},{"properties":{"status":"Completed","geo_score":0.0,"id":"a68qm42il7b7","geo_precision":"unmatched","state":"OK"},"type":"Feature","geometry":null},{"properties":{"status":"Completed","geo_score":0.0,"id":"a68qm3wxwdg1","geo_precision":"unmatched","state":"OK"},"type":"Feature","geometry":null},{"properties":{"status":"Completed","geo_score":0.0,"id":"a68qm3vy2qq9","geo_precision":"unmatched","state":"LA"},"type":"Feature","geometry":null},{"properties":{"status":"Completed","geo_score":0.0,"id":"a68qm3xja3j0","geo_precision":"unmatched","state":"CT"},"type":"Feature","geometry":null},{"properties":{"status":"Not Completed","geo_score":0.0,"id":"a68qm4binryr","geo_precision":"unmatched","state":"CT"},"type":"Feature","geometry":null},{"properties":{"status":"Completed","geo_score":0.0,"id":"a68qm47vjati","geo_precision":"unmatched","state":"PA"},"type":"Feature","geometry":null},{"properties":{"status":"Completed","geo_score":0.0,"id":"a68qm423rbp3","geo_precision":"unmatched","state":"MT"},"type":"Feature","geometry":null},{"properties":{"status":"Completed","geo_score":0.0,"id":"a68qm46ttlu0","geo_precision":"unmatched","state":"WI"},"type":"Feature","geometry":null},{"properties":{"status":"Completed","geo_score":0.0,"id":"a68qm44xldar","geo_precision":"unmatched","state":"NY"},"type":"Feature","geometry":null},{"properties":{"status":"Not Completed","geo_score":0.0,"id":"a68qm40z43xn","geo_precision":"unmatched","state":"CA"},"type":"Feature","geometry":null},{"properties":{"status":"Completed","geo_score":0.0,"id":"a68qm47drm92","geo_precision":"unmatched","state":"CA"},"type":"Feature","geometry":null},{"properties":{"status":"Not Completed","geo_score":0.0,"id":"a68qm46zvk90","geo_precision":"unmatched","state":"AR"},"type":"Feature","geometry":null},{"properties":{"status":"Completed","geo_score":0.0,"id":"a68qm3xp1end","geo_precision":"unmatched","state":"OK"},"type":"Feature","geometry":null},{"properties":{"status":"Completed","geo_score":0.0,"id":"a68qm48diyf8","geo_precision":"unmatched","state":"NY"},"type":"Feature","geometry":null},{"properties":{"status":"Completed","geo_score":0.0,"id":"a68qm4260p50","geo_precision":"unmatched","state":"PA"},"type":"Feature","geometry":null},{"properties":{"status":"Completed","geo_score":0.0,"id":"a68qm3vnia79","geo_precision":"unmatched","state":"NY"},"type":"Feature","geometry":null},{"properties":{"status":"Completed","geo_score":0.0,"id":"a68qm45ih0vk","geo_precision":"unmatched","state":"IL"},"type":"Feature","geometry":null},{"properties":{"status":"Completed","geo_score":0.0,"id":"a68qm4bj2ufo","geo_precision":"unmatched","state":"SC"},"type":"Feature","geometry":null},{"properties":{"status":"Completed","geo_score":0.0,"id":"a68qm480bf5n","geo_precision":"unmatched","state":"AZ"},"type":"Feature","geometry":null},{"properties":{"status":"Not Completed","geo_score":0.0,"id":"a68qm4avjil4","geo_precision":"unmatched","state":"NY"},"type":"Feature","geometry":null},{"properties":{"status":"Not Completed","geo_score":0.0,"id":"a68qm4a4rhi0","geo_precision":"unmatched","state":"GA"},"type":"Feature","geometry":null},{"properties":{"status":"Not Completed","geo_score":0.0,"id":"a68qm46q8nlr","geo_precision":"unmatched","state":"NY"},"type":"Feature","geometry":null},{"properties":{"status":"Not Completed","geo_score":0.0,"id":"a68qm4934gjh","geo_precision":"unmatched","state":"IL"},"type":"Feature","geometry":null},{"properties":{"status":"Not Completed","geo_score":0.0,"id":"a68qm43o6oza","geo_precision":"unmatched","state":"CA"},"type":"Feature","geometry":null},{"properties":{"status":"Completed","geo_score":0.0,"id":"a68qm48conyb","geo_precision":"unmatched","state":"IL"},"type":"Feature","geometry":null},{"properties":{"status":"Not Completed","geo_score":0.0,"id":"a68qm487ruve","geo_precision":"unmatched","state":"MI"},"type":"Feature","geometry":null},{"properties":{"status":"Completed","geo_score":0.0,"id":"a68qm45gmrra","geo_precision":"unmatched","state":"MI"},"type":"Feature","geometry":null},{"properties":{"status":"Completed","geo_score":0.0,"id":"a68qm46wes4z","geo_precision":"unmatched","state":"MI"},"type":"Feature","geometry":null},{"properties":{"status":"Completed","geo_score":0.0,"id":"a68qm44y08oo","geo_precision":"unmatched","state":"MI"},"type":"Feature","geometry":null},{"properties":{"status":"Not Completed","geo_score":0.0,"id":"a68qm406syku","geo_precision":"unmatched","state":"NJ"},"type":"Feature","geometry":null},{"properties":{"status":"Not Completed","geo_score":0.0,"id":"a68qm41lybtc","geo_precision":"unmatched","state":"NJ"},"type":"Feature","geometry":null},{"properties":{"status":"Completed","geo_score":0.0,"id":"a68qm48whvwx","geo_precision":"unmatched","state":"IN"},"type":"Feature","geometry":null},{"properties":{"status":"Not Completed","geo_score":0.0,"id":"a68qm3w0a1ei","geo_precision":"unmatched","state":"IN"},"type":"Feature","geometry":null},{"properties":{"status":"Completed","geo_score":0.0,"id":"a68qm430zjia","geo_precision":"unmatched","state":"MI"},"type":"Feature","geometry":null},{"properties":{"status":"Completed","geo_score":0.0,"id":"a68qm43dp63y","geo_precision":"unmatched","state":"CT"},"type":"Feature","geometry":null},{"properties":{"status":"Completed","geo_score":0.0,"id":"a68qm43ewrge","geo_precision":"unmatched","state":"NJ"},"type":"Feature","geometry":null},{"properties":{"status":"Not Completed","geo_score":0.0,"id":"a68qm464s2wq","geo_precision":"unmatched","state":"NJ"},"type":"Feature","geometry":null},{"properties":{"status":"Not Completed","geo_score":0.0,"id":"a68qm3vzn9ym","geo_precision":"unmatched","state":"IN"},"type":"Feature","geometry":null},{"properties":{"status":"Completed","geo_score":0.0,"id":"a68qm42dvdtu","geo_precision":"unmatched","state":"IN"},"type":"Feature","geometry":null},{"properties":{"status":"Completed","geo_score":0.0,"id":"a68qm495q9ka","geo_precision":"unmatched","state":"MI"},"type":"Feature","geometry":null},{"properties":{"status":"Completed","geo_score":0.0,"id":"a68qm4595b6e","geo_precision":"unmatched","state":"MI"},"type":"Feature","geometry":null},{"properties":{"status":"Completed","geo_score":0.0,"id":"a68qm464b4bn","geo_precision":"unmatched","state":"MI"},"type":"Feature","geometry":null},{"properties":{"status":"Completed","geo_score":0.0,"id":"a68qm48g8u2m","geo_precision":"unmatched","state":"MI"},"type":"Feature","geometry":null},{"properties":{"status":"Completed","geo_score":0.0,"id":"a68qm48o6zal","geo_precision":"unmatched","state":"SC"},"type":"Feature","geometry":null},{"properties":{"status":"Completed","geo_score":0.0,"id":"a68qm4bbwf90","geo_precision":"unmatched","state":"IN"},"type":"Feature","geometry":null},{"properties":{"status":"Completed","geo_score":0.0,"id":"a68qm3zbalfp","geo_precision":"unmatched","state":"MI"},"type":"Feature","geometry":null},{"properties":{"status":"Completed","geo_score":0.0,"id":"a68qm3y6qxg1","geo_precision":"unmatched","state":"MI"},"type":"Feature","geometry":null},{"properties":{"status":"Not Completed","geo_score":0.0,"id":"a68qm4bib2u2","geo_precision":"unmatched","state":"MI"},"type":"Feature","geometry":null},{"properties":{"status":"Completed","geo_score":0.0,"id":"a68qm3y3lz3m","geo_precision":"unmatched","state":"MI"},"type":"Feature","geometry":null},{"properties":{"status":"Not Completed","geo_score":0.0,"id":"a68qm3xojz6k","geo_precision":"unmatched","state":"MI"},"type":"Feature","geometry":null},{"properties":{"status":"Completed","geo_score":0.0,"id":"a68qm3y37p27","geo_precision":"unmatched","state":"IN"},"type":"Feature","geometry":null},{"properties":{"status":"Completed","geo_score":0.0,"id":"a68qm3vamk7o","geo_precision":"unmatched","state":"IN"},"type":"Feature","geometry":null},{"properties":{"status":"Completed","geo_score":0.0,"id":"a68qm454x1n3","geo_precision":"unmatched","state":"IN"},"type":"Feature","geometry":null},{"properties":{"status":"Completed","geo_score":0.0,"id":"a68qm3v6uv3q","geo_precision":"unmatched","state":"NY"},"type":"Feature","geometry":null},{"properties":{"status":"Completed","geo_score":0.0,"id":"a68qm47f1wlp","geo_precision":"unmatched","state":"MI"},"type":"Feature","geometry":null},{"properties":{"status":"Completed","geo_score":0.0,"id":"a68qm3z03okk","geo_precision":"unmatched","state":"IN"},"type":"Feature","geometry":null},{"properties":{"status":"Completed","geo_score":0.0,"id":"a68qm48zcxc1","geo_precision":"unmatched","state":"MI"},"type":"Feature","geometry":null},{"properties":{"status":"Completed","geo_score":0.0,"id":"a68qm46u99uz","geo_precision":"unmatched","state":"MI"},"type":"Feature","geometry":null},{"properties":{"status":"Not Completed","geo_score":0.0,"id":"a68qm3xmunjl","geo_precision":"unmatched","state":"MI"},"type":"Feature","geometry":null},{"properties":{"status":"Completed","geo_score":0.0,"id":"a68qm49nb4j4","geo_precision":"unmatched","state":"MI"},"type":"Feature","geometry":null},{"properties":{"status":"Not Completed","geo_score":0.0,"id":"a68qm3w569yz","geo_precision":"unmatched","state":"IN"},"type":"Feature","geometry":null},{"properties":{"status":"Completed","geo_score":0.0,"id":"a68qm46htw72","geo_precision":"unmatched","state":"MI"},"type":"Feature","geometry":null},{"properties":{"status":"Completed","geo_score":0.0,"id":"a68qm40k5oi4","geo_precision":"unmatched","state":"MI"},"type":"Feature","geometry":null},{"properties":{"status":"Completed","geo_score":0.0,"id":"a68qm3wk8b12","geo_precision":"unmatched","state":"MI"},"type":"Feature","geometry":null},{"properties":{"status":"Completed","geo_score":0.0,"id":"a68qm4196fb5","geo_precision":"unmatched","state":"IN"},"type":"Feature","geometry":null},{"properties":{"status":"Not Completed","geo_score":0.0,"id":"a68qm3vaqfkh","geo_precision":"unmatched","state":"MI"},"type":"Feature","geometry":null},{"properties":{"status":"Completed","geo_score":0.0,"id":"a68qm49axi4g","geo_precision":"unmatched","state":"MI"},"type":"Feature","geometry":null},{"properties":{"status":"Not Completed","geo_score":0.0,"id":"a68qm48n3obo","geo_precision":"unmatched","state":"GA"},"type":"Feature","geometry":null},{"properties":{"status":"Not Completed","geo_score":0.0,"id":"a68qm3wtr84s","geo_precision":"unmatched","state":"GA"},"type":"Feature","geometry":null},{"properties":{"status":"Not Completed","geo_score":0.0,"id":"a68qm407t1g1","geo_precision":"unmatched","state":"ID"},"type":"Feature","geometry":null},{"properties":{"status":"Not Completed","geo_score":0.0,"id":"a68qm3ycaglz","geo_precision":"unmatched","state":"IA"},"type":"Feature","geometry":null},{"properties":{"status":"Not Completed","geo_score":0.0,"id":"a68qm44nwmi2","geo_precision":"unmatched","state":"MO"},"type":"Feature","geometry":null},{"properties":{"status":"Not Completed","geo_score":0.0,"id":"a68qm4bbifi8","geo_precision":"unmatched","state":"MO"},"type":"Feature","geometry":null},{"properties":{"status":"Not Completed","geo_score":0.0,"id":"a68qm3xumv9n","geo_precision":"unmatched","state":"MO"},"type":"Feature","geometry":null},{"properties":{"status":"Not Completed","geo_score":0.0,"id":"a68qm42d29be","geo_precision":"unmatched","state":"IL"},"type":"Feature","geometry":null},{"properties":{"status":"Not Completed","geo_score":0.0,"id":"a68qm4893ppb","geo_precision":"unmatched","state":"IN"},"type":"Feature","geometry":null},{"properties":{"status":"Not Completed","geo_score":0.0,"id":"a68qm40ja671","geo_precision":"unmatched","state":"ID"},"type":"Feature","geometry":null},{"properties":{"status":"Not Completed","geo_score":0.0,"id":"a68qm4a3acws","geo_precision":"unmatched","state":"IA"},"type":"Feature","geometry":null},{"properties":{"status":"Not Completed","geo_score":0.0,"id":"a68qm3wjiyhh","geo_precision":"unmatched","state":"MO"},"type":"Feature","geometry":null},{"properties":{"status":"Not Completed","geo_score":0.0,"id":"a68qm431u7tq","geo_precision":"unmatched","state":"MO"},"type":"Feature","geometry":null},{"properties":{"status":"Not Completed","geo_score":0.0,"id":"a68qm49silny","geo_precision":"unmatched","state":"MO"},"type":"Feature","geometry":null},{"properties":{"status":"Not Completed","geo_score":0.0,"id":"a68qm4843x2i","geo_precision":"unmatched","state":"MO"},"type":"Feature","geometry":null},{"properties":{"status":"Not Completed","geo_score":0.0,"id":"a68qm486vptj","geo_precision":"unmatched","state":"IL"},"type":"Feature","geometry":null},{"properties":{"status":"Not Completed","geo_score":0.0,"id":"a68qm46wurps","geo_precision":"unmatched","state":"IL"},"type":"Feature","geometry":null},{"properties":{"status":"Not Completed","geo_score":0.0,"id":"a68qm4bacw58","geo_precision":"unmatched","state":"IL"},"type":"Feature","geometry":null},{"properties":{"status":"Not Completed","geo_score":0.0,"id":"a68qm485wzc1","geo_precision":"unmatched","state":"IL"},"type":"Feature","geometry":null},{"properties":{"status":"Not Completed","geo_score":0.0,"id":"a68qm474m7h7","geo_precision":"unmatched","state":"ID"},"type":"Feature","geometry":null},{"properties":{"status":"Not Completed","geo_score":0.0,"id":"a68qm40sloey","geo_precision":"unmatched","state":"NC"},"type":"Feature","geometry":null},{"properties":{"status":"Not Completed","geo_score":0.0,"id":"a68qm47c77qd","geo_precision":"unmatched","state":"MO"},"type":"Feature","geometry":null},{"properties":{"status":"Not Completed","geo_score":0.0,"id":"a68qm3x426s9","geo_precision":"unmatched","state":"MO"},"type":"Feature","geometry":null},{"properties":{"status":"Not Completed","geo_score":0.0,"id":"a68qm4bg4lyi","geo_precision":"unmatched","state":"MO"},"type":"Feature","geometry":null},{"properties":{"status":"Not Completed","geo_score":0.0,"id":"a68qm456v041","geo_precision":"unmatched","state":"MO"},"type":"Feature","geometry":null},{"properties":{"status":"Not Completed","geo_score":0.0,"id":"a68qm4a2oqey","geo_precision":"unmatched","state":"IL"},"type":"Feature","geometry":null},{"properties":{"status":"Not Completed","geo_score":0.0,"id":"a68qm49qaohw","geo_precision":"unmatched","state":"IL"},"type":"Feature","geometry":null},{"properties":{"status":"Not Completed","geo_score":0.0,"id":"a68qm3xuwygc","geo_precision":"unmatched","state":"IL"},"type":"Feature","geometry":null},{"properties":{"status":"Not Completed","geo_score":0.0,"id":"a68qm426ybhm","geo_precision":"unmatched","state":"IL"},"type":"Feature","geometry":null},{"properties":{"status":"Not Completed","geo_score":0.0,"id":"a68qm4b8be90","geo_precision":"unmatched","state":"NC"},"type":"Feature","geometry":null},{"properties":{"status":"Not Completed","geo_score":0.0,"id":"a68qm3zmdwzq","geo_precision":"unmatched","state":"MA"},"type":"Feature","geometry":null},{"properties":{"status":"Not Completed","geo_score":0.0,"id":"a68qm3y7wrfk","geo_precision":"unmatched","state":"MO"},"type":"Feature","geometry":null},{"properties":{"status":"Not Completed","geo_score":0.0,"id":"a68qm42diybm","geo_precision":"unmatched","state":"MO"},"type":"Feature","geometry":null},{"properties":{"status":"Not Completed","geo_score":0.0,"id":"a68qm40hs09y","geo_precision":"unmatched","state":"MO"},"type":"Feature","geometry":null},{"properties":{"status":"Not Completed","geo_score":0.0,"id":"a68qm3vfinx9","geo_precision":"unmatched","state":"IL"},"type":"Feature","geometry":null},{"properties":{"status":"Not Completed","geo_score":0.0,"id":"a68qm44akjkh","geo_precision":"unmatched","state":"IL"},"type":"Feature","geometry":null},{"properties":{"status":"Not Completed","geo_score":0.0,"id":"a68qm3yu4zf9","geo_precision":"unmatched","state":"IL"},"type":"Feature","geometry":null},{"properties":{"status":"Not Completed","geo_score":0.0,"id":"a68qm4599n10","geo_precision":"unmatched","state":"IL"},"type":"Feature","geometry":null},{"properties":{"status":"Not Completed","geo_score":0.0,"id":"a68qm3yuk93m","geo_precision":"unmatched","state":"IL"},"type":"Feature","geometry":null},{"properties":{"status":"Not Completed","geo_score":0.0,"id":"a68qm43sbjdc","geo_precision":"unmatched","state":"IL"},"type":"Feature","geometry":null},{"properties":{"status":"Not Completed","geo_score":0.0,"id":"a68qm3vqkt1v","geo_precision":"unmatched","state":"AZ"},"type":"Feature","geometry":null},{"properties":{"status":"Not Completed","geo_score":0.0,"id":"a68qm411i2q5","geo_precision":"unmatched","state":"AZ"},"type":"Feature","geometry":null},{"properties":{"status":"Not Completed","geo_score":0.0,"id":"a68qm41po7e7","geo_precision":"unmatched","state":"AZ"},"type":"Feature","geometry":null},{"properties":{"status":"Not Completed","geo_score":0.0,"id":"a68qm3wzzs4g","geo_precision":"unmatched","state":"AZ"},"type":"Feature","geometry":null},{"properties":{"status":"Not Completed","geo_score":0.0,"id":"a68qm47wd24o","geo_precision":"unmatched","state":"PA"},"type":"Feature","geometry":null},{"properties":{"status":"Not Completed","geo_score":0.0,"id":"a68qm3vjurx0","geo_precision":"unmatched","state":"CO"},"type":"Feature","geometry":null},{"properties":{"status":"Not Completed","geo_score":0.0,"id":"a68qm46tt6rm","geo_precision":"unmatched","state":"CO"},"type":"Feature","geometry":null},{"properties":{"status":"Not Completed","geo_score":0.0,"id":"a68qm490kcqg","geo_precision":"unmatched","state":"AZ"},"type":"Feature","geometry":null},{"properties":{"status":"Not Completed","geo_score":0.0,"id":"a68qm3xv5gcd","geo_precision":"unmatched","state":"AZ"},"type":"Feature","geometry":null},{"properties":{"status":"Not Completed","geo_score":0.0,"id":"a68qm42yb5n6","geo_precision":"unmatched","state":"AZ"},"type":"Feature","geometry":null},{"properties":{"status":"Not Completed","geo_score":0.0,"id":"a68qm459ppbu","geo_precision":"unmatched","state":"CO"},"type":"Feature","geometry":null},{"properties":{"status":"Not Completed","geo_score":0.0,"id":"a68qm49vnt52","geo_precision":"unmatched","state":"AZ"},"type":"Feature","geometry":null},{"properties":{"status":"Not Completed","geo_score":0.0,"id":"a68qm3vc0nud","geo_precision":"unmatched","state":"AZ"},"type":"Feature","geometry":null},{"properties":{"status":"Not Completed","geo_score":0.0,"id":"a68qm45xieko","geo_precision":"unmatched","state":"AZ"},"type":"Feature","geometry":null},{"properties":{"status":"Not Completed","geo_score":0.0,"id":"a68qm43xtpf4","geo_precision":"unmatched","state":"CO"},"type":"Feature","geometry":null},{"properties":{"status":"Not Completed","geo_score":0.0,"id":"a68qm422t0ht","geo_precision":"unmatched","state":"CO"},"type":"Feature","geometry":null},{"properties":{"status":"Not Completed","geo_score":0.0,"id":"a68qm4b5oshj","geo_precision":"unmatched","state":"CO"},"type":"Feature","geometry":null},{"properties":{"status":"Not Completed","geo_score":0.0,"id":"a68qm45o6c7v","geo_precision":"unmatched","state":"CO"},"type":"Feature","geometry":null},{"properties":{"status":"Not Completed","geo_score":0.0,"id":"a68qm40oj2lj","geo_precision":"unmatched","state":"AZ"},"type":"Feature","geometry":null},{"properties":{"status":"Not Completed","geo_score":0.0,"id":"a68qm3xrm3ww","geo_precision":"unmatched","state":"AZ"},"type":"Feature","geometry":null},{"properties":{"status":"Not Completed","geo_score":0.0,"id":"a68qm4ao1c37","geo_precision":"unmatched","state":"AZ"},"type":"Feature","geometry":null},{"properties":{"status":"Not Completed","geo_score":0.0,"id":"a68qm49rvp01","geo_precision":"unmatched","state":"CO"},"type":"Feature","geometry":null},{"properties":{"status":"Not Completed","geo_score":0.0,"id":"a68qm3wffjb5","geo_precision":"unmatched","state":"CO"},"type":"Feature","geometry":null},{"properties":{"status":"Not Completed","geo_score":0.0,"id":"a68qm48egc61","geo_precision":"unmatched","state":"CO"},"type":"Feature","geometry":null},{"properties":{"status":"Not Completed","geo_score":0.0,"id":"a68qm40hpy59","geo_precision":"unmatched","state":"NM"},"type":"Feature","geometry":null},{"properties":{"status":"Not Completed","geo_score":0.0,"id":"a68qm49s6g8y","geo_precision":"unmatched","state":"CO"},"type":"Feature","geometry":null},{"properties":{"status":"Not Completed","geo_score":0.0,"id":"a68qm3xt58ww","geo_precision":"unmatched","state":"CO"},"type":"Feature","geometry":null},{"properties":{"status":"Not Completed","geo_score":0.0,"id":"a68qm4bigzt0","geo_precision":"unmatched","state":"AZ"},"type":"Feature","geometry":null},{"properties":{"status":"Not Completed","geo_score":0.0,"id":"a68qm462yur0","geo_precision":"unmatched","state":"AZ"},"type":"Feature","geometry":null},{"properties":{"status":"Not Completed","geo_score":0.0,"id":"a68qm442hp2l","geo_precision":"unmatched","state":"AZ"},"type":"Feature","geometry":null},{"properties":{"status":"Not Completed","geo_score":0.0,"id":"a68qm49giviy","geo_precision":"unmatched","state":"CO"},"type":"Feature","geometry":null},{"properties":{"status":"Not Completed","geo_score":0.0,"id":"a68qm4848x7q","geo_precision":"unmatched","state":"NM"},"type":"Feature","geometry":null},{"properties":{"status":"Not Completed","geo_score":0.0,"id":"a68qm3wcv8sd","geo_precision":"unmatched","state":"AZ"},"type":"Feature","geometry":null},{"properties":{"status":"Not Completed","geo_score":0.0,"id":"a68qm430malr","geo_precision":"unmatched","state":"CA"},"type":"Feature","geometry":null},{"properties":{"status":"Not Completed","geo_score":0.0,"id":"a68qm491k0fb","geo_precision":"unmatched","state":"CA"},"type":"Feature","geometry":null},{"properties":{"status":"Not Completed","geo_score":0.0,"id":"a68qm3wppayv","geo_precision":"unmatched","state":"CA"},"type":"Feature","geometry":null},{"properties":{"status":"Not Completed","geo_score":0.0,"id":"a68qm45av907","geo_precision":"unmatched","state":"CA"},"type":"Feature","geometry":null},{"properties":{"status":"Not Completed","geo_score":0.0,"id":"a68qm41cxvqc","geo_precision":"unmatched","state":"CA"},"type":"Feature","geometry":null},{"properties":{"status":"Not Completed","geo_score":0.0,"id":"a68qm43jbruy","geo_precision":"unmatched","state":"CA"},"type":"Feature","geometry":null},{"properties":{"status":"Not Completed","geo_score":0.0,"id":"a68qm4ap4h1z","geo_precision":"unmatched","state":"CA"},"type":"Feature","geometry":null},{"properties":{"status":"Not Completed","geo_score":0.0,"id":"a68qm42ext1h","geo_precision":"unmatched","state":"CA"},"type":"Feature","geometry":null},{"properties":{"status":"Not Completed","geo_score":0.0,"id":"a68qm47qv25e","geo_precision":"unmatched","state":"WA"},"type":"Feature","geometry":null},{"properties":{"status":"Not Completed","geo_score":0.0,"id":"a68qm43vukcg","geo_precision":"unmatched","state":"CA"},"type":"Feature","geometry":null},{"properties":{"status":"Not Completed","geo_score":0.0,"id":"a68qm41tzqcn","geo_precision":"unmatched","state":"CA"},"type":"Feature","geometry":null},{"properties":{"status":"Not Completed","geo_score":0.0,"id":"a68qm3yif8or","geo_precision":"unmatched","state":"CA"},"type":"Feature","geometry":null},{"properties":{"status":"Not Completed","geo_score":0.0,"id":"a68qm40uqj8h","geo_precision":"unmatched","state":"CA"},"type":"Feature","geometry":null},{"properties":{"status":"Not Completed","geo_score":0.0,"id":"a68qm483p8xh","geo_precision":"unmatched","state":"CA"},"type":"Feature","geometry":null},{"properties":{"status":"Not Completed","geo_score":0.0,"id":"a68qm3yxrnsr","geo_precision":"unmatched","state":"CA"},"type":"Feature","geometry":null},{"properties":{"status":"Not Completed","geo_score":0.0,"id":"a68qm46cd1wr","geo_precision":"unmatched","state":"CA"},"type":"Feature","geometry":null},{"properties":{"status":"Not Completed","geo_score":0.0,"id":"a68qm4a24rpi","geo_precision":"unmatched","state":"CA"},"type":"Feature","geometry":null},{"properties":{"status":"Not Completed","geo_score":0.0,"id":"a68qm4a9fksj","geo_precision":"unmatched","state":"CA"},"type":"Feature","geometry":null},{"properties":{"status":"Not Completed","geo_score":0.0,"id":"a68qm3yixqum","geo_precision":"unmatched","state":"CA"},"type":"Feature","geometry":null},{"properties":{"status":"Not Completed","geo_score":0.0,"id":"a68qm49okpfj","geo_precision":"unmatched","state":"CA"},"type":"Feature","geometry":null},{"properties":{"status":"Not Completed","geo_score":0.0,"id":"a68qm3wk1rds","geo_precision":"unmatched","state":"CA"},"type":"Feature","geometry":null},{"properties":{"status":"Not Completed","geo_score":0.0,"id":"a68qm430v007","geo_precision":"unmatched","state":"CA"},"type":"Feature","geometry":null},{"properties":{"status":"Not Completed","geo_score":0.0,"id":"a68qm3w38wkj","geo_precision":"unmatched","state":"CA"},"type":"Feature","geometry":null},{"properties":{"status":"Not Completed","geo_score":0.0,"id":"a68qm48iw8br","geo_precision":"unmatched","state":"CA"},"type":"Feature","geometry":null},{"properties":{"status":"Not Completed","geo_score":0.0,"id":"a68qm3vvthzj","geo_precision":"unmatched","state":"CA"},"type":"Feature","geometry":null},{"properties":{"status":"Not Completed","geo_score":0.0,"id":"a68qm41tp89o","geo_precision":"unmatched","state":"CA"},"type":"Feature","geometry":null},{"properties":{"status":"Not Completed","geo_score":0.0,"id":"a68qm4a493kw","geo_precision":"unmatched","state":"CA"},"type":"Feature","geometry":null},{"properties":{"status":"Not Completed","geo_score":0.0,"id":"a68qm45nkic8","geo_precision":"unmatched","state":"CA"},"type":"Feature","geometry":null},{"properties":{"status":"Not Completed","geo_score":0.0,"id":"a68qm3w9qofx","geo_precision":"unmatched","state":"CA"},"type":"Feature","geometry":null},{"properties":{"status":"Not Completed","geo_score":0.0,"id":"a68qm3zrhx1x","geo_precision":"unmatched","state":"CA"},"type":"Feature","geometry":null},{"properties":{"status":"Not Completed","geo_score":0.0,"id":"a68qm3y67u8m","geo_precision":"unmatched","state":"CA"},"type":"Feature","geometry":null},{"properties":{"status":"Not Completed","geo_score":0.0,"id":"a68qm44s8s5v","geo_precision":"unmatched","state":"CA"},"type":"Feature","geometry":null},{"properties":{"status":"Not Completed","geo_score":0.0,"id":"a68qm4bhi0bm","geo_precision":"unmatched","state":"CO"},"type":"Feature","geometry":null},{"properties":{"status":"Not Completed","geo_score":0.0,"id":"a68qm44y05y3","geo_precision":"unmatched","state":"CA"},"type":"Feature","geometry":null},{"properties":{"status":"Not Completed","geo_score":0.0,"id":"a68qm3y3ggm3","geo_precision":"unmatched","state":"CA"},"type":"Feature","geometry":null},{"properties":{"status":"Not Completed","geo_score":0.0,"id":"a68qm4b7ozzb","geo_precision":"unmatched","state":"CA"},"type":"Feature","geometry":null},{"properties":{"status":"Not Completed","geo_score":0.0,"id":"a68qm460upi5","geo_precision":"unmatched","state":"CA"},"type":"Feature","geometry":null},{"properties":{"status":"Not Completed","geo_score":0.0,"id":"a68qm41ubm6q","geo_precision":"unmatched","state":"CA"},"type":"Feature","geometry":null},{"properties":{"status":"Not Completed","geo_score":0.0,"id":"a68qm474a71j","geo_precision":"unmatched","state":"CO"},"type":"Feature","geometry":null},{"properties":{"status":"Not Completed","geo_score":0.0,"id":"a68qm47d1ux7","geo_precision":"unmatched","state":"UT"},"type":"Feature","geometry":null},{"properties":{"status":"Not Completed","geo_score":0.0,"id":"a68qm402jy1g","geo_precision":"unmatched","state":"OR"},"type":"Feature","geometry":null},{"properties":{"status":"Not Completed","geo_score":0.0,"id":"a68qm48398rb","geo_precision":"unmatched","state":"UT"},"type":"Feature","geometry":null},{"properties":{"status":"Not Completed","geo_score":0.0,"id":"a68qm4bg4d6h","geo_precision":"unmatched","state":"OR"},"type":"Feature","geometry":null},{"properties":{"status":"Not Completed","geo_score":0.0,"id":"a68qm44omn6a","geo_precision":"unmatched","state":"HI"},"type":"Feature","geometry":null},{"properties":{"status":"Not Completed","geo_score":0.0,"id":"a68qm459cf07","geo_precision":"unmatched","state":"UT"},"type":"Feature","geometry":null},{"properties":{"status":"Not Completed","geo_score":0.0,"id":"a68qm40a2fnh","geo_precision":"unmatched","state":"UT"},"type":"Feature","geometry":null},{"properties":{"status":"Not Completed","geo_score":0.0,"id":"a68qm41u4wof","geo_precision":"unmatched","state":"OR"},"type":"Feature","geometry":null},{"properties":{"status":"Not Completed","geo_score":0.0,"id":"a68qm43s5jub","geo_precision":"unmatched","state":"OR"},"type":"Feature","geometry":null},{"properties":{"status":"Not Completed","geo_score":0.0,"id":"a68qm48v9lks","geo_precision":"unmatched","state":"IL"},"type":"Feature","geometry":null},{"properties":{"status":"Not Completed","geo_score":0.0,"id":"a68qm3x5enrk","geo_precision":"unmatched","state":"MI"},"type":"Feature","geometry":null},{"properties":{"status":"Not Completed","geo_score":0.0,"id":"a68qm3znvirx","geo_precision":"unmatched","state":"OR"},"type":"Feature","geometry":null},{"properties":{"status":"Not Completed","geo_score":0.0,"id":"a68qm43qh303","geo_precision":"unmatched","state":"UT"},"type":"Feature","geometry":null},{"properties":{"status":"Not Completed","geo_score":0.0,"id":"a68qm3xd9ouc","geo_precision":"unmatched","state":"DE"},"type":"Feature","geometry":null},{"properties":{"status":"Not Completed","geo_score":0.0,"id":"a68qm432zkwq","geo_precision":"unmatched","state":"UT"},"type":"Feature","geometry":null},{"properties":{"status":"Not Completed","geo_score":0.0,"id":"a68qm47twx6o","geo_precision":"unmatched","state":"OR"},"type":"Feature","geometry":null},{"properties":{"status":"Not Completed","geo_score":0.0,"id":"a68qm46ptapy","geo_precision":"unmatched","state":"IL"},"type":"Feature","geometry":null},{"properties":{"status":"Not Completed","geo_score":0.0,"id":"a68qm450a9qw","geo_precision":"unmatched","state":"KY"},"type":"Feature","geometry":null},{"properties":{"status":"Not Completed","geo_score":0.0,"id":"a68qm440ulyc","geo_precision":"unmatched","state":"KY"},"type":"Feature","geometry":null},{"properties":{"status":"Not Completed","geo_score":0.0,"id":"a68qm48a8rdm","geo_precision":"unmatched","state":"IL"},"type":"Feature","geometry":null},{"properties":{"status":"Not Completed","geo_score":0.0,"id":"a68qm409rfkx","geo_precision":"unmatched","state":"DE"},"type":"Feature","geometry":null},{"properties":{"status":"Not Completed","geo_score":0.0,"id":"a68qm4a1gei5","geo_precision":"unmatched","state":"UT"},"type":"Feature","geometry":null},{"properties":{"status":"Not Completed","geo_score":0.0,"id":"a68qm477r1sq","geo_precision":"unmatched","state":"NJ"},"type":"Feature","geometry":null},{"properties":{"status":"Not Completed","geo_score":0.0,"id":"a68qm3zjyekr","geo_precision":"unmatched","state":"UT"},"type":"Feature","geometry":null},{"properties":{"status":"Not Completed","geo_score":0.0,"id":"a68qm4beqdxd","geo_precision":"unmatched","state":"OR"},"type":"Feature","geometry":null},{"properties":{"status":"Not Completed","geo_score":0.0,"id":"a68qm42y5q2b","geo_precision":"unmatched","state":"OR"},"type":"Feature","geometry":null},{"properties":{"status":"Not Completed","geo_score":0.0,"id":"a68qm3visnta","geo_precision":"unmatched","state":"IL"},"type":"Feature","geometry":null},{"properties":{"status":"Not Completed","geo_score":0.0,"id":"a68qm43alv9s","geo_precision":"unmatched","state":"DE"},"type":"Feature","geometry":null},{"properties":{"status":"Not Completed","geo_score":0.0,"id":"a68qm48gtf7m","geo_precision":"unmatched","state":"NC"},"type":"Feature","geometry":null},{"properties":{"status":"Not Completed","geo_score":0.0,"id":"a68qm45wb2cb","geo_precision":"unmatched","state":"NC"},"type":"Feature","geometry":null},{"properties":{"status":"Not Completed","geo_score":0.0,"id":"a68qm3vm38h7","geo_precision":"unmatched","state":"NC"},"type":"Feature","geometry":null},{"properties":{"status":"Not Completed","geo_score":0.0,"id":"a68qm43xze2u","geo_precision":"unmatched","state":"OR"},"type":"Feature","geometry":null},{"properties":{"status":"Not Completed","geo_score":0.0,"id":"a68qm3vvqlpl","geo_precision":"unmatched","state":"OR"},"type":"Feature","geometry":null},{"properties":{"status":"Not Completed","geo_score":0.0,"id":"a68qm3vpzhcn","geo_precision":"unmatched","state":"NJ"},"type":"Feature","geometry":null},{"properties":{"status":"Not Completed","geo_score":0.0,"id":"a68qm3zdasep","geo_precision":"unmatched","state":"OR"},"type":"Feature","geometry":null},{"properties":{"status":"Not Completed","geo_score":0.0,"id":"a68qm47q470i","geo_precision":"unmatched","state":"FL"},"type":"Feature","geometry":null},{"properties":{"status":"Not Completed","geo_score":0.0,"id":"a68qm4b9236n","geo_precision":"unmatched","state":"FL"},"type":"Feature","geometry":null},{"properties":{"status":"Not Completed","geo_score":0.0,"id":"a68qm46kwo1q","geo_precision":"unmatched","state":"FL"},"type":"Feature","geometry":null},{"properties":{"status":"Not Completed","geo_score":0.0,"id":"a68qm4bgc2qv","geo_precision":"unmatched","state":"FL"},"type":"Feature","geometry":null},{"properties":{"status":"Not Completed","geo_score":0.0,"id":"a68qm47wt0c7","geo_precision":"unmatched","state":"FL"},"type":"Feature","geometry":null},{"properties":{"status":"Not Completed","geo_score":0.0,"id":"a68qm49aqw5i","geo_precision":"unmatched","state":"FL"},"type":"Feature","geometry":null},{"properties":{"status":"Not Completed","geo_score":0.0,"id":"a68qm4be6q8e","geo_precision":"unmatched","state":"FL"},"type":"Feature","geometry":null},{"properties":{"status":"Not Completed","geo_score":0.0,"id":"a68qm41lnvlv","geo_precision":"unmatched","state":"KS"},"type":"Feature","geometry":null},{"properties":{"status":"Not Completed","geo_score":0.0,"id":"a68qm3v93r47","geo_precision":"unmatched","state":"IL"},"type":"Feature","geometry":null},{"properties":{"status":"Not Completed","geo_score":0.0,"id":"a68qm49qg24p","geo_precision":"unmatched","state":"IL"},"type":"Feature","geometry":null},{"properties":{"status":"Not Completed","geo_score":0.0,"id":"a68qm4as66mh","geo_precision":"unmatched","state":"CA"},"type":"Feature","geometry":null},{"properties":{"status":"Not Completed","geo_score":0.0,"id":"a68qm41nir02","geo_precision":"unmatched","state":"KS"},"type":"Feature","geometry":null},{"properties":{"status":"Not Completed","geo_score":0.0,"id":"a68qm3yuuy3d","geo_precision":"unmatched","state":"NV"},"type":"Feature","geometry":null},{"properties":{"status":"Not Completed","geo_score":0.0,"id":"a68qm41w9ju1","geo_precision":"unmatched","state":"FL"},"type":"Feature","geometry":null},{"properties":{"status":"Not Completed","geo_score":0.0,"id":"a68qm4arw28c","geo_precision":"unmatched","state":"FL"},"type":"Feature","geometry":null},{"properties":{"status":"Not Completed","geo_score":0.0,"id":"a68qm43qrsyd","geo_precision":"unmatched","state":"FL"},"type":"Feature","geometry":null},{"properties":{"status":"Not Completed","geo_score":0.0,"id":"a68qm3yhsj13","geo_precision":"unmatched","state":"FL"},"type":"Feature","geometry":null},{"properties":{"status":"Not Completed","geo_score":0.0,"id":"a68qm3x2352j","geo_precision":"unmatched","state":"IL"},"type":"Feature","geometry":null},{"properties":{"status":"Not Completed","geo_score":0.0,"id":"a68qm46zn04n","geo_precision":"unmatched","state":"DE"},"type":"Feature","geometry":null},{"properties":{"status":"Not Completed","geo_score":0.0,"id":"a68qm47yx3l4","geo_precision":"unmatched","state":"NJ"},"type":"Feature","geometry":null},{"properties":{"status":"Not Completed","geo_score":0.0,"id":"a68qm3z13eie","geo_precision":"unmatched","state":"KS"},"type":"Feature","geometry":null},{"properties":{"status":"Not Completed","geo_score":0.0,"id":"a68qm49kcqkv","geo_precision":"unmatched","state":"NV"},"type":"Feature","geometry":null},{"properties":{"status":"Not Completed","geo_score":0.0,"id":"a68qm42oxmtx","geo_precision":"unmatched","state":"FL"},"type":"Feature","geometry":null},{"properties":{"status":"Not Completed","geo_score":0.0,"id":"a68qm453rolq","geo_precision":"unmatched","state":"FL"},"type":"Feature","geometry":null},{"properties":{"status":"Not Completed","geo_score":0.0,"id":"a68qm49pp8lq","geo_precision":"unmatched","state":"FL"},"type":"Feature","geometry":null},{"properties":{"status":"Not Completed","geo_score":0.0,"id":"a68qm43goehm","geo_precision":"unmatched","state":"IL"},"type":"Feature","geometry":null},{"properties":{"status":"Not Completed","geo_score":0.0,"id":"a68qm48dwakj","geo_precision":"unmatched","state":"NV"},"type":"Feature","geometry":null},{"properties":{"status":"Not Completed","geo_score":0.0,"id":"a68qm40k2s5k","geo_precision":"unmatched","state":"NV"},"type":"Feature","geometry":null},{"properties":{"status":"Not Completed","geo_score":0.0,"id":"a68qm49ndmzc","geo_precision":"unmatched","state":"KS"},"type":"Feature","geometry":null},{"properties":{"status":"Not Completed","geo_score":0.0,"id":"a68qm4b0gztc","geo_precision":"unmatched","state":"FL"},"type":"Feature","geometry":null},{"properties":{"status":"Not Completed","geo_score":0.0,"id":"a68qm3v7xasu","geo_precision":"unmatched","state":"FL"},"type":"Feature","geometry":null},{"properties":{"status":"Not Completed","geo_score":0.0,"id":"a68qm45wbh51","geo_precision":"unmatched","state":"FL"},"type":"Feature","geometry":null},{"properties":{"status":"Not Completed","geo_score":0.0,"id":"a68qm44g16wm","geo_precision":"unmatched","state":"FL"},"type":"Feature","geometry":null},{"properties":{"status":"Not Completed","geo_score":0.0,"id":"a68qm3z9ukrm","geo_precision":"unmatched","state":"KY"},"type":"Feature","geometry":null},{"properties":{"status":"Not Completed","geo_score":0.0,"id":"a68qm3zmwynn","geo_precision":"unmatched","state":"MS"},"type":"Feature","geometry":null},{"properties":{"status":"Not Completed","geo_score":0.0,"id":"a68qm485t59p","geo_precision":"unmatched","state":"IL"},"type":"Feature","geometry":null},{"properties":{"status":"Not Completed","geo_score":0.0,"id":"a68qm439552l","geo_precision":"unmatched","state":"NC"},"type":"Feature","geometry":null},{"properties":{"status":"Not Completed","geo_score":0.0,"id":"a68qm4341mwx","geo_precision":"unmatched","state":"NC"},"type":"Feature","geometry":null},{"properties":{"status":"Not Completed","geo_score":0.0,"id":"a68qm3yc4562","geo_precision":"unmatched","state":"UT"},"type":"Feature","geometry":null},{"properties":{"status":"Not Completed","geo_score":0.0,"id":"a68qm48fn8j5","geo_precision":"unmatched","state":"NC"},"type":"Feature","geometry":null},{"properties":{"status":"Not Completed","geo_score":0.0,"id":"a68qm47z4w4h","geo_precision":"unmatched","state":"NV"},"type":"Feature","geometry":null},{"properties":{"status":"Not Completed","geo_score":0.0,"id":"a68qm43ydoar","geo_precision":"unmatched","state":"KY"},"type":"Feature","geometry":null},{"properties":{"status":"Not Completed","geo_score":0.0,"id":"a68qm3xz5r9i","geo_precision":"unmatched","state":"AL"},"type":"Feature","geometry":null},{"properties":{"status":"Not Completed","geo_score":0.0,"id":"a68qm47z9tfe","geo_precision":"unmatched","state":"SC"},"type":"Feature","geometry":null},{"properties":{"status":"Not Completed","geo_score":0.0,"id":"a68qm3vh5bjt","geo_precision":"unmatched","state":"VA"},"type":"Feature","geometry":null},{"properties":{"status":"Not Completed","geo_score":0.0,"id":"a68qm3z8wnay","geo_precision":"unmatched","state":"VA"},"type":"Feature","geometry":null},{"properties":{"status":"Not Completed","geo_score":0.0,"id":"a68qm4ai8g89","geo_precision":"unmatched","state":"SC"},"type":"Feature","geometry":null},{"properties":{"status":"Not Completed","geo_score":0.0,"id":"a68qm44t156d","geo_precision":"unmatched","state":"VA"},"type":"Feature","geometry":null},{"properties":{"status":"Not Completed","geo_score":0.0,"id":"a68qm47578fw","geo_precision":"unmatched","state":"VA"},"type":"Feature","geometry":null},{"properties":{"status":"Not Completed","geo_score":0.0,"id":"a68qm40jzksu","geo_precision":"unmatched","state":"NJ"},"type":"Feature","geometry":null},{"properties":{"status":"Not Completed","geo_score":0.0,"id":"a68qm4blq7qn","geo_precision":"unmatched","state":"GA"},"type":"Feature","geometry":null},{"properties":{"status":"Not Completed","geo_score":0.0,"id":"a68qm48p4lo6","geo_precision":"unmatched","state":"GA"},"type":"Feature","geometry":null},{"properties":{"status":"Not Completed","geo_score":0.0,"id":"a68qm45lqs64","geo_precision":"unmatched","state":"GA"},"type":"Feature","geometry":null},{"properties":{"status":"Not Completed","geo_score":0.0,"id":"a68qm47uv0rb","geo_precision":"unmatched","state":"GA"},"type":"Feature","geometry":null},{"properties":{"status":"Not Completed","geo_score":0.0,"id":"a68qm3zl2db9","geo_precision":"unmatched","state":"GA"},"type":"Feature","geometry":null},{"properties":{"status":"Not Completed","geo_score":0.0,"id":"a68qm3zy5x93","geo_precision":"unmatched","state":"GA"},"type":"Feature","geometry":null},{"properties":{"status":"Not Completed","geo_score":0.0,"id":"a68qm45ff8bc","geo_precision":"unmatched","state":"PA"},"type":"Feature","geometry":null},{"properties":{"status":"Not Completed","geo_score":0.0,"id":"a68qm4boppp1","geo_precision":"unmatched","state":"AR"},"type":"Feature","geometry":null},{"properties":{"status":"Not Completed","geo_score":0.0,"id":"a68qm47a5v41","geo_precision":"unmatched","state":"GA"},"type":"Feature","geometry":null},{"properties":{"status":"Not Completed","geo_score":0.0,"id":"a68qm4aiyl4m","geo_precision":"unmatched","state":"TN"},"type":"Feature","geometry":null},{"properties":{"status":"Not Completed","geo_score":0.0,"id":"a68qm4a2lqyq","geo_precision":"unmatched","state":"TN"},"type":"Feature","geometry":null},{"properties":{"status":"Not Completed","geo_score":0.0,"id":"a68qm40mv7p5","geo_precision":"unmatched","state":"GA"},"type":"Feature","geometry":null},{"properties":{"status":"Not Completed","geo_score":0.0,"id":"a68qm45beiay","geo_precision":"unmatched","state":"GA"},"type":"Feature","geometry":null},{"properties":{"status":"Not Completed","geo_score":0.0,"id":"a68qm3waddht","geo_precision":"unmatched","state":"GA"},"type":"Feature","geometry":null},{"properties":{"status":"Not Completed","geo_score":0.0,"id":"a68qm419xe85","geo_precision":"unmatched","state":"TN"},"type":"Feature","geometry":null},{"properties":{"status":"Not Completed","geo_score":0.0,"id":"a68qm3yd2dl2","geo_precision":"unmatched","state":"TX"},"type":"Feature","geometry":null},{"properties":{"status":"Not Completed","geo_score":0.0,"id":"a68qm3vrdlqh","geo_precision":"unmatched","state":"LA"},"type":"Feature","geometry":null},{"properties":{"status":"Not Completed","geo_score":0.0,"id":"a68qm45e6qh4","geo_precision":"unmatched","state":"OK"},"type":"Feature","geometry":null},{"properties":{"status":"Not Completed","geo_score":0.0,"id":"a68qm49sreex","geo_precision":"unmatched","state":"OK"},"type":"Feature","geometry":null},{"properties":{"status":"Not Completed","geo_score":0.0,"id":"a68qm40r4k6f","geo_precision":"unmatched","state":"LA"},"type":"Feature","geometry":null},{"properties":{"status":"Not Completed","geo_score":0.0,"id":"a68qm48ccdbg","geo_precision":"unmatched","state":"OK"},"type":"Feature","geometry":null},{"properties":{"status":"Not Completed","geo_score":0.0,"id":"a68qm455cnho","geo_precision":"unmatched","state":"WI"},"type":"Feature","geometry":null},{"properties":{"status":"Not Completed","geo_score":0.0,"id":"a68qm44zsj6r","geo_precision":"unmatched","state":"WI"},"type":"Feature","geometry":null},{"properties":{"status":"Not Completed","geo_score":0.0,"id":"a68qm45ehzgl","geo_precision":"unmatched","state":"MO"},"type":"Feature","geometry":null},{"properties":{"status":"Not Completed","geo_score":0.0,"id":"a68qm4ahin69","geo_precision":"unmatched","state":"MO"},"type":"Feature","geometry":null},{"properties":{"status":"Not Completed","geo_score":0.0,"id":"a68qm49mtpl7","geo_precision":"unmatched","state":"SC"},"type":"Feature","geometry":null},{"properties":{"status":"Not Completed","geo_score":0.0,"id":"a68qm47zwypx","geo_precision":"unmatched","state":"MO"},"type":"Feature","geometry":null},{"properties":{"status":"Not Completed","geo_score":0.0,"id":"a68qm441i2sm","geo_precision":"unmatched","state":"MO"},"type":"Feature","geometry":null},{"properties":{"status":"Not Completed","geo_score":0.0,"id":"a68qm48dv4ec","geo_precision":"unmatched","state":"IL"},"type":"Feature","geometry":null},{"properties":{"status":"Not Completed","geo_score":0.0,"id":"a68qm40zbwxc","geo_precision":"unmatched","state":"OH"},"type":"Feature","geometry":null},{"properties":{"status":"Not Completed","geo_score":0.0,"id":"a68qm3wkwg9b","geo_precision":"unmatched","state":"OH"},"type":"Feature","geometry":null},{"properties":{"status":"Not Completed","geo_score":0.0,"id":"a68qm48scb9c","geo_precision":"unmatched","state":"GA"},"type":"Feature","geometry":null},{"properties":{"status":"Not Completed","geo_score":0.0,"id":"a68qm43ng2jb","geo_precision":"unmatched","state":"GA"},"type":"Feature","geometry":null},{"properties":{"status":"Not Completed","geo_score":0.0,"id":"a68qm40dhgv7","geo_precision":"unmatched","state":"NY"},"type":"Feature","geometry":null},{"properties":{"status":"Not Completed","geo_score":0.0,"id":"a68qm444uswc","geo_precision":"unmatched","state":"OH"},"type":"Feature","geometry":null},{"properties":{"status":"Not Completed","geo_score":0.0,"id":"a68qm43t2cu4","geo_precision":"unmatched","state":"PA"},"type":"Feature","geometry":null},{"properties":{"status":"Not Completed","geo_score":0.0,"id":"a68qm45lo9rj","geo_precision":"unmatched","state":"OH"},"type":"Feature","geometry":null},{"properties":{"status":"Not Completed","geo_score":0.0,"id":"a68qm3vv3y6i","geo_precision":"unmatched","state":"NY"},"type":"Feature","geometry":null},{"properties":{"status":"Not Completed","geo_score":0.0,"id":"a68qm41j75q3","geo_precision":"unmatched","state":"NY"},"type":"Feature","geometry":null},{"properties":{"status":"Not Completed","geo_score":0.0,"id":"a68qm3z08osn","geo_precision":"unmatched","state":"FL"},"type":"Feature","geometry":null},{"properties":{"status":"Not Completed","geo_score":0.0,"id":"a68qm442syz8","geo_precision":"unmatched","state":"NV"},"type":"Feature","geometry":null},{"properties":{"status":"Not Completed","geo_score":0.0,"id":"a68qm3zyqjdb","geo_precision":"unmatched","state":"FL"},"type":"Feature","geometry":null},{"properties":{"status":"Not Completed","geo_score":0.0,"id":"a68qm430of3j","geo_precision":"unmatched","state":"KS"},"type":"Feature","geometry":null},{"properties":{"status":"Not Completed","geo_score":0.0,"id":"a68qm44jns2q","geo_precision":"unmatched","state":"NV"},"type":"Feature","geometry":null},{"properties":{"status":"Not Completed","geo_score":0.0,"id":"a68qm49w3xsq","geo_precision":"unmatched","state":"KS"},"type":"Feature","geometry":null},{"properties":{"status":"Not Completed","geo_score":0.0,"id":"a68qm453il1r","geo_precision":"unmatched","state":"NC"},"type":"Feature","geometry":null},{"properties":{"status":"Not Completed","geo_score":0.0,"id":"a68qm42462j0","geo_precision":"unmatched","state":"SC"},"type":"Feature","geometry":null},{"properties":{"status":"Not Completed","geo_score":0.0,"id":"a68qm44ueiae","geo_precision":"unmatched","state":"KY"},"type":"Feature","geometry":null},{"properties":{"status":"Not Completed","geo_score":0.0,"id":"a68qm41i0ehj","geo_precision":"unmatched","state":"KY"},"type":"Feature","geometry":null},{"properties":{"status":"Not Completed","geo_score":0.0,"id":"a68qm406of67","geo_precision":"unmatched","state":"IL"},"type":"Feature","geometry":null},{"properties":{"status":"Not Completed","geo_score":0.0,"id":"a68qm3x9y0em","geo_precision":"unmatched","state":"IL"},"type":"Feature","geometry":null},{"properties":{"status":"Not Completed","geo_score":0.0,"id":"a68qm3v8qe3j","geo_precision":"unmatched","state":"NC"},"type":"Feature","geometry":null},{"properties":{"status":"Not Completed","geo_score":0.0,"id":"a68qm45nwxnh","geo_precision":"unmatched","state":"NC"},"type":"Feature","geometry":null},{"properties":{"status":"Not Completed","geo_score":0.0,"id":"a68qm3xnfuro","geo_precision":"unmatched","state":"MA"},"type":"Feature","geometry":null},{"properties":{"status":"Not Completed","geo_score":0.0,"id":"a68qm3zrtxm6","geo_precision":"unmatched","state":"CO"},"type":"Feature","geometry":null},{"properties":{"status":"Not Completed","geo_score":0.0,"id":"a68qm41gcot5","geo_precision":"unmatched","state":"NV"},"type":"Feature","geometry":null},{"properties":{"status":"Not Completed","geo_score":0.0,"id":"a68qm441r46x","geo_precision":"unmatched","state":"KS"},"type":"Feature","geometry":null},{"properties":{"status":"Not Completed","geo_score":0.0,"id":"a68qm4av273s","geo_precision":"unmatched","state":"PA"},"type":"Feature","geometry":null},{"properties":{"status":"Not Completed","geo_score":0.0,"id":"a68qm431dsou","geo_precision":"unmatched","state":"OH"},"type":"Feature","geometry":null},{"properties":{"status":"Not Completed","geo_score":0.0,"id":"a68qm488jk4f","geo_precision":"unmatched","state":"OH"},"type":"Feature","geometry":null},{"properties":{"status":"Not Completed","geo_score":0.0,"id":"a68qm48ingwc","geo_precision":"unmatched","state":"OH"},"type":"Feature","geometry":null},{"properties":{"status":"Not Completed","geo_score":0.0,"id":"a68qm42vd423","geo_precision":"unmatched","state":"PA"},"type":"Feature","geometry":null},{"properties":{"status":"Not Completed","geo_score":0.0,"id":"a68qm3vgumso","geo_precision":"unmatched","state":"WI"},"type":"Feature","geometry":null},{"properties":{"status":"Not Completed","geo_score":0.0,"id":"a68qm49eyg8u","geo_precision":"unmatched","state":"NY"},"type":"Feature","geometry":null},{"properties":{"status":"Not Completed","geo_score":0.0,"id":"a68qm3xkkfr5","geo_precision":"unmatched","state":"OH"},"type":"Feature","geometry":null},{"properties":{"status":"Not Completed","geo_score":0.0,"id":"a68qm3zmb2j2","geo_precision":"unmatched","state":"OH"},"type":"Feature","geometry":null},{"properties":{"status":"Not Completed","geo_score":0.0,"id":"a68qm47sputz","geo_precision":"unmatched","state":"NY"},"type":"Feature","geometry":null},{"properties":{"status":"Not Completed","geo_score":0.0,"id":"a68qm4614i0l","geo_precision":"unmatched","state":"NY"},"type":"Feature","geometry":null},{"properties":{"status":"Not Completed","geo_score":0.0,"id":"a68qm47ppmxp","geo_precision":"unmatched","state":"OH"},"type":"Feature","geometry":null},{"properties":{"status":"Not Completed","geo_score":0.0,"id":"a68qm3ygtzp8","geo_precision":"unmatched","state":"PA"},"type":"Feature","geometry":null},{"properties":{"status":"Not Completed","geo_score":0.0,"id":"a68qm474yhma","geo_precision":"unmatched","state":"NY"},"type":"Feature","geometry":null},{"properties":{"status":"Not Completed","geo_score":0.0,"id":"a68qm43pc1pr","geo_precision":"unmatched","state":"WI"},"type":"Feature","geometry":null},{"properties":{"status":"Not Completed","geo_score":0.0,"id":"a68qm44cpxm7","geo_precision":"unmatched","state":"WI"},"type":"Feature","geometry":null},{"properties":{"status":"Not Completed","geo_score":0.0,"id":"a68qm3yk1h79","geo_precision":"unmatched","state":"PA"},"type":"Feature","geometry":null},{"properties":{"status":"Not Completed","geo_score":0.0,"id":"a68qm3wyvx6z","geo_precision":"unmatched","state":"PA"},"type":"Feature","geometry":null},{"properties":{"status":"Not Completed","geo_score":0.0,"id":"a68qm3x06zbh","geo_precision":"unmatched","state":"WV"},"type":"Feature","geometry":null},{"properties":{"status":"Not Completed","geo_score":0.0,"id":"a68qm3vy7br9","geo_precision":"unmatched","state":"PA"},"type":"Feature","geometry":null},{"properties":{"status":"Not Completed","geo_score":0.0,"id":"a68qm3wf133h","geo_precision":"unmatched","state":"NY"},"type":"Feature","geometry":null},{"properties":{"status":"Not Completed","geo_score":0.0,"id":"a68qm48if9u4","geo_precision":"unmatched","state":"PA"},"type":"Feature","geometry":null},{"properties":{"status":"Not Completed","geo_score":0.0,"id":"a68qm47nxhjj","geo_precision":"unmatched","state":"NY"},"type":"Feature","geometry":null},{"properties":{"status":"Not Completed","geo_score":0.0,"id":"a68qm41dwz6a","geo_precision":"unmatched","state":"OH"},"type":"Feature","geometry":null},{"properties":{"status":"Not Completed","geo_score":0.0,"id":"a68qm41rsama","geo_precision":"unmatched","state":"PA"},"type":"Feature","geometry":null},{"properties":{"status":"Not Completed","geo_score":0.0,"id":"a68qm42c7ptv","geo_precision":"unmatched","state":"WI"},"type":"Feature","geometry":null},{"properties":{"status":"Not Completed","geo_score":0.0,"id":"a68qm45h3te8","geo_precision":"unmatched","state":"PA"},"type":"Feature","geometry":null},{"properties":{"status":"Not Completed","geo_score":0.0,"id":"a68qm485uchs","geo_precision":"unmatched","state":"PA"},"type":"Feature","geometry":null},{"properties":{"status":"Not Completed","geo_score":0.0,"id":"a68qm3z5pjo9","geo_precision":"unmatched","state":"PA"},"type":"Feature","geometry":null},{"properties":{"status":"Not Completed","geo_score":0.0,"id":"a68qm3x2skps","geo_precision":"unmatched","state":"IL"},"type":"Feature","geometry":null},{"properties":{"status":"Not Completed","geo_score":0.0,"id":"a68qm44cvglg","geo_precision":"unmatched","state":"WI"},"type":"Feature","geometry":null},{"properties":{"status":"Not Completed","geo_score":0.0,"id":"a68qm3ynu7ew","geo_precision":"unmatched","state":"NY"},"type":"Feature","geometry":null},{"properties":{"status":"Not Completed","geo_score":0.0,"id":"a68qm40g0whq","geo_precision":"unmatched","state":"PA"},"type":"Feature","geometry":null},{"properties":{"status":"Not Completed","geo_score":0.0,"id":"a68qm44u2kd7","geo_precision":"unmatched","state":"WV"},"type":"Feature","geometry":null},{"properties":{"status":"Not Completed","geo_score":0.0,"id":"a68qm433ya6u","geo_precision":"unmatched","state":"CT"},"type":"Feature","geometry":null},{"properties":{"status":"Not Completed","geo_score":0.0,"id":"a68qm47wh9el","geo_precision":"unmatched","state":"NY"},"type":"Feature","geometry":null},{"properties":{"status":"Not Completed","geo_score":0.0,"id":"a68qm45vxvch","geo_precision":"unmatched","state":"NY"},"type":"Feature","geometry":null},{"properties":{"status":"Not Completed","geo_score":0.0,"id":"a68qm3xquvbt","geo_precision":"unmatched","state":"NY"},"type":"Feature","geometry":null},{"properties":{"status":"Not Completed","geo_score":0.0,"id":"a68qm47lgbxv","geo_precision":"unmatched","state":"NY"},"type":"Feature","geometry":null},{"properties":{"status":"Not Completed","geo_score":0.0,"id":"a68qm47olv9v","geo_precision":"unmatched","state":"NY"},"type":"Feature","geometry":null},{"properties":{"status":"Not Completed","geo_score":0.0,"id":"a68qm3yke2zx","geo_precision":"unmatched","state":"WV"},"type":"Feature","geometry":null},{"properties":{"status":"Not Completed","geo_score":0.0,"id":"a68qm458fjrs","geo_precision":"unmatched","state":"WI"},"type":"Feature","geometry":null},{"properties":{"status":"Not Completed","geo_score":0.0,"id":"a68qm43t5vn1","geo_precision":"unmatched","state":"NY"},"type":"Feature","geometry":null},{"properties":{"status":"Not Completed","geo_score":0.0,"id":"a68qm48nklad","geo_precision":"unmatched","state":"TX"},"type":"Feature","geometry":null},{"properties":{"status":"Not Completed","geo_score":0.0,"id":"a68qm46m5in2","geo_precision":"unmatched","state":"TX"},"type":"Feature","geometry":null},{"properties":{"status":"Not Completed","geo_score":0.0,"id":"a68qm4aiz1ri","geo_precision":"unmatched","state":"TX"},"type":"Feature","geometry":null},{"properties":{"status":"Not Completed","geo_score":0.0,"id":"a68qm4azca6c","geo_precision":"unmatched","state":"TX"},"type":"Feature","geometry":null},{"properties":{"status":"Not Completed","geo_score":0.0,"id":"a68qm43hw0hg","geo_precision":"unmatched","state":"TX"},"type":"Feature","geometry":null},{"properties":{"status":"Not Completed","geo_score":0.0,"id":"a68qm46i26kh","geo_precision":"unmatched","state":"SC"},"type":"Feature","geometry":null},{"properties":{"status":"Not Completed","geo_score":0.0,"id":"a68qm45q1xgb","geo_precision":"unmatched","state":"OH"},"type":"Feature","geometry":null},{"properties":{"status":"Not Completed","geo_score":0.0,"id":"a68qm3x0bl67","geo_precision":"unmatched","state":"NM"},"type":"Feature","geometry":null},{"properties":{"status":"Not Completed","geo_score":0.0,"id":"a68qm3x77bra","geo_precision":"unmatched","state":"WA"},"type":"Feature","geometry":null},{"properties":{"status":"Not Completed","geo_score":0.0,"id":"a68qm43qvdka","geo_precision":"unmatched","state":"TX"},"type":"Feature","geometry":null},{"properties":{"status":"Not Completed","geo_score":0.0,"id":"a68qm48f6ndl","geo_precision":"unmatched","state":"MI"},"type":"Feature","geometry":null},{"properties":{"status":"Not Completed","geo_score":0.0,"id":"a68qm42mizh9","geo_precision":"unmatched","state":"OR"},"type":"Feature","geometry":null},{"properties":{"status":"Not Completed","geo_score":0.0,"id":"a68qm45jr62c","geo_precision":"unmatched","state":"NY"},"type":"Feature","geometry":null},{"properties":{"status":"Not Completed","geo_score":0.0,"id":"a68qm46gvzvv","geo_precision":"unmatched","state":"NY"},"type":"Feature","geometry":null},{"properties":{"status":"Not Completed","geo_score":0.0,"id":"a68qm46vj4vy","geo_precision":"unmatched","state":"NY"},"type":"Feature","geometry":null},{"properties":{"status":"Not Completed","geo_score":0.0,"id":"a68qm41fxvaf","geo_precision":"unmatched","state":"NY"},"type":"Feature","geometry":null},{"properties":{"status":"Not Completed","geo_score":0.0,"id":"a68qm4a9luo5","geo_precision":"unmatched","state":"NY"},"type":"Feature","geometry":null},{"properties":{"status":"Not Completed","geo_score":0.0,"id":"a68qm477nmhe","geo_precision":"unmatched","state":"NJ"},"type":"Feature","geometry":null},{"properties":{"status":"Not Completed","geo_score":0.0,"id":"a68qm463bc67","geo_precision":"unmatched","state":"NY"},"type":"Feature","geometry":null},{"properties":{"status":"Not Completed","geo_score":0.0,"id":"a68qm4823mxc","geo_precision":"unmatched","state":"NY"},"type":"Feature","geometry":null},{"properties":{"status":"Not Completed","geo_score":0.0,"id":"a68qm44ku67w","geo_precision":"unmatched","state":"NY"},"type":"Feature","geometry":null},{"properties":{"status":"Not Completed","geo_score":0.0,"id":"a68qm48ax1wd","geo_precision":"unmatched","state":"FL"},"type":"Feature","geometry":null},{"properties":{"status":"Not Completed","geo_score":0.0,"id":"a68qm3xyc49p","geo_precision":"unmatched","state":"FL"},"type":"Feature","geometry":null},{"properties":{"status":"Not Completed","geo_score":0.0,"id":"a68qm3va1tgh","geo_precision":"unmatched","state":"PA"},"type":"Feature","geometry":null},{"properties":{"status":"Not Completed","geo_score":0.0,"id":"a68qm45m4zz0","geo_precision":"unmatched","state":"PA"},"type":"Feature","geometry":null},{"properties":{"status":"Not Completed","geo_score":0.0,"id":"a68qm3xb7wtd","geo_precision":"unmatched","state":"PA"},"type":"Feature","geometry":null},{"properties":{"status":"Not Completed","geo_score":0.0,"id":"a68qm48hw6ix","geo_precision":"unmatched","state":"PA"},"type":"Feature","geometry":null},{"properties":{"status":"Not Completed","geo_score":0.0,"id":"a68qm48ihpsn","geo_precision":"unmatched","state":"TX"},"type":"Feature","geometry":null},{"properties":{"status":"Not Completed","geo_score":0.0,"id":"a68qm48kkp3g","geo_precision":"unmatched","state":"NY"},"type":"Feature","geometry":null},{"properties":{"status":"Not Completed","geo_score":0.0,"id":"a68qm490lwoj","geo_precision":"unmatched","state":"SC"},"type":"Feature","geometry":null},{"properties":{"status":"Not Completed","geo_score":0.0,"id":"a68qm49vwi91","geo_precision":"unmatched","state":"TX"},"type":"Feature","geometry":null},{"properties":{"status":"Not Completed","geo_score":0.0,"id":"a68qm48snw92","geo_precision":"unmatched","state":"HI"},"type":"Feature","geometry":null},{"properties":{"status":"Not Completed","geo_score":0.0,"id":"a68qm4bmsm8i","geo_precision":"unmatched","state":"VA"},"type":"Feature","geometry":null},{"properties":{"status":"Not Completed","geo_score":0.0,"id":"a68qm49yy89z","geo_precision":"unmatched","state":"TX"},"type":"Feature","geometry":null},{"properties":{"status":"Not Completed","geo_score":0.0,"id":"a68qm42ryukw","geo_precision":"unmatched","state":"NY"},"type":"Feature","geometry":null},{"properties":{"status":"Not Completed","geo_score":0.0,"id":"a68qm46a4o4u","geo_precision":"unmatched","state":"TN"},"type":"Feature","geometry":null},{"properties":{"status":"Not Completed","geo_score":0.0,"id":"a68qm3wjq3fw","geo_precision":"unmatched","state":"SC"},"type":"Feature","geometry":null},{"properties":{"status":"Not Completed","geo_score":0.0,"id":"a68qm43n6bge","geo_precision":"unmatched","state":"NM"},"type":"Feature","geometry":null},{"properties":{"status":"Not Completed","geo_score":0.0,"id":"a68qm3xeyti6","geo_precision":"unmatched","state":"NJ"},"type":"Feature","geometry":null},{"properties":{"status":"Not Completed","geo_score":0.0,"id":"a68qm4583f7x","geo_precision":"unmatched","state":"puerto rico"},"type":"Feature","geometry":null},{"properties":{"status":"Not Completed","geo_score":0.0,"id":"a68qm3w3rihu","geo_precision":"unmatched","state":"TX"},"type":"Feature","geometry":null},{"properties":{"status":"Not Completed","geo_score":0.0,"id":"a68qm47thkqe","geo_precision":"unmatched","state":"TX"},"type":"Feature","geometry":null},{"properties":{"status":"Not Completed","geo_score":0.0,"id":"a68qm3zbw0st","geo_precision":"unmatched","state":"TX"},"type":"Feature","geometry":null},{"properties":{"status":"Not Completed","geo_score":0.0,"id":"a68qm47tc52p","geo_precision":"unmatched","state":"FL"},"type":"Feature","geometry":null},{"properties":{"status":"Not Completed","geo_score":0.0,"id":"a68qm45qotwc","geo_precision":"unmatched","state":"IA"},"type":"Feature","geometry":null},{"properties":{"status":"Not Completed","geo_score":0.0,"id":"a68qm3xhdg5y","geo_precision":"unmatched","state":"TX"},"type":"Feature","geometry":null},{"properties":{"status":"Not Completed","geo_score":0.0,"id":"a68qm45jng87","geo_precision":"unmatched","state":"TX"},"type":"Feature","geometry":null},{"properties":{"status":"Not Completed","geo_score":0.0,"id":"a68qm482bqmc","geo_precision":"unmatched","state":"CA"},"type":"Feature","geometry":null},{"properties":{"status":"Not Completed","geo_score":0.0,"id":"a68qm4an4ypx","geo_precision":"unmatched","state":"CA"},"type":"Feature","geometry":null},{"properties":{"status":"Not Completed","geo_score":0.0,"id":"a68qm471xwz4","geo_precision":"unmatched","state":"CA"},"type":"Feature","geometry":null},{"properties":{"status":"Not Completed","geo_score":0.0,"id":"a68qm3x9vhoc","geo_precision":"unmatched","state":"CA"},"type":"Feature","geometry":null},{"properties":{"status":"Not Completed","geo_score":0.0,"id":"a68qm46zaya3","geo_precision":"unmatched","state":"FL"},"type":"Feature","geometry":null},{"properties":{"status":"Not Completed","geo_score":0.0,"id":"a68qm470mqa7","geo_precision":"unmatched","state":"VA"},"type":"Feature","geometry":null},{"properties":{"status":"Not Completed","geo_score":0.0,"id":"a68qm3wtegd2","geo_precision":"unmatched","state":"TX"},"type":"Feature","geometry":null},{"properties":{"status":"Not Completed","geo_score":0.0,"id":"a68qm3vvm0au","geo_precision":"unmatched","state":"CA"},"type":"Feature","geometry":null},{"properties":{"status":"Not Completed","geo_score":0.0,"id":"a68qm3ve5pib","geo_precision":"unmatched","state":"CA"},"type":"Feature","geometry":null},{"properties":{"status":"Not Completed","geo_score":0.0,"id":"a68qm42xs2ml","geo_precision":"unmatched","state":"TX"},"type":"Feature","geometry":null},{"properties":{"status":"Not Completed","geo_score":0.0,"id":"a68qm49pmlmv","geo_precision":"unmatched","state":"TX"},"type":"Feature","geometry":null},{"properties":{"status":"Not Completed","geo_score":0.0,"id":"a68qm43vrw92","geo_precision":"unmatched","state":"TX"},"type":"Feature","geometry":null},{"properties":{"status":"Not Completed","geo_score":0.0,"id":"a68qm479trap","geo_precision":"unmatched","state":"TX"},"type":"Feature","geometry":null},{"properties":{"status":"Not Completed","geo_score":0.0,"id":"a68qm46ygnft","geo_precision":"unmatched","state":"TX"},"type":"Feature","geometry":null},{"properties":{"status":"Not Completed","geo_score":0.0,"id":"a68qm4b74sik","geo_precision":"unmatched","state":"TX"},"type":"Feature","geometry":null},{"properties":{"status":"Not Completed","geo_score":0.0,"id":"a68qm47e2i4f","geo_precision":"unmatched","state":"TX"},"type":"Feature","geometry":null},{"properties":{"status":"Not Completed","geo_score":0.0,"id":"a68qm4b459ec","geo_precision":"unmatched","state":"TX"},"type":"Feature","geometry":null},{"properties":{"status":"Not Completed","geo_score":0.0,"id":"a68qm4a7w36d","geo_precision":"unmatched","state":"TX"},"type":"Feature","geometry":null},{"properties":{"status":"Not Completed","geo_score":0.0,"id":"a68qm3vkh5pz","geo_precision":"unmatched","state":"TX"},"type":"Feature","geometry":null},{"properties":{"status":"Not Completed","geo_score":0.0,"id":"a68qm44mv8bc","geo_precision":"unmatched","state":"AZ"},"type":"Feature","geometry":null},{"properties":{"status":"Not Completed","geo_score":0.0,"id":"a68qm42zi0a4","geo_precision":"unmatched","state":"AZ"},"type":"Feature","geometry":null},{"properties":{"status":"Not Completed","geo_score":0.0,"id":"a68qm462ms8n","geo_precision":"unmatched","state":"TX"},"type":"Feature","geometry":null},{"properties":{"status":"Not Completed","geo_score":0.0,"id":"a68qm3xqrsga","geo_precision":"unmatched","state":"MD"},"type":"Feature","geometry":null},{"properties":{"status":"Not Completed","geo_score":0.0,"id":"a68qm3vwfest","geo_precision":"unmatched","state":"IL"},"type":"Feature","geometry":null},{"properties":{"status":"Not Completed","geo_score":0.0,"id":"a68qm46ltnpg","geo_precision":"unmatched","state":"IN"},"type":"Feature","geometry":null},{"properties":{"status":"Not Completed","geo_score":0.0,"id":"a68qm43ksfpq","geo_precision":"unmatched","state":"AL"},"type":"Feature","geometry":null},{"properties":{"status":"Not Completed","geo_score":0.0,"id":"a68qm3zltosv","geo_precision":"unmatched","state":"CA"},"type":"Feature","geometry":null},{"properties":{"status":"Not Completed","geo_score":0.0,"id":"a68qm43wh7on","geo_precision":"unmatched","state":"VA"},"type":"Feature","geometry":null},{"properties":{"status":"Not Completed","geo_score":0.0,"id":"a68qm3zwhhbh","geo_precision":"unmatched","state":"NV"},"type":"Feature","geometry":null},{"properties":{"status":"Not Completed","geo_score":0.0,"id":"a68qm40ptmjg","geo_precision":"unmatched","state":"WA"},"type":"Feature","geometry":null},{"properties":{"status":"Not Completed","geo_score":0.0,"id":"a68qm3wrm1gp","geo_precision":"unmatched","state":"WA"},"type":"Feature","geometry":null},{"properties":{"status":"Not Completed","geo_score":0.0,"id":"a68qm4bm769o","geo_precision":"unmatched","state":"AL"},"type":"Feature","geometry":null},{"properties":{"status":"Not Completed","geo_score":0.0,"id":"a68qm3wfckem","geo_precision":"unmatched","state":"FL"},"type":"Feature","geometry":null},{"properties":{"status":"Not Completed","geo_score":0.0,"id":"a68qm4blwzw5","geo_precision":"unmatched","state":"WI"},"type":"Feature","geometry":null},{"properties":{"status":"Not Completed","geo_score":0.0,"id":"a68qm4a53zko","geo_precision":"unmatched","state":"MA"},"type":"Feature","geometry":null},{"properties":{"status":"Not Completed","geo_score":0.0,"id":"a68qm44yqp67","geo_precision":"unmatched","state":"FL"},"type":"Feature","geometry":null},{"properties":{"status":"Not Completed","geo_score":0.0,"id":"a68qm43ds0wk","geo_precision":"unmatched","state":"NY"},"type":"Feature","geometry":null},{"properties":{"status":"Not Completed","geo_score":0.0,"id":"a68qm459bqdf","geo_precision":"unmatched","state":"FL"},"type":"Feature","geometry":null},{"properties":{"status":"Not Completed","geo_score":0.0,"id":"a68qm428fanl","geo_precision":"unmatched","state":"MD"},"type":"Feature","geometry":null},{"properties":{"status":"Not Completed","geo_score":0.0,"id":"a68qm3wxa2pv","geo_precision":"unmatched","state":"FL"},"type":"Feature","geometry":null},{"properties":{"status":"Not Completed","geo_score":0.0,"id":"a68qm42ukk0t","geo_precision":"unmatched","state":"MD"},"type":"Feature","geometry":null},{"properties":{"status":"Not Completed","geo_score":0.0,"id":"a68qm41b2c7j","geo_precision":"unmatched","state":"FL"},"type":"Feature","geometry":null},{"properties":{"status":"Not Completed","geo_score":0.0,"id":"a68qm3x1u7il","geo_precision":"unmatched","state":"FL"},"type":"Feature","geometry":null},{"properties":{"status":"Not Completed","geo_score":0.0,"id":"a68qm43sxiz4","geo_precision":"unmatched","state":"GA"},"type":"Feature","geometry":null},{"properties":{"status":"Not Completed","geo_score":0.0,"id":"a68qm43767wj","geo_precision":"unmatched","state":"AL"},"type":"Feature","geometry":null},{"properties":{"status":"Not Completed","geo_score":0.0,"id":"a68qm4b6wdni","geo_precision":"unmatched","state":"MA"},"type":"Feature","geometry":null},{"properties":{"status":"Not Completed","geo_score":0.0,"id":"a68qm47r5tt2","geo_precision":"unmatched","state":"AK"},"type":"Feature","geometry":null},{"properties":{"status":"Not Completed","geo_score":0.0,"id":"a68qm42ch1c2","geo_precision":"unmatched","state":"FL"},"type":"Feature","geometry":null},{"properties":{"status":"Not Completed","geo_score":0.0,"id":"a68qm49oslxv","geo_precision":"unmatched","state":"FL"},"type":"Feature","geometry":null},{"properties":{"status":"Not Completed","geo_score":0.0,"id":"a68qm4baqg6b","geo_precision":"unmatched","state":"PA"},"type":"Feature","geometry":null},{"properties":{"status":"Not Completed","geo_score":0.0,"id":"a68qm44yumjg","geo_precision":"unmatched","state":"WA"},"type":"Feature","geometry":null},{"properties":{"status":"Not Completed","geo_score":0.0,"id":"a68qm4921i2c","geo_precision":"unmatched","state":"MT"},"type":"Feature","geometry":null},{"properties":{"status":"Not Completed","geo_score":0.0,"id":"a68qm46m2dw8","geo_precision":"unmatched","state":"TX"},"type":"Feature","geometry":null},{"properties":{"status":"Not Completed","geo_score":0.0,"id":"a68qm3xx8x9c","geo_precision":"unmatched","state":"FL"},"type":"Feature","geometry":null},{"properties":{"status":"Not Completed","geo_score":0.0,"id":"a68qm45xcoke","geo_precision":"unmatched","state":"TX"},"type":"Feature","geometry":null},{"properties":{"status":"Not Completed","geo_score":0.0,"id":"a68qm3w3cigz","geo_precision":"unmatched","state":"CA"},"type":"Feature","geometry":null},{"properties":{"status":"Not Completed","geo_score":0.0,"id":"a68qm452j64r","geo_precision":"unmatched","state":"MD"},"type":"Feature","geometry":null},{"properties":{"status":"Not Completed","geo_score":0.0,"id":"a68qm3xd50bd","geo_precision":"unmatched","state":"TX"},"type":"Feature","geometry":null},{"properties":{"status":"Not Completed","geo_score":0.0,"id":"a68qm43q2yfq","geo_precision":"unmatched","state":"CA"},"type":"Feature","geometry":null},{"properties":{"status":"Not Completed","geo_score":0.0,"id":"a68qm3ynkc8t","geo_precision":"unmatched","state":"WA"},"type":"Feature","geometry":null},{"properties":{"status":"Not Completed","geo_score":0.0,"id":"a68qm4ascysb","geo_precision":"unmatched","state":"NM"},"type":"Feature","geometry":null},{"properties":{"status":"Not Completed","geo_score":0.0,"id":"a68qm3ywtwdp","geo_precision":"unmatched","state":"MA"},"type":"Feature","geometry":null},{"properties":{"status":"Not Completed","geo_score":0.0,"id":"a68qm4aogwx1","geo_precision":"unmatched","state":"IA"},"type":"Feature","geometry":null},{"properties":{"status":"Not Completed","geo_score":0.0,"id":"a68qm3zjkfaz","geo_precision":"unmatched","state":"FL"},"type":"Feature","geometry":null},{"properties":{"status":"Not Completed","geo_score":0.0,"id":"a68qm3wknel6","geo_precision":"unmatched","state":"TX"},"type":"Feature","geometry":null},{"properties":{"status":"Not Completed","geo_score":0.0,"id":"a68qm456oryj","geo_precision":"unmatched","state":"TX"},"type":"Feature","geometry":null},{"properties":{"status":"Not Completed","geo_score":0.0,"id":"a68qm4535ol8","geo_precision":"unmatched","state":"WA"},"type":"Feature","geometry":null},{"properties":{"status":"Not Completed","geo_score":0.0,"id":"a68qm484eehd","geo_precision":"unmatched","state":"NH"},"type":"Feature","geometry":null},{"properties":{"status":"Not Completed","geo_score":0.0,"id":"a68qm4ai8v1r","geo_precision":"unmatched","state":"CA"},"type":"Feature","geometry":null},{"properties":{"status":"Not Completed","geo_score":0.0,"id":"a68qm418rcxh","geo_precision":"unmatched","state":"CA"},"type":"Feature","geometry":null},{"properties":{"status":"Not Completed","geo_score":0.0,"id":"a68qm41id8ol","geo_precision":"unmatched","state":"CA"},"type":"Feature","geometry":null},{"properties":{"status":"Not Completed","geo_score":0.0,"id":"a68qm44jo0qo","geo_precision":"unmatched","state":"FL"},"type":"Feature","geometry":null},{"properties":{"status":"Not Completed","geo_score":0.0,"id":"a68qm42pldfj","geo_precision":"unmatched","state":"VA"},"type":"Feature","geometry":null},{"properties":{"status":"Not Completed","geo_score":0.0,"id":"a68qm3vkyk3z","geo_precision":"unmatched","state":"VA"},"type":"Feature","geometry":null},{"properties":{"status":"Not Completed","geo_score":0.0,"id":"a68qm4ayimjw","geo_precision":"unmatched","state":"DC"},"type":"Feature","geometry":null},{"properties":{"status":"Not Completed","geo_score":0.0,"id":"a68qm46br8u0","geo_precision":"unmatched","state":"CA"},"type":"Feature","geometry":null},{"properties":{"status":"Not Completed","geo_score":0.0,"id":"a68qm3z1iasq","geo_precision":"unmatched","state":"CA"},"type":"Feature","geometry":null},{"properties":{"status":"Not Completed","geo_score":0.0,"id":"a68qm49xrnot","geo_precision":"unmatched","state":"MD"},"type":"Feature","geometry":null},{"properties":{"status":"Not Completed","geo_score":0.0,"id":"a68qm476c2pq","geo_precision":"unmatched","state":"CA"},"type":"Feature","geometry":null},{"properties":{"status":"Not Completed","geo_score":0.0,"id":"a68qm3x39hdz","geo_precision":"unmatched","state":"VA"},"type":"Feature","geometry":null},{"properties":{"status":"Not Completed","geo_score":0.0,"id":"a68qm3zn68qa","geo_precision":"unmatched","state":"CA"},"type":"Feature","geometry":null},{"properties":{"status":"Not Completed","geo_score":0.0,"id":"a68qm44vr13d","geo_precision":"unmatched","state":"VA"},"type":"Feature","geometry":null},{"properties":{"status":"Not Completed","geo_score":0.0,"id":"a68qm43icgyx","geo_precision":"unmatched","state":"FL"},"type":"Feature","geometry":null},{"properties":{"status":"Not Completed","geo_score":0.0,"id":"a68qm41ps6ks","geo_precision":"unmatched","state":"CA"},"type":"Feature","geometry":null},{"properties":{"status":"Not Completed","geo_score":0.0,"id":"a68qm41urpd2","geo_precision":"unmatched","state":"VA"},"type":"Feature","geometry":null},{"properties":{"status":"Not Completed","geo_score":0.0,"id":"a68qm47z4ix5","geo_precision":"unmatched","state":"FL"},"type":"Feature","geometry":null},{"properties":{"status":"Not Completed","geo_score":0.0,"id":"a68qm3v5yjws","geo_precision":"unmatched","state":"TX"},"type":"Feature","geometry":null},{"properties":{"status":"Not Completed","geo_score":0.0,"id":"a68qm434gv2r","geo_precision":"unmatched","state":"TX"},"type":"Feature","geometry":null},{"properties":{"status":"Not Completed","geo_score":0.0,"id":"a68qm44xxgu1","geo_precision":"unmatched","state":"MD"},"type":"Feature","geometry":null},{"properties":{"status":"Not Completed","geo_score":0.0,"id":"a68qm45tovs6","geo_precision":"unmatched","state":"MD"},"type":"Feature","geometry":null},{"properties":{"status":"Not Completed","geo_score":0.0,"id":"a68qm44609v9","geo_precision":"unmatched","state":"VA"},"type":"Feature","geometry":null},{"properties":{"status":"Not Completed","geo_score":0.0,"id":"a68qm4b8fe9e","geo_precision":"unmatched","state":"FL"},"type":"Feature","geometry":null},{"properties":{"status":"Not Completed","geo_score":0.0,"id":"a68qm3xdjaul","geo_precision":"unmatched","state":"MA"},"type":"Feature","geometry":null},{"properties":{"status":"Not Completed","geo_score":0.0,"id":"a68qm45u5qd8","geo_precision":"unmatched","state":"ME"},"type":"Feature","geometry":null},{"properties":{"status":"Not Completed","geo_score":0.0,"id":"a68qm3wpzs58","geo_precision":"unmatched","state":"TX"},"type":"Feature","geometry":null},{"properties":{"status":"Not Completed","geo_score":0.0,"id":"a68qm3wpetyj","geo_precision":"unmatched","state":"VA"},"type":"Feature","geometry":null},{"properties":{"status":"Not Completed","geo_score":0.0,"id":"a68qm44n33uz","geo_precision":"unmatched","state":"TX"},"type":"Feature","geometry":null},{"properties":{"status":"Not Completed","geo_score":0.0,"id":"a68qm42co1xk","geo_precision":"unmatched","state":"FL"},"type":"Feature","geometry":null},{"properties":{"status":"Not Completed","geo_score":0.0,"id":"a68qm45742au","geo_precision":"unmatched","state":"FL"},"type":"Feature","geometry":null},{"properties":{"status":"Not Completed","geo_score":0.0,"id":"a68qm3w2hlhg","geo_precision":"unmatched","state":"MA"},"type":"Feature","geometry":null},{"properties":{"status":"Not Completed","geo_score":0.0,"id":"a68qm45dk4pt","geo_precision":"unmatched","state":"CA"},"type":"Feature","geometry":null},{"properties":{"status":"Not Completed","geo_score":0.0,"id":"a68qm49fhr03","geo_precision":"unmatched","state":"FL"},"type":"Feature","geometry":null},{"properties":{"status":"Not Completed","geo_score":0.0,"id":"a68qm4afmroz","geo_precision":"unmatched","state":"FL"},"type":"Feature","geometry":null},{"properties":{"status":"Not Completed","geo_score":0.0,"id":"a68qm480waj3","geo_precision":"unmatched","state":"CA"},"type":"Feature","geometry":null},{"properties":{"status":"Not Completed","geo_score":0.0,"id":"a68qm44ltqp5","geo_precision":"unmatched","state":"TX"},"type":"Feature","geometry":null},{"properties":{"status":"Not Completed","geo_score":0.0,"id":"a68qm42ebsu7","geo_precision":"unmatched","state":"TX"},"type":"Feature","geometry":null},{"properties":{"status":"Not Completed","geo_score":0.0,"id":"a68qm453tv16","geo_precision":"unmatched","state":"TX"},"type":"Feature","geometry":null},{"properties":{"status":"Not Completed","geo_score":0.0,"id":"a68qm3zbr7ix","geo_precision":"unmatched","state":"CA"},"type":"Feature","geometry":null},{"properties":{"status":"Not Completed","geo_score":0.0,"id":"a68qm48dwmxk","geo_precision":"unmatched","state":"TX"},"type":"Feature","geometry":null},{"properties":{"status":"Not Completed","geo_score":0.0,"id":"a68qm424d6f0","geo_precision":"unmatched","state":"TX"},"type":"Feature","geometry":null},{"properties":{"status":"Not Completed","geo_score":0.0,"id":"a68qm45nynef","geo_precision":"unmatched","state":"TX"},"type":"Feature","geometry":null},{"properties":{"status":"Not Completed","geo_score":0.0,"id":"a68qm47m9psm","geo_precision":"unmatched","state":"CA"},"type":"Feature","geometry":null},{"properties":{"status":"Not Completed","geo_score":0.0,"id":"a68qm40vcw9b","geo_precision":"unmatched","state":"TX"},"type":"Feature","geometry":null},{"properties":{"status":"Not Completed","geo_score":0.0,"id":"a68qm488obw7","geo_precision":"unmatched","state":"MD"},"type":"Feature","geometry":null},{"properties":{"status":"Not Completed","geo_score":0.0,"id":"a68qm46qnjbp","geo_precision":"unmatched","state":"FL"},"type":"Feature","geometry":null},{"properties":{"status":"Not Completed","geo_score":0.0,"id":"a68qm47qt570","geo_precision":"unmatched","state":"WI"},"type":"Feature","geometry":null},{"properties":{"status":"Not Completed","geo_score":0.0,"id":"a68qm4b9x7ov","geo_precision":"unmatched","state":"OH"},"type":"Feature","geometry":null},{"properties":{"status":"Not Completed","geo_score":0.0,"id":"a68qm401eibb","geo_precision":"unmatched","state":"PA"},"type":"Feature","geometry":null},{"properties":{"status":"Not Completed","geo_score":0.0,"id":"a68qm4b77x1m","geo_precision":"unmatched","state":"IL"},"type":"Feature","geometry":null},{"properties":{"status":"Not Completed","geo_score":0.0,"id":"a68qm4boypnq","geo_precision":"unmatched","state":"IL"},"type":"Feature","geometry":null},{"properties":{"status":"Not Completed","geo_score":0.0,"id":"a68qm496w8zn","geo_precision":"unmatched","state":"IL"},"type":"Feature","geometry":null},{"properties":{"status":"Not Completed","geo_score":0.0,"id":"a68qm3w0j4zh","geo_precision":"unmatched","state":"OH"},"type":"Feature","geometry":null},{"properties":{"status":"Not Completed","geo_score":0.0,"id":"a68qm4ay1v5e","geo_precision":"unmatched","state":"PA"},"type":"Feature","geometry":null},{"properties":{"status":"Not Completed","geo_score":0.0,"id":"a68qm3xpvbsd","geo_precision":"unmatched","state":"IN"},"type":"Feature","geometry":null},{"properties":{"status":"Not Completed","geo_score":0.0,"id":"a68qm408l0el","geo_precision":"unmatched","state":"IN"},"type":"Feature","geometry":null},{"properties":{"status":"Not Completed","geo_score":0.0,"id":"a68qm3zvxbs2","geo_precision":"unmatched","state":"IN"},"type":"Feature","geometry":null},{"properties":{"status":"Not Completed","geo_score":0.0,"id":"a68qm45p1hgm","geo_precision":"unmatched","state":"OH"},"type":"Feature","geometry":null},{"properties":{"status":"Not Completed","geo_score":0.0,"id":"a68qm3y8f79m","geo_precision":"unmatched","state":"OH"},"type":"Feature","geometry":null},{"properties":{"status":"Not Completed","geo_score":0.0,"id":"a68qm41vkilr","geo_precision":"unmatched","state":"IL"},"type":"Feature","geometry":null},{"properties":{"status":"Not Completed","geo_score":0.0,"id":"a68qm3xlcacr","geo_precision":"unmatched","state":"IL"},"type":"Feature","geometry":null},{"properties":{"status":"Not Completed","geo_score":0.0,"id":"a68qm41rlr0a","geo_precision":"unmatched","state":"IL"},"type":"Feature","geometry":null},{"properties":{"status":"Not Completed","geo_score":0.0,"id":"a68qm43l20w6","geo_precision":"unmatched","state":"IL"},"type":"Feature","geometry":null},{"properties":{"status":"Not Completed","geo_score":0.0,"id":"a68qm3ynf6ri","geo_precision":"unmatched","state":"IL"},"type":"Feature","geometry":null},{"properties":{"status":"Not Completed","geo_score":0.0,"id":"a68qm4bfo50u","geo_precision":"unmatched","state":"IN"},"type":"Feature","geometry":null},{"properties":{"status":"Not Completed","geo_score":0.0,"id":"a68qm41qwhkr","geo_precision":"unmatched","state":"MI"},"type":"Feature","geometry":null},{"properties":{"status":"Not Completed","geo_score":0.0,"id":"a68qm40srbu6","geo_precision":"unmatched","state":"NY"},"type":"Feature","geometry":null},{"properties":{"status":"Not Completed","geo_score":0.0,"id":"a68qm3zouuq7","geo_precision":"unmatched","state":"MI"},"type":"Feature","geometry":null},{"properties":{"status":"Not Completed","geo_score":0.0,"id":"a68qm3y4spmy","geo_precision":"unmatched","state":"MI"},"type":"Feature","geometry":null},{"properties":{"status":"Not Completed","geo_score":0.0,"id":"a68qm3xdj5zx","geo_precision":"unmatched","state":"PA"},"type":"Feature","geometry":null},{"properties":{"status":"Not Completed","geo_score":0.0,"id":"a68qm45cv11t","geo_precision":"unmatched","state":"MI"},"type":"Feature","geometry":null},{"properties":{"status":"Not Completed","geo_score":0.0,"id":"a68qm3xy4ag2","geo_precision":"unmatched","state":"NY"},"type":"Feature","geometry":null},{"properties":{"status":"Not Completed","geo_score":0.0,"id":"a68qm3zivuih","geo_precision":"unmatched","state":"NY"},"type":"Feature","geometry":null},{"properties":{"status":"Not Completed","geo_score":0.0,"id":"a68qm45hdrvu","geo_precision":"unmatched","state":"PA"},"type":"Feature","geometry":null},{"properties":{"status":"Not Completed","geo_score":0.0,"id":"a68qm47sat1f","geo_precision":"unmatched","state":"WI"},"type":"Feature","geometry":null},{"properties":{"status":"Not Completed","geo_score":0.0,"id":"a68qm4abceo4","geo_precision":"unmatched","state":"WI"},"type":"Feature","geometry":null},{"properties":{"status":"Not Completed","geo_score":0.0,"id":"a68qm446z5b7","geo_precision":"unmatched","state":"NY"},"type":"Feature","geometry":null},{"properties":{"status":"Not Completed","geo_score":0.0,"id":"a68qm416ipjo","geo_precision":"unmatched","state":"IL"},"type":"Feature","geometry":null},{"properties":{"status":"Not Completed","geo_score":0.0,"id":"a68qm4bh7ne0","geo_precision":"unmatched","state":"IL"},"type":"Feature","geometry":null},{"properties":{"status":"Not Completed","geo_score":0.0,"id":"a68qm3wv0ds0","geo_precision":"unmatched","state":"ID"},"type":"Feature","geometry":null},{"properties":{"status":"Not Completed","geo_score":0.0,"id":"a68qm3ycc1p0","geo_precision":"unmatched","state":"IL"},"type":"Feature","geometry":null},{"properties":{"status":"Not Completed","geo_score":0.0,"id":"a68qm48ofnv3","geo_precision":"unmatched","state":"PA"},"type":"Feature","geometry":null},{"properties":{"status":"Not Completed","geo_score":0.0,"id":"a68qm46lwv01","geo_precision":"unmatched","state":"MI"},"type":"Feature","geometry":null},{"properties":{"status":"Not Completed","geo_score":0.0,"id":"a68qm41frnqr","geo_precision":"unmatched","state":"IN"},"type":"Feature","geometry":null},{"properties":{"status":"Not Completed","geo_score":0.0,"id":"a68qm470s3gx","geo_precision":"unmatched","state":"PA"},"type":"Feature","geometry":null},{"properties":{"status":"Not Completed","geo_score":0.0,"id":"a68qm441xs0s","geo_precision":"unmatched","state":"IN"},"type":"Feature","geometry":null},{"properties":{"status":"Not Completed","geo_score":0.0,"id":"a68qm453ynz8","geo_precision":"unmatched","state":"CT"},"type":"Feature","geometry":null},{"properties":{"status":"Not Completed","geo_score":0.0,"id":"a68qm3xbvt3p","geo_precision":"unmatched","state":"NE"},"type":"Feature","geometry":null},{"properties":{"status":"Not Completed","geo_score":0.0,"id":"a68qm3xmol6s","geo_precision":"unmatched","state":"NY"},"type":"Feature","geometry":null},{"properties":{"status":"Not Completed","geo_score":0.0,"id":"a68qm45b4ysz","geo_precision":"unmatched","state":"WI"},"type":"Feature","geometry":null},{"properties":{"status":"Not Completed","geo_score":0.0,"id":"a68qm47bi2rj","geo_precision":"unmatched","state":"OH"},"type":"Feature","geometry":null},{"properties":{"status":"Not Completed","geo_score":0.0,"id":"a68qm42f5e8l","geo_precision":"unmatched","state":"WI"},"type":"Feature","geometry":null},{"properties":{"status":"Not Completed","geo_score":0.0,"id":"a68qm460zasv","geo_precision":"unmatched","state":"IL"},"type":"Feature","geometry":null},{"properties":{"status":"Not Completed","geo_score":0.0,"id":"a68qm3vh3srr","geo_precision":"unmatched","state":"IL"},"type":"Feature","geometry":null},{"properties":{"status":"Not Completed","geo_score":0.0,"id":"a68qm47srphs","geo_precision":"unmatched","state":"ID"},"type":"Feature","geometry":null},{"properties":{"status":"Not Completed","geo_score":0.0,"id":"a68qm434p8mk","geo_precision":"unmatched","state":"PA"},"type":"Feature","geometry":null},{"properties":{"status":"Not Completed","geo_score":0.0,"id":"a68qm45jbdxo","geo_precision":"unmatched","state":"NE"},"type":"Feature","geometry":null},{"properties":{"status":"Not Completed","geo_score":0.0,"id":"a68qm3ysj3ty","geo_precision":"unmatched","state":"IN"},"type":"Feature","geometry":null},{"properties":{"status":"Not Completed","geo_score":0.0,"id":"a68qm41wr1w4","geo_precision":"unmatched","state":"NY"},"type":"Feature","geometry":null},{"properties":{"status":"Not Completed","geo_score":0.0,"id":"a68qm40jsao1","geo_precision":"unmatched","state":"CT"},"type":"Feature","geometry":null},{"properties":{"status":"Not Completed","geo_score":0.0,"id":"a68qm436pwn9","geo_precision":"unmatched","state":"NY"},"type":"Feature","geometry":null},{"properties":{"status":"Not Completed","geo_score":0.0,"id":"a68qm452ajd5","geo_precision":"unmatched","state":"NY"},"type":"Feature","geometry":null},{"properties":{"status":"Not Completed","geo_score":0.0,"id":"a68qm43f81qr","geo_precision":"unmatched","state":"IN"},"type":"Feature","geometry":null},{"properties":{"status":"Not Completed","geo_score":0.0,"id":"a68qm4996lm1","geo_precision":"unmatched","state":"MI"},"type":"Feature","geometry":null},{"properties":{"status":"Not Completed","geo_score":0.0,"id":"a68qm42gk7xl","geo_precision":"unmatched","state":"NY"},"type":"Feature","geometry":null},{"properties":{"status":"Not Completed","geo_score":0.0,"id":"a68qm405xhqe","geo_precision":"unmatched","state":"OH"},"type":"Feature","geometry":null},{"properties":{"status":"Not Completed","geo_score":0.0,"id":"a68qm3wwyfzd","geo_precision":"unmatched","state":"OH"},"type":"Feature","geometry":null},{"properties":{"status":"Not Completed","geo_score":0.0,"id":"a68qm4791loe","geo_precision":"unmatched","state":"PA"},"type":"Feature","geometry":null},{"properties":{"status":"Not Completed","geo_score":0.0,"id":"a68qm47f5q7k","geo_precision":"unmatched","state":"NJ"},"type":"Feature","geometry":null},{"properties":{"status":"Not Completed","geo_score":0.0,"id":"a68qm45wwxny","geo_precision":"unmatched","state":"MI"},"type":"Feature","geometry":null},{"properties":{"status":"Not Completed","geo_score":0.0,"id":"a68qm47p2evv","geo_precision":"unmatched","state":"FL"},"type":"Feature","geometry":null},{"properties":{"status":"Not Completed","geo_score":0.0,"id":"a68qm4bhez3t","geo_precision":"unmatched","state":"FL"},"type":"Feature","geometry":null},{"properties":{"status":"Not Completed","geo_score":0.0,"id":"a68qm45uvfqn","geo_precision":"unmatched","state":"FL"},"type":"Feature","geometry":null},{"properties":{"status":"Not Completed","geo_score":0.0,"id":"a68qm3yyfk1t","geo_precision":"unmatched","state":"NJ"},"type":"Feature","geometry":null},{"properties":{"status":"Not Completed","geo_score":0.0,"id":"a68qm467y7m7","geo_precision":"unmatched","state":"IL"},"type":"Feature","geometry":null},{"properties":{"status":"Not Completed","geo_score":0.0,"id":"a68qm42ax78c","geo_precision":"unmatched","state":"MS"},"type":"Feature","geometry":null},{"properties":{"status":"Not Completed","geo_score":0.0,"id":"a68qm4bcox5c","geo_precision":"unmatched","state":"AL"},"type":"Feature","geometry":null},{"properties":{"status":"Not Completed","geo_score":0.0,"id":"a68qm3xu3r4e","geo_precision":"unmatched","state":"FL"},"type":"Feature","geometry":null},{"properties":{"status":"Not Completed","geo_score":0.0,"id":"a68qm43atsu2","geo_precision":"unmatched","state":"SC"},"type":"Feature","geometry":null},{"properties":{"status":"Not Completed","geo_score":0.0,"id":"a68qm46mdvt1","geo_precision":"unmatched","state":"AZ"},"type":"Feature","geometry":null},{"properties":{"status":"Not Completed","geo_score":0.0,"id":"a68qm3wgqtbs","geo_precision":"unmatched","state":"AZ"},"type":"Feature","geometry":null},{"properties":{"status":"Not Completed","geo_score":0.0,"id":"a68qm46ipaj1","geo_precision":"unmatched","state":"MT"},"type":"Feature","geometry":null},{"properties":{"status":"Not Completed","geo_score":0.0,"id":"a68qm42xnjlt","geo_precision":"unmatched","state":"IL"},"type":"Feature","geometry":null},{"properties":{"status":"Not Completed","geo_score":0.0,"id":"a68qm44dum42","geo_precision":"unmatched","state":"AZ"},"type":"Feature","geometry":null},{"properties":{"status":"Not Completed","geo_score":0.0,"id":"a68qm3wwmqvo","geo_precision":"unmatched","state":"LA"},"type":"Feature","geometry":null},{"properties":{"status":"Not Completed","geo_score":0.0,"id":"a68qm4676cg7","geo_precision":"unmatched","state":"TX"},"type":"Feature","geometry":null},{"properties":{"status":"Not Completed","geo_score":0.0,"id":"a68qm41lyn7s","geo_precision":"unmatched","state":"OH"},"type":"Feature","geometry":null},{"properties":{"status":"Not Completed","geo_score":0.0,"id":"a68qm4b5gppo","geo_precision":"unmatched","state":"FL"},"type":"Feature","geometry":null},{"properties":{"status":"Not Completed","geo_score":0.0,"id":"a68qm3yc471u","geo_precision":"unmatched","state":"PA"},"type":"Feature","geometry":null},{"properties":{"status":"Not Completed","geo_score":0.0,"id":"a68qm3xou6mh","geo_precision":"unmatched","state":"AR"},"type":"Feature","geometry":null},{"properties":{"status":"Not Completed","geo_score":0.0,"id":"a68qm40dcyn3","geo_precision":"unmatched","state":"WY"},"type":"Feature","geometry":null},{"properties":{"status":"Not Completed","geo_score":0.0,"id":"a68qm3ywxwbb","geo_precision":"unmatched","state":"MO"},"type":"Feature","geometry":null},{"properties":{"status":"Not Completed","geo_score":0.0,"id":"a68qm45sc7s5","geo_precision":"unmatched","state":"LA"},"type":"Feature","geometry":null},{"properties":{"status":"Completed","geo_score":0.0,"id":"a68qm43rlw8t","geo_precision":"unmatched","state":"MN"},"type":"Feature","geometry":null},{"properties":{"status":"Completed","geo_score":0.0,"id":"a68qm40osqcg","geo_precision":"unmatched","state":"MN"},"type":"Feature","geometry":null},{"properties":{"status":"Completed","geo_score":0.0,"id":"a68qm417gral","geo_precision":"unmatched","state":"MN"},"type":"Feature","geometry":null},{"properties":{"status":"Completed","geo_score":0.0,"id":"a68qm46n87nx","geo_precision":"unmatched","state":"MN"},"type":"Feature","geometry":null},{"properties":{"status":"Completed","geo_score":0.0,"id":"a68qm40idxzn","geo_precision":"unmatched","state":"MN"},"type":"Feature","geometry":null},{"properties":{"status":"Completed","geo_score":0.0,"id":"a68qm3zvls91","geo_precision":"unmatched","state":"MN"},"type":"Feature","geometry":null},{"properties":{"status":"Completed","geo_score":0.0,"id":"a68qm41sgd7c","geo_precision":"unmatched","state":"MN"},"type":"Feature","geometry":null},{"properties":{"status":"Completed","geo_score":0.0,"id":"a68qm400hdyj","geo_precision":"unmatched","state":"CA"},"type":"Feature","geometry":null},{"properties":{"status":"Completed","geo_score":0.0,"id":"a68qm45savj6","geo_precision":"unmatched","state":"MN"},"type":"Feature","geometry":null},{"properties":{"status":"Not Completed","geo_score":0.0,"id":"a68qm448r5n7","geo_precision":"unmatched","state":"CA"},"type":"Feature","geometry":null},{"properties":{"status":"Not Completed","geo_score":0.0,"id":"a68qm490h2z1","geo_precision":"unmatched","state":"CA"},"type":"Feature","geometry":null},{"properties":{"status":"Not Completed","geo_score":0.0,"id":"a68qm479033e","geo_precision":"unmatched","state":"CA"},"type":"Feature","geometry":null},{"properties":{"status":"Not Completed","geo_score":0.0,"id":"a68qm48xda9t","geo_precision":"unmatched","state":"TX"},"type":"Feature","geometry":null},{"properties":{"status":"Not Completed","geo_score":0.0,"id":"a68qm4aqhsah","geo_precision":"unmatched","state":"CA"},"type":"Feature","geometry":null},{"properties":{"status":"Not Completed","geo_score":0.0,"id":"a68qm3vf0v1t","geo_precision":"unmatched","state":"TN"},"type":"Feature","geometry":null},{"properties":{"status":"Not Completed","geo_score":0.0,"id":"a68qm48eh989","geo_precision":"unmatched","state":"GA"},"type":"Feature","geometry":null},{"properties":{"status":"Not Completed","geo_score":0.0,"id":"a68qm42mewnc","geo_precision":"unmatched","state":"GA"},"type":"Feature","geometry":null},{"properties":{"status":"Not Completed","geo_score":0.0,"id":"a68qm41dkzju","geo_precision":"unmatched","state":"GA"},"type":"Feature","geometry":null},{"properties":{"status":"Not Completed","geo_score":0.0,"id":"a68qm485e9tv","geo_precision":"unmatched","state":"MA"},"type":"Feature","geometry":null},{"properties":{"status":"Not Completed","geo_score":0.0,"id":"a68qm48mzn6w","geo_precision":"unmatched","state":"FL"},"type":"Feature","geometry":null},{"properties":{"status":"Not Completed","geo_score":0.0,"id":"a68qm49r9429","geo_precision":"unmatched","state":"CO"},"type":"Feature","geometry":null},{"properties":{"status":"Not Completed","geo_score":0.0,"id":"a68qm3wlsapn","geo_precision":"unmatched","state":"IL"},"type":"Feature","geometry":null},{"properties":{"status":"Not Completed","geo_score":0.0,"id":"a68qm3x42aec","geo_precision":"unmatched","state":"IL"},"type":"Feature","geometry":null},{"properties":{"status":"Not Completed","geo_score":0.0,"id":"a68qm47g2m53","geo_precision":"unmatched","state":"IL"},"type":"Feature","geometry":null},{"properties":{"status":"Not Completed","geo_score":0.0,"id":"a68qm43eubld","geo_precision":"unmatched","state":"IL"},"type":"Feature","geometry":null},{"properties":{"status":"Not Completed","geo_score":0.0,"id":"a68qm49lkkgk","geo_precision":"unmatched","state":"IL"},"type":"Feature","geometry":null},{"properties":{"status":"Not Completed","geo_score":0.0,"id":"a68qm3z3mai6","geo_precision":"unmatched","state":"MI"},"type":"Feature","geometry":null},{"properties":{"status":"Not Completed","geo_score":0.0,"id":"a68qm45dtvuw","geo_precision":"unmatched","state":"IL"},"type":"Feature","geometry":null},{"properties":{"status":"Not Completed","geo_score":0.0,"id":"a68qm438eucz","geo_precision":"unmatched","state":"NE"},"type":"Feature","geometry":null},{"properties":{"status":"Not Completed","geo_score":0.0,"id":"a68qm3yaaafz","geo_precision":"unmatched","state":"IL"},"type":"Feature","geometry":null},{"properties":{"status":"Not Completed","geo_score":0.0,"id":"a68qm49ayf1k","geo_precision":"unmatched","state":"NY"},"type":"Feature","geometry":null},{"properties":{"status":"Not Completed","geo_score":0.0,"id":"a68qm4bh2br7","geo_precision":"unmatched","state":"MD"},"type":"Feature","geometry":null},{"properties":{"status":"Not Completed","geo_score":0.0,"id":"a68qm47c7p6g","geo_precision":"unmatched","state":"AZ"},"type":"Feature","geometry":null},{"properties":{"status":"Not Completed","geo_score":0.0,"id":"a68qm4a43fql","geo_precision":"unmatched","state":"puerto rico"},"type":"Feature","geometry":null},{"properties":{"status":"Not Completed","geo_score":0.0,"id":"a68qm3x5si8l","geo_precision":"unmatched","state":"NY"},"type":"Feature","geometry":null},{"properties":{"status":"Not Completed","geo_score":0.0,"id":"a68qm43clave","geo_precision":"unmatched","state":"puerto rico"},"type":"Feature","geometry":null},{"properties":{"status":"Not Completed","geo_score":0.0,"id":"a68qm492d99q","geo_precision":"unmatched","state":"puerto rico"},"type":"Feature","geometry":null},{"properties":{"status":"Not Completed","geo_score":0.0,"id":"a68qm3yxjg8q","geo_precision":"unmatched","state":"CA"},"type":"Feature","geometry":null},{"properties":{"status":"Not Completed","geo_score":0.0,"id":"a68qm3wpcz5c","geo_precision":"unmatched","state":"MN"},"type":"Feature","geometry":null},{"properties":{"status":"Not Completed","geo_score":0.0,"id":"a68qm3znia7d","geo_precision":"unmatched","state":"MN"},"type":"Feature","geometry":null},{"properties":{"status":"Not Completed","geo_score":0.0,"id":"a68qm467mu8n","geo_precision":"unmatched","state":"MN"},"type":"Feature","geometry":null},{"properties":{"status":"Not Completed","geo_score":0.0,"id":"a68qm4boqlfc","geo_precision":"unmatched","state":"MN"},"type":"Feature","geometry":null},{"properties":{"status":"Not Completed","geo_score":0.0,"id":"a68qm46tcz4f","geo_precision":"unmatched","state":"MN"},"type":"Feature","geometry":null},{"properties":{"status":"Not Completed","geo_score":0.0,"id":"a68qm461i8u6","geo_precision":"unmatched","state":"MN"},"type":"Feature","geometry":null},{"properties":{"status":"Not Completed","geo_score":0.0,"id":"a68qm4654x56","geo_precision":"unmatched","state":"MN"},"type":"Feature","geometry":null},{"properties":{"status":"Not Completed","geo_score":0.0,"id":"a68qm3zkcwc1","geo_precision":"unmatched","state":"ND"},"type":"Feature","geometry":null},{"properties":{"status":"Not Completed","geo_score":0.0,"id":"a68qm48jy6d9","geo_precision":"unmatched","state":"MN"},"type":"Feature","geometry":null},{"properties":{"status":"Not Completed","geo_score":0.0,"id":"a68qm48bq1lw","geo_precision":"unmatched","state":"MN"},"type":"Feature","geometry":null},{"properties":{"status":"Not Completed","geo_score":0.0,"id":"a68qm41n7umh","geo_precision":"unmatched","state":"SD"},"type":"Feature","geometry":null},{"properties":{"status":"Not Completed","geo_score":0.0,"id":"a68qm49zvvwr","geo_precision":"unmatched","state":"WI"},"type":"Feature","geometry":null},{"properties":{"status":"Not Completed","geo_score":0.0,"id":"a68qm448qi23","geo_precision":"unmatched","state":"IA"},"type":"Feature","geometry":null},{"properties":{"status":"Not Completed","geo_score":0.0,"id":"a68qm45dmkaa","geo_precision":"unmatched","state":"IA"},"type":"Feature","geometry":null},{"properties":{"status":"Not Completed","geo_score":0.0,"id":"a68qm3z1v922","geo_precision":"unmatched","state":"IA"},"type":"Feature","geometry":null},{"properties":{"status":"Not Completed","geo_score":0.0,"id":"a68qm47makzj","geo_precision":"unmatched","state":"WI"},"type":"Feature","geometry":null},{"properties":{"status":"Not Completed","geo_score":0.0,"id":"a68qm44g72yq","geo_precision":"unmatched","state":"IL"},"type":"Feature","geometry":null},{"properties":{"status":"Not Completed","geo_score":0.0,"id":"a68qm46oxfh0","geo_precision":"unmatched","state":"MO"},"type":"Feature","geometry":null},{"properties":{"status":"Not Completed","geo_score":0.0,"id":"a68qm44t8d7h","geo_precision":"unmatched","state":"WI"},"type":"Feature","geometry":null},{"properties":{"status":"Not Completed","geo_score":0.0,"id":"a68qm44z0yzv","geo_precision":"unmatched","state":"MN"},"type":"Feature","geometry":null},{"properties":{"status":"Not Completed","geo_score":0.0,"id":"a68qm46hx5t5","geo_precision":"unmatched","state":"WI"},"type":"Feature","geometry":null},{"properties":{"status":"Not Completed","geo_score":0.0,"id":"a68qm490q270","geo_precision":"unmatched","state":"MO"},"type":"Feature","geometry":null},{"properties":{"status":"Not Completed","geo_score":0.0,"id":"a68qm47qe4vj","geo_precision":"unmatched","state":"TX"},"type":"Feature","geometry":null},{"properties":{"status":"Not Completed","geo_score":0.0,"id":"a68qm3zu1j90","geo_precision":"unmatched","state":"TX"},"type":"Feature","geometry":null},{"properties":{"status":"Not Completed","geo_score":0.0,"id":"a68qm437yw3w","geo_precision":"unmatched","state":"CA"},"type":"Feature","geometry":null},{"properties":{"status":"Not Completed","geo_score":0.0,"id":"a68qm46vdg2h","geo_precision":"unmatched","state":"CA"},"type":"Feature","geometry":null},{"properties":{"status":"Not Completed","geo_score":0.0,"id":"a68qm3wd38uf","geo_precision":"unmatched","state":"CA"},"type":"Feature","geometry":null},{"properties":{"status":"Not Completed","geo_score":0.0,"id":"a68qm41zxr1h","geo_precision":"unmatched","state":"CA"},"type":"Feature","geometry":null},{"properties":{"status":"Not Completed","geo_score":0.0,"id":"a68qm44rbxer","geo_precision":"unmatched","state":"CA"},"type":"Feature","geometry":null},{"properties":{"status":"Not Completed","geo_score":0.0,"id":"a68qm44ayhbk","geo_precision":"unmatched","state":"VA"},"type":"Feature","geometry":null},{"properties":{"status":"Not Completed","geo_score":0.0,"id":"a68qm43uj6ng","geo_precision":"unmatched","state":"MD"},"type":"Feature","geometry":null},{"properties":{"status":"Not Completed","geo_score":0.0,"id":"a68qm4blkp40","geo_precision":"unmatched","state":"TX"},"type":"Feature","geometry":null},{"properties":{"status":"Not Completed","geo_score":0.0,"id":"a68qm42zapl7","geo_precision":"unmatched","state":"MD"},"type":"Feature","geometry":null},{"properties":{"status":"Not Completed","geo_score":0.0,"id":"a68qm3ztqt4p","geo_precision":"unmatched","state":"MD"},"type":"Feature","geometry":null},{"properties":{"status":"Not Completed","geo_score":0.0,"id":"a68qm48s76g5","geo_precision":"unmatched","state":"TX"},"type":"Feature","geometry":null},{"properties":{"status":"Not Completed","geo_score":0.0,"id":"a68qm3vu03oi","geo_precision":"unmatched","state":"OH"},"type":"Feature","geometry":null},{"properties":{"status":"Not Completed","geo_score":0.0,"id":"a68qm41uklfo","geo_precision":"unmatched","state":"TX"},"type":"Feature","geometry":null},{"properties":{"status":"Not Completed","geo_score":0.0,"id":"a68qm4aws27a","geo_precision":"unmatched","state":"CA"},"type":"Feature","geometry":null},{"properties":{"status":"Not Completed","geo_score":0.0,"id":"a68qm46vzu8m","geo_precision":"unmatched","state":"CA"},"type":"Feature","geometry":null},{"properties":{"status":"Not Completed","geo_score":0.0,"id":"a68qm4654qw6","geo_precision":"unmatched","state":"TX"},"type":"Feature","geometry":null},{"properties":{"status":"Not Completed","geo_score":0.0,"id":"a68qm45dzrj6","geo_precision":"unmatched","state":"TX"},"type":"Feature","geometry":null},{"properties":{"status":"Not Completed","geo_score":0.0,"id":"a68qm3z6a8z3","geo_precision":"unmatched","state":"TX"},"type":"Feature","geometry":null},{"properties":{"status":"Not Completed","geo_score":0.0,"id":"a68qm45ykc1s","geo_precision":"unmatched","state":"TX"},"type":"Feature","geometry":null},{"properties":{"status":"Not Completed","geo_score":0.0,"id":"a68qm46v2j47","geo_precision":"unmatched","state":"TX"},"type":"Feature","geometry":null},{"properties":{"status":"Not Completed","geo_score":0.0,"id":"a68qm40728eb","geo_precision":"unmatched","state":"TX"},"type":"Feature","geometry":null},{"properties":{"status":"Not Completed","geo_score":0.0,"id":"a68qm4b02xp4","geo_precision":"unmatched","state":"TX"},"type":"Feature","geometry":null},{"properties":{"status":"Not Completed","geo_score":0.0,"id":"a68qm404bgj4","geo_precision":"unmatched","state":"OK"},"type":"Feature","geometry":null},{"properties":{"status":"Not Completed","geo_score":0.0,"id":"a68qm3v9x7f1","geo_precision":"unmatched","state":"IN"},"type":"Feature","geometry":null},{"properties":{"status":"Not Completed","geo_score":0.0,"id":"a68qm40drjpw","geo_precision":"unmatched","state":"TX"},"type":"Feature","geometry":null},{"properties":{"status":"Not Completed","geo_score":0.0,"id":"a68qm3vkpjnr","geo_precision":"unmatched","state":"TX"},"type":"Feature","geometry":null},{"properties":{"status":"Not Completed","geo_score":0.0,"id":"a68qm426i4kh","geo_precision":"unmatched","state":"TX"},"type":"Feature","geometry":null},{"properties":{"status":"Not Completed","geo_score":0.0,"id":"a68qm43aeb23","geo_precision":"unmatched","state":"TX"},"type":"Feature","geometry":null},{"properties":{"status":"Not Completed","geo_score":0.0,"id":"a68qm3wvlb9i","geo_precision":"unmatched","state":"MN"},"type":"Feature","geometry":null},{"properties":{"status":"Not Completed","geo_score":0.0,"id":"a68qm41nlv3s","geo_precision":"unmatched","state":"TX"},"type":"Feature","geometry":null},{"properties":{"status":"Not Completed","geo_score":0.0,"id":"a68qm419zc50","geo_precision":"unmatched","state":"TX"},"type":"Feature","geometry":null},{"properties":{"status":"Not Completed","geo_score":0.0,"id":"a68qm437ehlb","geo_precision":"unmatched","state":"MD"},"type":"Feature","geometry":null},{"properties":{"status":"Not Completed","geo_score":0.0,"id":"a68qm41u21uo","geo_precision":"unmatched","state":"MD"},"type":"Feature","geometry":null},{"properties":{"status":"Not Completed","geo_score":0.0,"id":"a68qm48imwyh","geo_precision":"unmatched","state":"OH"},"type":"Feature","geometry":null},{"properties":{"status":"Not Completed","geo_score":0.0,"id":"a68qm47mbsee","geo_precision":"unmatched","state":"VA"},"type":"Feature","geometry":null},{"properties":{"status":"Not Completed","geo_score":0.0,"id":"a68qm3xfbe7o","geo_precision":"unmatched","state":"VA"},"type":"Feature","geometry":null},{"properties":{"status":"Not Completed","geo_score":0.0,"id":"a68qm409360r","geo_precision":"unmatched","state":"AR"},"type":"Feature","geometry":null},{"properties":{"status":"Not Completed","geo_score":0.0,"id":"a68qm40warj6","geo_precision":"unmatched","state":"VA"},"type":"Feature","geometry":null},{"properties":{"status":"Not Completed","geo_score":0.0,"id":"a68qm3vajlbz","geo_precision":"unmatched","state":"TX"},"type":"Feature","geometry":null},{"properties":{"status":"Not Completed","geo_score":0.0,"id":"a68qm42frqix","geo_precision":"unmatched","state":"MN"},"type":"Feature","geometry":null},{"properties":{"status":"Not Completed","geo_score":0.0,"id":"a68qm47so1ry","geo_precision":"unmatched","state":"VA"},"type":"Feature","geometry":null},{"properties":{"status":"Not Completed","geo_score":0.0,"id":"a68qm3zhu7p0","geo_precision":"unmatched","state":"VA"},"type":"Feature","geometry":null},{"properties":{"status":"Not Completed","geo_score":0.0,"id":"a68qm46pljbj","geo_precision":"unmatched","state":"MD"},"type":"Feature","geometry":null},{"properties":{"status":"Not Completed","geo_score":0.0,"id":"a68qm43quytv","geo_precision":"unmatched","state":"MD"},"type":"Feature","geometry":null},{"properties":{"status":"Not Completed","geo_score":0.0,"id":"a68qm48tmfly","geo_precision":"unmatched","state":"TX"},"type":"Feature","geometry":null},{"properties":{"status":"Not Completed","geo_score":0.0,"id":"a68qm49kc2ld","geo_precision":"unmatched","state":"MD"},"type":"Feature","geometry":null},{"properties":{"status":"Not Completed","geo_score":0.0,"id":"a68qm4a7ktvi","geo_precision":"unmatched","state":"MD"},"type":"Feature","geometry":null},{"properties":{"status":"Not Completed","geo_score":0.0,"id":"a68qm444hyut","geo_precision":"unmatched","state":"VA"},"type":"Feature","geometry":null},{"properties":{"status":"Not Completed","geo_score":0.0,"id":"a68qm3y2eobn","geo_precision":"unmatched","state":"IL"},"type":"Feature","geometry":null},{"properties":{"status":"Not Completed","geo_score":0.0,"id":"a68qm423r36s","geo_precision":"unmatched","state":"IL"},"type":"Feature","geometry":null},{"properties":{"status":"Not Completed","geo_score":0.0,"id":"a68qm3ytao6m","geo_precision":"unmatched","state":"MN"},"type":"Feature","geometry":null},{"properties":{"status":"Not Completed","geo_score":0.0,"id":"a68qm469ibd6","geo_precision":"unmatched","state":"MN"},"type":"Feature","geometry":null},{"properties":{"status":"Not Completed","geo_score":0.0,"id":"a68qm3z52wi5","geo_precision":"unmatched","state":"MS"},"type":"Feature","geometry":null},{"properties":{"status":"Not Completed","geo_score":0.0,"id":"a68qm471b6od","geo_precision":"unmatched","state":"ND"},"type":"Feature","geometry":null},{"properties":{"status":"Not Completed","geo_score":0.0,"id":"a68qm4avizqx","geo_precision":"unmatched","state":"MA"},"type":"Feature","geometry":null},{"properties":{"status":"Not Completed","geo_score":0.0,"id":"a68qm3wytpmk","geo_precision":"unmatched","state":"TX"},"type":"Feature","geometry":null},{"properties":{"status":"Not Completed","geo_score":0.0,"id":"a68qm46cvajt","geo_precision":"unmatched","state":"TX"},"type":"Feature","geometry":null},{"properties":{"status":"Not Completed","geo_score":0.0,"id":"a68qm46fm1cm","geo_precision":"unmatched","state":"WA"},"type":"Feature","geometry":null},{"properties":{"status":"Not Completed","geo_score":0.0,"id":"a68qm3zwgir6","geo_precision":"unmatched","state":"VT"},"type":"Feature","geometry":null},{"properties":{"status":"Not Completed","geo_score":0.0,"id":"a68qm49jpy3l","geo_precision":"unmatched","state":"IA"},"type":"Feature","geometry":null},{"properties":{"status":"Not Completed","geo_score":0.0,"id":"a68qm45s16hx","geo_precision":"unmatched","state":"LA"},"type":"Feature","geometry":null},{"properties":{"status":"Not Completed","geo_score":0.0,"id":"a68qm3z8ib7v","geo_precision":"unmatched","state":"MA"},"type":"Feature","geometry":null},{"properties":{"status":"Not Completed","geo_score":0.0,"id":"a68qm41o770z","geo_precision":"unmatched","state":"VA"},"type":"Feature","geometry":null},{"properties":{"status":"Not Completed","geo_score":0.0,"id":"a68qm49n0p1j","geo_precision":"unmatched","state":"WA"},"type":"Feature","geometry":null},{"properties":{"status":"Not Completed","geo_score":0.0,"id":"a68qm49v6k4m","geo_precision":"unmatched","state":"NH"},"type":"Feature","geometry":null},{"properties":{"status":"Not Completed","geo_score":0.0,"id":"a68qm3xmyo18","geo_precision":"unmatched","state":"MD"},"type":"Feature","geometry":null},{"properties":{"status":"Not Completed","geo_score":0.0,"id":"a68qm44b9pxi","geo_precision":"unmatched","state":"FL"},"type":"Feature","geometry":null},{"properties":{"status":"Not Completed","geo_score":0.0,"id":"a68qm442i3go","geo_precision":"unmatched","state":"MA"},"type":"Feature","geometry":null},{"properties":{"status":"Not Completed","geo_score":0.0,"id":"a68qm41umnfs","geo_precision":"unmatched","state":"MA"},"type":"Feature","geometry":null},{"properties":{"status":"Not Completed","geo_score":0.0,"id":"a68qm3xov7oq","geo_precision":"unmatched","state":"WA"},"type":"Feature","geometry":null},{"properties":{"status":"Not Completed","geo_score":0.0,"id":"a68qm3vr6csd","geo_precision":"unmatched","state":"ME"},"type":"Feature","geometry":null},{"properties":{"status":"Not Completed","geo_score":0.0,"id":"a68qm40btu3b","geo_precision":"unmatched","state":"WA"},"type":"Feature","geometry":null},{"properties":{"status":"Not Completed","geo_score":0.0,"id":"a68qm45uthzi","geo_precision":"unmatched","state":"WA"},"type":"Feature","geometry":null},{"properties":{"status":"Not Completed","geo_score":0.0,"id":"a68qm3z0b7xe","geo_precision":"unmatched","state":"IL"},"type":"Feature","geometry":null},{"properties":{"status":"Not Completed","geo_score":0.0,"id":"a68qm495bizw","geo_precision":"unmatched","state":"VA"},"type":"Feature","geometry":null},{"properties":{"status":"Not Completed","geo_score":0.0,"id":"a68qm43g2ak1","geo_precision":"unmatched","state":"UT"},"type":"Feature","geometry":null},{"properties":{"status":"Not Completed","geo_score":0.0,"id":"a68qm4ab2j3t","geo_precision":"unmatched","state":"WA"},"type":"Feature","geometry":null},{"properties":{"status":"Not Completed","geo_score":0.0,"id":"a68qm4bdfs26","geo_precision":"unmatched","state":"CA"},"type":"Feature","geometry":null},{"properties":{"status":"Not Completed","geo_score":0.0,"id":"a68qm43f9ud3","geo_precision":"unmatched","state":"GA"},"type":"Feature","geometry":null},{"properties":{"status":"Not Completed","geo_score":0.0,"id":"a68qm488cr8f","geo_precision":"unmatched","state":"FL"},"type":"Feature","geometry":null},{"properties":{"status":"Not Completed","geo_score":0.0,"id":"a68qm3zi2wjv","geo_precision":"unmatched","state":"FL"},"type":"Feature","geometry":null},{"properties":{"status":"Not Completed","geo_score":0.0,"id":"a68qm43c2di2","geo_precision":"unmatched","state":"MN"},"type":"Feature","geometry":null},{"properties":{"status":"Not Completed","geo_score":0.0,"id":"a68qm4304bqa","geo_precision":"unmatched","state":"FL"},"type":"Feature","geometry":null},{"properties":{"status":"Not Completed","geo_score":0.0,"id":"a68qm4721kpq","geo_precision":"unmatched","state":"MA"},"type":"Feature","geometry":null},{"properties":{"status":"Not Completed","geo_score":0.0,"id":"a68qm3x3111m","geo_precision":"unmatched","state":"ME"},"type":"Feature","geometry":null},{"properties":{"status":"Not Completed","geo_score":0.0,"id":"a68qm3y3u15i","geo_precision":"unmatched","state":"MA"},"type":"Feature","geometry":null},{"properties":{"status":"Not Completed","geo_score":0.0,"id":"a68qm4axqdzo","geo_precision":"unmatched","state":"MA"},"type":"Feature","geometry":null},{"properties":{"status":"Not Completed","geo_score":0.0,"id":"a68qm3zl983k","geo_precision":"unmatched","state":"NH"},"type":"Feature","geometry":null},{"properties":{"status":"Not Completed","geo_score":0.0,"id":"a68qm46vhwuo","geo_precision":"unmatched","state":"NH"},"type":"Feature","geometry":null},{"properties":{"status":"Not Completed","geo_score":0.0,"id":"a68qm48x3e51","geo_precision":"unmatched","state":"NH"},"type":"Feature","geometry":null},{"properties":{"status":"Not Completed","geo_score":0.0,"id":"a68qm47hd4oh","geo_precision":"unmatched","state":"NY"},"type":"Feature","geometry":null},{"properties":{"status":"Not Completed","geo_score":0.0,"id":"a68qm46ro0da","geo_precision":"unmatched","state":"FL"},"type":"Feature","geometry":null},{"properties":{"status":"Not Completed","geo_score":0.0,"id":"a68qm49umi50","geo_precision":"unmatched","state":"FL"},"type":"Feature","geometry":null},{"properties":{"status":"Not Completed","geo_score":0.0,"id":"a68qm42yuzzy","geo_precision":"unmatched","state":"FL"},"type":"Feature","geometry":null},{"properties":{"status":"Not Completed","geo_score":0.0,"id":"a68qm48lfyo4","geo_precision":"unmatched","state":"FL"},"type":"Feature","geometry":null},{"properties":{"status":"Not Completed","geo_score":0.0,"id":"a68qm45mzq00","geo_precision":"unmatched","state":"FL"},"type":"Feature","geometry":null},{"properties":{"status":"Not Completed","geo_score":0.0,"id":"a68qm40ez3dt","geo_precision":"unmatched","state":"WA"},"type":"Feature","geometry":null},{"properties":{"status":"Not Completed","geo_score":0.0,"id":"a68qm46n6je5","geo_precision":"unmatched","state":"MA"},"type":"Feature","geometry":null},{"properties":{"status":"Not Completed","geo_score":0.0,"id":"a68qm406ci0o","geo_precision":"unmatched","state":"MA"},"type":"Feature","geometry":null},{"properties":{"status":"Not Completed","geo_score":0.0,"id":"a68qm41ikuxr","geo_precision":"unmatched","state":"RI"},"type":"Feature","geometry":null},{"properties":{"status":"Not Completed","geo_score":0.0,"id":"a68qm41k9ub7","geo_precision":"unmatched","state":"WV"},"type":"Feature","geometry":null},{"properties":{"status":"Not Completed","geo_score":0.0,"id":"a68qm3y143or","geo_precision":"unmatched","state":"NH"},"type":"Feature","geometry":null},{"properties":{"status":"Not Completed","geo_score":0.0,"id":"a68qm3wxs0b3","geo_precision":"unmatched","state":"MA"},"type":"Feature","geometry":null},{"properties":{"status":"Not Completed","geo_score":0.0,"id":"a68qm41lq5t1","geo_precision":"unmatched","state":"TX"},"type":"Feature","geometry":null},{"properties":{"status":"Not Completed","geo_score":0.0,"id":"a68qm43c48a5","geo_precision":"unmatched","state":"IA"},"type":"Feature","geometry":null},{"properties":{"status":"Not Completed","geo_score":0.0,"id":"a68qm4375ubt","geo_precision":"unmatched","state":"MN"},"type":"Feature","geometry":null},{"properties":{"status":"Not Completed","geo_score":0.0,"id":"a68qm3xm73zy","geo_precision":"unmatched","state":"FL"},"type":"Feature","geometry":null},{"properties":{"status":"Not Completed","geo_score":0.0,"id":"a68qm40gb9v3","geo_precision":"unmatched","state":"IA"},"type":"Feature","geometry":null},{"properties":{"status":"Not Completed","geo_score":0.0,"id":"a68qm47pd0c9","geo_precision":"unmatched","state":"IA"},"type":"Feature","geometry":null},{"properties":{"status":"Not Completed","geo_score":0.0,"id":"a68qm48dkgm9","geo_precision":"unmatched","state":"DC"},"type":"Feature","geometry":null},{"properties":{"status":"Not Completed","geo_score":0.0,"id":"a68qm44du97j","geo_precision":"unmatched","state":"MA"},"type":"Feature","geometry":null},{"properties":{"status":"Not Completed","geo_score":0.0,"id":"a68qm40a5s5t","geo_precision":"unmatched","state":"MA"},"type":"Feature","geometry":null},{"properties":{"status":"Not Completed","geo_score":0.0,"id":"a68qm3wb203n","geo_precision":"unmatched","state":"MD"},"type":"Feature","geometry":null},{"properties":{"status":"Not Completed","geo_score":0.0,"id":"a68qm45wpga3","geo_precision":"unmatched","state":"MA"},"type":"Feature","geometry":null},{"properties":{"status":"Not Completed","geo_score":0.0,"id":"a68qm3yxx3us","geo_precision":"unmatched","state":"WA"},"type":"Feature","geometry":null},{"properties":{"status":"Not Completed","geo_score":0.0,"id":"a68qm48d4lkm","geo_precision":"unmatched","state":"WA"},"type":"Feature","geometry":null},{"properties":{"status":"Not Completed","geo_score":0.0,"id":"a68qm4006j55","geo_precision":"unmatched","state":"CA"},"type":"Feature","geometry":null},{"properties":{"status":"Not Completed","geo_score":0.0,"id":"a68qm461vfrj","geo_precision":"unmatched","state":"CA"},"type":"Feature","geometry":null},{"properties":{"status":"Not Completed","geo_score":0.0,"id":"a68qm3wmzr7e","geo_precision":"unmatched","state":"SD"},"type":"Feature","geometry":null},{"properties":{"status":"Not Completed","geo_score":0.0,"id":"a68qm42z89sj","geo_precision":"unmatched","state":"FL"},"type":"Feature","geometry":null},{"properties":{"status":"Not Completed","geo_score":0.0,"id":"a68qm48bnu1x","geo_precision":"unmatched","state":"TX"},"type":"Feature","geometry":null},{"properties":{"status":"Not Completed","geo_score":0.0,"id":"a68qm45j5jao","geo_precision":"unmatched","state":"TX"},"type":"Feature","geometry":null},{"properties":{"status":"Not Completed","geo_score":0.0,"id":"a68qm495d9cr","geo_precision":"unmatched","state":"TX"},"type":"Feature","geometry":null},{"properties":{"status":"Not Completed","geo_score":0.0,"id":"a68qm47erh0q","geo_precision":"unmatched","state":"TX"},"type":"Feature","geometry":null},{"properties":{"status":"Not Completed","geo_score":0.0,"id":"a68qm3w3iizj","geo_precision":"unmatched","state":"MA"},"type":"Feature","geometry":null},{"properties":{"status":"Not Completed","geo_score":0.0,"id":"a68qm3xg53nd","geo_precision":"unmatched","state":"IA"},"type":"Feature","geometry":null},{"properties":{"status":"Not Completed","geo_score":0.0,"id":"a68qm43c7icu","geo_precision":"unmatched","state":"TX"},"type":"Feature","geometry":null},{"properties":{"status":"Not Completed","geo_score":0.0,"id":"a68qm3ziqqx4","geo_precision":"unmatched","state":"TX"},"type":"Feature","geometry":null},{"properties":{"status":"Not Completed","geo_score":0.0,"id":"a68qm3wu85hd","geo_precision":"unmatched","state":"TX"},"type":"Feature","geometry":null},{"properties":{"status":"Not Completed","geo_score":0.0,"id":"a68qm40u931y","geo_precision":"unmatched","state":"MN"},"type":"Feature","geometry":null},{"properties":{"status":"Not Completed","geo_score":0.0,"id":"a68qm47sfvyl","geo_precision":"unmatched","state":"MD"},"type":"Feature","geometry":null},{"properties":{"status":"Not Completed","geo_score":0.0,"id":"a68qm483u0rm","geo_precision":"unmatched","state":"ND"},"type":"Feature","geometry":null},{"properties":{"status":"Not Completed","geo_score":0.0,"id":"a68qm49hbxxy","geo_precision":"unmatched","state":"TX"},"type":"Feature","geometry":null},{"properties":{"status":"Not Completed","geo_score":0.0,"id":"a68qm42sugpz","geo_precision":"unmatched","state":"CA"},"type":"Feature","geometry":null},{"properties":{"status":"Not Completed","geo_score":0.0,"id":"a68qm455ztpk","geo_precision":"unmatched","state":"CA"},"type":"Feature","geometry":null},{"properties":{"status":"Not Completed","geo_score":0.0,"id":"a68qm3x5jtap","geo_precision":"unmatched","state":"CA"},"type":"Feature","geometry":null},{"properties":{"status":"Not Completed","geo_score":0.0,"id":"a68qm4bfetua","geo_precision":"unmatched","state":"TX"},"type":"Feature","geometry":null},{"properties":{"status":"Not Completed","geo_score":0.0,"id":"a68qm46n62jg","geo_precision":"unmatched","state":"TX"},"type":"Feature","geometry":null},{"properties":{"status":"Not Completed","geo_score":0.0,"id":"a68qm4akyusu","geo_precision":"unmatched","state":"TX"},"type":"Feature","geometry":null},{"properties":{"status":"Not Completed","geo_score":0.0,"id":"a68qm43fup8g","geo_precision":"unmatched","state":"TX"},"type":"Feature","geometry":null},{"properties":{"status":"Not Completed","geo_score":0.0,"id":"a68qm49eiyrc","geo_precision":"unmatched","state":"TX"},"type":"Feature","geometry":null},{"properties":{"status":"Not Completed","geo_score":0.0,"id":"a68qm3zja5f0","geo_precision":"unmatched","state":"TX"},"type":"Feature","geometry":null},{"properties":{"status":"Not Completed","geo_score":0.0,"id":"a68qm46d3enf","geo_precision":"unmatched","state":"TX"},"type":"Feature","geometry":null},{"properties":{"status":"Not Completed","geo_score":0.0,"id":"a68qm3zbpdfk","geo_precision":"unmatched","state":"WA"},"type":"Feature","geometry":null},{"properties":{"status":"Not Completed","geo_score":0.0,"id":"a68qm46mselb","geo_precision":"unmatched","state":"CA"},"type":"Feature","geometry":null},{"properties":{"status":"Not Completed","geo_score":0.0,"id":"a68qm47jrjux","geo_precision":"unmatched","state":"CA"},"type":"Feature","geometry":null},{"properties":{"status":"Not Completed","geo_score":0.0,"id":"a68qm4469vol","geo_precision":"unmatched","state":"MD"},"type":"Feature","geometry":null},{"properties":{"status":"Not Completed","geo_score":0.0,"id":"a68qm45qjm71","geo_precision":"unmatched","state":"MN"},"type":"Feature","geometry":null},{"properties":{"status":"Not Completed","geo_score":0.0,"id":"a68qm4846hlu","geo_precision":"unmatched","state":"MD"},"type":"Feature","geometry":null},{"properties":{"status":"Not Completed","geo_score":0.0,"id":"a68qm3xclnse","geo_precision":"unmatched","state":"CA"},"type":"Feature","geometry":null},{"properties":{"status":"Not Completed","geo_score":0.0,"id":"a68qm47ykrtk","geo_precision":"unmatched","state":"ND"},"type":"Feature","geometry":null},{"properties":{"status":"Not Completed","geo_score":0.0,"id":"a68qm3xtlttc","geo_precision":"unmatched","state":"TX"},"type":"Feature","geometry":null},{"properties":{"status":"Not Completed","geo_score":0.0,"id":"a68qm487ergc","geo_precision":"unmatched","state":"TX"},"type":"Feature","geometry":null},{"properties":{"status":"Not Completed","geo_score":0.0,"id":"a68qm4au8j91","geo_precision":"unmatched","state":"TX"},"type":"Feature","geometry":null},{"properties":{"status":"Not Completed","geo_score":0.0,"id":"a68qm47dj77y","geo_precision":"unmatched","state":"MA"},"type":"Feature","geometry":null},{"properties":{"status":"Not Completed","geo_score":0.0,"id":"a68qm4bkcxse","geo_precision":"unmatched","state":"NY"},"type":"Feature","geometry":null},{"properties":{"status":"Not Completed","geo_score":0.0,"id":"a68qm3x2o4d6","geo_precision":"unmatched","state":"MA"},"type":"Feature","geometry":null},{"properties":{"status":"Not Completed","geo_score":0.0,"id":"a68qm4bhga77","geo_precision":"unmatched","state":"FL"},"type":"Feature","geometry":null},{"properties":{"status":"Not Completed","geo_score":0.0,"id":"a68qm3x9t1jv","geo_precision":"unmatched","state":"ME"},"type":"Feature","geometry":null},{"properties":{"status":"Not Completed","geo_score":0.0,"id":"a68qm447l9ae","geo_precision":"unmatched","state":"MA"},"type":"Feature","geometry":null},{"properties":{"status":"Not Completed","geo_score":0.0,"id":"a68qm3vw6eqa","geo_precision":"unmatched","state":"MA"},"type":"Feature","geometry":null},{"properties":{"status":"Not Completed","geo_score":0.0,"id":"a68qm3xwdfax","geo_precision":"unmatched","state":"FL"},"type":"Feature","geometry":null},{"properties":{"status":"Not Completed","geo_score":0.0,"id":"a68qm3x0d0yw","geo_precision":"unmatched","state":"FL"},"type":"Feature","geometry":null},{"properties":{"status":"Not Completed","geo_score":0.0,"id":"a68qm41ld1mb","geo_precision":"unmatched","state":"ME"},"type":"Feature","geometry":null},{"properties":{"status":"Not Completed","geo_score":0.0,"id":"a68qm3zyohdp","geo_precision":"unmatched","state":"TX"},"type":"Feature","geometry":null},{"properties":{"status":"Not Completed","geo_score":0.0,"id":"a68qm45q674l","geo_precision":"unmatched","state":"FL"},"type":"Feature","geometry":null},{"properties":{"status":"Not Completed","geo_score":0.0,"id":"a68qm41ctm38","geo_precision":"unmatched","state":"MN"},"type":"Feature","geometry":null},{"properties":{"status":"Not Completed","geo_score":0.0,"id":"a68qm47ba11t","geo_precision":"unmatched","state":"WA"},"type":"Feature","geometry":null},{"properties":{"status":"Not Completed","geo_score":0.0,"id":"a68qm4465dgs","geo_precision":"unmatched","state":"TX"},"type":"Feature","geometry":null},{"properties":{"status":"Not Completed","geo_score":0.0,"id":"a68qm3yw6kix","geo_precision":"unmatched","state":"TX"},"type":"Feature","geometry":null},{"properties":{"status":"Not Completed","geo_score":0.0,"id":"a68qm47uo7tw","geo_precision":"unmatched","state":"TX"},"type":"Feature","geometry":null},{"properties":{"status":"Not Completed","geo_score":0.0,"id":"a68qm3vkeq7s","geo_precision":"unmatched","state":"FL"},"type":"Feature","geometry":null},{"properties":{"status":"Not Completed","geo_score":0.0,"id":"a68qm41y1gz4","geo_precision":"unmatched","state":"MA"},"type":"Feature","geometry":null},{"properties":{"status":"Not Completed","geo_score":0.0,"id":"a68qm3z4ii66","geo_precision":"unmatched","state":"TX"},"type":"Feature","geometry":null},{"properties":{"status":"Not Completed","geo_score":0.0,"id":"a68qm3xwks1w","geo_precision":"unmatched","state":"TX"},"type":"Feature","geometry":null},{"properties":{"status":"Not Completed","geo_score":0.0,"id":"a68qm45ta6os","geo_precision":"unmatched","state":"WA"},"type":"Feature","geometry":null},{"properties":{"status":"Not Completed","geo_score":0.0,"id":"a68qm3zc0pzz","geo_precision":"unmatched","state":"ME"},"type":"Feature","geometry":null},{"properties":{"status":"Not Completed","geo_score":0.0,"id":"a68qm40f2v5l","geo_precision":"unmatched","state":"CA"},"type":"Feature","geometry":null},{"properties":{"status":"Not Completed","geo_score":0.0,"id":"a68qm3wl1sz2","geo_precision":"unmatched","state":"MA"},"type":"Feature","geometry":null},{"properties":{"status":"Not Completed","geo_score":0.0,"id":"a68qm3wugxni","geo_precision":"unmatched","state":"TX"},"type":"Feature","geometry":null},{"properties":{"status":"Not Completed","geo_score":0.0,"id":"a68qm3z608rf","geo_precision":"unmatched","state":"TX"},"type":"Feature","geometry":null},{"properties":{"status":"Not Completed","geo_score":0.0,"id":"a68qm4av4g27","geo_precision":"unmatched","state":"TX"},"type":"Feature","geometry":null},{"properties":{"status":"Not Completed","geo_score":0.0,"id":"a68qm423818e","geo_precision":"unmatched","state":"TX"},"type":"Feature","geometry":null},{"properties":{"status":"Not Completed","geo_score":0.0,"id":"a68qm40fnejc","geo_precision":"unmatched","state":"RI"},"type":"Feature","geometry":null},{"properties":{"status":"Not Completed","geo_score":0.0,"id":"a68qm3xh25rf","geo_precision":"unmatched","state":"IA"},"type":"Feature","geometry":null},{"properties":{"status":"Not Completed","geo_score":0.0,"id":"a68qm3vln440","geo_precision":"unmatched","state":"MN"},"type":"Feature","geometry":null},{"properties":{"status":"Not Completed","geo_score":0.0,"id":"a68qm40b8qow","geo_precision":"unmatched","state":"TX"},"type":"Feature","geometry":null},{"properties":{"status":"Not Completed","geo_score":0.0,"id":"a68qm44nmsq4","geo_precision":"unmatched","state":"WV"},"type":"Feature","geometry":null},{"properties":{"status":"Not Completed","geo_score":0.0,"id":"a68qm42qackr","geo_precision":"unmatched","state":"AK"},"type":"Feature","geometry":null},{"properties":{"status":"Not Completed","geo_score":0.0,"id":"a68qm4asfufq","geo_precision":"unmatched","state":"FL"},"type":"Feature","geometry":null},{"properties":{"status":"Not Completed","geo_score":0.0,"id":"a68qm4bb22da","geo_precision":"unmatched","state":"TX"},"type":"Feature","geometry":null},{"properties":{"status":"Not Completed","geo_score":0.0,"id":"a68qm42ie28u","geo_precision":"unmatched","state":"MD"},"type":"Feature","geometry":null},{"properties":{"status":"Not Completed","geo_score":0.0,"id":"a68qm3zaceut","geo_precision":"unmatched","state":"TX"},"type":"Feature","geometry":null},{"properties":{"status":"Not Completed","geo_score":0.0,"id":"a68qm4286xfy","geo_precision":"unmatched","state":"TX"},"type":"Feature","geometry":null},{"properties":{"status":"Not Completed","geo_score":0.0,"id":"a68qm3yhs8vm","geo_precision":"unmatched","state":"MD"},"type":"Feature","geometry":null},{"properties":{"status":"Not Completed","geo_score":0.0,"id":"a68qm3wc2d4b","geo_precision":"unmatched","state":"CA"},"type":"Feature","geometry":null},{"properties":{"status":"Not Completed","geo_score":0.0,"id":"a68qm46bg0j2","geo_precision":"unmatched","state":"MA"},"type":"Feature","geometry":null},{"properties":{"status":"Not Completed","geo_score":0.0,"id":"a68qm49fph2l","geo_precision":"unmatched","state":"TX"},"type":"Feature","geometry":null}],"is_temporal":false,"author":{"url":"","metadata":"","contact_name":"","contact_address":"","source":"","contact_phone":""},"source":"","pagination":{"sort":null,"start":0,"total":1105,"limit":1000000},"state":"complete","tags":"","published":"2014-08-14T22:46:53-04:00","id":226422}