{"type":"FeatureCollection","data_type":"Dataset","url_type":null,"permissions":[{"permissions":{"download":true,"view":true},"group_id":"everyone"}],"classification":null,"title":"BASF Radiolab 2011 Zip Codes","count":127,"stream_id":226421,"contributor":{"url":"http://geocommons.com/users/41433","name":"kishorehari"},"data_attributes":null,"calculation_params":null,"icon_link":null,"link":"http://geocommons.com/overlays/226421.json","extent":[-124.066,32.7478,-73.851,45.1768],"geometry_types":["point"],"unique_name":null,"name":"BASF Radiolab 2011 Zip Codes","feature_count":127,"description":"","next_feature":null,"is_raster":false,"short_classification":"Y","stats":{"frequency":{"max":25,"mean":2.7007874015748,"variance":12.1161104861892,"stdev":3.48082037545594,"min":1,"median":1}},"features":[{"properties":{"geo_score":0.714,"zip_code":"11217","id":"a68qm2llj6ep","geo_precision":"zip","frequency":1},"type":"Feature","geometry":{"type":"Point","coordinates":[-73.980613,40.684948]}},{"properties":{"geo_score":0.714,"zip_code":"11375","id":"a68qm2ur9hlm","geo_precision":"zip","frequency":1},"type":"Feature","geometry":{"type":"Point","coordinates":[-73.850969,40.710658]}},{"properties":{"geo_score":0.714,"zip_code":"20024","id":"a68qm2if66pv","geo_precision":"zip","frequency":1},"type":"Feature","geometry":{"type":"Point","coordinates":[-77.022948,38.876494]}},{"properties":{"geo_score":0.714,"zip_code":"25333","id":"a68qm2psxxt3","geo_precision":"zip","frequency":1},"type":"Feature","geometry":{"type":"Point","coordinates":[-81.554655,38.296818]}},{"properties":{"geo_score":0.714,"zip_code":"27607","id":"a68qm2hqlh7v","geo_precision":"zip","frequency":1},"type":"Feature","geometry":{"type":"Point","coordinates":[-78.707101,35.804237]}},{"properties":{"geo_score":0.714,"zip_code":"28333","id":"a68qm2vcnb85","geo_precision":"zip","frequency":1},"type":"Feature","geometry":{"type":"Point","coordinates":[-78.025587,35.266919]}},{"properties":{"geo_score":0.714,"zip_code":"30004","id":"a68qm2rgxrsu","geo_precision":"zip","frequency":1},"type":"Feature","geometry":{"type":"Point","coordinates":[-84.30205,34.112373]}},{"properties":{"geo_score":0.714,"zip_code":"55116","id":"a68qm2vkbeen","geo_precision":"zip","frequency":1},"type":"Feature","geometry":{"type":"Point","coordinates":[-93.165356,44.911215]}},{"properties":{"geo_score":0.714,"zip_code":"89509","id":"a68qm2q020xb","geo_precision":"zip","frequency":2},"type":"Feature","geometry":{"type":"Point","coordinates":[-119.857022,39.413458]}},{"properties":{"geo_score":0.714,"zip_code":"90075","id":"a68qm2suikcx","geo_precision":"zip","frequency":1},"type":"Feature","geometry":{"type":"Point","coordinates":[-118.298662,33.786594]}},{"properties":{"geo_score":0.714,"zip_code":"90278","id":"a68qm2tpf88l","geo_precision":"zip","frequency":1},"type":"Feature","geometry":{"type":"Point","coordinates":[-118.179754,33.987613]}},{"properties":{"geo_score":0.714,"zip_code":"92084","id":"a68qm2sq6flv","geo_precision":"zip","frequency":1},"type":"Feature","geometry":{"type":"Point","coordinates":[-116.846046,33.016928]}},{"properties":{"geo_score":0.714,"zip_code":"92102","id":"a68qm2lnsjcr","geo_precision":"zip","frequency":1},"type":"Feature","geometry":{"type":"Point","coordinates":[-117.157533,32.747828]}},{"properties":{"geo_score":0.0,"zip_code":"93096","id":"a68qm2uri3gq","geo_precision":"unmatched","frequency":1},"type":"Feature","geometry":null},{"properties":{"geo_score":0.714,"zip_code":"93277","id":"a68qm2pcetdq","geo_precision":"zip","frequency":1},"type":"Feature","geometry":{"type":"Point","coordinates":[-119.355559,36.13188]}},{"properties":{"geo_score":0.714,"zip_code":"94002","id":"a68qm2jkm8l2","geo_precision":"zip","frequency":2},"type":"Feature","geometry":{"type":"Point","coordinates":[-122.29339,37.516644]}},{"properties":{"geo_score":0.714,"zip_code":"94015","id":"a68qm2uqy79k","geo_precision":"zip","frequency":2},"type":"Feature","geometry":{"type":"Point","coordinates":[-122.482751,37.6866]}},{"properties":{"geo_score":0.714,"zip_code":"94025","id":"a68qm2lzia4b","geo_precision":"zip","frequency":4},"type":"Feature","geometry":{"type":"Point","coordinates":[-122.203021,37.43355]}},{"properties":{"geo_score":0.714,"zip_code":"94030","id":"a68qm2irqzdg","geo_precision":"zip","frequency":1},"type":"Feature","geometry":{"type":"Point","coordinates":[-122.417195,37.602158]}},{"properties":{"geo_score":0.714,"zip_code":"94040","id":"a68qm2xszxqo","geo_precision":"zip","frequency":1},"type":"Feature","geometry":{"type":"Point","coordinates":[-121.705327,37.189396]}},{"properties":{"geo_score":0.714,"zip_code":"94041","id":"a68qm2xz6zfm","geo_precision":"zip","frequency":1},"type":"Feature","geometry":{"type":"Point","coordinates":[-121.705327,37.189396]}},{"properties":{"geo_score":0.714,"zip_code":"94043","id":"a68qm2qr6n8g","geo_precision":"zip","frequency":2},"type":"Feature","geometry":{"type":"Point","coordinates":[-121.705327,37.189396]}},{"properties":{"geo_score":0.714,"zip_code":"94044","id":"a68qm2qmpml4","geo_precision":"zip","frequency":2},"type":"Feature","geometry":{"type":"Point","coordinates":[-122.480808,37.613547]}},{"properties":{"geo_score":0.714,"zip_code":"94060","id":"a68qm2nqi2mp","geo_precision":"zip","frequency":1},"type":"Feature","geometry":{"type":"Point","coordinates":[-122.318026,37.258833]}},{"properties":{"geo_score":0.714,"zip_code":"94061","id":"a68qm2p43sbh","geo_precision":"zip","frequency":4},"type":"Feature","geometry":{"type":"Point","coordinates":[-122.235639,37.462158]}},{"properties":{"geo_score":0.714,"zip_code":"94086","id":"a68qm2ssi9y5","geo_precision":"zip","frequency":2},"type":"Feature","geometry":{"type":"Point","coordinates":[-121.705327,37.189396]}},{"properties":{"geo_score":0.714,"zip_code":"94087","id":"a68qm2p6ti26","geo_precision":"zip","frequency":1},"type":"Feature","geometry":{"type":"Point","coordinates":[-121.705327,37.189396]}},{"properties":{"geo_score":0.714,"zip_code":"94102","id":"a68qm2krv20n","geo_precision":"zip","frequency":2},"type":"Feature","geometry":{"type":"Point","coordinates":[-122.416582,37.779278]}},{"properties":{"geo_score":0.714,"zip_code":"94103","id":"a68qm2roj5tm","geo_precision":"zip","frequency":5},"type":"Feature","geometry":{"type":"Point","coordinates":[-122.412131,37.775678]}},{"properties":{"geo_score":0.714,"zip_code":"94105","id":"a68qm2mdygi9","geo_precision":"zip","frequency":1},"type":"Feature","geometry":{"type":"Point","coordinates":[-122.395631,37.789595]}},{"properties":{"geo_score":0.714,"zip_code":"94107","id":"a68qm2u9sshn","geo_precision":"zip","frequency":9},"type":"Feature","geometry":{"type":"Point","coordinates":[-122.393681,37.769029]}},{"properties":{"geo_score":0.714,"zip_code":"94108","id":"a68qm2r6lsri","geo_precision":"zip","frequency":1},"type":"Feature","geometry":{"type":"Point","coordinates":[-122.408582,37.796596]}},{"properties":{"geo_score":0.714,"zip_code":"94109","id":"a68qm2uhg2t2","geo_precision":"zip","frequency":6},"type":"Feature","geometry":{"type":"Point","coordinates":[-122.420782,37.795219]}},{"properties":{"geo_score":0.714,"zip_code":"94110","id":"a68qm2w5hcbt","geo_precision":"zip","frequency":25},"type":"Feature","geometry":{"type":"Point","coordinates":[-122.416281,37.748932]}},{"properties":{"geo_score":0.714,"zip_code":"94112","id":"a68qm2hr95y7","geo_precision":"zip","frequency":1},"type":"Feature","geometry":{"type":"Point","coordinates":[-122.439382,37.721981]}},{"properties":{"geo_score":0.714,"zip_code":"94114","id":"a68qm2xr5ot2","geo_precision":"zip","frequency":11},"type":"Feature","geometry":{"type":"Point","coordinates":[-122.439332,37.758279]}},{"properties":{"geo_score":0.714,"zip_code":"94115","id":"a68qm2pk3lvl","geo_precision":"zip","frequency":4},"type":"Feature","geometry":{"type":"Point","coordinates":[-122.437032,37.786028]}},{"properties":{"geo_score":0.714,"zip_code":"94116","id":"a68qm2k9xm6s","geo_precision":"zip","frequency":1},"type":"Feature","geometry":{"type":"Point","coordinates":[-122.483232,37.743857]}},{"properties":{"geo_score":0.714,"zip_code":"94117","id":"a68qm2o8p82a","geo_precision":"zip","frequency":23},"type":"Feature","geometry":{"type":"Point","coordinates":[-122.443882,37.769079]}},{"properties":{"geo_score":0.714,"zip_code":"94118","id":"a68qm2r11xw8","geo_precision":"zip","frequency":3},"type":"Feature","geometry":{"type":"Point","coordinates":[-122.459982,37.778779]}},{"properties":{"geo_score":0.714,"zip_code":"94121","id":"a68qm2ngeh72","geo_precision":"zip","frequency":2},"type":"Feature","geometry":{"type":"Point","coordinates":[-122.491682,37.777129]}},{"properties":{"geo_score":0.714,"zip_code":"94122","id":"a68qm2tj2ye7","geo_precision":"zip","frequency":3},"type":"Feature","geometry":{"type":"Point","coordinates":[-122.475732,37.761179]}},{"properties":{"geo_score":0.714,"zip_code":"94123","id":"a68qm2ojffie","geo_precision":"zip","frequency":3},"type":"Feature","geometry":{"type":"Point","coordinates":[-122.435732,37.79967]}},{"properties":{"geo_score":0.714,"zip_code":"94126","id":"a68qm2uwlcfz","geo_precision":"zip","frequency":1},"type":"Feature","geometry":{"type":"Point","coordinates":[-122.727802,37.784827]}},{"properties":{"geo_score":0.714,"zip_code":"94131","id":"a68qm2pd9dkn","geo_precision":"zip","frequency":6},"type":"Feature","geometry":{"type":"Point","coordinates":[-122.443182,37.74363]}},{"properties":{"geo_score":0.714,"zip_code":"94132","id":"a68qm2rpwsbu","geo_precision":"zip","frequency":1},"type":"Feature","geometry":{"type":"Point","coordinates":[-122.482483,37.722631]}},{"properties":{"geo_score":0.714,"zip_code":"94134","id":"a68qm2ood68h","geo_precision":"zip","frequency":1},"type":"Feature","geometry":{"type":"Point","coordinates":[-122.410832,37.72168]}},{"properties":{"geo_score":0.714,"zip_code":"94301","id":"a68qm2spy7wo","geo_precision":"zip","frequency":2},"type":"Feature","geometry":{"type":"Point","coordinates":[-121.705327,37.189396]}},{"properties":{"geo_score":0.714,"zip_code":"94303","id":"a68qm2xjgiqi","geo_precision":"zip","frequency":2},"type":"Feature","geometry":{"type":"Point","coordinates":[-122.14302,37.441883]}},{"properties":{"geo_score":0.714,"zip_code":"94305","id":"a68qm2l4ktkg","geo_precision":"zip","frequency":3},"type":"Feature","geometry":{"type":"Point","coordinates":[-121.705327,37.189396]}},{"properties":{"geo_score":0.714,"zip_code":"94306","id":"a68qm2jpejgr","geo_precision":"zip","frequency":1},"type":"Feature","geometry":{"type":"Point","coordinates":[-121.705327,37.189396]}},{"properties":{"geo_score":0.0,"zip_code":"94350","id":"a68qm2tkgqw1","geo_precision":"unmatched","frequency":1},"type":"Feature","geometry":null},{"properties":{"geo_score":0.714,"zip_code":"94401","id":"a68qm2nwnsu8","geo_precision":"zip","frequency":3},"type":"Feature","geometry":{"type":"Point","coordinates":[-122.32253,37.573485]}},{"properties":{"geo_score":0.714,"zip_code":"94403","id":"a68qm2puydyt","geo_precision":"zip","frequency":1},"type":"Feature","geometry":{"type":"Point","coordinates":[-122.304079,37.541486]}},{"properties":{"geo_score":0.714,"zip_code":"94501","id":"a68qm2nu3xtq","geo_precision":"zip","frequency":6},"type":"Feature","geometry":{"type":"Point","coordinates":[-122.264779,37.770563]}},{"properties":{"geo_score":0.714,"zip_code":"94508","id":"a68qm2o2bk2x","geo_precision":"zip","frequency":1},"type":"Feature","geometry":{"type":"Point","coordinates":[-122.450215,38.57145]}},{"properties":{"geo_score":0.714,"zip_code":"94509","id":"a68qm2v8j1v3","geo_precision":"zip","frequency":2},"type":"Feature","geometry":{"type":"Point","coordinates":[-121.75551,38.004922]}},{"properties":{"geo_score":0.714,"zip_code":"94510","id":"a68qm2hme8d8","geo_precision":"zip","frequency":2},"type":"Feature","geometry":{"type":"Point","coordinates":[-122.032061,38.1012]}},{"properties":{"geo_score":0.714,"zip_code":"94523","id":"a68qm2xeoy0d","geo_precision":"zip","frequency":3},"type":"Feature","geometry":{"type":"Point","coordinates":[-122.052741,37.941312]}},{"properties":{"geo_score":0.714,"zip_code":"94525","id":"a68qm2iacgqw","geo_precision":"zip","frequency":1},"type":"Feature","geometry":{"type":"Point","coordinates":[-122.224413,38.052143]}},{"properties":{"geo_score":0.714,"zip_code":"94530","id":"a68qm2sp18pq","geo_precision":"zip","frequency":2},"type":"Feature","geometry":{"type":"Point","coordinates":[-122.30248,37.918024]}},{"properties":{"geo_score":0.714,"zip_code":"94541","id":"a68qm2wnes84","geo_precision":"zip","frequency":1},"type":"Feature","geometry":{"type":"Point","coordinates":[-122.103297,37.679376]}},{"properties":{"geo_score":0.714,"zip_code":"94546","id":"a68qm2wh2mgm","geo_precision":"zip","frequency":2},"type":"Feature","geometry":{"type":"Point","coordinates":[-122.066373,37.731229]}},{"properties":{"geo_score":0.714,"zip_code":"94555","id":"a68qm2xq000u","geo_precision":"zip","frequency":1},"type":"Feature","geometry":{"type":"Point","coordinates":[-122.063323,37.570681]}},{"properties":{"geo_score":0.714,"zip_code":"94563","id":"a68qm2m6hqhx","geo_precision":"zip","frequency":1},"type":"Feature","geometry":{"type":"Point","coordinates":[-122.195523,37.887425]}},{"properties":{"geo_score":0.714,"zip_code":"94564","id":"a68qm2oallgh","geo_precision":"zip","frequency":1},"type":"Feature","geometry":{"type":"Point","coordinates":[-122.243294,37.990772]}},{"properties":{"geo_score":0.714,"zip_code":"94566","id":"a68qm2nk344o","geo_precision":"zip","frequency":1},"type":"Feature","geometry":{"type":"Point","coordinates":[-121.862128,37.646081]}},{"properties":{"geo_score":0.714,"zip_code":"94577","id":"a68qm2v0ghmr","geo_precision":"zip","frequency":1},"type":"Feature","geometry":{"type":"Point","coordinates":[-122.158621,37.715629]}},{"properties":{"geo_score":0.714,"zip_code":"94578","id":"a68qm2umbjqu","geo_precision":"zip","frequency":2},"type":"Feature","geometry":{"type":"Point","coordinates":[-122.124225,37.704429]}},{"properties":{"geo_score":0.714,"zip_code":"94591","id":"a68qm2ifyuf4","geo_precision":"zip","frequency":1},"type":"Feature","geometry":{"type":"Point","coordinates":[-122.206292,38.114249]}},{"properties":{"geo_score":0.714,"zip_code":"94596","id":"a68qm2oo7o2g","geo_precision":"zip","frequency":1},"type":"Feature","geometry":{"type":"Point","coordinates":[-122.051074,37.876592]}},{"properties":{"geo_score":0.714,"zip_code":"94598","id":"a68qm2on8n62","geo_precision":"zip","frequency":1},"type":"Feature","geometry":{"type":"Point","coordinates":[-122.037045,37.906873]}},{"properties":{"geo_score":0.714,"zip_code":"94601","id":"a68qm2q87a4g","geo_precision":"zip","frequency":1},"type":"Feature","geometry":{"type":"Point","coordinates":[-122.223779,37.786027]}},{"properties":{"geo_score":0.714,"zip_code":"94602","id":"a68qm2vr4mls","geo_precision":"zip","frequency":2},"type":"Feature","geometry":{"type":"Point","coordinates":[-122.204578,37.802777]}},{"properties":{"geo_score":0.714,"zip_code":"94606","id":"a68qm2rabzsv","geo_precision":"zip","frequency":3},"type":"Feature","geometry":{"type":"Point","coordinates":[-122.243979,37.789927]}},{"properties":{"geo_score":0.714,"zip_code":"94608","id":"a68qm2ou0xc5","geo_precision":"zip","frequency":9},"type":"Feature","geometry":{"type":"Point","coordinates":[-122.29548,37.833876]}},{"properties":{"geo_score":0.714,"zip_code":"94609","id":"a68qm2s8r3kx","geo_precision":"zip","frequency":8},"type":"Feature","geometry":{"type":"Point","coordinates":[-122.26328,37.834776]}},{"properties":{"geo_score":0.714,"zip_code":"94610","id":"a68qm2p2bn0r","geo_precision":"zip","frequency":7},"type":"Feature","geometry":{"type":"Point","coordinates":[-122.238779,37.811277]}},{"properties":{"geo_score":0.714,"zip_code":"94611","id":"a68qm2l6nnbi","geo_precision":"zip","frequency":4},"type":"Feature","geometry":{"type":"Point","coordinates":[-122.231635,37.824372]}},{"properties":{"geo_score":0.714,"zip_code":"94616","id":"a68qm2picmjx","geo_precision":"zip","frequency":1},"type":"Feature","geometry":{"type":"Point","coordinates":[-122.270803,37.804372]}},{"properties":{"geo_score":0.714,"zip_code":"94618","id":"a68qm2xv35fl","geo_precision":"zip","frequency":6},"type":"Feature","geometry":{"type":"Point","coordinates":[-122.240179,37.843126]}},{"properties":{"geo_score":0.714,"zip_code":"94619","id":"a68qm2onegxm","geo_precision":"zip","frequency":1},"type":"Feature","geometry":{"type":"Point","coordinates":[-122.167126,37.783877]}},{"properties":{"geo_score":0.714,"zip_code":"94702","id":"a68qm2k68sm1","geo_precision":"zip","frequency":5},"type":"Feature","geometry":{"type":"Point","coordinates":[-122.28713,37.864425]}},{"properties":{"geo_score":0.714,"zip_code":"94703","id":"a68qm2rxgga6","geo_precision":"zip","frequency":9},"type":"Feature","geometry":{"type":"Point","coordinates":[-122.27573,37.865725]}},{"properties":{"geo_score":0.714,"zip_code":"94704","id":"a68qm2kkb9m5","geo_precision":"zip","frequency":9},"type":"Feature","geometry":{"type":"Point","coordinates":[-122.256729,37.866975]}},{"properties":{"geo_score":0.714,"zip_code":"94705","id":"a68qm2lyp9tt","geo_precision":"zip","frequency":8},"type":"Feature","geometry":{"type":"Point","coordinates":[-122.242029,37.85983]}},{"properties":{"geo_score":0.714,"zip_code":"94706","id":"a68qm2jjwr14","geo_precision":"zip","frequency":6},"type":"Feature","geometry":{"type":"Point","coordinates":[-122.29828,37.889525]}},{"properties":{"geo_score":0.714,"zip_code":"94707","id":"a68qm2motpbn","geo_precision":"zip","frequency":1},"type":"Feature","geometry":{"type":"Point","coordinates":[-122.280247,37.910481]}},{"properties":{"geo_score":0.714,"zip_code":"94708","id":"a68qm2qjfgl0","geo_precision":"zip","frequency":3},"type":"Feature","geometry":{"type":"Point","coordinates":[-122.260429,37.891825]}},{"properties":{"geo_score":0.714,"zip_code":"94709","id":"a68qm2mk850m","geo_precision":"zip","frequency":8},"type":"Feature","geometry":{"type":"Point","coordinates":[-122.26553,37.879825]}},{"properties":{"geo_score":0.714,"zip_code":"94710","id":"a68qm2xf4gp4","geo_precision":"zip","frequency":1},"type":"Feature","geometry":{"type":"Point","coordinates":[-122.30273,37.873366]}},{"properties":{"geo_score":0.714,"zip_code":"94720","id":"a68qm2rywss4","geo_precision":"zip","frequency":4},"type":"Feature","geometry":{"type":"Point","coordinates":[-122.253582,37.866825]}},{"properties":{"geo_score":0.714,"zip_code":"94901","id":"a68qm2qg8dhr","geo_precision":"zip","frequency":2},"type":"Feature","geometry":{"type":"Point","coordinates":[-122.504286,37.970948]}},{"properties":{"geo_score":0.714,"zip_code":"94928","id":"a68qm2hrwffm","geo_precision":"zip","frequency":2},"type":"Feature","geometry":{"type":"Point","coordinates":[-122.698398,38.345663]}},{"properties":{"geo_score":0.714,"zip_code":"94931","id":"a68qm2liajkt","geo_precision":"zip","frequency":1},"type":"Feature","geometry":{"type":"Point","coordinates":[-122.710565,38.323614]}},{"properties":{"geo_score":0.714,"zip_code":"95003","id":"a68qm2qhzcnq","geo_precision":"zip","frequency":3},"type":"Feature","geometry":{"type":"Point","coordinates":[-121.900235,36.968284]}},{"properties":{"geo_score":0.714,"zip_code":"95005","id":"a68qm2tq6jvt","geo_precision":"zip","frequency":2},"type":"Feature","geometry":{"type":"Point","coordinates":[-122.082186,37.074392]}},{"properties":{"geo_score":0.714,"zip_code":"95014","id":"a68qm2odtagh","geo_precision":"zip","frequency":1},"type":"Feature","geometry":{"type":"Point","coordinates":[-122.003015,37.314942]}},{"properties":{"geo_score":0.714,"zip_code":"95032","id":"a68qm2mtjoct","geo_precision":"zip","frequency":5},"type":"Feature","geometry":{"type":"Point","coordinates":[-121.66186,37.070923]}},{"properties":{"geo_score":0.714,"zip_code":"95050","id":"a68qm2v1qg5h","geo_precision":"zip","frequency":1},"type":"Feature","geometry":{"type":"Point","coordinates":[-121.705327,37.189396]}},{"properties":{"geo_score":0.714,"zip_code":"95054","id":"a68qm2oiajm1","geo_precision":"zip","frequency":1},"type":"Feature","geometry":{"type":"Point","coordinates":[-121.959125,37.394663]}},{"properties":{"geo_score":0.714,"zip_code":"95060","id":"a68qm2w6zu8o","geo_precision":"zip","frequency":2},"type":"Feature","geometry":{"type":"Point","coordinates":[-122.043575,37.010227]}},{"properties":{"geo_score":0.714,"zip_code":"95062","id":"a68qm2xuvrsl","geo_precision":"zip","frequency":2},"type":"Feature","geometry":{"type":"Point","coordinates":[-121.998017,36.967451]}},{"properties":{"geo_score":0.714,"zip_code":"95070","id":"a68qm2j81fg7","geo_precision":"zip","frequency":1},"type":"Feature","geometry":{"type":"Point","coordinates":[-122.00857,37.275777]}},{"properties":{"geo_score":0.714,"zip_code":"95110","id":"a68qm2j3og9l","geo_precision":"zip","frequency":1},"type":"Feature","geometry":{"type":"Point","coordinates":[-121.705327,37.189396]}},{"properties":{"geo_score":0.714,"zip_code":"95113","id":"a68qm2mmn0wa","geo_precision":"zip","frequency":1},"type":"Feature","geometry":{"type":"Point","coordinates":[-121.705327,37.189396]}},{"properties":{"geo_score":0.714,"zip_code":"95118","id":"a68qm2wxim8m","geo_precision":"zip","frequency":1},"type":"Feature","geometry":{"type":"Point","coordinates":[-121.876343,37.263277]}},{"properties":{"geo_score":0.714,"zip_code":"95125","id":"a68qm2ms7pz1","geo_precision":"zip","frequency":2},"type":"Feature","geometry":{"type":"Point","coordinates":[-121.705327,37.189396]}},{"properties":{"geo_score":0.714,"zip_code":"95126","id":"a68qm2mp44t1","geo_precision":"zip","frequency":1},"type":"Feature","geometry":{"type":"Point","coordinates":[-121.705327,37.189396]}},{"properties":{"geo_score":0.714,"zip_code":"95128","id":"a68qm2ocxrp0","geo_precision":"zip","frequency":1},"type":"Feature","geometry":{"type":"Point","coordinates":[-121.93079,37.321053]}},{"properties":{"geo_score":0.714,"zip_code":"95351","id":"a68qm2pzs02x","geo_precision":"zip","frequency":1},"type":"Feature","geometry":{"type":"Point","coordinates":[-121.03914,37.617539]}},{"properties":{"geo_score":0.714,"zip_code":"95355","id":"a68qm2tkm23h","geo_precision":"zip","frequency":1},"type":"Feature","geometry":{"type":"Point","coordinates":[-120.948033,37.685879]}},{"properties":{"geo_score":0.714,"zip_code":"95403","id":"a68qm2we17gi","geo_precision":"zip","frequency":1},"type":"Feature","geometry":{"type":"Point","coordinates":[-122.749005,38.498114]}},{"properties":{"geo_score":0.714,"zip_code":"95404","id":"a68qm2l24twt","geo_precision":"zip","frequency":2},"type":"Feature","geometry":{"type":"Point","coordinates":[-122.656296,38.452642]}},{"properties":{"geo_score":0.714,"zip_code":"95426","id":"a68qm2xla786","geo_precision":"zip","frequency":1},"type":"Feature","geometry":{"type":"Point","coordinates":[-122.731101,38.828237]}},{"properties":{"geo_score":0.714,"zip_code":"95472","id":"a68qm2jtdi1x","geo_precision":"zip","frequency":4},"type":"Feature","geometry":{"type":"Point","coordinates":[-122.777768,38.362414]}},{"properties":{"geo_score":0.714,"zip_code":"95521","id":"a68qm2sxy9mr","geo_precision":"zip","frequency":1},"type":"Feature","geometry":{"type":"Point","coordinates":[-124.06645,40.858184]}},{"properties":{"geo_score":0.714,"zip_code":"95608","id":"a68qm2koidnl","geo_precision":"zip","frequency":1},"type":"Feature","geometry":{"type":"Point","coordinates":[-121.332191,38.62136]}},{"properties":{"geo_score":0.714,"zip_code":"95616","id":"a68qm2it1pl0","geo_precision":"zip","frequency":2},"type":"Feature","geometry":{"type":"Point","coordinates":[-121.749016,38.521776]}},{"properties":{"geo_score":0.714,"zip_code":"95618","id":"a68qm2j5a9sh","geo_precision":"zip","frequency":3},"type":"Feature","geometry":{"type":"Point","coordinates":[-121.685904,38.54431]}},{"properties":{"geo_score":0.714,"zip_code":"95661","id":"a68qm2k6rax4","geo_precision":"zip","frequency":1},"type":"Feature","geometry":{"type":"Point","coordinates":[-121.25603,38.74073]}},{"properties":{"geo_score":0.714,"zip_code":"95776","id":"a68qm2ior10d","geo_precision":"zip","frequency":1},"type":"Feature","geometry":{"type":"Point","coordinates":[-121.709713,38.695895]}},{"properties":{"geo_score":0.714,"zip_code":"95816","id":"a68qm2kz13vy","geo_precision":"zip","frequency":1},"type":"Feature","geometry":{"type":"Point","coordinates":[-121.467549,38.571505]}},{"properties":{"geo_score":0.714,"zip_code":"95817","id":"a68qm2n59hel","geo_precision":"zip","frequency":1},"type":"Feature","geometry":{"type":"Point","coordinates":[-121.471066,38.551295]}},{"properties":{"geo_score":0.714,"zip_code":"95819","id":"a68qm2xxv70f","geo_precision":"zip","frequency":3},"type":"Feature","geometry":{"type":"Point","coordinates":[-121.440764,38.568305]}},{"properties":{"geo_score":0.714,"zip_code":"95822","id":"a68qm2k22oe1","geo_precision":"zip","frequency":1},"type":"Feature","geometry":{"type":"Point","coordinates":[-121.497716,38.511356]}},{"properties":{"geo_score":0.714,"zip_code":"97122","id":"a68qm2wkb7mz","geo_precision":"zip","frequency":1},"type":"Feature","geometry":{"type":"Point","coordinates":[-123.846,45.176795]}}],"is_temporal":false,"author":{"url":"","metadata":"","contact_name":"","contact_address":"","source":"","contact_phone":""},"source":"","pagination":{"sort":null,"start":0,"total":127,"limit":1000000},"state":"complete","tags":"","published":"2014-08-14T22:46:52-04:00","id":226421}