{"type":"FeatureCollection","data_type":"Dataset","url_type":null,"permissions":[{"permissions":{"download":true,"view":true},"group_id":"everyone"}],"classification":null,"title":"Walmart CEDIs","count":7,"stream_id":22687,"contributor":{"url":"http://geocommons.com/users/6861","name":"pbiegen"},"data_attributes":null,"calculation_params":null,"icon_link":null,"link":"http://geocommons.com/overlays/22687.json","extent":[-107.394,17.9981,-92.9032,25.6708],"geometry_types":["point"],"unique_name":null,"name":"Walmart CEDIs","feature_count":7,"description":"","next_feature":null,"is_raster":false,"short_classification":"Y","stats":{"latitude":{"max":25.67084,"mean":21.0582364285714,"variance":8.77300722948928,"stdev":2.96192627009676,"min":17.99811,"median":19.668075},"longitude":{"max":-92.903219,"mean":-100.152885428571,"variance":19.6007907633059,"stdev":4.427278030947,"min":-107.394454,"median":-99.196894}},"features":[{"properties":{"city":"Santa Barbara Azcapotzalco","name":null,"latitude":19.484595,"weight":null,"longitude":-99.196894,"id":"a64fw3nfowvg","state":"DF, MX"},"type":"Feature","geometry":{"type":"Point","coordinates":[-99.196894,19.484595]}},{"properties":{"city":"Cuautitlan","name":null,"latitude":19.668075,"weight":null,"longitude":-99.180884,"id":"a64fw3ukfpvj","state":"MX"},"type":"Feature","geometry":{"type":"Point","coordinates":[-99.180884,19.668075]}},{"properties":{"city":"Monterrey","name":null,"latitude":25.67084,"weight":null,"longitude":-100.309534,"id":"a64fw40wm70l","state":"MX"},"type":"Feature","geometry":{"type":"Point","coordinates":[-100.309534,25.67084]}},{"properties":{"city":"Culiacan","name":null,"latitude":24.807645,"weight":null,"longitude":-107.394454,"id":"a64fw41i1ndx","state":"MX"},"type":"Feature","geometry":{"type":"Point","coordinates":[-107.394454,24.807645]}},{"properties":{"city":"El Salto, Jalisco","name":null,"latitude":20.520575,"weight":null,"longitude":-103.180399,"id":"a64fw3vmvcs9","state":"MX"},"type":"Feature","geometry":{"type":"Point","coordinates":[-103.180399,20.520575]}},{"properties":{"city":"Chalco","name":null,"latitude":19.257815,"weight":null,"longitude":-98.904814,"id":"a64fw3mg6bge","state":"Mexico, MX"},"type":"Feature","geometry":{"type":"Point","coordinates":[-98.904814,19.257815]}},{"properties":{"city":"Villahermosa","name":null,"latitude":17.99811,"weight":null,"longitude":-92.903219,"id":"a64fw3yv2nme","state":"Tabasco, MX"},"type":"Feature","geometry":{"type":"Point","coordinates":[-92.903219,17.99811]}}],"is_temporal":false,"author":{"url":"","metadata":"","contact_name":"","contact_address":"","source":"","contact_phone":""},"source":"","pagination":{"sort":null,"start":0,"total":7,"limit":1000000},"state":"complete","tags":"","published":"2014-08-10T15:00:06-04:00","id":22687}