{"type":"FeatureCollection","data_type":"Dataset","url_type":null,"permissions":[{"permissions":{"download":true,"view":true},"group_id":"everyone"}],"classification":null,"title":"VV Individual Delivery Destinations Mexico","count":127,"stream_id":22697,"contributor":{"url":"http://geocommons.com/users/6861","name":"pbiegen"},"data_attributes":null,"calculation_params":null,"icon_link":null,"link":"http://geocommons.com/overlays/22697.json","extent":[-117.07,15.0667,-91.9879,32.5077],"geometry_types":["point"],"unique_name":null,"name":"VV Individual Delivery Destinations Mexico","feature_count":127,"description":"","next_feature":null,"is_raster":false,"short_classification":"Y","stats":{"latitude":{"max":32.507735,"mean":22.9861349685039,"variance":14.6387345677084,"stdev":3.82605992735457,"min":15.0667,"median":22.0082},"longitude":{"max":-91.987949,"mean":-103.914925535433,"variance":23.6125662691006,"stdev":4.85927631125259,"min":-117.070059,"median":-103.306979}},"features":[{"properties":{"city":"Calvillo","name":null,"latitude":21.846285,"weight":null,"longitude":-102.714189,"id":"a66sh3mygc9x","state":"Aguascalientes, MX"},"type":"Feature","geometry":{"type":"Point","coordinates":[-102.714189,21.846285]}},{"properties":{"city":"Pabellon de Arteaga","name":null,"latitude":22.146609,"weight":null,"longitude":-102.279628,"id":"a66sh3jvi5ti","state":"Aguascalientes, MX"},"type":"Feature","geometry":{"type":"Point","coordinates":[-102.279628,22.146609]}},{"properties":{"city":"Rincon de Romos","name":null,"latitude":22.22815,"weight":null,"longitude":-102.320719,"id":"a66sh38pa8y5","state":"Aguascalientes, MX"},"type":"Feature","geometry":{"type":"Point","coordinates":[-102.320719,22.22815]}},{"properties":{"city":"Loreto","name":null,"latitude":26.00954,"weight":null,"longitude":-111.350934,"id":"a66sh3jxx73q","state":"Baja California Sur, MX"},"type":"Feature","geometry":{"type":"Point","coordinates":[-111.350934,26.00954]}},{"properties":{"city":"Santa Rosalia","name":null,"latitude":20.547885,"weight":null,"longitude":-103.306979,"id":"a66sh38ivvt0","state":"Baja California Sur, MX"},"type":"Feature","geometry":{"type":"Point","coordinates":[-103.306979,20.547885]}},{"properties":{"city":"Todos Santos","name":null,"latitude":23.450932,"weight":null,"longitude":-110.226273,"id":"a66sh3mfpc5m","state":"Baja California Sur, MX"},"type":"Feature","geometry":{"type":"Point","coordinates":[-110.226273,23.450932]}},{"properties":{"city":"Cabo San Lucas","name":null,"latitude":22.88822,"weight":null,"longitude":-109.919219,"id":"a66sh39hz5m2","state":"Baja California Sur, MX"},"type":"Feature","geometry":{"type":"Point","coordinates":[-109.919219,22.88822]}},{"properties":{"city":"Ciudad Constitucion","name":null,"latitude":25.036355,"weight":null,"longitude":-111.663024,"id":"a66sh3m6ii6v","state":"Baja California Sur, MX"},"type":"Feature","geometry":{"type":"Point","coordinates":[-111.663024,25.036355]}},{"properties":{"city":"Guerrero Negro","name":null,"latitude":27.969385,"weight":null,"longitude":-114.041624,"id":"a66sh3cq423v","state":"Baja California Sur, MX"},"type":"Feature","geometry":{"type":"Point","coordinates":[-114.041624,27.969385]}},{"properties":{"city":"La Paz","name":null,"latitude":24.153985,"weight":null,"longitude":-110.309239,"id":"a66sh3i3xh3v","state":"Baja California Sur, MX"},"type":"Feature","geometry":{"type":"Point","coordinates":[-110.309239,24.153985]}},{"properties":{"city":"San Jose del Cabo","name":null,"latitude":23.076925,"weight":null,"longitude":-109.708774,"id":"a66sh3a2p7i0","state":"Baja California Sur, MX"},"type":"Feature","geometry":{"type":"Point","coordinates":[-109.708774,23.076925]}},{"properties":{"city":"Santa Rosalita","name":null,"latitude":20.547885,"weight":null,"longitude":-103.306979,"id":"a66sh3hhglvh","state":"Baja California, MX"},"type":"Feature","geometry":{"type":"Point","coordinates":[-103.306979,20.547885]}},{"properties":{"city":"Punta Blanco","name":null,"latitude":20.548995,"weight":null,"longitude":-103.304629,"id":"a66sh39nftpd","state":"Baja California, MX"},"type":"Feature","geometry":{"type":"Point","coordinates":[-103.304629,20.548995]}},{"properties":{"city":"Bahia de los Angeles","name":null,"latitude":32.507735,"weight":null,"longitude":-116.974624,"id":"a66sh3hd935z","state":"Baja California, MX"},"type":"Feature","geometry":{"type":"Point","coordinates":[-116.974624,32.507735]}},{"properties":{"city":"Rancho Nuevo","name":null,"latitude":15.0667,"weight":null,"longitude":-92.516701,"id":"a66sh3ii1bqf","state":"Chiapas, MX"},"type":"Feature","geometry":{"type":"Point","coordinates":[-92.516701,15.0667]}},{"properties":{"city":"San Cristobal de las Casas","name":null,"latitude":16.73149,"weight":null,"longitude":-92.642049,"id":"a66sh3k6heb6","state":"Chiapas, MX"},"type":"Feature","geometry":{"type":"Point","coordinates":[-92.642049,16.73149]}},{"properties":{"city":"Tuxpan Gutierrez","name":null,"latitude":16.77874,"weight":null,"longitude":-93.107754,"id":"a66sh3ctwg8r","state":"Chiapas, MX"},"type":"Feature","geometry":{"type":"Point","coordinates":[-93.107754,16.77874]}},{"properties":{"city":"Porvernir Agrarista","name":null,"latitude":16.722099,"weight":null,"longitude":-93.01828,"id":"a66sh3agjq21","state":"Chiapas, MX"},"type":"Feature","geometry":{"type":"Point","coordinates":[-93.01828,16.722099]}},{"properties":{"city":"Playa Vista","name":null,"latitude":16.722099,"weight":null,"longitude":-93.01828,"id":"a66sh3b0ol3d","state":"Chiapas, MX"},"type":"Feature","geometry":{"type":"Point","coordinates":[-93.01828,16.722099]}},{"properties":{"city":"Agua Azul","name":null,"latitude":16.787185,"weight":null,"longitude":-93.098299,"id":"a66sh36u7vzg","state":"Chiapas, MX"},"type":"Feature","geometry":{"type":"Point","coordinates":[-93.098299,16.787185]}},{"properties":{"city":"Bautista","name":null,"latitude":16.722099,"weight":null,"longitude":-93.01828,"id":"a66sh3kkmopi","state":"Chiapas, MX"},"type":"Feature","geometry":{"type":"Point","coordinates":[-93.01828,16.722099]}},{"properties":{"city":"Palenque","name":null,"latitude":17.522145,"weight":null,"longitude":-91.987949,"id":"a66sh3d5wxs3","state":"Chiapas, MX"},"type":"Feature","geometry":{"type":"Point","coordinates":[-91.987949,17.522145]}},{"properties":{"city":"Jimenez","name":null,"latitude":28.605955,"weight":null,"longitude":-106.088724,"id":"a66sh3lorf57","state":"Chiuahua, MX"},"type":"Feature","geometry":{"type":"Point","coordinates":[-106.088724,28.605955]}},{"properties":{"city":"Delicias","name":null,"latitude":28.652717,"weight":null,"longitude":-106.10046,"id":"a66sh39lbpmd","state":"Chiuahua, MX"},"type":"Feature","geometry":{"type":"Point","coordinates":[-106.10046,28.652717]}},{"properties":{"city":"Ojinaga","name":null,"latitude":28.60006,"weight":null,"longitude":-106.016944,"id":"a66sh3831hbm","state":"Chiuahua, MX"},"type":"Feature","geometry":{"type":"Point","coordinates":[-106.016944,28.60006]}},{"properties":{"city":"Hidalgo del Parral","name":null,"latitude":28.707905,"weight":null,"longitude":-106.131049,"id":"a66sh3fqt2d1","state":"Chiuahua, MX"},"type":"Feature","geometry":{"type":"Point","coordinates":[-106.131049,28.707905]}},{"properties":{"city":"Juarez","name":null,"latitude":28.644315,"weight":null,"longitude":-106.069824,"id":"a66sh3a6x487","state":"Chiuahua, MX"},"type":"Feature","geometry":{"type":"Point","coordinates":[-106.069824,28.644315]}},{"properties":{"city":"Camargo","name":null,"latitude":28.65186,"weight":null,"longitude":-106.040364,"id":"a66sh39e0vxr","state":"Chiuahua, MX"},"type":"Feature","geometry":{"type":"Point","coordinates":[-106.040364,28.65186]}},{"properties":{"city":"Cuauhtemoc","name":null,"latitude":28.612765,"weight":null,"longitude":-106.059949,"id":"a66sh382i24j","state":"Chiuahua, MX"},"type":"Feature","geometry":{"type":"Point","coordinates":[-106.059949,28.612765]}},{"properties":{"city":"Chihuahua","name":null,"latitude":28.630475,"weight":null,"longitude":-106.093814,"id":"a66sh36rh8es","state":"Chiuahua, MX"},"type":"Feature","geometry":{"type":"Point","coordinates":[-106.093814,28.630475]}},{"properties":{"city":"Nuevo Casas Grandes","name":null,"latitude":28.68001,"weight":null,"longitude":-106.108244,"id":"a66sh3c5wiq1","state":"Chiuahua, MX"},"type":"Feature","geometry":{"type":"Point","coordinates":[-106.108244,28.68001]}},{"properties":{"city":"Villa de Alvarez","name":null,"latitude":19.26475,"weight":null,"longitude":-103.738029,"id":"a66sh3exmpmv","state":"Colima, MX"},"type":"Feature","geometry":{"type":"Point","coordinates":[-103.738029,19.26475]}},{"properties":{"city":"Colima","name":null,"latitude":19.240625,"weight":null,"longitude":-103.724019,"id":"a66sh3jm2cwj","state":"Colima, MX"},"type":"Feature","geometry":{"type":"Point","coordinates":[-103.724019,19.240625]}},{"properties":{"city":"Armeria","name":null,"latitude":18.936745,"weight":null,"longitude":-103.963244,"id":"a66sh3mgwsc0","state":"Colima, MX"},"type":"Feature","geometry":{"type":"Point","coordinates":[-103.963244,18.936745]}},{"properties":{"city":"Tecoman","name":null,"latitude":18.939898,"weight":null,"longitude":-103.933023,"id":"a66sh36wo21e","state":"Colima, MX"},"type":"Feature","geometry":{"type":"Point","coordinates":[-103.933023,18.939898]}},{"properties":{"city":"Manzanillo","name":null,"latitude":19.08504,"weight":null,"longitude":-104.308899,"id":"a66sh37gu4si","state":"Colima, MX"},"type":"Feature","geometry":{"type":"Point","coordinates":[-104.308899,19.08504]}},{"properties":{"city":"Durango","name":null,"latitude":24.00653,"weight":null,"longitude":-104.681204,"id":"a66sh3frjszm","state":"Durango, MX"},"type":"Feature","geometry":{"type":"Point","coordinates":[-104.681204,24.00653]}},{"properties":{"city":"El salto","name":null,"latitude":23.779024,"weight":null,"longitude":-105.362204,"id":"a66sh3hbyi9f","state":"Durango, MX"},"type":"Feature","geometry":{"type":"Point","coordinates":[-105.362204,23.779024]}},{"properties":{"city":"Gomez Palacio","name":null,"latitude":25.57851,"weight":null,"longitude":-103.487489,"id":"a66sh3fr94wv","state":"Durango, MX"},"type":"Feature","geometry":{"type":"Point","coordinates":[-103.487489,25.57851]}},{"properties":{"city":"Guadalupe Victoria","name":null,"latitude":24.434925,"weight":null,"longitude":-104.117299,"id":"a66sh3kmp9kx","state":"Durango, MX"},"type":"Feature","geometry":{"type":"Point","coordinates":[-104.117299,24.434925]}},{"properties":{"city":"Santa Catarina de Tepehuanes","name":null,"latitude":25.341253,"weight":null,"longitude":-105.725066,"id":"a66sh3by15v5","state":"Durango, MX"},"type":"Feature","geometry":{"type":"Point","coordinates":[-105.725066,25.341253]}},{"properties":{"city":"Santiago Papasquiaro","name":null,"latitude":25.059965,"weight":null,"longitude":-105.425859,"id":"a66sh3emkojs","state":"Durango, MX"},"type":"Feature","geometry":{"type":"Point","coordinates":[-105.425859,25.059965]}},{"properties":{"city":"Sombrerete","name":null,"latitude":24.00653,"weight":null,"longitude":-104.681204,"id":"a66sh39z2dgj","state":"Durango, MX"},"type":"Feature","geometry":{"type":"Point","coordinates":[-104.681204,24.00653]}},{"properties":{"city":"Dolores Hidalgo","name":null,"latitude":21.14836,"weight":null,"longitude":-100.918794,"id":"a66sh3i21jai","state":"Guanajuato, MX"},"type":"Feature","geometry":{"type":"Point","coordinates":[-100.918794,21.14836]}},{"properties":{"city":"Acamparo","name":null,"latitude":20.550755,"weight":null,"longitude":-100.810539,"id":"a66sh3a6h1eh","state":"Guanajuato, MX"},"type":"Feature","geometry":{"type":"Point","coordinates":[-100.810539,20.550755]}},{"properties":{"city":"Celaya","name":null,"latitude":20.517205,"weight":null,"longitude":-100.854227,"id":"a66sh3dq78hj","state":"Guanajuato, MX"},"type":"Feature","geometry":{"type":"Point","coordinates":[-100.854227,20.517205]}},{"properties":{"city":"Cortazar","name":null,"latitude":20.48474,"weight":null,"longitude":-100.962824,"id":"a66sh3ktr1ga","state":"Guanajuato, MX"},"type":"Feature","geometry":{"type":"Point","coordinates":[-100.962824,20.48474]}},{"properties":{"city":"San Felipe","name":null,"latitude":21.482355,"weight":null,"longitude":-101.217099,"id":"a66sh3giurdq","state":"Guanajuato, MX"},"type":"Feature","geometry":{"type":"Point","coordinates":[-101.217099,21.482355]}},{"properties":{"city":"Guanajuato","name":null,"latitude":21.018415,"weight":null,"longitude":-101.259119,"id":"a66sh3f6zlfu","state":"Guanajuato, MX"},"type":"Feature","geometry":{"type":"Point","coordinates":[-101.259119,21.018415]}},{"properties":{"city":"Irapuato","name":null,"latitude":20.659015,"weight":null,"longitude":-101.345654,"id":"a66sh3fb62jz","state":"Guanajuato, MX"},"type":"Feature","geometry":{"type":"Point","coordinates":[-101.345654,20.659015]}},{"properties":{"city":"Villagran","name":null,"latitude":20.51089,"weight":null,"longitude":-100.998189,"id":"a66sh38v776d","state":"Guanajuato, MX"},"type":"Feature","geometry":{"type":"Point","coordinates":[-100.998189,20.51089]}},{"properties":{"city":"Leon","name":null,"latitude":21.12124,"weight":null,"longitude":-101.682869,"id":"a66sh3l6pvkh","state":"Guanajuato, MX"},"type":"Feature","geometry":{"type":"Point","coordinates":[-101.682869,21.12124]}},{"properties":{"city":"Salamanca","name":null,"latitude":20.553983,"weight":null,"longitude":-101.219084,"id":"a66sh3kd569q","state":"Guanajuato, MX"},"type":"Feature","geometry":{"type":"Point","coordinates":[-101.219084,20.553983]}},{"properties":{"city":"Salvaterra","name":null,"latitude":21.160735,"weight":null,"longitude":-100.927459,"id":"a66sh3eqglal","state":"Guanajuato, MX"},"type":"Feature","geometry":{"type":"Point","coordinates":[-100.927459,21.160735]}},{"properties":{"city":"San Francisco del Rincon","name":null,"latitude":21.020165,"weight":null,"longitude":-101.856159,"id":"a66sh3ead7zj","state":"Guanajuato, MX"},"type":"Feature","geometry":{"type":"Point","coordinates":[-101.856159,21.020165]}},{"properties":{"city":"San Miguel de Allende","name":null,"latitude":20.911225,"weight":null,"longitude":-100.743134,"id":"a66sh3dommpx","state":"Guanajuato, MX"},"type":"Feature","geometry":{"type":"Point","coordinates":[-100.743134,20.911225]}},{"properties":{"city":"Silao","name":null,"latitude":20.9434,"weight":null,"longitude":-101.424499,"id":"a66sh3fmzttj","state":"Guanajuato, MX"},"type":"Feature","geometry":{"type":"Point","coordinates":[-101.424499,20.9434]}},{"properties":{"city":"Valle de Santiago","name":null,"latitude":20.389705,"weight":null,"longitude":-101.193659,"id":"a66sh3f6jv4d","state":"Guanajuato, MX"},"type":"Feature","geometry":{"type":"Point","coordinates":[-101.193659,20.389705]}},{"properties":{"city":"La Piedad","name":null,"latitude":20.943265,"weight":null,"longitude":-101.430869,"id":"a66sh3b11j2z","state":"Guanajuato, MX"},"type":"Feature","geometry":{"type":"Point","coordinates":[-101.430869,20.943265]}},{"properties":{"city":"Autlan de Navarro","name":null,"latitude":19.773405,"weight":null,"longitude":-104.366149,"id":"a66sh3ek3xap","state":"Jalisco, MX"},"type":"Feature","geometry":{"type":"Point","coordinates":[-104.366149,19.773405]}},{"properties":{"city":"Encarnacion 5 de Diaz","name":null,"latitude":20.837681,"weight":null,"longitude":-103.605629,"id":"a66sh3fcim54","state":"Jalisco, MX"},"type":"Feature","geometry":{"type":"Point","coordinates":[-103.605629,20.837681]}},{"properties":{"city":"Lagos de Moreno","name":null,"latitude":21.356565,"weight":null,"longitude":-101.933609,"id":"a66sh37p06x5","state":"Jalisco, MX"},"type":"Feature","geometry":{"type":"Point","coordinates":[-101.933609,21.356565]}},{"properties":{"city":"Ocotlan","name":null,"latitude":20.377385,"weight":null,"longitude":-102.762024,"id":"a66sh3cuxm8v","state":"Jalisco, MX"},"type":"Feature","geometry":{"type":"Point","coordinates":[-102.762024,20.377385]}},{"properties":{"city":"Tepatitlan","name":null,"latitude":20.72974,"weight":null,"longitude":-101.374409,"id":"a66sh3mzruhd","state":"Jalisco, MX"},"type":"Feature","geometry":{"type":"Point","coordinates":[-101.374409,20.72974]}},{"properties":{"city":"San Juan de los Lagos","name":null,"latitude":21.24349,"weight":null,"longitude":-102.333174,"id":"a66sh3ho6o37","state":"Jalisco, MX"},"type":"Feature","geometry":{"type":"Point","coordinates":[-102.333174,21.24349]}},{"properties":{"city":"Zacatecas","name":null,"latitude":22.772182,"weight":null,"longitude":-102.573763,"id":"a66sh3egsfv6","state":"MX"},"type":"Feature","geometry":{"type":"Point","coordinates":[-102.573763,22.772182]}},{"properties":{"city":"Tlaltenango de Sanchez","name":null,"latitude":21.779335,"weight":null,"longitude":-103.295669,"id":"a66sh39q6ucr","state":"MX"},"type":"Feature","geometry":{"type":"Point","coordinates":[-103.295669,21.779335]}},{"properties":{"city":"Ciudad Lazaro Cardenas","name":null,"latitude":17.961439,"weight":null,"longitude":-102.206261,"id":"a66sh3b10sz3","state":"Michoacan, MX"},"type":"Feature","geometry":{"type":"Point","coordinates":[-102.206261,17.961439]}},{"properties":{"city":"Jacona de Plancarte","name":null,"latitude":19.941601,"weight":null,"longitude":-102.330681,"id":"a66sh3d62mv0","state":"Michoacan, MX"},"type":"Feature","geometry":{"type":"Point","coordinates":[-102.330681,19.941601]}},{"properties":{"city":"Jiquilpan de Juarez","name":null,"latitude":19.99158,"weight":null,"longitude":-102.717359,"id":"a66sh3i4mlgd","state":"Michoacan, MX"},"type":"Feature","geometry":{"type":"Point","coordinates":[-102.717359,19.99158]}},{"properties":{"city":"Los Reyes Salgado","name":null,"latitude":19.589905,"weight":null,"longitude":-102.474504,"id":"a66sh3bevam1","state":"Michoacan, MX"},"type":"Feature","geometry":{"type":"Point","coordinates":[-102.474504,19.589905]}},{"properties":{"city":"Morelia","name":null,"latitude":19.70292,"weight":null,"longitude":-101.193649,"id":"a66sh3ejkqej","state":"Michoacan, MX"},"type":"Feature","geometry":{"type":"Point","coordinates":[-101.193649,19.70292]}},{"properties":{"city":"Ciudad Hidalgo","name":null,"latitude":19.691845,"weight":null,"longitude":-100.550989,"id":"a66sh3iokbo5","state":"Michoacan, MX"},"type":"Feature","geometry":{"type":"Point","coordinates":[-100.550989,19.691845]}},{"properties":{"city":"Patzcuaro","name":null,"latitude":19.49382,"weight":null,"longitude":-101.602179,"id":"a66sh3iawnq6","state":"Michoacan, MX"},"type":"Feature","geometry":{"type":"Point","coordinates":[-101.602179,19.49382]}},{"properties":{"city":"Sahuayo","name":null,"latitude":20.058415,"weight":null,"longitude":-102.716329,"id":"a66sh36smcvb","state":"Michoacan, MX"},"type":"Feature","geometry":{"type":"Point","coordinates":[-102.716329,20.058415]}},{"properties":{"city":"Uruapan","name":null,"latitude":19.41444,"weight":null,"longitude":-102.046494,"id":"a66sh3bz01mw","state":"Michoacan, MX"},"type":"Feature","geometry":{"type":"Point","coordinates":[-102.046494,19.41444]}},{"properties":{"city":"Zacapu","name":null,"latitude":19.794795,"weight":null,"longitude":-101.787239,"id":"a66sh36vcxv1","state":"Michoacan, MX"},"type":"Feature","geometry":{"type":"Point","coordinates":[-101.787239,19.794795]}},{"properties":{"city":"Zamora","name":null,"latitude":19.989055,"weight":null,"longitude":-102.282409,"id":"a66sh3d9x5c0","state":"Michoacan, MX"},"type":"Feature","geometry":{"type":"Point","coordinates":[-102.282409,19.989055]}},{"properties":{"city":"Zitacuaro","name":null,"latitude":19.43182,"weight":null,"longitude":-100.355184,"id":"a66sh391vrzv","state":"Michoacan, MX"},"type":"Feature","geometry":{"type":"Point","coordinates":[-100.355184,19.43182]}},{"properties":{"city":"Nueva Italia","name":null,"latitude":32.500445,"weight":null,"longitude":-117.070059,"id":"a66sh3j3jkmc","state":"Michoacan, MX"},"type":"Feature","geometry":{"type":"Point","coordinates":[-117.070059,32.500445]}},{"properties":{"city":"Apatzingan","name":null,"latitude":19.05817,"weight":null,"longitude":-102.329599,"id":"a66sh3byemb1","state":"Michoacan, MX"},"type":"Feature","geometry":{"type":"Point","coordinates":[-102.329599,19.05817]}},{"properties":{"city":"Ixtlan del Rio","name":null,"latitude":21.036325,"weight":null,"longitude":-104.368803,"id":"a66sh3iaww7l","state":"Nayarit, MX"},"type":"Feature","geometry":{"type":"Point","coordinates":[-104.368803,21.036325]}},{"properties":{"city":"Las Varas","name":null,"latitude":24.76919,"weight":null,"longitude":-107.692969,"id":"a66sh3apz26d","state":"Nayarit, MX"},"type":"Feature","geometry":{"type":"Point","coordinates":[-107.692969,24.76919]}},{"properties":{"city":"Rosamorada","name":null,"latitude":22.120455,"weight":null,"longitude":-105.206869,"id":"a66sh3klf1m2","state":"Nayarit, MX"},"type":"Feature","geometry":{"type":"Point","coordinates":[-105.206869,22.120455]}},{"properties":{"city":"Santiago Ixcuintla","name":null,"latitude":21.815045,"weight":null,"longitude":-105.208944,"id":"a66sh38lx10s","state":"Nayarit, MX"},"type":"Feature","geometry":{"type":"Point","coordinates":[-105.208944,21.815045]}},{"properties":{"city":"Tecuala","name":null,"latitude":22.398745,"weight":null,"longitude":-105.458734,"id":"a66sh39vjuhl","state":"Nayarit, MX"},"type":"Feature","geometry":{"type":"Point","coordinates":[-105.458734,22.398745]}},{"properties":{"city":"Tepic","name":null,"latitude":21.509665,"weight":null,"longitude":-104.892489,"id":"a66sh36rehbo","state":"Nayarit, MX"},"type":"Feature","geometry":{"type":"Point","coordinates":[-104.892489,21.509665]}},{"properties":{"city":"Tuxpan","name":null,"latitude":21.941705,"weight":null,"longitude":-105.296179,"id":"a66sh37bddf0","state":"Nayarit, MX"},"type":"Feature","geometry":{"type":"Point","coordinates":[-105.296179,21.941705]}},{"properties":{"city":"Acaponeta","name":null,"latitude":22.496585,"weight":null,"longitude":-105.364444,"id":"a66sh3e5ddlu","state":"Nayarit, MX"},"type":"Feature","geometry":{"type":"Point","coordinates":[-105.364444,22.496585]}},{"properties":{"city":"Compostela","name":null,"latitude":21.237885,"weight":null,"longitude":-104.901219,"id":"a66sh3a42aax","state":"Nayarit, MX"},"type":"Feature","geometry":{"type":"Point","coordinates":[-104.901219,21.237885]}},{"properties":{"city":"Ciudad Valles","name":null,"latitude":22.0082,"weight":null,"longitude":-99.006169,"id":"a66sh3cnmlxv","state":"San Luis Potosi, MX"},"type":"Feature","geometry":{"type":"Point","coordinates":[-99.006169,22.0082]}},{"properties":{"city":"Rio Verde","name":null,"latitude":21.93695,"weight":null,"longitude":-99.991364,"id":"a66sh3n3h0ts","state":"San Luis Potosi, MX"},"type":"Feature","geometry":{"type":"Point","coordinates":[-99.991364,21.93695]}},{"properties":{"city":"San Luis Potosi","name":null,"latitude":22.153065,"weight":null,"longitude":-100.976324,"id":"a66sh3iml6ex","state":"San Luis Potosi, MX"},"type":"Feature","geometry":{"type":"Point","coordinates":[-100.976324,22.153065]}},{"properties":{"city":"Tamazunchale","name":null,"latitude":21.25969,"weight":null,"longitude":-98.785779,"id":"a66sh3ckunbo","state":"San Luis Potosi, MX"},"type":"Feature","geometry":{"type":"Point","coordinates":[-98.785779,21.25969]}},{"properties":{"city":"Tamuin","name":null,"latitude":22.00477,"weight":null,"longitude":-98.777054,"id":"a66sh37wjjlv","state":"San Luis Potosi, MX"},"type":"Feature","geometry":{"type":"Point","coordinates":[-98.777054,22.00477]}},{"properties":{"city":"Matehuala","name":null,"latitude":23.653695,"weight":null,"longitude":-100.640434,"id":"a66sh38w5703","state":"San Luis Potosi, MX"},"type":"Feature","geometry":{"type":"Point","coordinates":[-100.640434,23.653695]}},{"properties":{"city":"Ciudad Fernandez","name":null,"latitude":21.932095,"weight":null,"longitude":-100.040979,"id":"a66sh3e1hakm","state":"San Luis Potosi, MX"},"type":"Feature","geometry":{"type":"Point","coordinates":[-100.040979,21.932095]}},{"properties":{"city":"Navolato","name":null,"latitude":24.76669,"weight":null,"longitude":-107.697669,"id":"a66sh38ruu04","state":"Sinaloa, MX"},"type":"Feature","geometry":{"type":"Point","coordinates":[-107.697669,24.76669]}},{"properties":{"city":"El Fuerte","name":null,"latitude":26.416715,"weight":null,"longitude":-108.619559,"id":"a66sh3bh88b1","state":"Sinaloa, MX"},"type":"Feature","geometry":{"type":"Point","coordinates":[-108.619559,26.416715]}},{"properties":{"city":"Guamuchil","name":null,"latitude":25.458485,"weight":null,"longitude":-108.082744,"id":"a66sh3cv8gz3","state":"Sinaloa, MX"},"type":"Feature","geometry":{"type":"Point","coordinates":[-108.082744,25.458485]}},{"properties":{"city":"Guasave","name":null,"latitude":25.570605,"weight":null,"longitude":-108.470914,"id":"a66sh3h9juc8","state":"Sinaloa, MX"},"type":"Feature","geometry":{"type":"Point","coordinates":[-108.470914,25.570605]}},{"properties":{"city":"Los Mochis","name":null,"latitude":25.792765,"weight":null,"longitude":-108.989004,"id":"a66sh3biq2g6","state":"Sinaloa, MX"},"type":"Feature","geometry":{"type":"Point","coordinates":[-108.989004,25.792765]}},{"properties":{"city":"Mazatlan","name":null,"latitude":23.200015,"weight":null,"longitude":-106.421769,"id":"a66sh3gofta1","state":"Sinaloa, MX"},"type":"Feature","geometry":{"type":"Point","coordinates":[-106.421769,23.200015]}},{"properties":{"city":"Mocorito","name":null,"latitude":25.483515,"weight":null,"longitude":-107.920859,"id":"a66sh39toigb","state":"Sinaloa, MX"},"type":"Feature","geometry":{"type":"Point","coordinates":[-107.920859,25.483515]}},{"properties":{"city":"El Dorado","name":null,"latitude":24.321915,"weight":null,"longitude":-107.364784,"id":"a66sh3ino52t","state":"Sinaloa, MX"},"type":"Feature","geometry":{"type":"Point","coordinates":[-107.364784,24.321915]}},{"properties":{"city":"Topolobampo","name":null,"latitude":25.601985,"weight":null,"longitude":-109.051804,"id":"a66sh3b2ho8b","state":"Sinaloa, MX"},"type":"Feature","geometry":{"type":"Point","coordinates":[-109.051804,25.601985]}},{"properties":{"city":"Costa Rica","name":null,"latitude":24.59119,"weight":null,"longitude":-107.391139,"id":"a66sh3k39lx1","state":"Sinaloa, MX"},"type":"Feature","geometry":{"type":"Point","coordinates":[-107.391139,24.59119]}},{"properties":{"city":"Culiacan","name":null,"latitude":24.807645,"weight":null,"longitude":-107.394454,"id":"a66sh3d12fcm","state":"Sinaloa, MX"},"type":"Feature","geometry":{"type":"Point","coordinates":[-107.394454,24.807645]}},{"properties":{"city":"Cananea","name":null,"latitude":30.98588,"weight":null,"longitude":-110.285389,"id":"a66sh3hyn8xg","state":"Sonora, MX"},"type":"Feature","geometry":{"type":"Point","coordinates":[-110.285389,30.98588]}},{"properties":{"city":"Ciudad Obregon","name":null,"latitude":27.49284,"weight":null,"longitude":-109.935349,"id":"a66sh3k34p6b","state":"Sonora, MX"},"type":"Feature","geometry":{"type":"Point","coordinates":[-109.935349,27.49284]}},{"properties":{"city":"Guaymas","name":null,"latitude":27.91127,"weight":null,"longitude":-110.908559,"id":"a66sh3euh11c","state":"Sonora, MX"},"type":"Feature","geometry":{"type":"Point","coordinates":[-110.908559,27.91127]}},{"properties":{"city":"Nacozari de Garcia","name":null,"latitude":30.37405,"weight":null,"longitude":-109.689614,"id":"a66sh37yyqpg","state":"Sonora, MX"},"type":"Feature","geometry":{"type":"Point","coordinates":[-109.689614,30.37405]}},{"properties":{"city":"Caborca","name":null,"latitude":30.7176,"weight":null,"longitude":-112.158709,"id":"a66sh3e7p2zq","state":"Sonora, MX"},"type":"Feature","geometry":{"type":"Point","coordinates":[-112.158709,30.7176]}},{"properties":{"city":"Nogales","name":null,"latitude":31.284465,"weight":null,"longitude":-110.942224,"id":"a66sh39f3rxc","state":"Sonora, MX"},"type":"Feature","geometry":{"type":"Point","coordinates":[-110.942224,31.284465]}},{"properties":{"city":"Puerto Penasco","name":null,"latitude":31.32251,"weight":null,"longitude":-113.534964,"id":"a66sh3jv1xwk","state":"Sonora, MX"},"type":"Feature","geometry":{"type":"Point","coordinates":[-113.534964,31.32251]}},{"properties":{"city":"San Luis Rio Colorado","name":null,"latitude":32.44898,"weight":null,"longitude":-114.769399,"id":"a66sh3hrt7zh","state":"Sonora, MX"},"type":"Feature","geometry":{"type":"Point","coordinates":[-114.769399,32.44898]}},{"properties":{"city":"Agua prieta","name":null,"latitude":31.31824,"weight":null,"longitude":-109.542459,"id":"a66sh3g0xccf","state":"Sonora, MX"},"type":"Feature","geometry":{"type":"Point","coordinates":[-109.542459,31.31824]}},{"properties":{"city":"Navojoa","name":null,"latitude":27.07254,"weight":null,"longitude":-109.445534,"id":"a66sh3el65tp","state":"Sonora, MX"},"type":"Feature","geometry":{"type":"Point","coordinates":[-109.445534,27.07254]}},{"properties":{"city":"Ciudad Mante","name":null,"latitude":22.740795,"weight":null,"longitude":-98.972609,"id":"a66sh3moh7j8","state":"Tamaulipas, MX"},"type":"Feature","geometry":{"type":"Point","coordinates":[-98.972609,22.740795]}},{"properties":{"city":"Ciudad Victoria","name":null,"latitude":23.732825,"weight":null,"longitude":-99.151229,"id":"a66sh3b4xyyb","state":"Tamaulipas, MX"},"type":"Feature","geometry":{"type":"Point","coordinates":[-99.151229,23.732825]}},{"properties":{"city":"Altamira","name":null,"latitude":22.38857,"weight":null,"longitude":-97.939994,"id":"a66sh3d6x6lb","state":"Tamaulipas, MX"},"type":"Feature","geometry":{"type":"Point","coordinates":[-97.939994,22.38857]}},{"properties":{"city":"Ciudad Madero","name":null,"latitude":22.280945,"weight":null,"longitude":-97.829699,"id":"a66sh3iuwisy","state":"Tamaulipas, MX"},"type":"Feature","geometry":{"type":"Point","coordinates":[-97.829699,22.280945]}},{"properties":{"city":"Jalpa","name":null,"latitude":21.63569,"weight":null,"longitude":-102.975934,"id":"a66sh371ag22","state":"Zacatecas, MX"},"type":"Feature","geometry":{"type":"Point","coordinates":[-102.975934,21.63569]}},{"properties":{"city":"Rio Grande","name":null,"latitude":23.83043,"weight":null,"longitude":-103.031159,"id":"a66sh3ip3qkg","state":"Zacatecas, MX"},"type":"Feature","geometry":{"type":"Point","coordinates":[-103.031159,23.83043]}},{"properties":{"city":"Sombrerete","name":null,"latitude":23.640835,"weight":null,"longitude":-103.633919,"id":"a66sh3cbdbnh","state":"Zacatecas, MX"},"type":"Feature","geometry":{"type":"Point","coordinates":[-103.633919,23.640835]}},{"properties":{"city":"Concepcion del Oro","name":null,"latitude":24.613965,"weight":null,"longitude":-101.419154,"id":"a66sh36uemtm","state":"Zacatecas, MX"},"type":"Feature","geometry":{"type":"Point","coordinates":[-101.419154,24.613965]}},{"properties":{"city":"Jerez de Garcia Salinas","name":null,"latitude":22.784335,"weight":null,"longitude":-102.573319,"id":"a66sh3bix8b6","state":"Zacatecas, MX"},"type":"Feature","geometry":{"type":"Point","coordinates":[-102.573319,22.784335]}}],"is_temporal":false,"author":{"url":"","metadata":"","contact_name":"","contact_address":"","source":"","contact_phone":""},"source":"","pagination":{"sort":null,"start":0,"total":127,"limit":1000000},"state":"complete","tags":"","published":"2014-08-10T15:00:31-04:00","id":22697}