{"type":"FeatureCollection","data_type":"Dataset","url_type":null,"permissions":[{"permissions":{"download":true,"view":true},"group_id":"everyone"}],"classification":null,"title":"Real_Cost_of_Food_2008_All_Counties","count":22,"stream_id":227025,"contributor":{"url":"http://geocommons.com/users/43726","name":"joeljw"},"data_attributes":null,"calculation_params":null,"icon_link":null,"link":"http://geocommons.com/overlays/227025.json","extent":[0.0,0.0,0.0,0.0],"geometry_types":null,"unique_name":null,"name":"Real_Cost_of_Food_2008_All_Counties","feature_count":22,"description":"","next_feature":null,"is_raster":false,"short_classification":"Y","features":[{"properties":{"column_4":"Adult + Preschooler","column_5":"Adult + Preschooler +\rSchoolage","column_6":"Two Adults + Preschooler + \rSchoolage","county":"","real cost of food ($/month) in 2008":"Adult","id":"a7ic5aaynpw9","column_2":"CoCode"},"type":"Feature","geometry":null},{"properties":{"column_4":"359","column_5":"537","column_6":"739","county":"Atlantic","real cost of food ($/month) in 2008":"237","id":"a7ic5ajyg9x1","column_2":"34001"},"type":"Feature","geometry":null},{"properties":{"column_4":"371","column_5":"555","column_6":"763","county":"Bergen","real cost of food ($/month) in 2008":"245","id":"a7ic5a7jexek","column_2":"34003"},"type":"Feature","geometry":null},{"properties":{"column_4":"362","column_5":"542","column_6":"745","county":"Burlington","real cost of food ($/month) in 2008":"239","id":"a7ic5ai2ejn4","column_2":"34005"},"type":"Feature","geometry":null},{"properties":{"column_4":"362","column_5":"542","column_6":"745","county":"Camden","real cost of food ($/month) in 2008":"239","id":"a7ic5ajxq4fj","column_2":"34007"},"type":"Feature","geometry":null},{"properties":{"column_4":"359","column_5":"537","column_6":"739","county":"Cape May","real cost of food ($/month) in 2008":"237","id":"a7ic5agt6itx","column_2":"34009"},"type":"Feature","geometry":null},{"properties":{"column_4":"371","column_5":"555","column_6":"763","county":"Cumberland","real cost of food ($/month) in 2008":"245","id":"a7ic5a9ucomg","column_2":"34011"},"type":"Feature","geometry":null},{"properties":{"column_4":"363","column_5":"544","column_6":"749","county":"Essex","real cost of food ($/month) in 2008":"240","id":"a7ic5aka6gkd","column_2":"34013"},"type":"Feature","geometry":null},{"properties":{"column_4":"362","column_5":"542","column_6":"745","county":"Gloucester","real cost of food ($/month) in 2008":"239","id":"a7ic5amdcve4","column_2":"34015"},"type":"Feature","geometry":null},{"properties":{"column_4":"371","column_5":"555","column_6":"763","county":"Hudson","real cost of food ($/month) in 2008":"245","id":"a7ic5aai4tm0","column_2":"34017"},"type":"Feature","geometry":null},{"properties":{"column_4":"371","column_5":"555","column_6":"763","county":"Hunterdon","real cost of food ($/month) in 2008":"245","id":"a7ic5a95r4u3","column_2":"34019"},"type":"Feature","geometry":null},{"properties":{"column_4":"371","column_5":"555","column_6":"763","county":"Mercer","real cost of food ($/month) in 2008":"245","id":"a7ic5a6n3utl","column_2":"34021"},"type":"Feature","geometry":null},{"properties":{"column_4":"371","column_5":"555","column_6":"763","county":"Middlesex","real cost of food ($/month) in 2008":"245","id":"a7ic5aj25e0k","column_2":"34023"},"type":"Feature","geometry":null},{"properties":{"column_4":"371","column_5":"555","column_6":"763","county":"Monmouth","real cost of food ($/month) in 2008":"245","id":"a7ic5afmy20q","column_2":"34025"},"type":"Feature","geometry":null},{"properties":{"column_4":"363","column_5":"544","column_6":"749","county":"Morris","real cost of food ($/month) in 2008":"240","id":"a7ic5ajzkw61","column_2":"34027"},"type":"Feature","geometry":null},{"properties":{"column_4":"371","column_5":"555","column_6":"763","county":"Ocean","real cost of food ($/month) in 2008":"245","id":"a7ic5adpon6c","column_2":"34029"},"type":"Feature","geometry":null},{"properties":{"column_4":"371","column_5":"555","column_6":"763","county":"Passaic","real cost of food ($/month) in 2008":"245","id":"a7ic5acikke8","column_2":"34031"},"type":"Feature","geometry":null},{"properties":{"column_4":"362","column_5":"542","column_6":"745","county":"Salem","real cost of food ($/month) in 2008":"239","id":"a7ic5a6q3iwr","column_2":"34033"},"type":"Feature","geometry":null},{"properties":{"column_4":"371","column_5":"555","column_6":"763","county":"Somerset","real cost of food ($/month) in 2008":"245","id":"a7ic5ai8c8nl","column_2":"34035"},"type":"Feature","geometry":null},{"properties":{"column_4":"363","column_5":"544","column_6":"749","county":"Sussex","real cost of food ($/month) in 2008":"240","id":"a7ic5aaqg0e5","column_2":"34037"},"type":"Feature","geometry":null},{"properties":{"column_4":"363","column_5":"544","column_6":"749","county":"Union","real cost of food ($/month) in 2008":"240","id":"a7ic5ahycg45","column_2":"34039"},"type":"Feature","geometry":null},{"properties":{"column_4":"363","column_5":"544","column_6":"749","county":"Warren","real cost of food ($/month) in 2008":"240","id":"a7ic5acro69z","column_2":"34041"},"type":"Feature","geometry":null}],"is_temporal":false,"author":{"url":"","metadata":null,"contact_name":null,"contact_address":null,"source":null,"contact_phone":null},"source":"","pagination":{"sort":null,"start":0,"total":22,"limit":1000000},"state":"parsed","tags":"","published":"2014-08-14T23:40:55-04:00","id":227025}