{"type":"FeatureCollection","data_type":"Dataset","url_type":null,"permissions":[{"permissions":{"download":true,"view":true},"group_id":"everyone"}],"classification":null,"title":"BARRON Duel 1820","count":35,"stream_id":227130,"contributor":{"url":"http://geocommons.com/users/42555","name":"dantzman"},"data_attributes":null,"calculation_params":null,"icon_link":null,"link":"http://geocommons.com/overlays/227130.json","extent":[-92.4451,30.8885,-69.795,44.2491],"geometry_types":["point"],"unique_name":null,"name":"BARRON Duel 1820","feature_count":35,"description":"","next_feature":null,"is_raster":false,"short_classification":"Y","stats":{"date":{"max":"1800/01/22 23:59:54 -0456","mean":"1800/01/09 02:03:19 -0456","variance":258802008201.681,"stdev":508725.867439116,"min":"1799/12/31 23:59:54 -0456","median":"1800/01/08 23:59:54 -0456"}},"features":[{"properties":{"city":"Baltimore","date":{"end_time":"1800/01/02 00:00:00 -0456","original":"1/1/1800","granularity":"day","time":"1800/01/01 00:00:00 -0456"},"geo_score":0.857,"id":"a62b2s8j87q2","geo_precision":"city","state":"Maryland"},"type":"Feature","geometry":{"type":"Point","coordinates":[-76.612189,39.290385]}},{"properties":{"city":"Washington","date":{"end_time":"1800/01/02 00:00:00 -0456","original":"1/1/1800","granularity":"day","time":"1800/01/01 00:00:00 -0456"},"geo_score":0.714,"id":"a62b2s6cta3t","geo_precision":"city","state":"D.C"},"type":"Feature","geometry":{"type":"Point","coordinates":[-77.036366,38.895112]}},{"properties":{"city":"Georgetown","date":{"end_time":"1800/01/02 00:00:00 -0456","original":"1/1/1800","granularity":"day","time":"1800/01/01 00:00:00 -0456"},"geo_score":0.714,"id":"a62b2s9rafit","geo_precision":"city","state":"D.C"},"type":"Feature","geometry":{"type":"Point","coordinates":[-88.270285,30.888518]}},{"properties":{"city":"Alexandria","date":{"end_time":"1800/01/03 00:00:00 -0456","original":"1/2/1800","granularity":"day","time":"1800/01/02 00:00:00 -0456"},"geo_score":0.857,"id":"a62b2sfvo882","geo_precision":"city","state":"Virginia"},"type":"Feature","geometry":{"type":"Point","coordinates":[-77.046921,38.804836]}},{"properties":{"city":"Philadelphia","date":{"end_time":"1800/01/03 00:00:00 -0456","original":"1/2/1800","granularity":"day","time":"1800/01/02 00:00:00 -0456"},"geo_score":0.857,"id":"a62b2sblp3fs","geo_precision":"city","state":"Pennsylvania"},"type":"Feature","geometry":{"type":"Point","coordinates":[-75.163789,39.952335]}},{"properties":{"city":"New York","date":{"end_time":"1800/01/05 00:00:00 -0456","original":"1/4/1800","granularity":"day","time":"1800/01/04 00:00:00 -0456"},"geo_score":0.857,"id":"a62b2siosinm","geo_precision":"city","state":"New York"},"type":"Feature","geometry":{"type":"Point","coordinates":[-74.005973,40.714269]}},{"properties":{"city":"Boston","date":{"end_time":"1800/01/06 00:00:00 -0456","original":"1/5/1800","granularity":"day","time":"1800/01/05 00:00:00 -0456"},"geo_score":0.857,"id":"a62b2sbyxsm6","geo_precision":"city","state":"Massachusetts"},"type":"Feature","geometry":{"type":"Point","coordinates":[-71.059773,42.358431]}},{"properties":{"city":"Portsmouth","date":{"end_time":"1800/01/06 00:00:00 -0456","original":"1/5/1800","granularity":"day","time":"1800/01/05 00:00:00 -0456"},"geo_score":0.857,"id":"a62b2s4azdds","geo_precision":"city","state":"New Hampshire"},"type":"Feature","geometry":{"type":"Point","coordinates":[-71.013202,43.005895]}},{"properties":{"city":"Salem","date":{"end_time":"1800/01/06 00:00:00 -0456","original":"1/5/1800","granularity":"day","time":"1800/01/05 00:00:00 -0456"},"geo_score":0.857,"id":"a62b2sheww27","geo_precision":"city","state":"Massachusetts"},"type":"Feature","geometry":{"type":"Point","coordinates":[-70.873647,42.642845]}},{"properties":{"city":"Norfolk","date":{"end_time":"1800/01/07 00:00:00 -0456","original":"1/6/1800","granularity":"day","time":"1800/01/06 00:00:00 -0456"},"geo_score":0.857,"id":"a62b2s47ez0c","geo_precision":"city","state":"Virginia"},"type":"Feature","geometry":{"type":"Point","coordinates":[-76.285218,36.846815]}},{"properties":{"city":"New London","date":{"end_time":"1800/01/07 00:00:00 -0456","original":"1/6/1800","granularity":"day","time":"1800/01/06 00:00:00 -0456"},"geo_score":0.857,"id":"a62b2scxb1sf","geo_precision":"city","state":"Connecticut"},"type":"Feature","geometry":{"type":"Point","coordinates":[-72.10907,41.413998]}},{"properties":{"city":"Springfield","date":{"end_time":"1800/01/07 00:00:00 -0456","original":"1/6/1800","granularity":"day","time":"1800/01/06 00:00:00 -0456"},"geo_score":0.857,"id":"a62b2sip3p8x","geo_precision":"city","state":"Massachusetts"},"type":"Feature","geometry":{"type":"Point","coordinates":[-72.589811,42.101483]}},{"properties":{"city":"Worcester","date":{"end_time":"1800/01/07 00:00:00 -0456","original":"1/6/1800","granularity":"day","time":"1800/01/06 00:00:00 -0456"},"geo_score":0.857,"id":"a62b2sco2l8t","geo_precision":"city","state":"Massachusetts"},"type":"Feature","geometry":{"type":"Point","coordinates":[-71.802293,42.262593]}},{"properties":{"city":"Newport","date":{"end_time":"1800/01/07 00:00:00 -0456","original":"1/6/1800","granularity":"day","time":"1800/01/06 00:00:00 -0456"},"geo_score":0.857,"id":"a62b2s29pnsi","geo_precision":"city","state":"Rhode Island"},"type":"Feature","geometry":{"type":"Point","coordinates":[-71.327084,41.487552]}},{"properties":{"city":"Providence","date":{"end_time":"1800/01/08 00:00:00 -0456","original":"1/7/1800","granularity":"day","time":"1800/01/07 00:00:00 -0456"},"geo_score":0.857,"id":"a62b2s93un9f","geo_precision":"city","state":"Rhode Island"},"type":"Feature","geometry":{"type":"Point","coordinates":[-71.412834,41.823989]}},{"properties":{"city":"Middletown","date":{"end_time":"1800/01/08 00:00:00 -0456","original":"1/7/1800","granularity":"day","time":"1800/01/07 00:00:00 -0456"},"geo_score":0.857,"id":"a62b2sc4c868","geo_precision":"city","state":"Connecticut"},"type":"Feature","geometry":{"type":"Point","coordinates":[-72.655357,41.550139]}},{"properties":{"city":"New Bedford","date":{"end_time":"1800/01/09 00:00:00 -0456","original":"1/8/1800","granularity":"day","time":"1800/01/08 00:00:00 -0456"},"geo_score":0.755,"id":"a62b2s9hyvr1","geo_precision":"city","state":"Massachusetts"},"type":"Feature","geometry":{"type":"Point","coordinates":[-71.270891,42.516205]}},{"properties":{"city":"Amherst","date":{"end_time":"1800/01/10 00:00:00 -0456","original":"1/9/1800","granularity":"day","time":"1800/01/09 00:00:00 -0456"},"geo_score":0.857,"id":"a62b2sdcqnt8","geo_precision":"city","state":"New Hampshire"},"type":"Feature","geometry":{"type":"Point","coordinates":[-71.629365,42.87474]}},{"properties":{"city":"Keene","date":{"end_time":"1800/01/10 00:00:00 -0456","original":"1/9/1800","granularity":"day","time":"1800/01/09 00:00:00 -0456"},"geo_score":0.857,"id":"a62b2sccsuyv","geo_precision":"city","state":"New Hampshire"},"type":"Feature","geometry":{"type":"Point","coordinates":[-72.248052,42.903656]}},{"properties":{"city":"Haverhill","date":{"end_time":"1800/01/10 00:00:00 -0456","original":"1/9/1800","granularity":"day","time":"1800/01/09 00:00:00 -0456"},"geo_score":0.857,"id":"a62b2sgvhqxr","geo_precision":"city","state":"Massachusetts"},"type":"Feature","geometry":{"type":"Point","coordinates":[-71.072501,42.792639]}},{"properties":{"city":"Charlestown","date":{"end_time":"1800/01/10 00:00:00 -0456","original":"1/9/1800","granularity":"day","time":"1800/01/09 00:00:00 -0456"},"geo_score":0.857,"id":"a62b2sdxtc7q","geo_precision":"city","state":"Massachusetts"},"type":"Feature","geometry":{"type":"Point","coordinates":[-71.065287,42.382588]}},{"properties":{"city":"Charleston","date":{"end_time":"1800/01/10 00:00:00 -0456","original":"1/9/1800","granularity":"day","time":"1800/01/09 00:00:00 -0456"},"geo_score":0.798,"id":"a62b2s6oqnpa","geo_precision":"city","state":"South Carolina"},"type":"Feature","geometry":{"type":"Point","coordinates":[-79.970643,32.85712]}},{"properties":{"city":"New Bern","date":{"end_time":"1800/01/10 00:00:00 -0456","original":"1/9/1800","granularity":"day","time":"1800/01/09 00:00:00 -0456"},"geo_score":0.857,"id":"a62b2s8jjmsj","geo_precision":"city","state":"North Carolina"},"type":"Feature","geometry":{"type":"Point","coordinates":[-77.178429,35.098109]}},{"properties":{"city":"Augusta","date":{"end_time":"1800/01/11 00:00:00 -0456","original":"1/10/1800","granularity":"day","time":"1800/01/10 00:00:00 -0456"},"geo_score":0.857,"id":"a62b2s4z4nnv","geo_precision":"city","state":"Georgia"},"type":"Feature","geometry":{"type":"Point","coordinates":[-81.974838,33.47097]}},{"properties":{"city":"Windsor","date":{"end_time":"1800/01/12 00:00:00 -0456","original":"1/11/1800","granularity":"day","time":"1800/01/11 00:00:00 -0456"},"geo_score":0.857,"id":"a62b2sbjc23m","geo_precision":"city","state":"Vermont"},"type":"Feature","geometry":{"type":"Point","coordinates":[-72.418059,43.5181]}},{"properties":{"city":"Concord","date":{"end_time":"1800/01/12 00:00:00 -0456","original":"1/11/1800","granularity":"day","time":"1800/01/11 00:00:00 -0456"},"geo_score":0.857,"id":"a62b2sapyvjf","geo_precision":"city","state":"New Hampshire"},"type":"Feature","geometry":{"type":"Point","coordinates":[-71.537572,43.208137]}},{"properties":{"city":"Portland","date":{"end_time":"1800/01/13 00:00:00 -0456","original":"1/12/1800","granularity":"day","time":"1800/01/12 00:00:00 -0456"},"geo_score":0.857,"id":"a62b2sfkby6v","geo_precision":"city","state":"Maine"},"type":"Feature","geometry":{"type":"Point","coordinates":[-70.255326,43.661471]}},{"properties":{"city":"Woodstock","date":{"end_time":"1800/01/13 00:00:00 -0456","original":"1/12/1800","granularity":"day","time":"1800/01/12 00:00:00 -0456"},"geo_score":0.857,"id":"a62b2scktb3p","geo_precision":"city","state":"Vermont"},"type":"Feature","geometry":{"type":"Point","coordinates":[-72.512835,43.631348]}},{"properties":{"city":"Hallowell","date":{"end_time":"1800/01/14 00:00:00 -0456","original":"1/13/1800","granularity":"day","time":"1800/01/13 00:00:00 -0456"},"geo_score":0.857,"id":"a62b2s6mxlos","geo_precision":"city","state":"Maine"},"type":"Feature","geometry":{"type":"Point","coordinates":[-69.795037,44.24913]}},{"properties":{"city":"Charleston","date":{"end_time":"1800/01/21 00:00:00 -0456","original":"1/20/1800","granularity":"day","time":"1800/01/20 00:00:00 -0456"},"geo_score":0.857,"id":"a62b2sdi29w4","geo_precision":"city","state":"West Virginia"},"type":"Feature","geometry":{"type":"Point","coordinates":[-81.632624,38.34982]}},{"properties":{"city":"Pendleton","date":{"end_time":"1800/01/21 00:00:00 -0456","original":"1/20/1800","granularity":"day","time":"1800/01/20 00:00:00 -0456"},"geo_score":0.714,"id":"a62b2sh69zhw","geo_precision":"city","state":"South Carolina"},"type":"Feature","geometry":{"type":"Point","coordinates":[-91.382065,33.977324]}},{"properties":{"city":"Russelville","date":{"end_time":"1800/01/24 00:00:00 -0456","original":"1/23/1800","granularity":"day","time":"1800/01/23 00:00:00 -0456"},"geo_score":0.845,"id":"a62b2s2xz7m3","geo_precision":"city","state":"Kentucky"},"type":"Feature","geometry":{"type":"Point","coordinates":[-86.882321,36.845273]}},{"properties":{"city":"Lexington","date":{"end_time":"1800/01/24 00:00:00 -0456","original":"1/23/1800","granularity":"day","time":"1800/01/23 00:00:00 -0456"},"geo_score":0.857,"id":"a62b2sfzjsyj","geo_precision":"city","state":"Kentucky"},"type":"Feature","geometry":{"type":"Point","coordinates":[-84.477715,37.988689]}},{"properties":{"city":"Edwardsville","date":{"end_time":"1800/01/16 00:00:00 -0456","original":"1/15/1800","granularity":"day","time":"1800/01/15 00:00:00 -0456"},"geo_score":0.798,"id":"a62b2s2z6yhv","geo_precision":"city","state":"Illinois"},"type":"Feature","geometry":{"type":"Point","coordinates":[-89.726242,40.836603]}},{"properties":{"city":"Alexandria","date":{"end_time":"1800/01/17 00:00:00 -0456","original":"1/16/1800","granularity":"day","time":"1800/01/16 00:00:00 -0456"},"geo_score":0.857,"id":"a62b2sbskak5","geo_precision":"city","state":"Louisiana"},"type":"Feature","geometry":{"type":"Point","coordinates":[-92.445137,31.311294]}}],"is_temporal":true,"author":{"url":"","metadata":"","contact_name":"","contact_address":"","source":"","contact_phone":""},"source":"","pagination":{"sort":null,"start":0,"total":35,"limit":1000000},"state":"complete","tags":"","published":"2014-08-14T23:49:02-04:00","id":227130}