{"type":"FeatureCollection","data_type":"Dataset","url_type":null,"permissions":[{"permissions":{"download":true,"view":true},"group_id":"everyone"}],"classification":null,"title":"MURDER OF JEWETT 1836","count":40,"stream_id":227125,"contributor":{"url":"http://geocommons.com/users/42555","name":"dantzman"},"data_attributes":null,"calculation_params":null,"icon_link":null,"link":"http://geocommons.com/overlays/227125.json","extent":[-92.4451,30.8885,-70.2553,44.2101],"geometry_types":["point"],"unique_name":null,"name":"MURDER OF JEWETT 1836","feature_count":40,"description":"","next_feature":null,"is_raster":false,"short_classification":"Y","stats":{"date":{"max":"1800/01/25 23:59:54 -0456","mean":"1800/01/07 15:35:54 -0456","variance":276222660923.077,"stdev":525568.892651646,"min":"1799/12/31 23:59:54 -0456","median":"1800/01/05 23:59:54 -0456"}},"features":[{"properties":{"city":"New York","date":{"end_time":"1800/01/02 00:00:00 -0456","original":"1/1/1800","granularity":"day","time":"1800/01/01 00:00:00 -0456"},"geo_score":0.857,"id":"a62b2t8osffm","geo_precision":"city","state":"New York"},"type":"Feature","geometry":{"type":"Point","coordinates":[-74.005973,40.714269]}},{"properties":{"city":"New Bedford","date":{"end_time":"1800/01/03 00:00:00 -0456","original":"1/2/1800","granularity":"day","time":"1800/01/02 00:00:00 -0456"},"geo_score":0.755,"id":"a62b2tboc0tw","geo_precision":"city","state":"Massachusetts"},"type":"Feature","geometry":{"type":"Point","coordinates":[-71.270891,42.516205]}},{"properties":{"city":"Salem","date":{"end_time":"1800/01/03 00:00:00 -0456","original":"1/2/1800","granularity":"day","time":"1800/01/02 00:00:00 -0456"},"geo_score":0.857,"id":"a62b2t9cs6my","geo_precision":"city","state":"Massachusetts"},"type":"Feature","geometry":{"type":"Point","coordinates":[-70.873647,42.642845]}},{"properties":{"city":"Boston","date":{"end_time":"1800/01/03 00:00:00 -0456","original":"1/2/1800","granularity":"day","time":"1800/01/02 00:00:00 -0456"},"geo_score":0.857,"id":"a62b2tagkk6u","geo_precision":"city","state":"Massachusetts"},"type":"Feature","geometry":{"type":"Point","coordinates":[-71.059773,42.358431]}},{"properties":{"city":"Brattleboro","date":{"end_time":"1800/01/03 00:00:00 -0456","original":"1/2/1800","granularity":"day","time":"1800/01/02 00:00:00 -0456"},"geo_score":0.857,"id":"a62b2t9bp5pd","geo_precision":"city","state":"Vermont"},"type":"Feature","geometry":{"type":"Point","coordinates":[-72.760753,42.884281]}},{"properties":{"city":"Philadelphia","date":{"end_time":"1800/01/04 00:00:00 -0456","original":"1/3/1800","granularity":"day","time":"1800/01/03 00:00:00 -0456"},"geo_score":0.857,"id":"a62b2t4ehqvn","geo_precision":"city","state":"Pennsylvania"},"type":"Feature","geometry":{"type":"Point","coordinates":[-75.163789,39.952335]}},{"properties":{"city":"Harrisburg","date":{"end_time":"1800/01/04 00:00:00 -0456","original":"1/3/1800","granularity":"day","time":"1800/01/03 00:00:00 -0456"},"geo_score":0.857,"id":"a62b2t0lvpm7","geo_precision":"city","state":"Pennsylvania"},"type":"Feature","geometry":{"type":"Point","coordinates":[-76.884418,40.2737]}},{"properties":{"city":"Washington","date":{"end_time":"1800/01/04 00:00:00 -0456","original":"1/3/1800","granularity":"day","time":"1800/01/03 00:00:00 -0456"},"geo_score":0.714,"id":"a62b2t6yx4kr","geo_precision":"city","state":"D.C"},"type":"Feature","geometry":{"type":"Point","coordinates":[-77.036366,38.895112]}},{"properties":{"city":"Alexandria","date":{"end_time":"1800/01/04 00:00:00 -0456","original":"1/3/1800","granularity":"day","time":"1800/01/03 00:00:00 -0456"},"geo_score":0.857,"id":"a62b2tchlis0","geo_precision":"city","state":"Virginia"},"type":"Feature","geometry":{"type":"Point","coordinates":[-77.046921,38.804836]}},{"properties":{"city":"Georgetown","date":{"end_time":"1800/01/04 00:00:00 -0456","original":"1/3/1800","granularity":"day","time":"1800/01/03 00:00:00 -0456"},"geo_score":0.714,"id":"a62b2taswcub","geo_precision":"city","state":"D.C"},"type":"Feature","geometry":{"type":"Point","coordinates":[-88.270285,30.888518]}},{"properties":{"city":"Haverhill","date":{"end_time":"1800/01/04 00:00:00 -0456","original":"1/3/1800","granularity":"day","time":"1800/01/03 00:00:00 -0456"},"geo_score":0.857,"id":"a62b2t4m9sh5","geo_precision":"city","state":"Massachusetts"},"type":"Feature","geometry":{"type":"Point","coordinates":[-71.072501,42.792639]}},{"properties":{"city":"Ithaca","date":{"end_time":"1800/01/04 00:00:00 -0456","original":"1/3/1800","granularity":"day","time":"1800/01/03 00:00:00 -0456"},"geo_score":0.857,"id":"a62b2tbza2rd","geo_precision":"city","state":"New York"},"type":"Feature","geometry":{"type":"Point","coordinates":[-76.483999,42.402794]}},{"properties":{"city":"Chambersburg","date":{"end_time":"1800/01/05 00:00:00 -0456","original":"1/4/1800","granularity":"day","time":"1800/01/04 00:00:00 -0456"},"geo_score":0.81,"id":"a62b2tbq7tfj","geo_precision":"city","state":"Pennsylvania"},"type":"Feature","geometry":{"type":"Point","coordinates":[-80.243394,40.099516]}},{"properties":{"city":"Easton","date":{"end_time":"1800/01/05 00:00:00 -0456","original":"1/4/1800","granularity":"day","time":"1800/01/04 00:00:00 -0456"},"geo_score":0.857,"id":"a62b2t7rc0wx","geo_precision":"city","state":"Maryland"},"type":"Feature","geometry":{"type":"Point","coordinates":[-76.051486,38.800714]}},{"properties":{"city":"Hartford","date":{"end_time":"1800/01/06 00:00:00 -0456","original":"1/5/1800","granularity":"day","time":"1800/01/05 00:00:00 -0456"},"geo_score":0.857,"id":"a62b2t7nukfz","geo_precision":"city","state":"Connecticut"},"type":"Feature","geometry":{"type":"Point","coordinates":[-72.685093,41.763711]}},{"properties":{"city":"Middlebury","date":{"end_time":"1800/01/06 00:00:00 -0456","original":"1/5/1800","granularity":"day","time":"1800/01/05 00:00:00 -0456"},"geo_score":0.857,"id":"a62b2tczwnob","geo_precision":"city","state":"Vermont"},"type":"Feature","geometry":{"type":"Point","coordinates":[-73.171578,43.991942]}},{"properties":{"city":"Burlington","date":{"end_time":"1800/01/06 00:00:00 -0456","original":"1/5/1800","granularity":"day","time":"1800/01/05 00:00:00 -0456"},"geo_score":0.78,"id":"a62b2td49tgu","geo_precision":"city","state":"Vermont"},"type":"Feature","geometry":{"type":"Point","coordinates":[-72.575941,44.21006]}},{"properties":{"city":"Concord","date":{"end_time":"1800/01/06 00:00:00 -0456","original":"1/5/1800","granularity":"day","time":"1800/01/05 00:00:00 -0456"},"geo_score":0.857,"id":"a62b2te8hqi5","geo_precision":"city","state":"New Hampshire"},"type":"Feature","geometry":{"type":"Point","coordinates":[-71.537572,43.208137]}},{"properties":{"city":"Portland","date":{"end_time":"1800/01/07 00:00:00 -0456","original":"1/6/1800","granularity":"day","time":"1800/01/06 00:00:00 -0456"},"geo_score":0.857,"id":"a62b2t9crh8l","geo_precision":"city","state":"Maine"},"type":"Feature","geometry":{"type":"Point","coordinates":[-70.255326,43.661471]}},{"properties":{"city":"Norfolk","date":{"end_time":"1800/01/07 00:00:00 -0456","original":"1/6/1800","granularity":"day","time":"1800/01/06 00:00:00 -0456"},"geo_score":0.857,"id":"a62b2t4yhyy5","geo_precision":"city","state":"Virginia"},"type":"Feature","geometry":{"type":"Point","coordinates":[-76.285218,36.846815]}},{"properties":{"city":"Springfield","date":{"end_time":"1800/01/07 00:00:00 -0456","original":"1/6/1800","granularity":"day","time":"1800/01/06 00:00:00 -0456"},"geo_score":0.857,"id":"a62b2t7kzeu1","geo_precision":"city","state":"Massachusetts"},"type":"Feature","geometry":{"type":"Point","coordinates":[-72.589811,42.101483]}},{"properties":{"city":"Rutland","date":{"end_time":"1800/01/07 00:00:00 -0456","original":"1/6/1800","granularity":"day","time":"1800/01/06 00:00:00 -0456"},"geo_score":0.857,"id":"a62b2t923qkm","geo_precision":"city","state":"Vermont"},"type":"Feature","geometry":{"type":"Point","coordinates":[-72.93586,43.630346]}},{"properties":{"city":"New London","date":{"end_time":"1800/01/08 00:00:00 -0456","original":"1/7/1800","granularity":"day","time":"1800/01/07 00:00:00 -0456"},"geo_score":0.857,"id":"a62b2t5heubc","geo_precision":"city","state":"Connecticut"},"type":"Feature","geometry":{"type":"Point","coordinates":[-72.10907,41.413998]}},{"properties":{"city":"Newport","date":{"end_time":"1800/01/08 00:00:00 -0456","original":"1/7/1800","granularity":"day","time":"1800/01/07 00:00:00 -0456"},"geo_score":0.857,"id":"a62b2t0zx72h","geo_precision":"city","state":"Rhode Island"},"type":"Feature","geometry":{"type":"Point","coordinates":[-71.327084,41.487552]}},{"properties":{"city":"Woodstock","date":{"end_time":"1800/01/09 00:00:00 -0456","original":"1/8/1800","granularity":"day","time":"1800/01/08 00:00:00 -0456"},"geo_score":0.857,"id":"a62b2tb3lowx","geo_precision":"city","state":"Vermont"},"type":"Feature","geometry":{"type":"Point","coordinates":[-72.512835,43.631348]}},{"properties":{"city":"Pittsfield","date":{"end_time":"1800/01/09 00:00:00 -0456","original":"1/8/1800","granularity":"day","time":"1800/01/08 00:00:00 -0456"},"geo_score":0.857,"id":"a62b2t1za0g2","geo_precision":"city","state":"Massachusetts"},"type":"Feature","geometry":{"type":"Point","coordinates":[-73.24807,42.479475]}},{"properties":{"city":"Keene","date":{"end_time":"1800/01/09 00:00:00 -0456","original":"1/8/1800","granularity":"day","time":"1800/01/08 00:00:00 -0456"},"geo_score":0.857,"id":"a62b2t8lbial","geo_precision":"city","state":"New Hampshire"},"type":"Feature","geometry":{"type":"Point","coordinates":[-72.248052,42.903656]}},{"properties":{"city":"Richmond","date":{"end_time":"1800/01/10 00:00:00 -0456","original":"1/9/1800","granularity":"day","time":"1800/01/09 00:00:00 -0456"},"geo_score":0.857,"id":"a62b2t7wgsj7","geo_precision":"city","state":"Virginia"},"type":"Feature","geometry":{"type":"Point","coordinates":[-77.460262,37.553758]}},{"properties":{"city":"Amherst","date":{"end_time":"1800/01/10 00:00:00 -0456","original":"1/9/1800","granularity":"day","time":"1800/01/09 00:00:00 -0456"},"geo_score":0.857,"id":"a62b2tfo1el5","geo_precision":"city","state":"New Hampshire"},"type":"Feature","geometry":{"type":"Point","coordinates":[-71.629365,42.87474]}},{"properties":{"city":"Charleston","date":{"end_time":"1800/01/11 00:00:00 -0456","original":"1/10/1800","granularity":"day","time":"1800/01/10 00:00:00 -0456"},"geo_score":0.798,"id":"a62b2t6gnd86","geo_precision":"city","state":"South Carolina"},"type":"Feature","geometry":{"type":"Point","coordinates":[-79.970643,32.85712]}},{"properties":{"city":"Macon","date":{"end_time":"1800/01/11 00:00:00 -0456","original":"1/10/1800","granularity":"day","time":"1800/01/10 00:00:00 -0456"},"geo_score":0.857,"id":"a62b2t4tzjo8","geo_precision":"city","state":"Georgia"},"type":"Feature","geometry":{"type":"Point","coordinates":[-83.632402,32.840695]}},{"properties":{"city":"Augusta","date":{"end_time":"1800/01/11 00:00:00 -0456","original":"1/10/1800","granularity":"day","time":"1800/01/10 00:00:00 -0456"},"geo_score":0.857,"id":"a62b2t4esrpt","geo_precision":"city","state":"Georgia"},"type":"Feature","geometry":{"type":"Point","coordinates":[-81.974838,33.47097]}},{"properties":{"city":"Charleston","date":{"end_time":"1800/01/11 00:00:00 -0456","original":"1/10/1800","granularity":"day","time":"1800/01/10 00:00:00 -0456"},"geo_score":0.857,"id":"a62b2tf75k47","geo_precision":"city","state":"West Virginia"},"type":"Feature","geometry":{"type":"Point","coordinates":[-81.632624,38.34982]}},{"properties":{"city":"Pendleton","date":{"end_time":"1800/01/12 00:00:00 -0456","original":"1/11/1800","granularity":"day","time":"1800/01/11 00:00:00 -0456"},"geo_score":0.857,"id":"a62b2t0enrjs","geo_precision":"city","state":"South Carolina"},"type":"Feature","geometry":{"type":"Point","coordinates":[-82.597346,34.608943]}},{"properties":{"city":"Nashville","date":{"end_time":"1800/01/13 00:00:00 -0456","original":"1/12/1800","granularity":"day","time":"1800/01/12 00:00:00 -0456"},"geo_score":0.857,"id":"a62b2t2h8x31","geo_precision":"city","state":"Tennessee"},"type":"Feature","geometry":{"type":"Point","coordinates":[-86.784443,36.16589]}},{"properties":{"city":"Memphis","date":{"end_time":"1800/01/14 00:00:00 -0456","original":"1/13/1800","granularity":"day","time":"1800/01/13 00:00:00 -0456"},"geo_score":0.857,"id":"a62b2t3sp4gj","geo_precision":"city","state":"Tennessee"},"type":"Feature","geometry":{"type":"Point","coordinates":[-90.04898,35.149534]}},{"properties":{"city":"Russellville","date":{"end_time":"1800/01/21 00:00:00 -0456","original":"1/20/1800","granularity":"day","time":"1800/01/20 00:00:00 -0456"},"geo_score":0.857,"id":"a62b2t6tjbxq","geo_precision":"city","state":"Kentucky"},"type":"Feature","geometry":{"type":"Point","coordinates":[-86.882321,36.845273]}},{"properties":{"city":"Lexington","date":{"end_time":"1800/01/22 00:00:00 -0456","original":"1/21/1800","granularity":"day","time":"1800/01/21 00:00:00 -0456"},"geo_score":0.857,"id":"a62b2t0yt9vh","geo_precision":"city","state":"Kentucky"},"type":"Feature","geometry":{"type":"Point","coordinates":[-84.477715,37.988689]}},{"properties":{"city":"Edwardsville","date":{"end_time":"1800/01/26 00:00:00 -0456","original":"1/25/1800","granularity":"day","time":"1800/01/25 00:00:00 -0456"},"geo_score":0.798,"id":"a62b2t9pu71o","geo_precision":"city","state":"Illinois"},"type":"Feature","geometry":{"type":"Point","coordinates":[-89.726242,40.836603]}},{"properties":{"city":"Alexandria","date":{"end_time":"1800/01/27 00:00:00 -0456","original":"1/26/1800","granularity":"day","time":"1800/01/26 00:00:00 -0456"},"geo_score":0.857,"id":"a62b2t07ex0t","geo_precision":"city","state":"Louisiana"},"type":"Feature","geometry":{"type":"Point","coordinates":[-92.445137,31.311294]}}],"is_temporal":true,"author":{"url":"","metadata":"","contact_name":"","contact_address":"","source":"","contact_phone":""},"source":"","pagination":{"sort":null,"start":0,"total":40,"limit":1000000},"state":"complete","tags":"","published":"2014-08-14T23:48:58-04:00","id":227125}