{"type":"FeatureCollection","data_type":"Dataset","url_type":null,"permissions":[{"permissions":{"download":true,"view":true},"group_id":"everyone"}],"classification":null,"title":"Percent Irish Speakers 2006","count":26,"stream_id":227963,"contributor":{"url":"http://geocommons.com/users/43227","name":"hockinas"},"data_attributes":null,"calculation_params":null,"icon_link":null,"link":"http://geocommons.com/overlays/227963.json","extent":[-9.75,51.9667,-6.25,54.917],"geometry_types":["point"],"unique_name":null,"name":"Percent Irish Speakers 2006","feature_count":26,"description":"This data was taken from the Central Statistics Office Ireland website. The numbers come directly from the 2006 Irish census and only contain the percent Irish Speakers for each Irish county in the year of 2006. The actual data set of these numbers was made in excel. ","next_feature":null,"is_raster":false,"short_classification":"Y","stats":{"latitude":{"max":54.917,"mean":53.3024534,"variance":0.548546115677833,"stdev":0.74063899146469,"min":51.966667,"median":53.333333},"longitude":{"max":-6.25,"mean":-7.70923076923077,"variance":0.926668677948745,"stdev":0.962636316554048,"min":-9.75,"median":-7.5},"% irish speakers":{"max":49.8,"mean":42.66,"variance":14.0775,"stdev":3.75199946695092,"min":36.7,"median":42.6}},"features":[{"properties":{"latitude":52.666667,"county":"Carlow","longitude":-6.833333,"% irish speakers":39.5,"id":"a64vdjmkxsb9","province":"Leinster"},"type":"Feature","geometry":{"type":"Point","coordinates":[-6.833333,52.666667]}},{"properties":{"latitude":53.416667,"county":"Dublin","longitude":-6.25,"% irish speakers":37.2,"id":"a64vdjfz0qqv","province":"Leinster"},"type":"Feature","geometry":{"type":"Point","coordinates":[-6.25,53.416667]}},{"properties":{"latitude":53.166667,"county":"Kildare","longitude":-6.75,"% irish speakers":42.4,"id":"a64vdjjeqa5e","province":"Leinster"},"type":"Feature","geometry":{"type":"Point","coordinates":[-6.75,53.166667]}},{"properties":{"latitude":52.583333,"county":"Kilkenny","longitude":-7.25,"% irish speakers":43.5,"id":"a64vdjmsd1p8","province":"Leinster"},"type":"Feature","geometry":{"type":"Point","coordinates":[-7.25,52.583333]}},{"properties":{"latitude":53.0,"county":"Laois","longitude":-7.4,"% irish speakers":42.6,"id":"a64vdjefsmf7","province":"Leinster"},"type":"Feature","geometry":{"type":"Point","coordinates":[-7.4,53.0]}},{"properties":{"latitude":53.666667,"county":"Longford","longitude":-7.75,"% irish speakers":41.2,"id":"a64vdjegidqo","province":"Leinster"},"type":"Feature","geometry":{"type":"Point","coordinates":[-7.75,53.666667]}},{"properties":{"latitude":53.833333,"county":"Louth","longitude":-6.5,"% irish speakers":36.7,"id":"a64vdjpw2s1a","province":"Leinster"},"type":"Feature","geometry":{"type":"Point","coordinates":[-6.5,53.833333]}},{"properties":{"latitude":53.666667,"county":"Meath","longitude":-6.666667,"% irish speakers":40.1,"id":"a64vdjb60oxr","province":"Leinster"},"type":"Feature","geometry":{"type":"Point","coordinates":[-6.666667,53.666667]}},{"properties":{"latitude":53.25,"county":"Offaly","longitude":-7.5,"% irish speakers":39.0,"id":"a64vdjgye5vu","province":"Leinster"},"type":"Feature","geometry":{"type":"Point","coordinates":[-7.5,53.25]}},{"properties":{"latitude":53.5,"county":"Westmeath","longitude":-7.5,"% irish speakers":41.5,"id":"a64vdjnn5z5q","province":"Leinster"},"type":"Feature","geometry":{"type":"Point","coordinates":[-7.5,53.5]}},{"properties":{"latitude":52.5,"county":"Wexford","longitude":-6.75,"% irish speakers":37.4,"id":"a64vdjdwxo86","province":"Leinster"},"type":"Feature","geometry":{"type":"Point","coordinates":[-6.75,52.5]}},{"properties":{"latitude":53.0,"county":"Wicklow","longitude":-6.416667,"% irish speakers":38.0,"id":"a64vdjqc8x0f","province":"Leinster"},"type":"Feature","geometry":{"type":"Point","coordinates":[-6.416667,53.0]}},{"properties":{"latitude":52.833333,"county":"Clare","longitude":-9.0,"% irish speakers":48.8,"id":"a64vdjk4blzs","province":"Munster"},"type":"Feature","geometry":{"type":"Point","coordinates":[-9.0,52.833333]}},{"properties":{"latitude":51.966667,"county":"Cork","longitude":-8.583333,"% irish speakers":46.6,"id":"a64vdjj2ip4y","province":"Munster"},"type":"Feature","geometry":{"type":"Point","coordinates":[-8.583333,51.966667]}},{"properties":{"latitude":52.166667,"county":"Kerry","longitude":-9.75,"% irish speakers":47.2,"id":"a64vdjokvodu","province":"Munster"},"type":"Feature","geometry":{"type":"Point","coordinates":[-9.75,52.166667]}},{"properties":{"latitude":52.5,"county":"Limerick","longitude":-8.75,"% irish speakers":46.2,"id":"a64vdjffljpo","province":"Munster"},"type":"Feature","geometry":{"type":"Point","coordinates":[-8.75,52.5]}},{"properties":{"latitude":52.666667,"county":"Tipperary","longitude":-7.833333,"% irish speakers":45.6,"id":"a64vdjdmb657","province":"Munster"},"type":"Feature","geometry":{"type":"Point","coordinates":[-7.833333,52.666667]}},{"properties":{"latitude":52.25,"county":"Waterford","longitude":-7.5,"% irish speakers":44.2,"id":"a64vdjjzc3hd","province":"Munster"},"type":"Feature","geometry":{"type":"Point","coordinates":[-7.5,52.25]}},{"properties":{"latitude":53.333333,"county":"Galway","longitude":-9.0,"% irish speakers":49.8,"id":"a64vdjbvaaj2","province":"Connaught"},"type":"Feature","geometry":{"type":"Point","coordinates":[-9.0,53.333333]}},{"properties":{"latitude":54.117,"county":"Leitrim","longitude":-8.0,"% irish speakers":43.1,"id":"a64vdjqbh8p5","province":"Connaught"},"type":"Feature","geometry":{"type":"Point","coordinates":[-8.0,54.117]}},{"properties":{"latitude":53.9,"county":"Mayo","longitude":-9.25,"% irish speakers":47.2,"id":"a64vdjn2t5cr","province":"Connaught"},"type":"Feature","geometry":{"type":"Point","coordinates":[-9.25,53.9]}},{"properties":{"latitude":53.75,"county":"Roscommon","longitude":-8.25,"% irish speakers":45.0,"id":"a64vdjpyuhir","province":"Connaught"},"type":"Feature","geometry":{"type":"Point","coordinates":[-8.25,53.75]}},{"properties":{"latitude":54.25,"county":"Sligo","longitude":-8.666667,"% irish speakers":43.9,"id":"a64vdjercol1","province":"Connaught"},"type":"Feature","geometry":{"type":"Point","coordinates":[-8.666667,54.25]}},{"properties":{"latitude":53.916667,"county":"Cavan","longitude":-7.25,"% irish speakers":38.0,"id":"a64vdjo1o3wg","province":"Ulster"},"type":"Feature","geometry":{"type":"Point","coordinates":[-7.25,53.916667]}},{"properties":{"latitude":54.917,"county":"Donegal","longitude":-8.0,"% irish speakers":39.6,"id":"a64vdjp21e2x","province":"Ulster"},"type":"Feature","geometry":{"type":"Point","coordinates":[-8.0,54.917]}},{"properties":{"latitude":54.244,"county":"Monaghan","longitude":-7.04,"% irish speakers":39.6,"id":"a64vdjlfzb1m","province":"Ulster"},"type":"Feature","geometry":{"type":"Point","coordinates":[-7.04,54.244]}}],"is_temporal":false,"author":{"url":"http://www.cso.ie/en/census/census2006reports/","metadata":"","contact_name":"","contact_address":"","source":"Central Statistics Office Ireland","contact_phone":""},"source":"http://www.cso.ie/en/census/census2006reports/","pagination":{"sort":null,"start":0,"total":26,"limit":1000000},"state":"complete","tags":"","published":"2014-08-15T00:29:58-04:00","id":227963}