{"type":"FeatureCollection","data_type":"Dataset","url_type":null,"permissions":[{"permissions":{"download":true,"view":true},"group_id":"everyone"}],"classification":null,"title":"Percent Irish Speakers 1996","count":26,"stream_id":227962,"contributor":{"url":"http://geocommons.com/users/43227","name":"hockinas"},"data_attributes":null,"calculation_params":null,"icon_link":null,"link":"http://geocommons.com/overlays/227962.json","extent":[-9.75,51.9667,-6.25,54.917],"geometry_types":["point"],"unique_name":null,"name":"Percent Irish Speakers 1996","feature_count":26,"description":"This data was taken from the Central Statistics Office Ireland website. The numbers come directly from the 1996 Irish census and only contain the percent Irish Speakers for each Irish county in the year of 1996. The actual data set of these numbers was made in excel. ","next_feature":null,"is_raster":false,"short_classification":"Y","stats":{"latitude":{"max":54.917,"mean":53.2715898076923,"variance":0.551370865634242,"stdev":0.742543510936727,"min":51.966667,"median":53.333333},"longitude":{"max":-6.25,"mean":-7.70923076923077,"variance":0.926668677948745,"stdev":0.962636316554048,"min":-9.75,"median":-7.5},"% irish speakers":{"max":54.2,"mean":44.2576923076923,"variance":22.6305384615385,"stdev":4.75715655213684,"min":36.9,"median":44.4}},"features":[{"properties":{"latitude":52.666667,"county":"Carlow","geo_score":0.0,"% irish speakers":39.6,"longitude":-6.833333,"id":"a64vdjrxpt0a","province":"Leinster","geo_precision":"unmatched"},"type":"Feature","geometry":{"type":"Point","coordinates":[-6.833333,52.666667]}},{"properties":{"latitude":53.416667,"county":"Dublin","geo_score":0.0,"% irish speakers":38.4,"longitude":-6.25,"id":"a64vdjwbtat5","province":"Leinster","geo_precision":"unmatched"},"type":"Feature","geometry":{"type":"Point","coordinates":[-6.25,53.416667]}},{"properties":{"latitude":53.166667,"county":"Kildare","geo_score":0.0,"% irish speakers":44.2,"longitude":-6.75,"id":"a64vdk1az0nk","province":"Leinster","geo_precision":"unmatched"},"type":"Feature","geometry":{"type":"Point","coordinates":[-6.75,53.166667]}},{"properties":{"latitude":52.583333,"county":"Kilkenny","geo_score":0.0,"% irish speakers":43.8,"longitude":-7.25,"id":"a64vdjukb5pm","province":"Leinster","geo_precision":"unmatched"},"type":"Feature","geometry":{"type":"Point","coordinates":[-7.25,52.583333]}},{"properties":{"latitude":53.0,"county":"Laois","geo_score":0.0,"% irish speakers":44.7,"longitude":-7.4,"id":"a64vdjt80mpz","province":"Leinster","geo_precision":"unmatched"},"type":"Feature","geometry":{"type":"Point","coordinates":[-7.4,53.0]}},{"properties":{"latitude":53.666667,"county":"Longford","geo_score":0.0,"% irish speakers":43.5,"longitude":-7.75,"id":"a64vdk1unqzj","province":"Leinster","geo_precision":"unmatched"},"type":"Feature","geometry":{"type":"Point","coordinates":[-7.75,53.666667]}},{"properties":{"latitude":53.833333,"county":"Louth","geo_score":0.0,"% irish speakers":36.9,"longitude":-6.5,"id":"a64vdk13zw6s","province":"Leinster","geo_precision":"unmatched"},"type":"Feature","geometry":{"type":"Point","coordinates":[-6.5,53.833333]}},{"properties":{"latitude":53.666667,"county":"Meath","geo_score":0.0,"% irish speakers":41.5,"longitude":-6.666667,"id":"a64vdjwc9no8","province":"Leinster","geo_precision":"unmatched"},"type":"Feature","geometry":{"type":"Point","coordinates":[-6.666667,53.666667]}},{"properties":{"latitude":53.25,"county":"Offaly","geo_score":0.0,"% irish speakers":41.1,"longitude":-7.5,"id":"a64vdk686lgb","province":"Leinster","geo_precision":"unmatched"},"type":"Feature","geometry":{"type":"Point","coordinates":[-7.5,53.25]}},{"properties":{"latitude":53.5,"county":"Westmeath","geo_score":0.0,"% irish speakers":44.4,"longitude":-7.5,"id":"a64vdk72vig3","province":"Leinster","geo_precision":"unmatched"},"type":"Feature","geometry":{"type":"Point","coordinates":[-7.5,53.5]}},{"properties":{"latitude":52.5,"county":"Wexford","geo_score":0.0,"% irish speakers":37.4,"longitude":-6.75,"id":"a64vdjxsango","province":"Leinster","geo_precision":"unmatched"},"type":"Feature","geometry":{"type":"Point","coordinates":[-6.75,52.5]}},{"properties":{"latitude":53.0,"county":"Wicklow","geo_score":0.0,"% irish speakers":36.9,"longitude":-6.416667,"id":"a64vdjxykbp7","province":"Leinster","geo_precision":"unmatched"},"type":"Feature","geometry":{"type":"Point","coordinates":[-6.416667,53.0]}},{"properties":{"latitude":52.833333,"county":"Clare","geo_score":0.0,"% irish speakers":51.7,"longitude":-9.0,"id":"a64vdk3qe1o7","province":"Munster","geo_precision":"unmatched"},"type":"Feature","geometry":{"type":"Point","coordinates":[-9.0,52.833333]}},{"properties":{"latitude":51.966667,"county":"Cork","geo_score":0.0,"% irish speakers":47.1,"longitude":-8.583333,"id":"a64vdjr35it3","province":"Munster","geo_precision":"unmatched"},"type":"Feature","geometry":{"type":"Point","coordinates":[-8.583333,51.966667]}},{"properties":{"latitude":52.166667,"county":"Kerry","geo_score":0.0,"% irish speakers":51.1,"longitude":-9.75,"id":"a64vdjt2mngb","province":"Munster","geo_precision":"unmatched"},"type":"Feature","geometry":{"type":"Point","coordinates":[-9.75,52.166667]}},{"properties":{"latitude":52.5,"county":"Limerick","geo_score":0.0,"% irish speakers":49.1,"longitude":-8.75,"id":"a64vdk6vkas0","province":"Munster","geo_precision":"unmatched"},"type":"Feature","geometry":{"type":"Point","coordinates":[-8.75,52.5]}},{"properties":{"latitude":52.666667,"county":"Tipperary","geo_score":0.0,"% irish speakers":47.5,"longitude":-7.833333,"id":"a64vdk33tpnc","province":"Munster","geo_precision":"unmatched"},"type":"Feature","geometry":{"type":"Point","coordinates":[-7.833333,52.666667]}},{"properties":{"latitude":52.25,"county":"Waterford","geo_score":0.0,"% irish speakers":45.8,"longitude":-7.5,"id":"a64vdk31wgdi","province":"Munster","geo_precision":"unmatched"},"type":"Feature","geometry":{"type":"Point","coordinates":[-7.5,52.25]}},{"properties":{"latitude":53.333333,"county":"Galway","geo_score":0.0,"% irish speakers":54.2,"longitude":-9.0,"id":"a64vdk0g1j9g","province":"Connaught","geo_precision":"unmatched"},"type":"Feature","geometry":{"type":"Point","coordinates":[-9.0,53.333333]}},{"properties":{"latitude":54.117,"county":"Leitrim","geo_score":0.0,"% irish speakers":45.8,"longitude":-8.0,"id":"a64vdk57xqdw","province":"Connaught","geo_precision":"unmatched"},"type":"Feature","geometry":{"type":"Point","coordinates":[-8.0,54.117]}},{"properties":{"latitude":53.9,"county":"Mayo","geo_score":0.0,"% irish speakers":50.1,"longitude":-9.25,"id":"a64vdjreuft9","province":"Connaught","geo_precision":"unmatched"},"type":"Feature","geometry":{"type":"Point","coordinates":[-9.25,53.9]}},{"properties":{"latitude":53.75,"county":"Roscommon","geo_score":0.0,"% irish speakers":47.4,"longitude":-8.25,"id":"a64vdk5yv9qz","province":"Connaught","geo_precision":"unmatched"},"type":"Feature","geometry":{"type":"Point","coordinates":[-8.25,53.75]}},{"properties":{"latitude":54.25,"county":"Sligo","geo_score":0.0,"% irish speakers":46.2,"longitude":-8.666667,"id":"a64vdk22vvv1","province":"Connaught","geo_precision":"unmatched"},"type":"Feature","geometry":{"type":"Point","coordinates":[-8.666667,54.25]}},{"properties":{"latitude":53.916667,"county":"Cavan","geo_score":0.0,"% irish speakers":39.2,"longitude":-7.25,"id":"a64vdjztcc79","province":"Ulster","geo_precision":"unmatched"},"type":"Feature","geometry":{"type":"Point","coordinates":[-7.25,53.916667]}},{"properties":{"latitude":54.917,"county":"Donegal","geo_score":0.0,"% irish speakers":41.6,"longitude":-8.0,"id":"a64vdjrjie6m","province":"Ulster","geo_precision":"unmatched"},"type":"Feature","geometry":{"type":"Point","coordinates":[-8.0,54.917]}},{"properties":{"latitude":54.244,"county":"Monaghan","geo_score":0.0,"% irish speakers":41.5,"longitude":-7.04,"id":"a64vdjw7fbpk","province":"Ulster","geo_precision":"unmatched"},"type":"Feature","geometry":{"type":"Point","coordinates":[-7.04,54.244]}}],"is_temporal":false,"author":{"url":"http://www.cso.ie/en/census/census1996reports/","metadata":"","contact_name":"","contact_address":"","source":"Central Statistics Office Ireland","contact_phone":""},"source":"http://www.cso.ie/en/census/census1996reports/","pagination":{"sort":null,"start":0,"total":26,"limit":1000000},"state":"complete","tags":"","published":"2014-08-15T00:29:58-04:00","id":227962}