{"type":"FeatureCollection","data_type":"Dataset","url_type":null,"permissions":[{"permissions":{"download":true,"view":true},"group_id":"everyone"}],"classification":null,"title":"today_torn_11","count":19,"stream_id":228036,"contributor":{"url":"http://geocommons.com/users/28467","name":"bheberto"},"data_attributes":null,"calculation_params":null,"icon_link":null,"link":"http://geocommons.com/overlays/228036.json","extent":[-99.89,36.53,-97.69,40.14],"geometry_types":["point"],"unique_name":null,"name":"today_torn_11","feature_count":19,"description":"","next_feature":null,"is_raster":false,"short_classification":"Y","stats":{"lon":{"max":-97.69,"mean":-99.2363157894737,"variance":0.387146783625732,"stdev":0.622211204998537,"min":-99.89,"median":-99.4},"time":{"max":"2125/01/01 00:00:00 -0500","mean":"1968/11/23 07:34:06 -0500","variance":7.1530119987873e+18,"stdev":2674511543.96224,"min":"1832/12/31 23:59:58 -0456","median":"1955/01/01 00:00:00 -0500"},"lat":{"max":40.14,"mean":38.3147368421053,"variance":0.671770760233918,"stdev":0.819616227410071,"min":36.53,"median":38.19}},"features":[{"properties":{"lon":-99.71,"comments":"DAMAGE TO AN OLD SCHOOL HOUSE WAS REPORTED AT THIS LOCATION. DAMAGE TO OUTBUILDINGS WERE ALSO REPORTED ALONG 232 RD. (DDC)","time":{"end_time":"1834/01/01 00:00:00 -0456","original":"1833","granularity":"year","time":"1833/01/01 00:00:00 -0456"},"county":"HODGEMAN","f-scale":"UNK","id":"a65431kjv3kq","lat":38.02,"state":"KS","location":"7 S HANSTON"},"type":"Feature","geometry":{"type":"Point","coordinates":[-99.71,38.02]}},{"properties":{"lon":-99.89,"comments":"PUBLIC REPORTED A TORNADO CROSSING HIGHWAY 283 ON THE HODGEMAN AND FORD COUNTY LINE. (DDC)","time":{"end_time":"1841/01/01 00:00:00 -0456","original":"1840","granularity":"year","time":"1840/01/01 00:00:00 -0456"},"county":"HODGEMAN","f-scale":"UNK","id":"a65431jdhnj2","lat":37.92,"state":"KS","location":"10 N WRIGHT"},"type":"Feature","geometry":{"type":"Point","coordinates":[-99.89,37.92]}},{"properties":{"lon":-99.77,"comments":"THE TORNADO WAS REPORTED AS A CONE TORNADO","time":{"end_time":"1859/01/01 00:00:00 -0456","original":"1858","granularity":"year","time":"1858/01/01 00:00:00 -0456"},"county":"CLARK","f-scale":"UNK","id":"a65431m9ci2p","lat":37.26,"state":"KS","location":"5 N ASHLAND"},"type":"Feature","geometry":{"type":"Point","coordinates":[-99.77,37.26]}},{"properties":{"lon":-99.89,"comments":"PUBLIC REPORTED A TORNADO CROSSING HIGHWAY 283 ON THE HODGEMAN AND FORD COUNTY LINE. (DDC)","time":{"end_time":"1910/01/01 00:00:00 -0500","original":"1909","granularity":"year","time":"1909/01/01 00:00:00 -0500"},"county":"HODGEMAN","f-scale":"UNK","id":"a65431htq118","lat":37.92,"state":"KS","location":"10 N WRIGHT"},"type":"Feature","geometry":{"type":"Point","coordinates":[-99.89,37.92]}},{"properties":{"lon":-98.47,"comments":"STORM CHASER REPORTED A WRAPPED TORNADO 1.5 MILES SOUTH OF TIPTON. EMERGENCY MANAGEMENT HAD A REPORT OF SOME TIN TAKEN FROM A BUILDING IN THE SAME GENERAL AREA. (GID)","time":{"end_time":"1915/01/01 00:00:00 -0500","original":"1914","granularity":"year","time":"1914/01/01 00:00:00 -0500"},"county":"MITCHELL","f-scale":"UNK","id":"a65431n0qcwj","lat":39.32,"state":"KS","location":"1 S TIPTON"},"type":"Feature","geometry":{"type":"Point","coordinates":[-98.47,39.32]}},{"properties":{"lon":-97.86,"comments":"BRIEF TORNADO REPORTED ON GROUND 5 MILES WEST OF BYRON. (GID)","time":{"end_time":"1916/01/01 00:00:00 -0500","original":"1915","granularity":"year","time":"1915/01/01 00:00:00 -0500"},"county":"NUCKOLLS","f-scale":"UNK","id":"a65431d8orgr","lat":40.01,"state":"NE","location":"5 W BYRON"},"type":"Feature","geometry":{"type":"Point","coordinates":[-97.86,40.01]}},{"properties":{"lon":-97.69,"comments":"CHASER REPORTED A BRIEF TOUCH DOWN OF A RAIN WRAPPED TORNADO. DERIS WAS ALSO KICKING UP IN THE FIELD","time":{"end_time":"1931/01/01 00:00:00 -0500","original":"1930","granularity":"year","time":"1930/01/01 00:00:00 -0500"},"county":"THAYER","f-scale":"UNK","id":"a65431layvx8","lat":40.14,"state":"NE","location":"2 E DESHLER"},"type":"Feature","geometry":{"type":"Point","coordinates":[-97.69,40.14]}},{"properties":{"lon":-99.59,"comments":"(DDC)","time":{"end_time":"1951/01/01 00:00:00 -0500","original":"1950","granularity":"year","time":"1950/01/01 00:00:00 -0500"},"county":"HODGEMAN","f-scale":"UNK","id":"a65431gvlcaf","lat":38.15,"state":"KS","location":"2 E GRAY"},"type":"Feature","geometry":{"type":"Point","coordinates":[-99.59,38.15]}},{"properties":{"lon":-99.44,"comments":"(DDC)","time":{"end_time":"1955/01/01 00:00:00 -0500","original":"1954","granularity":"year","time":"1954/01/01 00:00:00 -0500"},"county":"PAWNEE","f-scale":"UNK","id":"a65431l754c3","lat":38.2,"state":"KS","location":"2 W ROZEL"},"type":"Feature","geometry":{"type":"Point","coordinates":[-99.44,38.2]}},{"properties":{"lon":-99.51,"comments":"(DDC)","time":{"end_time":"1956/01/01 00:00:00 -0500","original":"1955","granularity":"year","time":"1955/01/01 00:00:00 -0500"},"county":"PAWNEE","f-scale":"UNK","id":"a654319iacz5","lat":38.18,"state":"KS","location":"1 SE BURDETT"},"type":"Feature","geometry":{"type":"Point","coordinates":[-99.51,38.18]}},{"properties":{"lon":-99.51,"comments":"(DDC)","time":{"end_time":"1957/01/01 00:00:00 -0500","original":"1956","granularity":"year","time":"1956/01/01 00:00:00 -0500"},"county":"PAWNEE","f-scale":"UNK","id":"a65431i4shgu","lat":38.19,"state":"KS","location":"1 E BURDETT"},"type":"Feature","geometry":{"type":"Point","coordinates":[-99.51,38.19]}},{"properties":{"lon":-99.56,"comments":"SHERIFF REPORTED TORNADO 2 TO 3 MILES WEST OF BURDETTE. (DDC)","time":{"end_time":"1959/01/01 00:00:00 -0500","original":"1958","granularity":"year","time":"1958/01/01 00:00:00 -0500"},"county":"PAWNEE","f-scale":"UNK","id":"a65431jv70da","lat":38.19,"state":"KS","location":"2 W BURDETT"},"type":"Feature","geometry":{"type":"Point","coordinates":[-99.56,38.19]}},{"properties":{"lon":-99.31,"comments":"(DDC)","time":{"end_time":"2026/01/01 00:00:00 -0500","original":"2025","granularity":"year","time":"2025/01/01 00:00:00 -0500"},"county":"PAWNEE","f-scale":"UNK","id":"a65431mp21fs","lat":38.3,"state":"KS","location":"5 W ASH VALLEY"},"type":"Feature","geometry":{"type":"Point","coordinates":[-99.31,38.3]}},{"properties":{"lon":-99.4,"comments":"(DDC)","time":{"end_time":"2035/01/01 00:00:00 -0500","original":"2034","granularity":"year","time":"2034/01/01 00:00:00 -0500"},"county":"PAWNEE","f-scale":"UNK","id":"a65431ctwac4","lat":38.34,"state":"KS","location":"10 N ROZEL"},"type":"Feature","geometry":{"type":"Point","coordinates":[-99.4,38.34]}},{"properties":{"lon":-99.3,"comments":"(DDC)","time":{"end_time":"2044/01/01 00:00:00 -0500","original":"2043","granularity":"year","time":"2043/01/01 00:00:00 -0500"},"county":"PAWNEE","f-scale":"UNK","id":"a65431j4ks8w","lat":38.29,"state":"KS","location":"5 W ASH VALLEY"},"type":"Feature","geometry":{"type":"Point","coordinates":[-99.3,38.29]}},{"properties":{"lon":-99.31,"comments":"BRIEF TORNADO TOUCHDOWN JUST SOUTH OF THE TOWN OF RUSH CENTER. (DDC)","time":{"end_time":"2047/01/01 00:00:00 -0500","original":"2046","granularity":"year","time":"2046/01/01 00:00:00 -0500"},"county":"RUSH","f-scale":"UNK","id":"a65431nqdf9s","lat":38.45,"state":"KS","location":"1 S RUSH CENTER"},"type":"Feature","geometry":{"type":"Point","coordinates":[-99.31,38.45]}},{"properties":{"lon":-99.39,"comments":"BRIEF TOUCHDOWN (OUN)","time":{"end_time":"2060/01/01 00:00:00 -0500","original":"2059","granularity":"year","time":"2059/01/01 00:00:00 -0500"},"county":"WOODWARD","f-scale":"UNK","id":"a65431dgwl98","lat":36.53,"state":"OK","location":"7 N WOODWARD"},"type":"Feature","geometry":{"type":"Point","coordinates":[-99.39,36.53]}},{"properties":{"lon":-99.14,"comments":"(DDC)","time":{"end_time":"2106/01/01 00:00:00 -0500","original":"2105","granularity":"year","time":"2105/01/01 00:00:00 -0500"},"county":"RUSH","f-scale":"UNK","id":"a65431k9b2ib","lat":38.47,"state":"KS","location":"2 E TIMKEN"},"type":"Feature","geometry":{"type":"Point","coordinates":[-99.14,38.47]}},{"properties":{"lon":-98.75,"comments":"(DDC)","time":{"end_time":"2126/01/01 00:00:00 -0500","original":"2125","granularity":"year","time":"2125/01/01 00:00:00 -0500"},"county":"STAFFORD","f-scale":"UNK","id":"a65431dhn6kq","lat":38.1,"state":"KS","location":"5 W HUDSON"},"type":"Feature","geometry":{"type":"Point","coordinates":[-98.75,38.1]}}],"is_temporal":true,"author":{"url":"","metadata":null,"contact_name":null,"contact_address":null,"source":null,"contact_phone":null},"source":"","pagination":{"sort":null,"start":0,"total":19,"limit":1000000},"state":"complete","tags":"","published":"2014-08-15T00:37:41-04:00","id":228036}