{"type":"FeatureCollection","url":"http://www.spc.noaa.gov/climo/reports/today_wind.csv","data_type":"Data Feed","url_type":"csv","permissions":[{"permissions":{"download":true,"view":true},"group_id":"everyone"}],"classification":null,"title":"today_wind.csv","count":51,"stream_id":228055,"contributor":{"url":"http://geocommons.com/users/28467","name":"bheberto"},"data_attributes":null,"calculation_params":null,"icon_link":null,"link":"http://geocommons.com/overlays/228055.json","extent":[-99.31,37.51,-92.49,41.72],"geometry_types":["point"],"unique_name":null,"name":"today_wind.csv","feature_count":51,"description":"","next_feature":null,"is_raster":false,"short_classification":"Y","stats":{"lon":{"max":-92.49,"mean":-96.124705882353,"variance":4.18744541176471,"stdev":2.0463248548959,"min":-99.31,"median":-95.89},"time":{"max":"2355/01/01 00:00:00 -0500","mean":"1597/10/14 00:57:30 -0456","variance":7.13813666343282e+20,"stdev":26717291523.3427,"min":"38/12/31 23:59:58 -0456","median":"2000/01/01 00:00:00 -0500"},"lat":{"max":41.72,"mean":40.4472549019608,"variance":1.18935631372549,"stdev":1.09057613843578,"min":37.51,"median":40.74}},"features":[{"properties":{"lon":-99.31,"comments":"TREE LIMBS WERE BLOWN ACROSS THE ROAD. A PIVOT IRRIGATION SYSTEM WAS BLOWN OVER AND A POWER POLE WAS SNAPPED OFF NEAR THE BASE. THIS COULD HAVE BEEN A TORNADO OR STRAIG (DDC)","time":{"end_time":"1717/01/01 00:00:00 -0456","original":"1716","granularity":"year","time":"1716/01/01 00:00:00 -0456"},"county":"RUSH","speed":"UNK","id":"a636izwoykdr","lat":38.45,"state":"KS","location":"1 S RUSH CENTER"},"type":"Feature","geometry":{"type":"Point","coordinates":[-99.31,38.45]}},{"properties":{"lon":-98.0,"comments":"16 INCH DIAMETER TREE BLOWN DOWN ON NW EDGE OF ALBION. (OAX)","time":{"end_time":"1717/01/01 00:00:00 -0456","original":"1716","granularity":"year","time":"1716/01/01 00:00:00 -0456"},"county":"BOONE","speed":"UNK","id":"a636j039grm6","lat":41.69,"state":"NE","location":"NW ALBION"},"type":"Feature","geometry":{"type":"Point","coordinates":[-98.0,41.69]}},{"properties":{"lon":-99.31,"comments":"TREE LIMBS WERE BLOWN ACROSS THE ROAD. A POWER POLE WAS SNAPPED OFF NEAR THE BASE. AN ENTIRE IRRIGATION PIVOT SYSTEM WAS BLOWN OVER. THIS COULD HAVE BEEN EITHER STRAIGH (DDC)","time":{"end_time":"1718/01/01 00:00:00 -0456","original":"1717","granularity":"year","time":"1717/01/01 00:00:00 -0456"},"county":"RUSH","speed":"UNK","id":"a636j059h5jc","lat":38.45,"state":"KS","location":"1 S RUSH CENTER"},"type":"Feature","geometry":{"type":"Point","coordinates":[-99.31,38.45]}},{"properties":{"lon":-99.31,"comments":"TREE LIMBS WERE THROWN ACROSS THE ROAD. A POWER POLE WAS SNAPPED OFF NEAR THE BASE. AN ENTIRE IRRIGATION SYSTEM WAS BLOWN OVER. THIS COULD HAVE BEEN STRAIGHT LINE WINDS (DDC)","time":{"end_time":"1718/01/01 00:00:00 -0456","original":"1717","granularity":"year","time":"1717/01/01 00:00:00 -0456"},"county":"RUSH","speed":"UNK","id":"a636j05pe864","lat":38.46,"state":"KS","location":"S RUSH CENTER"},"type":"Feature","geometry":{"type":"Point","coordinates":[-99.31,38.46]}},{"properties":{"lon":-98.85,"comments":"ON HIGHWAY 70 AT MILE MARKER 188 A FEW ROADS SIGNS ARE BLOWN OVER OR SNAPPED. TRASH BLOWN AROUND AT REST AREA EAST OF RUSSELL. (ICT)","time":{"end_time":"1821/01/01 00:00:00 -0456","original":"1820","granularity":"year","time":"1820/01/01 00:00:00 -0456"},"county":"RUSSELL","speed":"UNK","id":"a636j03jfzn7","lat":38.89,"state":"KS","location":"RUSSELL"},"type":"Feature","geometry":{"type":"Point","coordinates":[-98.85,38.89]}},{"properties":{"lon":-98.82,"comments":"(ICT)","time":{"end_time":"1823/01/01 00:00:00 -0456","original":"1822","granularity":"year","time":"1822/01/01 00:00:00 -0456"},"county":"RUSSELL","speed":"74","id":"a636izwhbwan","lat":38.87,"state":"KS","location":"RUSSELL AIRPORT"},"type":"Feature","geometry":{"type":"Point","coordinates":[-98.82,38.87]}},{"properties":{"lon":-98.85,"comments":"ELECTRIC LINES DOWN AND POWER POLE LINES SNAPPED. (ICT)","time":{"end_time":"1834/01/01 00:00:00 -0456","original":"1833","granularity":"year","time":"1833/01/01 00:00:00 -0456"},"county":"RUSSELL","speed":"UNK","id":"a636izsdhgg3","lat":38.86,"state":"KS","location":"2 S RUSSELL"},"type":"Feature","geometry":{"type":"Point","coordinates":[-98.85,38.86]}},{"properties":{"lon":-98.89,"comments":"OUT BUILDING DAMAGED WITH DEBRI SCATTERED 3/4 OF MILE NORTHEAST OF IMPACT. (ICT)","time":{"end_time":"1834/01/01 00:00:00 -0456","original":"1833","granularity":"year","time":"1833/01/01 00:00:00 -0456"},"county":"RUSSELL","speed":"UNK","id":"a636j0147vkk","lat":38.86,"state":"KS","location":"3 SW RUSSELL"},"type":"Feature","geometry":{"type":"Point","coordinates":[-98.89,38.86]}},{"properties":{"lon":-98.54,"comments":"(ICT)","time":{"end_time":"1846/01/01 00:00:00 -0456","original":"1845","granularity":"year","time":"1845/01/01 00:00:00 -0456"},"county":"RUSSELL","speed":"65","id":"a636j007pe26","lat":39.12,"state":"KS","location":"4 N LUCAS"},"type":"Feature","geometry":{"type":"Point","coordinates":[-98.54,39.12]}},{"properties":{"lon":-98.54,"comments":"SOME OUTBUILDINGS DAMAGED OR DESTROYED ALONG WITH POWER POLE LINES DOWN. (ICT)","time":{"end_time":"1855/01/01 00:00:00 -0456","original":"1854","granularity":"year","time":"1854/01/01 00:00:00 -0456"},"county":"RUSSELL","speed":"UNK","id":"a636j01iy6tk","lat":39.06,"state":"KS","location":"LUCAS"},"type":"Feature","geometry":{"type":"Point","coordinates":[-98.54,39.06]}},{"properties":{"lon":-98.59,"comments":"POWER POLES DOWN AND POWER LINES DOWN ACROSS HIGHWAY 18 BETWEEN LUCAS AND LURAY. (ICT)","time":{"end_time":"1921/01/01 00:00:00 -0500","original":"1920","granularity":"year","time":"1920/01/01 00:00:00 -0500"},"county":"RUSSELL","speed":"UNK","id":"a636j05h95z5","lat":39.06,"state":"KS","location":"3 W LUCAS"},"type":"Feature","geometry":{"type":"Point","coordinates":[-98.59,39.06]}},{"properties":{"lon":-98.31,"comments":"POWER LINES REPORTED DOWN IN THE GLEN ELDER RESERVIOR AREA. (GID)","time":{"end_time":"1931/01/01 00:00:00 -0500","original":"1930","granularity":"year","time":"1930/01/01 00:00:00 -0500"},"county":"MITCHELL","speed":"UNK","id":"a636j03bh6u8","lat":39.5,"state":"KS","location":"GLEN ELDER"},"type":"Feature","geometry":{"type":"Point","coordinates":[-98.31,39.5]}},{"properties":{"lon":-98.11,"comments":"(GID)","time":{"end_time":"1946/01/01 00:00:00 -0500","original":"1945","granularity":"year","time":"1945/01/01 00:00:00 -0400"},"county":"MITCHELL","speed":"60","id":"a636j046sjto","lat":39.47,"state":"KS","location":"BELOIT"},"type":"Feature","geometry":{"type":"Point","coordinates":[-98.11,39.47]}},{"properties":{"lon":-94.74,"comments":"FARM OUTBUILDING DESTROYED BY EITHER WIND OR TORANDO. THE EVENT WAS NOT OBSERVED. (DMX)","time":{"end_time":"2001/01/01 00:00:00 -0500","original":"2000","granularity":"year","time":"2000/01/01 00:00:00 -0500"},"county":"ADAMS","speed":"UNK","id":"a636j04gqptk","lat":41.07,"state":"IA","location":"5 N CORNING"},"type":"Feature","geometry":{"type":"Point","coordinates":[-94.74,41.07]}},{"properties":{"lon":-97.3,"comments":"SEVERAL IRRIGATION PIVOTS OVERTURNED AND ONE FOOT TREES DOWNED. (OAX)","time":{"end_time":"2011/01/01 00:00:00 -0500","original":"2010","granularity":"year","time":"2010/01/01 00:00:00 -0500"},"county":"JEFFERSON","speed":"UNK","id":"a636izskab87","lat":40.28,"state":"NE","location":"3 S DAYKIN"},"type":"Feature","geometry":{"type":"Point","coordinates":[-97.3,40.28]}},{"properties":{"lon":-97.3,"comments":"24 INCH DIAMETER TREES BLOWN DOWN...SOME ONTO HOMES. (OAX)","time":{"end_time":"2022/01/01 00:00:00 -0500","original":"2021","granularity":"year","time":"2021/01/01 00:00:00 -0500"},"county":"JEFFERSON","speed":"UNK","id":"a636j01cfpia","lat":40.32,"state":"NE","location":"DAYKIN"},"type":"Feature","geometry":{"type":"Point","coordinates":[-97.3,40.32]}},{"properties":{"lon":-97.39,"comments":"DAMAGE REPORTED AT FARMSTEAD NORTH OF ALEXANDRIA. GRAIN BIN LOST...TIN FROM A SHED BLOWN OFF...SOME SIDING AND WINDOW DAMAGE TO THE HOME AT THE FARMSTEAD. IN THE SAME A (GID)","time":{"end_time":"2035/01/01 00:00:00 -0500","original":"2034","granularity":"year","time":"2034/01/01 00:00:00 -0500"},"county":"THAYER","speed":"UNK","id":"a636izvvt941","lat":40.26,"state":"NE","location":"1 N ALEXANDRIA"},"type":"Feature","geometry":{"type":"Point","coordinates":[-97.39,40.26]}},{"properties":{"lon":-97.46,"comments":"(TOP)","time":{"end_time":"2044/01/01 00:00:00 -0500","original":"2043","granularity":"year","time":"2043/01/01 00:00:00 -0500"},"county":"REPUBLIC","speed":"60","id":"a636j05ebkoj","lat":39.85,"state":"KS","location":"3 N CUBA"},"type":"Feature","geometry":{"type":"Point","coordinates":[-97.46,39.85]}},{"properties":{"lon":-94.76,"comments":"LARGE BRANCHES DOWN (DMX)","time":{"end_time":"2056/01/01 00:00:00 -0500","original":"2055","granularity":"year","time":"2055/01/01 00:00:00 -0500"},"county":"ADAMS","speed":"UNK","id":"a636izy5h535","lat":41.12,"state":"IA","location":"9 N CORNING"},"type":"Feature","geometry":{"type":"Point","coordinates":[-94.76,41.12]}},{"properties":{"lon":-94.02,"comments":"WIND BLOWING OVER ROAD SIGNS. (DMX)","time":{"end_time":"2142/01/01 00:00:00 -0500","original":"2141","granularity":"year","time":"2141/01/01 00:00:00 -0500"},"county":"MADISON","speed":"UNK","id":"a636j02a378u","lat":41.34,"state":"IA","location":"WINTERSET"},"type":"Feature","geometry":{"type":"Point","coordinates":[-94.02,41.34]}},{"properties":{"lon":-96.38,"comments":"4 INCH DIAMETER TREE LIMB BLOWN DOWN. 4 BY 8 FOOT SHEET OF ALUMINUM ROOFING TORN OFF SHED. (OAX)","time":{"end_time":"2153/01/01 00:00:00 -0500","original":"2152","granularity":"year","time":"2152/01/01 00:00:00 -0500"},"county":"JOHNSON","speed":"UNK","id":"a636j02bcv40","lat":40.46,"state":"NE","location":"STERLING"},"type":"Feature","geometry":{"type":"Point","coordinates":[-96.38,40.46]}},{"properties":{"lon":-96.38,"comments":"2 FOOT DIAMETER TREES BLOWN OVER. ANNOUNCER BOOTH AT THE FOOTBALL FIELD DESTROYED. (OAX)","time":{"end_time":"2201/01/01 00:00:00 -0500","original":"2200","granularity":"year","time":"2200/01/01 00:00:00 -0500"},"county":"JOHNSON","speed":"UNK","id":"a636izwqdwzi","lat":40.46,"state":"NE","location":"STERLING"},"type":"Feature","geometry":{"type":"Point","coordinates":[-96.38,40.46]}},{"properties":{"lon":-96.05,"comments":"IRRIGATION PIVOT DESTROYED. TREES TWISTED. MACHINE SHED DESTROYED. NEAR INTERSECTION OF 736 AND 629 ROAD. (OAX)","time":{"end_time":"2211/01/01 00:00:00 -0500","original":"2210","granularity":"year","time":"2210/01/01 00:00:00 -0500"},"county":"NEMAHA","speed":"UNK","id":"a636izv2wswv","lat":40.51,"state":"NE","location":"2 SW TALMAGE"},"type":"Feature","geometry":{"type":"Point","coordinates":[-96.05,40.51]}},{"properties":{"lon":-96.16,"comments":"SIGNIFICANT DAMAGE TO A HOME. (OAX)","time":{"end_time":"2211/01/01 00:00:00 -0500","original":"2210","granularity":"year","time":"2210/01/01 00:00:00 -0500"},"county":"OTOE","speed":"UNK","id":"a636j01gasop","lat":40.52,"state":"NE","location":"1 N COOK"},"type":"Feature","geometry":{"type":"Point","coordinates":[-96.16,40.52]}},{"properties":{"lon":-95.86,"comments":"(OAX)","time":{"end_time":"2229/01/01 00:00:00 -0500","original":"2228","granularity":"year","time":"2228/01/01 00:00:00 -0500"},"county":"OTOE","speed":"61","id":"a636j03athzr","lat":40.68,"state":"NE","location":"NEBRASKA CITY"},"type":"Feature","geometry":{"type":"Point","coordinates":[-95.86,40.68]}},{"properties":{"lon":-95.89,"comments":"6 HOMES DAMAGED...2 OF WHICH MAY NOT BE LIVABLE. 50 TO 100 TREES IN AN ORCHARD LAYED FLAT A LITTLE BIT SOUTH. TIME ESTIMATED. (OAX)","time":{"end_time":"2231/01/01 00:00:00 -0500","original":"2230","granularity":"year","time":"2230/01/01 00:00:00 -0500"},"county":"OTOE","speed":"UNK","id":"a636izyq5usl","lat":40.74,"state":"NE","location":"5 NNW NEBRASKA CITY"},"type":"Feature","geometry":{"type":"Point","coordinates":[-95.89,40.74]}},{"properties":{"lon":-95.92,"comments":"ON HIGHWAY 75","time":{"end_time":"2239/01/01 00:00:00 -0500","original":"2238","granularity":"year","time":"2238/01/01 00:00:00 -0500"},"county":"CASS","speed":"78","id":"a636izx34spf","lat":40.8,"state":"NE","location":"1 S UNION"},"type":"Feature","geometry":{"type":"Point","coordinates":[-95.92,40.8]}},{"properties":{"lon":-95.79,"comments":"5 SEMI TRUCKS BLOWN OFF INTERSTATE 29 BETWEEN MILE MARKER 16 AND 18. (OAX)","time":{"end_time":"2241/01/01 00:00:00 -0500","original":"2240","granularity":"year","time":"2240/01/01 00:00:00 -0500"},"county":"FREMONT","speed":"UNK","id":"a636j04h2wen","lat":40.79,"state":"IA","location":"3 SW THURMAN"},"type":"Feature","geometry":{"type":"Point","coordinates":[-95.79,40.79]}},{"properties":{"lon":-95.4,"comments":"2 FOOT DIAMETER TREES BLOWN DOWN. (OAX)","time":{"end_time":"2259/01/01 00:00:00 -0500","original":"2258","granularity":"year","time":"2258/01/01 00:00:00 -0500"},"county":"MILLS","speed":"UNK","id":"a636j04mxf6t","lat":41.02,"state":"IA","location":"EMERSON"},"type":"Feature","geometry":{"type":"Point","coordinates":[-95.4,41.02]}},{"properties":{"lon":-95.28,"comments":"GUST MEASURED BY WEATHER STATION AT 4 FT HEIGHT. DAMAGE TO TREES AND POWER POLES AND SOME STRUCTURAL DAMAGE. (OAX)","time":{"end_time":"2311/01/01 00:00:00 -0500","original":"2310","granularity":"year","time":"2310/01/01 00:00:00 -0500"},"county":"MONTGOMERY","speed":"78","id":"a636j06na4gy","lat":41.05,"state":"IA","location":"4 NW RED OAK"},"type":"Feature","geometry":{"type":"Point","coordinates":[-95.28,41.05]}},{"properties":{"lon":-95.89,"comments":"LARGE TREES DOWN IN THE BEAVER LAKE AREA (OAX)","time":{"end_time":"2312/01/01 00:00:00 -0500","original":"2311","granularity":"year","time":"2311/01/01 00:00:00 -0500"},"county":"CASS","speed":"UNK","id":"a636j076od6k","lat":40.94,"state":"NE","location":"5 S PLATTSMOUTH"},"type":"Feature","geometry":{"type":"Point","coordinates":[-95.89,40.94]}},{"properties":{"lon":-95.09,"comments":"WINDS ESTIMATED AT 60 MPH. SEVERAL TREE LIMBS BROKEN","time":{"end_time":"2326/01/01 00:00:00 -0500","original":"2325","granularity":"year","time":"2325/01/01 00:00:00 -0500"},"county":"PAGE","speed":"UNK","id":"a636izvjo0np","lat":40.7,"state":"IA","location":"4 SW CLARINDA"},"type":"Feature","geometry":{"type":"Point","coordinates":[-95.09,40.7]}},{"properties":{"lon":-95.01,"comments":"SHINGLES BLOWN OFF HOME. SMALL BRANCHES BROKEN OFF. (DMX)","time":{"end_time":"2345/01/01 00:00:00 -0500","original":"2344","granularity":"year","time":"2344/01/01 00:00:00 -0500"},"county":"CASS","speed":"UNK","id":"a636j00l6lp6","lat":41.4,"state":"IA","location":"ATLANTIC"},"type":"Feature","geometry":{"type":"Point","coordinates":[-95.01,41.4]}},{"properties":{"lon":-94.56,"comments":"LARGE TREE KNOCKED DOWN OVER THE ROAD NEAR THE INTERSECTION OF HIGHWAY 49 AND HIGHWAY 34. (DMX)","time":{"end_time":"2356/01/01 00:00:00 -0500","original":"2355","granularity":"year","time":"2355/01/01 00:00:00 -0500"},"county":"TAYLOR","speed":"UNK","id":"a636izzwgpeq","lat":40.9,"state":"IA","location":"1 N LENOX"},"type":"Feature","geometry":{"type":"Point","coordinates":[-94.56,40.9]}},{"properties":{"lon":-94.36,"comments":"LARGE TREE KNOCKED DOWN OVER THE ROAD NEAR THE INTERSECTION OF HIGHWAY 49 AND HIGHWAY 34. (DMX)","time":{"end_time":"2356/01/01 00:00:00 -0500","original":"2355","granularity":"year","time":"2355/01/01 00:00:00 -0500"},"county":"UNION","speed":"UNK","id":"a636izvb0nhv","lat":41.07,"state":"IA","location":"1 N CRESTON"},"type":"Feature","geometry":{"type":"Point","coordinates":[-94.36,41.07]}},{"properties":{"lon":-94.36,"comments":"20 INCH TREES DOWN. STRUCTURAL AND ROOF DAMAGE TO HOSPITAL. LARGE TREES UPROOTED. (DMX)","time":{"end_time":"2025/01/01 00:00:00 -0500","original":"0024","granularity":"year","time":"2024/01/01 00:00:00 -0500"},"county":"UNION","speed":"UNK","id":"a636j070j5u9","lat":41.06,"state":"IA","location":"CRESTON"},"type":"Feature","geometry":{"type":"Point","coordinates":[-94.36,41.06]}},{"properties":{"lon":-94.02,"comments":"ESTIMATED 60 MPH GUST AT INTERSECTION OF HIGHWAYS 169 AND 92 ON WEST SIDE OF WINTERSET. (DMX)","time":{"end_time":"2031/01/01 00:00:00 -0500","original":"0030","granularity":"year","time":"2030/01/01 00:00:00 -0500"},"county":"MADISON","speed":"60","id":"a636j07sjben","lat":41.34,"state":"IA","location":"WINTERSET"},"type":"Feature","geometry":{"type":"Point","coordinates":[-94.02,41.34]}},{"properties":{"lon":-93.98,"comments":"(DMX)","time":{"end_time":"40/01/01 00:00:00 -0456","original":"0039","granularity":"year","time":"39/01/01 00:00:00 -0456"},"county":"DALLAS","speed":"70","id":"a636izrnw705","lat":41.63,"state":"IA","location":"4 S DALLAS CENTER"},"type":"Feature","geometry":{"type":"Point","coordinates":[-93.98,41.63]}},{"properties":{"lon":-93.79,"comments":"REPORTED NORTH OF THE JORDAN CREEK MALL. (DMX)","time":{"end_time":"45/01/01 00:00:00 -0456","original":"0044","granularity":"year","time":"44/01/01 00:00:00 -0456"},"county":"DALLAS","speed":"60","id":"a636izwyazca","lat":41.57,"state":"IA","location":"2 W WEST DES MOINES"},"type":"Feature","geometry":{"type":"Point","coordinates":[-93.79,41.57]}},{"properties":{"lon":-93.98,"comments":"12-13 TREE SNAPPED AT BASE. (DMX)","time":{"end_time":"46/01/01 00:00:00 -0456","original":"0045","granularity":"year","time":"45/01/01 00:00:00 -0456"},"county":"DALLAS","speed":"UNK","id":"a636izsdns09","lat":41.63,"state":"IA","location":"4 S DALLAS CENTER"},"type":"Feature","geometry":{"type":"Point","coordinates":[-93.98,41.63]}},{"properties":{"lon":-93.62,"comments":"POWER LINES DOWN...POWER OUTAGES...4-5 INCHES RUNNING WATER IN STREETS DUE TO HEAVY RAINFALL. (DMX)","time":{"end_time":"51/01/01 00:00:00 -0456","original":"0050","granularity":"year","time":"50/01/01 00:00:00 -0456"},"county":"POLK","speed":"UNK","id":"a636j049eupe","lat":41.58,"state":"IA","location":"DES MOINES"},"type":"Feature","geometry":{"type":"Point","coordinates":[-93.62,41.58]}},{"properties":{"lon":-93.62,"comments":"SOUTH WIND AT 65 MPH AT BLANK PARK ZOO IN SOUTH DES MOINES. (DMX)","time":{"end_time":"52/01/01 00:00:00 -0456","original":"0051","granularity":"year","time":"51/01/01 00:00:00 -0456"},"county":"POLK","speed":"65","id":"a636izzbxrrk","lat":41.58,"state":"IA","location":"DES MOINES"},"type":"Feature","geometry":{"type":"Point","coordinates":[-93.62,41.58]}},{"properties":{"lon":-93.61,"comments":"10 INCH DIAMETER LIMBS DOWN ALONG EAST 18TH STREET. (DMX)","time":{"end_time":"54/01/01 00:00:00 -0456","original":"0053","granularity":"year","time":"53/01/01 00:00:00 -0456"},"county":"POLK","speed":"UNK","id":"a636izxk86qn","lat":41.62,"state":"IA","location":"3 N DES MOINES"},"type":"Feature","geometry":{"type":"Point","coordinates":[-93.61,41.62]}},{"properties":{"lon":-93.58,"comments":"60 TO 65 MPH WINDS...NO DAMAGE REPORTS YET. WIND LASTED ABOUT 10 MPH. (DMX)","time":{"end_time":"56/01/01 00:00:00 -0456","original":"0055","granularity":"year","time":"55/01/01 00:00:00 -0456"},"county":"POLK","speed":"65","id":"a636j07w6dd6","lat":41.72,"state":"IA","location":"2 NNW ANKENY AIRPORT"},"type":"Feature","geometry":{"type":"Point","coordinates":[-93.58,41.72]}},{"properties":{"lon":-93.69,"comments":"SMALL BRANCHES BROKEN OFF. MINOR STREET FLOODING. (DMX)","time":{"end_time":"60/01/01 00:00:00 -0456","original":"0059","granularity":"year","time":"59/01/01 00:00:00 -0456"},"county":"POLK","speed":"UNK","id":"a636izzxdgmm","lat":41.68,"state":"IA","location":"1 ESE JOHNSTON"},"type":"Feature","geometry":{"type":"Point","coordinates":[-93.69,41.68]}},{"properties":{"lon":-93.62,"comments":"LARGE TREES DOWN NEAR 18TH AND WOODLAWN AND NEAR SHERMAN HOYT AREA. SIGNIFICANT TREE DAMAGE REPORTED. MEDIA REPORT RELAYED BY WOI TV. (DMX)","time":{"end_time":"2003/01/01 00:00:00 -0500","original":"0102","granularity":"year","time":"2002/01/01 00:00:00 -0500"},"county":"POLK","speed":"UNK","id":"a636izu31zh0","lat":41.58,"state":"IA","location":"DES MOINES"},"type":"Feature","geometry":{"type":"Point","coordinates":[-93.62,41.58]}},{"properties":{"lon":-93.1,"comments":"TREES DOWN AND DIME SIZE HAIL REPORTED. (DMX)","time":{"end_time":"2030/01/01 00:00:00 -0500","original":"0129","granularity":"year","time":"2029/01/01 00:00:00 -0500"},"county":"MARION","speed":"UNK","id":"a636j0144iqg","lat":41.32,"state":"IA","location":"KNOXVILLE"},"type":"Feature","geometry":{"type":"Point","coordinates":[-93.1,41.32]}},{"properties":{"lon":-92.49,"comments":"MEASURED BY AWOS SITE AT THE AIRPORT. TIME ESTIMATED FROM RADAR. (DMX)","time":{"end_time":"223/01/01 00:00:00 -0456","original":"0222","granularity":"year","time":"222/01/01 00:00:00 -0456"},"county":"MAHASKA","speed":"97","id":"a636izv45ffh","lat":41.23,"state":"IA","location":"SE OSKALOOSA AIRPORT"},"type":"Feature","geometry":{"type":"Point","coordinates":[-92.49,41.23]}},{"properties":{"lon":-98.67,"comments":"PIVOT ROLLED OVER. (GID)","time":{"end_time":"238/01/01 00:00:00 -0456","original":"0237","granularity":"year","time":"237/01/01 00:00:00 -0456"},"county":"WEBSTER","speed":"UNK","id":"a636izsygo10","lat":40.3,"state":"NE","location":"3 E CAMPBELL"},"type":"Feature","geometry":{"type":"Point","coordinates":[-98.67,40.3]}},{"properties":{"lon":-98.31,"comments":"NICKEL HAIL ALSO (GID)","time":{"end_time":"304/01/01 00:00:00 -0456","original":"0303","granularity":"year","time":"303/01/01 00:00:00 -0456"},"county":"ADAMS","speed":"60","id":"a636j00952r0","lat":40.44,"state":"NE","location":"7 E AYR"},"type":"Feature","geometry":{"type":"Point","coordinates":[-98.31,40.44]}},{"properties":{"lon":-97.5,"comments":"(ICT)","time":{"end_time":"307/01/01 00:00:00 -0456","original":"0306","granularity":"year","time":"306/01/01 00:00:00 -0456"},"county":"SEDGWICK","speed":"70","id":"a636izrurg7k","lat":37.51,"state":"KS","location":"CLEARWATER"},"type":"Feature","geometry":{"type":"Point","coordinates":[-97.5,37.51]}}],"is_temporal":true,"author":{"url":"","metadata":null,"contact_name":null,"contact_address":null,"source":null,"contact_phone":null},"source":"","pagination":{"sort":null,"start":0,"total":51,"limit":1000000},"state":"complete","tags":"","published":"2014-08-15T00:41:22-04:00","id":228055}