{"type":"FeatureCollection","data_type":"Dataset","url_type":null,"permissions":[{"permissions":{"download":true,"view":true},"group_id":"everyone"}],"classification":null,"title":"April 14, 2012 - Tornado reports","count":121,"stream_id":228144,"contributor":{"url":"http://geocommons.com/users/37944","name":"ExaminerWeather"},"data_attributes":null,"calculation_params":null,"icon_link":null,"link":"http://geocommons.com/overlays/228144.json","extent":[-100.87,36.26,-93.8,41.65],"geometry_types":["point"],"unique_name":null,"name":"April 14, 2012 - Tornado reports","feature_count":121,"description":"Damaging wind reports received by the Storm Prediction Center during the severe weather outbreak on April 14, 2012.","next_feature":null,"is_raster":false,"short_classification":"Y","stats":{"lon":{"max":-93.8,"mean":-98.0919834710744,"variance":1.36348269972452,"stdev":1.1676826194324,"min":-100.87,"median":-97.76},"time":{"max":2355,"mean":982.96694214876,"variance":906057.215564738,"stdev":951.870377501442,"min":1,"median":359},"lat":{"max":41.65,"mean":38.2698347107438,"variance":1.29968163911846,"stdev":1.14003580606859,"min":36.26,"median":38.18}},"features":[{"properties":{"lon":-99.71,"comments":"DAMAGE TO AN OLD SCHOOL HOUSE WAS REPORTED AT THIS LOCATION. DAMAGE TO OUTBUILDINGS WERE ALSO REPORTED ALONG 232 RD. (DDC)","time":1833,"county":"HODGEMAN","column_9":null,"f-scale":"UNK","id":"a62in0tb1fyo","lat":38.02,"state":"KS","location":"7 S HANSTON"},"type":"Feature","geometry":{"type":"Point","coordinates":[-99.71,38.02]}},{"properties":{"lon":-99.89,"comments":"PUBLIC REPORTED A TORNADO CROSSING HIGHWAY 283 ON THE HODGEMAN AND FORD COUNTY LINE. (DDC)","time":1840,"county":"HODGEMAN","column_9":null,"f-scale":"UNK","id":"a62in0ue4gmy","lat":37.92,"state":"KS","location":"10 N WRIGHT"},"type":"Feature","geometry":{"type":"Point","coordinates":[-99.89,37.92]}},{"properties":{"lon":-99.77,"comments":"THE TORNADO WAS REPORTED AS A CONE TORNADO FROM A SPOTTER 10 MILES MILES WEST OF ASHLAND. (DDC)","time":1858,"county":"CLARK","column_9":null,"f-scale":"UNK","id":"a62in1232x6p","lat":37.26,"state":"KS","location":"5 N ASHLAND"},"type":"Feature","geometry":{"type":"Point","coordinates":[-99.77,37.26]}},{"properties":{"lon":-99.89,"comments":"PUBLIC REPORTED A TORNADO CROSSING HIGHWAY 283 ON THE HODGEMAN AND FORD COUNTY LINE. (DDC)","time":1909,"county":"HODGEMAN","column_9":null,"f-scale":"UNK","id":"a62in0ylslz3","lat":37.92,"state":"KS","location":"10 N WRIGHT"},"type":"Feature","geometry":{"type":"Point","coordinates":[-99.89,37.92]}},{"properties":{"lon":-98.47,"comments":"STORM CHASER REPORTED A WRAPPED TORNADO 1.5 MILES SOUTH OF TIPTON. EMERGENCY MANAGEMENT HAD A REPORT OF SOME TIN TAKEN FROM A BUILDING IN THE SAME GENERAL AREA. A GARAG (GID)","time":1914,"county":"MITCHELL","column_9":null,"f-scale":"UNK","id":"a62in0vedddk","lat":39.32,"state":"KS","location":"1 S TIPTON"},"type":"Feature","geometry":{"type":"Point","coordinates":[-98.47,39.32]}},{"properties":{"lon":-97.86,"comments":"BRIEF TORNADO REPORTED ON GROUND 5 MILES WEST OF BYRON. (GID)","time":1915,"county":"NUCKOLLS","column_9":null,"f-scale":"UNK","id":"a62in0x03eqz","lat":40.01,"state":"NE","location":"5 W BYRON"},"type":"Feature","geometry":{"type":"Point","coordinates":[-97.86,40.01]}},{"properties":{"lon":-97.69,"comments":"CHASER REPORTED A BRIEF TOUCH DOWN OF A RAIN WRAPPED TORNADO. DERIS WAS ALSO KICKING UP IN THE FIELD WITH STRONG INFLOW IN THAT DIRECTION. (GID)","time":1930,"county":"THAYER","column_9":null,"f-scale":"UNK","id":"a62in17dd75g","lat":40.14,"state":"NE","location":"2 E DESHLER"},"type":"Feature","geometry":{"type":"Point","coordinates":[-97.69,40.14]}},{"properties":{"lon":-99.59,"comments":"(DDC)","time":1950,"county":"HODGEMAN","column_9":null,"f-scale":"UNK","id":"a62in17rhmza","lat":38.15,"state":"KS","location":"2 E GRAY"},"type":"Feature","geometry":{"type":"Point","coordinates":[-99.59,38.15]}},{"properties":{"lon":-99.44,"comments":"(DDC)","time":1954,"county":"PAWNEE","column_9":null,"f-scale":"UNK","id":"a62in0urdut3","lat":38.2,"state":"KS","location":"2 W ROZEL"},"type":"Feature","geometry":{"type":"Point","coordinates":[-99.44,38.2]}},{"properties":{"lon":-99.51,"comments":"(DDC)","time":1955,"county":"PAWNEE","column_9":null,"f-scale":"UNK","id":"a62in15t9h0u","lat":38.18,"state":"KS","location":"1 SE BURDETT"},"type":"Feature","geometry":{"type":"Point","coordinates":[-99.51,38.18]}},{"properties":{"lon":-99.51,"comments":"(DDC)","time":1956,"county":"PAWNEE","column_9":null,"f-scale":"UNK","id":"a62in0yde6gk","lat":38.19,"state":"KS","location":"1 E BURDETT"},"type":"Feature","geometry":{"type":"Point","coordinates":[-99.51,38.19]}},{"properties":{"lon":-99.56,"comments":"SHERIFF REPORTED TORNADO 2 TO 3 MILES WEST OF BURDETTE. (DDC)","time":1958,"county":"PAWNEE","column_9":null,"f-scale":"UNK","id":"a62in12jexga","lat":38.19,"state":"KS","location":"2 W BURDETT"},"type":"Feature","geometry":{"type":"Point","coordinates":[-99.56,38.19]}},{"properties":{"lon":-99.31,"comments":"(DDC)","time":2025,"county":"PAWNEE","column_9":null,"f-scale":"UNK","id":"a62in0tl5i6w","lat":38.3,"state":"KS","location":"5 W ASH VALLEY"},"type":"Feature","geometry":{"type":"Point","coordinates":[-99.31,38.3]}},{"properties":{"lon":-99.4,"comments":"(DDC)","time":2034,"county":"PAWNEE","column_9":null,"f-scale":"UNK","id":"a62in0xahx98","lat":38.34,"state":"KS","location":"10 N ROZEL"},"type":"Feature","geometry":{"type":"Point","coordinates":[-99.4,38.34]}},{"properties":{"lon":-99.3,"comments":"(DDC)","time":2043,"county":"PAWNEE","column_9":null,"f-scale":"UNK","id":"a62in0w7bna0","lat":38.29,"state":"KS","location":"5 W ASH VALLEY"},"type":"Feature","geometry":{"type":"Point","coordinates":[-99.3,38.29]}},{"properties":{"lon":-99.31,"comments":"BRIEF TORNADO TOUCHDOWN JUST SOUTH OF THE TOWN OF RUSH CENTER. (DDC)","time":2046,"county":"RUSH","column_9":null,"f-scale":"UNK","id":"a62in0urybla","lat":38.45,"state":"KS","location":"1 S RUSH CENTER"},"type":"Feature","geometry":{"type":"Point","coordinates":[-99.31,38.45]}},{"properties":{"lon":-94.49,"comments":"RAIN-WRAPPED TORNADO. RETRANSMISSION OF REPORT FROM 352PM. (DMX)","time":2051,"county":"ADAMS","column_9":null,"f-scale":"UNK","id":"a62in12aglp4","lat":41.15,"state":"IA","location":"9 NW CRESTON"},"type":"Feature","geometry":{"type":"Point","coordinates":[-94.49,41.15]}},{"properties":{"lon":-99.39,"comments":"BRIEF TOUCHDOWN (OUN)","time":2059,"county":"WOODWARD","column_9":null,"f-scale":"UNK","id":"a62in10lf053","lat":36.53,"state":"OK","location":"7 N WOODWARD"},"type":"Feature","geometry":{"type":"Point","coordinates":[-99.39,36.53]}},{"properties":{"lon":-99.14,"comments":"(DDC)","time":2105,"county":"RUSH","column_9":null,"f-scale":"UNK","id":"a62in0uxpbza","lat":38.47,"state":"KS","location":"2 E TIMKEN"},"type":"Feature","geometry":{"type":"Point","coordinates":[-99.14,38.47]}},{"properties":{"lon":-98.75,"comments":"(DDC)","time":2125,"county":"STAFFORD","column_9":null,"f-scale":"UNK","id":"a62in10jabmv","lat":38.1,"state":"KS","location":"5 W HUDSON"},"type":"Feature","geometry":{"type":"Point","coordinates":[-98.75,38.1]}},{"properties":{"lon":-98.78,"comments":"(DDC)","time":2125,"county":"STAFFORD","column_9":null,"f-scale":"UNK","id":"a62in0vzqb2l","lat":38.17,"state":"KS","location":"1 SE SEWARD"},"type":"Feature","geometry":{"type":"Point","coordinates":[-98.78,38.17]}},{"properties":{"lon":-99.16,"comments":"BRIEF TOUCHDOWN REPORTED BY KWTV (OUN)","time":2130,"county":"WOODS","column_9":null,"f-scale":"UNK","id":"a62in0vmjecs","lat":36.81,"state":"OK","location":"4 NW FREEDOM"},"type":"Feature","geometry":{"type":"Point","coordinates":[-99.16,36.81]}},{"properties":{"lon":-98.7,"comments":"(DDC)","time":2148,"county":"PRATT","column_9":null,"f-scale":"UNK","id":"a62in0zjxhl7","lat":37.5,"state":"KS","location":"1 W SAWYER"},"type":"Feature","geometry":{"type":"Point","coordinates":[-98.7,37.5]}},{"properties":{"lon":-98.68,"comments":"(DDC)","time":2150,"county":"PRATT","column_9":null,"f-scale":"UNK","id":"a62in12boaqa","lat":37.5,"state":"KS","location":"NW SAWYER"},"type":"Feature","geometry":{"type":"Point","coordinates":[-98.68,37.5]}},{"properties":{"lon":-98.54,"comments":"(ICT)","time":2150,"county":"BARTON","column_9":null,"f-scale":"UNK","id":"a62in0vz7bdo","lat":38.28,"state":"KS","location":"6 SSE ELLINWOOD"},"type":"Feature","geometry":{"type":"Point","coordinates":[-98.54,38.28]}},{"properties":{"lon":-98.39,"comments":"BRIEF TORNADO TOUCHDOWN (ICT)","time":2202,"county":"KINGMAN","column_9":null,"f-scale":"UNK","id":"a62in10zqeki","lat":37.72,"state":"KS","location":"4 W PENALOSA"},"type":"Feature","geometry":{"type":"Point","coordinates":[-98.39,37.72]}},{"properties":{"lon":-96.12,"comments":"(OAX)","time":2213,"county":"JOHNSON","column_9":null,"f-scale":"UNK","id":"a62in0wd411c","lat":40.48,"state":"NE","location":"3 SE COOK"},"type":"Feature","geometry":{"type":"Point","coordinates":[-96.12,40.48]}},{"properties":{"lon":-99.53,"comments":"BRIEF TOUCHDOWN (OUN)","time":2216,"county":"WOODWARD","column_9":null,"f-scale":"UNK","id":"a62in13hbh0c","lat":36.26,"state":"OK","location":"11 S TANGIER"},"type":"Feature","geometry":{"type":"Point","coordinates":[-99.53,36.26]}},{"properties":{"lon":-100.87,"comments":"THIN ROPE TORNADO ON THE GROUND. (LBF)","time":2225,"county":"LINCOLN","column_9":null,"f-scale":"UNK","id":"a62in0wwy5id","lat":40.95,"state":"NE","location":"14 SSW NORTH PLATTE"},"type":"Feature","geometry":{"type":"Point","coordinates":[-100.87,40.95]}},{"properties":{"lon":-100.79,"comments":"TROOPER WATCHING TORNADO APPROXIMATELY 3 MILES SSW OF NORTH PLATTE. TORNADO APPROACHING STATE FARM ROAD. (LBF)","time":2232,"county":"LINCOLN","column_9":null,"f-scale":"UNK","id":"a62in0t7tlz9","lat":41.09,"state":"NE","location":"3 SSW NORTH PLATTE"},"type":"Feature","geometry":{"type":"Point","coordinates":[-100.79,41.09]}},{"properties":{"lon":-100.78,"comments":"TROOPER WATCHING TORNADO APPROXIMATELY 1 MILE SSW OF NORTH PLATTE. TORNADO WAS APPROACHING STATE FARM ROAD. (LBF)","time":2232,"county":"LINCOLN","column_9":null,"f-scale":"UNK","id":"a62in184gja1","lat":41.12,"state":"NE","location":"1 SSW NORTH PLATTE"},"type":"Feature","geometry":{"type":"Point","coordinates":[-100.78,41.12]}},{"properties":{"lon":-98.08,"comments":"TORNADO ON GROUND (ICT)","time":2235,"county":"RICE","column_9":null,"f-scale":"UNK","id":"a62in14sefsr","lat":38.46,"state":"KS","location":"6 SE GENESEO"},"type":"Feature","geometry":{"type":"Point","coordinates":[-98.08,38.46]}},{"properties":{"lon":-95.75,"comments":"75 PERCENT OF THE TOWN OF THURMAN WAS DESTROYED. THE TOWN HAS BEEN EVACUATED WITH AN EMERGENCY SHELTER IN A NEARBY TOWN. NO POWER IN THE TOWN. NO MAJOR INJURIES. (OAX)","time":2235,"county":"FREMONT","column_9":null,"f-scale":"UNK","id":"a62in0som58m","lat":40.82,"state":"IA","location":"THURMAN"},"type":"Feature","geometry":{"type":"Point","coordinates":[-95.75,40.82]}},{"properties":{"lon":-98.15,"comments":"LARGE WEDGE TORNADO. (ICT)","time":2237,"county":"RICE","column_9":null,"f-scale":"UNK","id":"a62in160ug1x","lat":38.46,"state":"KS","location":"4 S GENESEO"},"type":"Feature","geometry":{"type":"Point","coordinates":[-98.15,38.46]}},{"properties":{"lon":-98.12,"comments":"WEDGE TORNADO STILL ON GROUND. (ICT)","time":2245,"county":"RICE","column_9":null,"f-scale":"UNK","id":"a62in16e955p","lat":38.48,"state":"KS","location":"8 NW LITTLE RIVER"},"type":"Feature","geometry":{"type":"Point","coordinates":[-98.12,38.48]}},{"properties":{"lon":-100.77,"comments":"SPOTTER REPORTS TORNADO JUST SOUTH OF FLYING J TRUCK STOP IN NORTH PLATTE (LBF)","time":2247,"county":"LINCOLN","column_9":null,"f-scale":"UNK","id":"a62in0upbguv","lat":41.13,"state":"NE","location":"NORTH PLATTE"},"type":"Feature","geometry":{"type":"Point","coordinates":[-100.77,41.13]}},{"properties":{"lon":-97.94,"comments":"LARGE WEDGE TORNADO ON GROUND. (ICT)","time":2301,"county":"ELLSWORTH","column_9":null,"f-scale":"UNK","id":"a62in0sclloy","lat":38.55,"state":"KS","location":"6 W MARQUETTE"},"type":"Feature","geometry":{"type":"Point","coordinates":[-97.94,38.55]}},{"properties":{"lon":-97.87,"comments":"A LARGE TORNADO ABOUT ONE QUARTER MILE WIDE WAS NEAR K4 AND HIGHWAY 141. TORNADO WAS NOW ENTERING INTO SALINE COUNTY. (ICT)","time":2309,"county":"MCPHERSON","column_9":null,"f-scale":"UNK","id":"a62in0sl1gnq","lat":38.58,"state":"KS","location":"3 NW MARQUETTE"},"type":"Feature","geometry":{"type":"Point","coordinates":[-97.87,38.58]}},{"properties":{"lon":-97.74,"comments":"A TORNADO ON THE GROUND JUST SOUTHWEST OF THE TOWN OF FALUN. ALSO SEEING DEBRI. (ICT)","time":2309,"county":"SALINE","column_9":null,"f-scale":"UNK","id":"a62in0yowmgc","lat":38.64,"state":"KS","location":"8 WSW ASSARIA"},"type":"Feature","geometry":{"type":"Point","coordinates":[-97.74,38.64]}},{"properties":{"lon":-99.62,"comments":"BRIEF TOUCHDOWN. (GID)","time":2310,"county":"HARLAN","column_9":null,"f-scale":"UNK","id":"a62in15cwosy","lat":40.26,"state":"NE","location":"1 NE OXFORD"},"type":"Feature","geometry":{"type":"Point","coordinates":[-99.62,40.26]}},{"properties":{"lon":-99.6,"comments":"ROPE TORNADO. SEVERAL REPORTS. EARLY REPORTS OF A GRAIN BIN HAVING BEEN DESTROYED. (GID)","time":2316,"county":"HARLAN","column_9":null,"f-scale":"UNK","id":"a62in11rq6qn","lat":40.31,"state":"NE","location":"4 NNE OXFORD"},"type":"Feature","geometry":{"type":"Point","coordinates":[-99.6,40.31]}},{"properties":{"lon":-97.71,"comments":"(ICT)","time":2319,"county":"SALINE","column_9":null,"f-scale":"UNK","id":"a62in149ynps","lat":38.68,"state":"KS","location":"6 W ASSARIA"},"type":"Feature","geometry":{"type":"Point","coordinates":[-97.71,38.68]}},{"properties":{"lon":-97.71,"comments":"A TORNADO 1.5 MILES NORTHWEST OF FALUN AND MUIR ROAD. LARGE VISIBLE DEBRI DETECTED. (ICT)","time":2325,"county":"SALINE","column_9":null,"f-scale":"UNK","id":"a62in0ykegop","lat":38.71,"state":"KS","location":"6 WNW ASSARIA"},"type":"Feature","geometry":{"type":"Point","coordinates":[-97.71,38.71]}},{"properties":{"lon":-100.73,"comments":"LAW ENFORCEMENT REPORTED TORNADO NEAR JUNCTION OF HWY 23 AND HWY 83 6 MILES NORTH OF WELLFLEET. (LBF)","time":2337,"county":"LINCOLN","column_9":null,"f-scale":"UNK","id":"a62in16kulvk","lat":40.84,"state":"NE","location":"6 N WELLFLEET"},"type":"Feature","geometry":{"type":"Point","coordinates":[-100.73,40.84]}},{"properties":{"lon":-97.67,"comments":"STRUCTURE DAMAGE TO FARMHOUSE. (ICT)","time":2338,"county":"SALINE","column_9":null,"f-scale":"UNK","id":"a62in0xvom7f","lat":38.75,"state":"KS","location":"1 NE SMOLAN"},"type":"Feature","geometry":{"type":"Point","coordinates":[-97.67,38.75]}},{"properties":{"lon":-99.05,"comments":"RELAYED BY WOODWARD COUNTY EM (OUN)","time":2350,"county":"WOODWARD","column_9":null,"f-scale":"UNK","id":"a62in1364q4q","lat":36.38,"state":"OK","location":"5 S QUINLAN"},"type":"Feature","geometry":{"type":"Point","coordinates":[-99.05,36.38]}},{"properties":{"lon":-98.11,"comments":"TORNADO TOUCHED DOWN BRIEFLY WEST OF VARNER. (ICT)","time":2355,"county":"KINGMAN","column_9":null,"f-scale":"UNK","id":"a62in16tdt5p","lat":37.69,"state":"KS","location":"3 N KINGMAN"},"type":"Feature","geometry":{"type":"Point","coordinates":[-98.11,37.69]}},{"properties":{"lon":-97.51,"comments":"TORNADO ON THE GROUND AT NEW CAMBRIA (ICT)","time":2355,"county":"SALINE","column_9":null,"f-scale":"UNK","id":"a62in0xyn386","lat":38.88,"state":"KS","location":"NEW CAMBRIA"},"type":"Feature","geometry":{"type":"Point","coordinates":[-97.51,38.88]}},{"properties":{"lon":-97.51,"comments":"(ICT)","time":1,"county":"SALINE","column_9":null,"f-scale":"UNK","id":"a62in112duv6","lat":38.94,"state":"KS","location":"4 N NEW CAMBRIA"},"type":"Feature","geometry":{"type":"Point","coordinates":[-97.51,38.94]}},{"properties":{"lon":-97.51,"comments":"TRAINED SPOTTER REPORTED ROAD SIGNS FOLDED OVER AND SOME BLOWN 100 YARDS AWAY AND MULTIPLE TREES DOWN AT I-70 AND NILES ROAD. (ICT)","time":5,"county":"SALINE","column_9":null,"f-scale":"UNK","id":"a62in1110i2m","lat":38.92,"state":"KS","location":"3 N NEW CAMBRIA"},"type":"Feature","geometry":{"type":"Point","coordinates":[-97.51,38.92]}},{"properties":{"lon":-97.44,"comments":"TORNADO MOVING EAST AND IS TO THE NORTH OF I70 MILE MARKER 263 AND APPROACHING THE REST AREA AT THE SALINE AND DICKINSON COUTNY LINE (ICT)","time":5,"county":"SALINE","column_9":null,"f-scale":"UNK","id":"a62in0tk8bne","lat":38.93,"state":"KS","location":"5 NE NEW CAMBRIA"},"type":"Feature","geometry":{"type":"Point","coordinates":[-97.44,38.93]}},{"properties":{"lon":-97.43,"comments":"REPORT OF FARM DAMAGED AT 280TH AND ASPEN ROADS (TOP)","time":5,"county":"OTTAWA","column_9":null,"f-scale":"UNK","id":"a62in16bdt87","lat":38.97,"state":"KS","location":"2 E NILES"},"type":"Feature","geometry":{"type":"Point","coordinates":[-97.43,38.97]}},{"properties":{"lon":-98.88,"comments":"(OUN)","time":8,"county":"MAJOR","column_9":null,"f-scale":"UNK","id":"a62in15wgck4","lat":36.43,"state":"OK","location":"11 S WAYNOKA"},"type":"Feature","geometry":{"type":"Point","coordinates":[-98.88,36.43]}},{"properties":{"lon":-97.41,"comments":"LARGE BOWL FUNNEL WITH SWIRLS ON THE GROUND REPORTED BY CHASER. (TOP)","time":8,"county":"OTTAWA","column_9":null,"f-scale":"UNK","id":"a62in14jn9va","lat":38.96,"state":"KS","location":"4 NW SOLOMON"},"type":"Feature","geometry":{"type":"Point","coordinates":[-97.41,38.96]}},{"properties":{"lon":-98.02,"comments":"BRIEF TORNADO TOUCHDOWN (ICT)","time":10,"county":"RENO","column_9":null,"f-scale":"UNK","id":"a62in0tqdxth","lat":37.81,"state":"KS","location":"2 N PRETTY PRAIRIE"},"type":"Feature","geometry":{"type":"Point","coordinates":[-98.02,37.81]}},{"properties":{"lon":-98.83,"comments":"RELAYED BY WFO AMA (OUN)","time":12,"county":"WOODS","column_9":null,"f-scale":"UNK","id":"a62in0xrge6m","lat":36.49,"state":"OK","location":"7 SSE WAYNOKA"},"type":"Feature","geometry":{"type":"Point","coordinates":[-98.83,36.49]}},{"properties":{"lon":-97.32,"comments":"REPORT RELAYED VIA WFO PLEASANT HILL (TOP)","time":15,"county":"DICKINSON","column_9":null,"f-scale":"UNK","id":"a62in15z9mqz","lat":39.01,"state":"KS","location":"6 S MANCHESTER"},"type":"Feature","geometry":{"type":"Point","coordinates":[-97.32,39.01]}},{"properties":{"lon":-97.43,"comments":"EMERGENCY MANAGER REPORTS DAMAGE TO OUTBUILDINGS AND TANKS TO GAS TRANSFER STATION AND NUMEROUS POWER LINES DOWN ALONG K18 HWY. (TOP)","time":16,"county":"OTTAWA","column_9":"AND NUMEROUS POWER LINES DOWN ALONG K18 HWY. (TOP)","f-scale":"UNK","id":"a62in17v7wmn","lat":39.02,"state":"KS","location":"9 W TALMAGE"},"type":"Feature","geometry":{"type":"Point","coordinates":[-97.43,39.02]}},{"properties":{"lon":-97.26,"comments":"VIA KSN-TV SALINA (TOP)","time":31,"county":"DICKINSON","column_9":null,"f-scale":"UNK","id":"a62in0ts1g3l","lat":39.12,"state":"KS","location":"4 ENE MANCHESTER"},"type":"Feature","geometry":{"type":"Point","coordinates":[-97.26,39.12]}},{"properties":{"lon":-97.17,"comments":"REPORT RELAYED VIA WFO PLEASANT HILL (TOP)","time":36,"county":"CLAY","column_9":null,"f-scale":"UNK","id":"a62in17m19rg","lat":39.14,"state":"KS","location":"9 ENE MANCHESTER"},"type":"Feature","geometry":{"type":"Point","coordinates":[-97.17,39.14]}},{"properties":{"lon":-93.8,"comments":"TORNADO ON THE GROUND. LOOKING NORTHWEST FROM LAKESIDE CASINO NEAR OSCEOLA. (DMX)","time":37,"county":"CLARKE","column_9":null,"f-scale":"UNK","id":"a62in118dtli","lat":41.05,"state":"IA","location":"2 NW OSCEOLA"},"type":"Feature","geometry":{"type":"Point","coordinates":[-93.8,41.05]}},{"properties":{"lon":-99.82,"comments":"(LBF)","time":38,"county":"CUSTER","column_9":null,"f-scale":"UNK","id":"a62in0vvwb6o","lat":41.65,"state":"NE","location":"3 NE ANSELMO"},"type":"Feature","geometry":{"type":"Point","coordinates":[-99.82,41.65]}},{"properties":{"lon":-98.67,"comments":"(OUN)","time":39,"county":"WOODS","column_9":null,"f-scale":"UNK","id":"a62in16t7stz","lat":36.61,"state":"OK","location":"5 S HOPETON"},"type":"Feature","geometry":{"type":"Point","coordinates":[-98.67,36.61]}},{"properties":{"lon":-97.48,"comments":"OFF DUTY NWS EMPLOYEE REPORTED A CONE SHAPED TORNADO. (ICT)","time":103,"county":"MCPHERSON","column_9":null,"f-scale":"UNK","id":"a62in0rxh02k","lat":38.18,"state":"KS","location":"4 NW HESSTON"},"type":"Feature","geometry":{"type":"Point","coordinates":[-97.48,38.18]}},{"properties":{"lon":-97.46,"comments":"(ICT)","time":105,"county":"MCPHERSON","column_9":null,"f-scale":"UNK","id":"a62in0zy2slt","lat":38.21,"state":"KS","location":"5 NNW HESSTON"},"type":"Feature","geometry":{"type":"Point","coordinates":[-97.46,38.21]}},{"properties":{"lon":-98.36,"comments":"(OUN)","time":111,"county":"ALFALFA","column_9":null,"f-scale":"UNK","id":"a62in0xlo9z0","lat":36.78,"state":"OK","location":"7 S DRIFTWOOD"},"type":"Feature","geometry":{"type":"Point","coordinates":[-98.36,36.78]}},{"properties":{"lon":-97.37,"comments":"STOVEPIPE TORNADO ON THE GROUND FROM OFF DUTY NWS EMPLOYEE. (ICT)","time":118,"county":"MCPHERSON","column_9":null,"f-scale":"UNK","id":"a62in0t2bhf1","lat":38.27,"state":"KS","location":"2 NW GOESSEL"},"type":"Feature","geometry":{"type":"Point","coordinates":[-97.37,38.27]}},{"properties":{"lon":-97.43,"comments":"DAMAGE TO A GARAGE 1 NORTH AND 1/4 MILE NORTHWEST OF 27TH AND ARROWHEAD. (ICT)","time":121,"county":"MCPHERSON","column_9":null,"f-scale":"UNK","id":"a62in0uoeuvu","lat":38.21,"state":"KS","location":"5 N HESSTON"},"type":"Feature","geometry":{"type":"Point","coordinates":[-97.43,38.21]}},{"properties":{"lon":-97.38,"comments":"LARGE WEDGE TORNADO REPORTED (ICT)","time":122,"county":"MCPHERSON","column_9":null,"f-scale":"UNK","id":"a62in0wxxpvf","lat":38.25,"state":"KS","location":"2 W GOESSEL"},"type":"Feature","geometry":{"type":"Point","coordinates":[-97.38,38.25]}},{"properties":{"lon":-99.33,"comments":"(DDC)","time":135,"county":"KIOWA","column_9":null,"f-scale":"UNK","id":"a62in0vp7xyb","lat":37.62,"state":"KS","location":"2 WNW GREENSBURG"},"type":"Feature","geometry":{"type":"Point","coordinates":[-99.33,37.62]}},{"properties":{"lon":-97.11,"comments":"LARGE TORNADO ON THE GROUND. (ICT)","time":141,"county":"MARION","column_9":null,"f-scale":"UNK","id":"a62in14oxv5j","lat":38.4,"state":"KS","location":"1 N MARION LAKE"},"type":"Feature","geometry":{"type":"Point","coordinates":[-97.11,38.4]}},{"properties":{"lon":-98.03,"comments":"WEDGE TORNADO CROSSING THE KANSAS OKLAHOMA BORDER 2 MILES NORTH OF MANCHESTER. (ICT)","time":149,"county":"HARPER","column_9":null,"f-scale":"UNK","id":"a62in12v0k57","lat":37.05,"state":"KS","location":"7 S ANTHONY"},"type":"Feature","geometry":{"type":"Point","coordinates":[-98.03,37.05]}},{"properties":{"lon":-99.14,"comments":"DAMAGE ALONG A TORNADO PATH WAS REPORTED. THE DAMAGE BEGAN AT ABOUT 180TH AVE AND PERSISTED NORTHEASTWARD TO NEAR P AND M ROADS LEADING TO THE STAFFORD COUNTY LINE. DAM (DDC)","time":150,"county":"EDWARDS","column_9":null,"f-scale":"UNK","id":"a62in13njfi6","lat":37.8,"state":"KS","location":"2 E FELLSBURG"},"type":"Feature","geometry":{"type":"Point","coordinates":[-99.14,37.8]}},{"properties":{"lon":-98.03,"comments":"POWER LINES DOWN ALONG HIGHWAY 179 ONE MILE NORTH OF THE KANSAS OKLAHOMA STATE LINE. (ICT)","time":152,"county":"HARPER","column_9":null,"f-scale":"UNK","id":"a62in16il1ze","lat":37.05,"state":"KS","location":"7 S ANTHONY"},"type":"Feature","geometry":{"type":"Point","coordinates":[-98.03,37.05]}},{"properties":{"lon":-97.9,"comments":"LARGE WEDGE TORNADO. APPROXIMATELY A 1/2 MILE WIDE. (ICT)","time":200,"county":"HARPER","column_9":null,"f-scale":"UNK","id":"a62in153gw7e","lat":37.1,"state":"KS","location":"2 NW BLUFF CITY"},"type":"Feature","geometry":{"type":"Point","coordinates":[-97.9,37.1]}},{"properties":{"lon":-96.9,"comments":"SPOTTERS WERE 3 MILES SOUTH OF ANTELOPE AND VIEWED THE TORNADO 5 TO 8 MILES TO THE NORTH. (ICT)","time":200,"county":"MARION","column_9":null,"f-scale":"UNK","id":"a62in12e4q48","lat":38.39,"state":"KS","location":"7 ENE MARION"},"type":"Feature","geometry":{"type":"Point","coordinates":[-96.9,38.39]}},{"properties":{"lon":-96.96,"comments":"ON THE GROUND. ILLUMINATED BY LIGHTNING. (ICT)","time":200,"county":"MARION","column_9":null,"f-scale":"UNK","id":"a62in0uzudne","lat":38.51,"state":"KS","location":"1 N LINCOLNVILLE"},"type":"Feature","geometry":{"type":"Point","coordinates":[-96.96,38.51]}},{"properties":{"lon":-97.85,"comments":"WEDGE TORNADO. (ICT)","time":210,"county":"HARPER","column_9":null,"f-scale":"UNK","id":"a62in10uweqa","lat":37.18,"state":"KS","location":"1 S FREEPORT"},"type":"Feature","geometry":{"type":"Point","coordinates":[-97.85,37.18]}},{"properties":{"lon":-97.76,"comments":"DAMAGE TO A HOUSE AND A BARN DESTROYED. NO INJURIES. (ICT)","time":213,"county":"SUMNER","column_9":null,"f-scale":"UNK","id":"a62in1783xt3","lat":37.19,"state":"KS","location":"5 S ARGONIA"},"type":"Feature","geometry":{"type":"Point","coordinates":[-97.76,37.19]}},{"properties":{"lon":-97.76,"comments":"STOVE PIPE TORNADO ON THE GROUND. (ICT)","time":214,"county":"SUMNER","column_9":null,"f-scale":"UNK","id":"a62in0xbwxbp","lat":37.24,"state":"KS","location":"2 S ARGONIA"},"type":"Feature","geometry":{"type":"Point","coordinates":[-97.76,37.24]}},{"properties":{"lon":-97.76,"comments":"ON THE GROUND NEAR HIGHWAY 44 AND ARGONIA ROAD. (ICT)","time":218,"county":"SUMNER","column_9":null,"f-scale":"UNK","id":"a62in13yna71","lat":37.27,"state":"KS","location":"S ARGONIA"},"type":"Feature","geometry":{"type":"Point","coordinates":[-97.76,37.27]}},{"properties":{"lon":-97.76,"comments":"SPOTTER REPORTED SEEING POWER FLASHES (ICT)","time":221,"county":"SUMNER","column_9":null,"f-scale":"UNK","id":"a62in119tdmt","lat":37.25,"state":"KS","location":"1 S ARGONIA"},"type":"Feature","geometry":{"type":"Point","coordinates":[-97.76,37.25]}},{"properties":{"lon":-98.76,"comments":"SHERIFFS DEPUTY REPORTED A LARGE TORNADO JUST NORTH OF ST. JOHN. (DDC)","time":221,"county":"STAFFORD","column_9":null,"f-scale":"UNK","id":"a62in0tqp9fi","lat":38.02,"state":"KS","location":"1 N ST. JOHN"},"type":"Feature","geometry":{"type":"Point","coordinates":[-98.76,38.02]}},{"properties":{"lon":-97.78,"comments":"WEDGE TORNADO ON THE GROUND WITH POWER FLASHES. (ICT)","time":223,"county":"SUMNER","column_9":null,"f-scale":"UNK","id":"a62in0rpkbz2","lat":37.26,"state":"KS","location":"1 SW ARGONIA"},"type":"Feature","geometry":{"type":"Point","coordinates":[-97.78,37.26]}},{"properties":{"lon":-97.74,"comments":"TRAINED SPOTTERS REPORTED VERY LARGE TORNADO (ICT)","time":229,"county":"SUMNER","column_9":null,"f-scale":"UNK","id":"a62in102ltp1","lat":37.29,"state":"KS","location":"2 NE ARGONIA"},"type":"Feature","geometry":{"type":"Point","coordinates":[-97.74,37.29]}},{"properties":{"lon":-97.7,"comments":"A 1/2 MILE WIDE WEDGE ON THE GROUND. (ICT)","time":230,"county":"SUMNER","column_9":null,"f-scale":"UNK","id":"a62in13s305p","lat":37.28,"state":"KS","location":"2 NW MILAN"},"type":"Feature","geometry":{"type":"Point","coordinates":[-97.7,37.28]}},{"properties":{"lon":-97.66,"comments":"HOUSE DESTROYED WEST OF CONWAY SPRINGS. (ICT)","time":231,"county":"SUMNER","column_9":null,"f-scale":"UNK","id":"a62in13zuj79","lat":37.39,"state":"KS","location":"1 W CONWAY SPRINGS"},"type":"Feature","geometry":{"type":"Point","coordinates":[-97.66,37.39]}},{"properties":{"lon":-98.57,"comments":"STORM CHASER REPORTED A LARGE WEDGE TORNADO TO THE EAST OF HIS POSITION. (DDC)","time":235,"county":"STAFFORD","column_9":null,"f-scale":"UNK","id":"a62in14pvitb","lat":38.16,"state":"KS","location":"6 NE HUDSON"},"type":"Feature","geometry":{"type":"Point","coordinates":[-98.57,38.16]}},{"properties":{"lon":-97.58,"comments":"UNCONFIRMED REPORT OF A HOUSE DESTROYED AT WEST 40TH STREET. EMERGENCY VEHICLES IN ROUTE. (ICT)","time":237,"county":"SUMNER","column_9":null,"f-scale":"UNK","id":"a62in0zoaikr","lat":37.34,"state":"KS","location":"5 SE CONWAY SPRINGS"},"type":"Feature","geometry":{"type":"Point","coordinates":[-97.58,37.34]}},{"properties":{"lon":-97.64,"comments":"MULTI VORTEX TORNADO SOUTH OF CONWAY SPRINGS. (ICT)","time":238,"county":"SUMNER","column_9":null,"f-scale":"UNK","id":"a62in17pzxle","lat":37.36,"state":"KS","location":"2 S CONWAY SPRINGS"},"type":"Feature","geometry":{"type":"Point","coordinates":[-97.64,37.36]}},{"properties":{"lon":-97.63,"comments":"RAIN WRAPPED TORNADO. FROM MAYFIELD FIRE. (ICT)","time":239,"county":"SUMNER","column_9":null,"f-scale":"UNK","id":"a62in0tyzeaz","lat":37.38,"state":"KS","location":"1 SE CONWAY SPRINGS"},"type":"Feature","geometry":{"type":"Point","coordinates":[-97.63,37.38]}},{"properties":{"lon":-97.55,"comments":"STOVE PIPE TORNADO. (ICT)","time":242,"county":"SUMNER","column_9":null,"f-scale":"UNK","id":"a62in0u2vazw","lat":37.29,"state":"KS","location":"2 N MAYFIELD"},"type":"Feature","geometry":{"type":"Point","coordinates":[-97.55,37.29]}},{"properties":{"lon":-97.53,"comments":"1/4 TO 1/2 MILE WIDE TORNADO. (ICT)","time":248,"county":"SUMNER","column_9":null,"f-scale":"UNK","id":"a62in0tse0x8","lat":37.39,"state":"KS","location":"6 E CONWAY SPRINGS"},"type":"Feature","geometry":{"type":"Point","coordinates":[-97.53,37.39]}},{"properties":{"lon":-98.38,"comments":"(ICT)","time":252,"county":"RICE","column_9":null,"f-scale":"UNK","id":"a62in0zbg8jd","lat":38.25,"state":"KS","location":"3 SE RAYMOND"},"type":"Feature","geometry":{"type":"Point","coordinates":[-98.38,38.25]}},{"properties":{"lon":-98.26,"comments":"(ICT)","time":302,"county":"RICE","column_9":null,"f-scale":"UNK","id":"a62in0uk9mib","lat":38.35,"state":"KS","location":"3 W LYONS"},"type":"Feature","geometry":{"type":"Point","coordinates":[-98.26,38.35]}},{"properties":{"lon":-97.35,"comments":"DELAYED REPORT OF POWER LINES DOWN NEAR SOUTH BROOK AND BROADWAY (ICT)","time":321,"county":"SEDGWICK","column_9":null,"f-scale":"UNK","id":"a62in0zyvxy1","lat":37.57,"state":"KS","location":"HAYSVILLE"},"type":"Feature","geometry":{"type":"Point","coordinates":[-97.35,37.57]}},{"properties":{"lon":-97.35,"comments":"DAMAGE TO A MOBILE HOME PARK SOUTH OF OAKLAWN NEAR CLIFTON. (ICT)","time":326,"county":"SEDGWICK","column_9":null,"f-scale":"UNK","id":"a62in0swqm3c","lat":37.57,"state":"KS","location":"HAYSVILLE"},"type":"Feature","geometry":{"type":"Point","coordinates":[-97.35,37.57]}},{"properties":{"lon":-97.26,"comments":"POWER LINES DOWN ON CARS. DAMAGE TO APARTMENTS. (ICT)","time":326,"county":"SEDGWICK","column_9":null,"f-scale":"UNK","id":"a62in0tajyte","lat":37.58,"state":"KS","location":"2 N DERBY"},"type":"Feature","geometry":{"type":"Point","coordinates":[-97.26,37.58]}},{"properties":{"lon":-97.31,"comments":"POWER FLASHES CROSSING INTERSTATE 35 WITH SIGNS DOWN. SOUTH WICHITA. (ICT)","time":326,"county":"SEDGWICK","column_9":null,"f-scale":"UNK","id":"a62in0xbii7s","lat":37.6,"state":"KS","location":"SOUTH WICHITA"},"type":"Feature","geometry":{"type":"Point","coordinates":[-97.31,37.6]}},{"properties":{"lon":-97.31,"comments":"55TH AND BROADWAY TORNADO ON THE GROUND. (ICT)","time":329,"county":"SEDGWICK","column_9":null,"f-scale":"UNK","id":"a62in0ufzzyw","lat":37.59,"state":"KS","location":"1 S SOUTH WICHITA"},"type":"Feature","geometry":{"type":"Point","coordinates":[-97.31,37.59]}},{"properties":{"lon":-97.35,"comments":"DAMAGE AT 63RD AND HYDRALIC. (ICT)","time":335,"county":"SEDGWICK","column_9":null,"f-scale":"UNK","id":"a62in133y158","lat":37.57,"state":"KS","location":"HAYSVILLE"},"type":"Feature","geometry":{"type":"Point","coordinates":[-97.35,37.57]}},{"properties":{"lon":-97.26,"comments":"ON THE GROUND. 71ST STREET SOUTH AND 134 EAST. (ICT)","time":337,"county":"SEDGWICK","column_9":null,"f-scale":"UNK","id":"a62in0rtteo1","lat":37.55,"state":"KS","location":"DERBY"},"type":"Feature","geometry":{"type":"Point","coordinates":[-97.26,37.55]}},{"properties":{"lon":-97.27,"comments":"VISIBLE NEAR MCCONNELL AIR FORCE BASE. (ICT)","time":339,"county":"SEDGWICK","column_9":null,"f-scale":"UNK","id":"a62in0s2zyme","lat":37.62,"state":"KS","location":"MCCONNELL AIR FORCE BAS"},"type":"Feature","geometry":{"type":"Point","coordinates":[-97.27,37.62]}},{"properties":{"lon":-97.26,"comments":"ON THE GROUND NEAR SOUTH ROCK AND PAWNEE FROM KWCH TV. (ICT)","time":341,"county":"SEDGWICK","column_9":null,"f-scale":"UNK","id":"a62in0zlv6ha","lat":37.68,"state":"KS","location":"EAST WICHITA"},"type":"Feature","geometry":{"type":"Point","coordinates":[-97.26,37.68]}},{"properties":{"lon":-97.28,"comments":"DAMAGE REPORTED NEAR OLIVER AND EAST 47TH STREET AS WELL AS HANGAR DAMAGE TO THE WEST SIDE OF MCDONNELL AIR FORCE BASE. (ICT)","time":343,"county":"SEDGWICK","column_9":null,"f-scale":"UNK","id":"a62in0xzjmly","lat":37.61,"state":"KS","location":"1 E OAKLAWN"},"type":"Feature","geometry":{"type":"Point","coordinates":[-97.28,37.61]}},{"properties":{"lon":-97.7,"comments":"POWER FLASHES NOTED. (ICT)","time":344,"county":"MCPHERSON","column_9":null,"f-scale":"UNK","id":"a62in0x2g4bj","lat":38.59,"state":"KS","location":"2 NW LINDSBORG"},"type":"Feature","geometry":{"type":"Point","coordinates":[-97.7,38.59]}},{"properties":{"lon":-97.0,"comments":"TORNADO CROSSED SANTA FE ROAD. (ICT)","time":349,"county":"BUTLER","column_9":null,"f-scale":"UNK","id":"a62in10yf5n4","lat":37.71,"state":"KS","location":"2 NW AUGUSTA"},"type":"Feature","geometry":{"type":"Point","coordinates":[-97.0,37.71]}},{"properties":{"lon":-97.61,"comments":"ILLUMINATED BY LIGHTNING. (ICT)","time":355,"county":"SALINE","column_9":null,"f-scale":"UNK","id":"a62in101bkqs","lat":38.63,"state":"KS","location":"5 NE LINDSBORG"},"type":"Feature","geometry":{"type":"Point","coordinates":[-97.61,38.63]}},{"properties":{"lon":-97.62,"comments":"POWER FLASHES PARSONS ROAD AND I-135. (ICT)","time":359,"county":"SALINE","column_9":null,"f-scale":"UNK","id":"a62in0wdbgkn","lat":38.8,"state":"KS","location":"1 S SALINA"},"type":"Feature","geometry":{"type":"Point","coordinates":[-97.62,38.8]}},{"properties":{"lon":-97.02,"comments":"ROPE TORNADO. (ICT)","time":401,"county":"BUTLER","column_9":null,"f-scale":"UNK","id":"a62in0zc532i","lat":37.79,"state":"KS","location":"5 E BENTON"},"type":"Feature","geometry":{"type":"Point","coordinates":[-97.02,37.79]}},{"properties":{"lon":-96.86,"comments":"POWER OUTAGES ON THE WEST SIDE OF EL DORADO (ICT)","time":406,"county":"BUTLER","column_9":null,"f-scale":"UNK","id":"a62in12d773b","lat":37.82,"state":"KS","location":"EL DORADO"},"type":"Feature","geometry":{"type":"Point","coordinates":[-96.86,37.82]}},{"properties":{"lon":-96.82,"comments":"SPOTTER REPORTED A CONE TO WEDGE TORNADO (ICT)","time":410,"county":"BUTLER","column_9":null,"f-scale":"UNK","id":"a62in0wkju5p","lat":37.85,"state":"KS","location":"3 NE EL DORADO"},"type":"Feature","geometry":{"type":"Point","coordinates":[-96.82,37.85]}},{"properties":{"lon":-96.82,"comments":"POWER FLASHES NORTHEAST OF EL DORADO. (ICT)","time":414,"county":"BUTLER","column_9":null,"f-scale":"UNK","id":"a62in14dicua","lat":37.85,"state":"KS","location":"3 NE EL DORADO"},"type":"Feature","geometry":{"type":"Point","coordinates":[-96.82,37.85]}},{"properties":{"lon":-96.79,"comments":"LARGE WEDGE TORNADO ROUGHLY 9 MILES NNE OF EL DORADO (ICT)","time":418,"county":"BUTLER","column_9":null,"f-scale":"UNK","id":"a62in11w04t7","lat":37.94,"state":"KS","location":"9 NNE EL DORADO"},"type":"Feature","geometry":{"type":"Point","coordinates":[-96.79,37.94]}},{"properties":{"lon":-98.13,"comments":"DAMAGE TO A HOUSE NEAR KANOPOLIS...TIME ESTIMATED (ICT)","time":418,"county":"ELLSWORTH","column_9":null,"f-scale":"UNK","id":"a62in0zzqt75","lat":38.65,"state":"KS","location":"5 W KANOPOLIS STATE PAR"},"type":"Feature","geometry":{"type":"Point","coordinates":[-98.13,38.65]}},{"properties":{"lon":-98.18,"comments":"OFF DUTY NCAR METEOROLOGIST. (ICT)","time":422,"county":"ELLSWORTH","column_9":null,"f-scale":"UNK","id":"a62in0w6lrhj","lat":38.69,"state":"KS","location":"4 SE ELLSWORTH"},"type":"Feature","geometry":{"type":"Point","coordinates":[-98.18,38.69]}},{"properties":{"lon":-97.49,"comments":"(ICT)","time":422,"county":"SALINE","column_9":null,"f-scale":"UNK","id":"a62in1668v3k","lat":38.89,"state":"KS","location":"1 ENE NEW CAMBRIA"},"type":"Feature","geometry":{"type":"Point","coordinates":[-97.49,38.89]}},{"properties":{"lon":-98.12,"comments":"TORNADO ILLUMINATED BY LIGHTNING. (ICT)","time":425,"county":"ELLSWORTH","column_9":null,"f-scale":"UNK","id":"a62in0zlozj4","lat":38.65,"state":"KS","location":"8 SE ELLSWORTH"},"type":"Feature","geometry":{"type":"Point","coordinates":[-98.12,38.65]}},{"properties":{"lon":-96.53,"comments":"ON THE GROUND. (ICT)","time":434,"county":"BUTLER","column_9":null,"f-scale":"UNK","id":"a62in0yzopz7","lat":37.96,"state":"KS","location":"8 SE CASSODAY"},"type":"Feature","geometry":{"type":"Point","coordinates":[-96.53,37.96]}},{"properties":{"lon":-96.55,"comments":"LARGE WEDGE TORNADO (ICT)","time":439,"county":"BUTLER","column_9":null,"f-scale":"UNK","id":"a62in145gjjw","lat":38.07,"state":"KS","location":"5 ENE CASSODAY"},"type":"Feature","geometry":{"type":"Point","coordinates":[-96.55,38.07]}},{"properties":{"lon":-99.39,"comments":"*** 2 FATAL *** NUMEROUS REPORTS OF MAJOR STRUCTURAL DAMAGE ON WESTERN AND NORTHERN PART OF WOODWARD. SEVERAL INJURIES WITH AT LEAST TWO DEATHS. (OUN)","time":518,"county":"WOODWARD","column_9":null,"f-scale":"UNK","id":"a62in0z5iou7","lat":36.43,"state":"OK","location":"WOODWARD"},"type":"Feature","geometry":{"type":"Point","coordinates":[-99.39,36.43]}}],"is_temporal":false,"author":{"url":"","metadata":"","contact_name":"","contact_address":"","source":"","contact_phone":""},"source":"","pagination":{"sort":null,"start":0,"total":121,"limit":1000000},"state":"complete","tags":"national weather service,storm prediction center,storm report,storm reports,tornado","published":"2014-08-15T00:46:18-04:00","id":228144}