{"type":"FeatureCollection","data_type":"Dataset","url_type":null,"permissions":[{"permissions":{"download":true,"view":true},"group_id":"everyone"}],"classification":null,"title":"MT Towns","count":8,"stream_id":228483,"contributor":{"url":"http://geocommons.com/users/43931","name":"kalok913"},"data_attributes":null,"calculation_params":null,"icon_link":null,"link":"http://geocommons.com/overlays/228483.json","extent":[-114.365,45.2444,-109.136,48.2746],"geometry_types":["point"],"unique_name":null,"name":"MT Towns","feature_count":8,"description":"","next_feature":null,"is_raster":false,"short_classification":"Y","stats":{},"features":[{"properties":{"geo_score":0.857,"town":"Florence","id":"a6codt69f2rq","geo_precision":"city","state":"Montana"},"type":"Feature","geometry":{"type":"Point","coordinates":[-114.04192,46.617296]}},{"properties":{"geo_score":0.857,"town":"Hamilton","id":"a6codt7g72r1","geo_precision":"city","state":"Montana"},"type":"Feature","geometry":{"type":"Point","coordinates":[-114.165774,46.234189]}},{"properties":{"geo_score":0.857,"town":"Pablo","id":"a6codtbheaqm","geo_precision":"city","state":"Montana"},"type":"Feature","geometry":{"type":"Point","coordinates":[-114.212413,47.651275]}},{"properties":{"geo_score":0.857,"town":"Bozeman","id":"a6codtfq85jh","geo_precision":"city","state":"Montana"},"type":"Feature","geometry":{"type":"Point","coordinates":[-111.168212,45.809998]}},{"properties":{"geo_score":0.743,"town":"Butte","id":"a6codtfg0h58","geo_precision":"city","state":"Montana"},"type":"Feature","geometry":{"type":"Point","coordinates":[-109.136458,45.410149]}},{"properties":{"geo_score":0.857,"town":"Helena","id":"a6codtdc7c4s","geo_precision":"city","state":"Montana"},"type":"Feature","geometry":{"type":"Point","coordinates":[-112.197616,46.70934]}},{"properties":{"geo_score":0.857,"town":"Whitefish","id":"a6codt5dsm8d","geo_precision":"city","state":"Montana"},"type":"Feature","geometry":{"type":"Point","coordinates":[-114.365126,48.274564]}},{"properties":{"geo_score":0.857,"town":"Dillon","id":"a6codt2zcfaj","geo_precision":"city","state":"Montana"},"type":"Feature","geometry":{"type":"Point","coordinates":[-112.99687,45.244373]}}],"is_temporal":false,"author":{"url":"","metadata":"","contact_name":"","contact_address":"","source":"","contact_phone":""},"source":"","pagination":{"sort":null,"start":0,"total":8,"limit":1000000},"state":"complete","tags":"","published":"2014-08-15T01:02:29-04:00","id":228483}