{"type":"FeatureCollection","data_type":"Dataset","url_type":null,"permissions":[{"permissions":{"download":true,"view":true},"group_id":"everyone"}],"classification":null,"title":"Mobile SFSP locations - Fayette","count":5,"stream_id":228845,"contributor":{"url":"http://geocommons.com/users/32393","name":"eoliver88"},"data_attributes":null,"calculation_params":null,"icon_link":null,"link":"http://geocommons.com/overlays/228845.json","extent":[-85.1497,39.6171,-85.1158,39.6601],"geometry_types":["point"],"unique_name":null,"name":"Mobile SFSP locations - Fayette","feature_count":5,"description":"","next_feature":null,"is_raster":false,"short_classification":"Y","stats":{},"features":[{"properties":{"city":"Connersville","zip":"47331","geo_score":0.526,"site":"Connersville Park","id":"a62kqcs8k1bx","geo_precision":"street","address":"2900 N. Park Rd.","state":"IN"},"type":"Feature","geometry":{"type":"Point","coordinates":[-85.128976,39.65689]}},{"properties":{"city":"Connersville","zip":"47331","geo_score":0.843,"site":"Elephant Hill","id":"a62kqcnp690j","geo_precision":"range","address":"1000 West 21st St.","state":"IN"},"type":"Feature","geometry":{"type":"Point","coordinates":[-85.14651,39.66009]}},{"properties":{"city":"Connersville","zip":"47331","geo_score":0.927,"site":"Frazee Community Center","id":"a62kqcw6hg0v","geo_precision":"range","address":"901 Meyer Ave.","state":"IN"},"type":"Feature","geometry":{"type":"Point","coordinates":[-85.148347,39.642579]}},{"properties":{"city":"Connersville","zip":"47331","geo_score":0.927,"site":"Wells Mobile Home Park","id":"a62kqcm4anra","geo_precision":"range","address":"601 West County Road 175 South","state":"IN"},"type":"Feature","geometry":{"type":"Point","coordinates":[-85.149671,39.617087]}},{"properties":{"city":"Connersville","zip":"47331","geo_score":0.927,"site":"Connor Court Apartments","id":"a62kqcktd1bu","geo_precision":"range","address":"1465 East State Road 44","state":"IN"},"type":"Feature","geometry":{"type":"Point","coordinates":[-85.115769,39.639125]}}],"is_temporal":false,"author":{"url":"","metadata":"","contact_name":"","contact_address":"","source":"","contact_phone":""},"source":"","pagination":{"sort":null,"start":0,"total":5,"limit":1000000},"state":"complete","tags":"gfbeo","published":"2014-08-15T01:32:36-04:00","id":228845}