{"type":"FeatureCollection","data_type":"Dataset","url_type":null,"permissions":[{"permissions":{"download":true,"view":true},"group_id":"everyone"},{"permissions":{"download":true,"view":true},"group_id":44903}],"classification":null,"title":"City and number of projects","count":22,"stream_id":228814,"contributor":{"url":"http://geocommons.com/users/43954","name":"cbrey"},"data_attributes":null,"calculation_params":null,"icon_link":null,"link":"http://geocommons.com/overlays/228814.json","extent":[-122.676,25.7743,-71.0598,47.6062],"geometry_types":["point"],"unique_name":null,"name":"City and number of projects","feature_count":22,"description":"","next_feature":null,"is_raster":false,"short_classification":"Y","stats":{"number of projects":{"max":142,"mean":20.7727272727273,"variance":1101.51731601732,"stdev":33.1891144205041,"min":1,"median":8}},"features":[{"properties":{"city":"Atlanta","geo_score":0.857,"number of projects":15,"id":"a62k1390wopg","geo_precision":"city","state":"GA"},"type":"Feature","geometry":{"type":"Point","coordinates":[-84.387982,33.748995]}},{"properties":{"city":"Boston","geo_score":0.857,"number of projects":9,"id":"a62k13f2nlbn","geo_precision":"city","state":"MA"},"type":"Feature","geometry":{"type":"Point","coordinates":[-71.059773,42.358431]}},{"properties":{"city":"Chicago","geo_score":0.857,"number of projects":25,"id":"a62k13djnqbd","geo_precision":"city","state":"IL"},"type":"Feature","geometry":{"type":"Point","coordinates":[-87.650052,41.850033]}},{"properties":{"city":"Dallas","geo_score":0.857,"number of projects":5,"id":"a62k138s8zyv","geo_precision":"city","state":"TX"},"type":"Feature","geometry":{"type":"Point","coordinates":[-96.806667,32.783056]}},{"properties":{"city":"Denver","geo_score":0.857,"number of projects":5,"id":"a62k12ywj3rv","geo_precision":"city","state":"CO"},"type":"Feature","geometry":{"type":"Point","coordinates":[-104.984703,39.739154]}},{"properties":{"city":"Detroit","geo_score":0.857,"number of projects":1,"id":"a62k135r7sq8","geo_precision":"city","state":"MI"},"type":"Feature","geometry":{"type":"Point","coordinates":[-83.045754,42.331427]}},{"properties":{"city":"Houston","geo_score":0.816,"number of projects":2,"id":"a62k13cshaht","geo_precision":"city","state":"TX"},"type":"Feature","geometry":{"type":"Point","coordinates":[-96.919704,29.845783]}},{"properties":{"city":"Indianapolis","geo_score":0.857,"number of projects":1,"id":"a62k137un454","geo_precision":"city","state":"IN"},"type":"Feature","geometry":{"type":"Point","coordinates":[-86.158042,39.768377]}},{"properties":{"city":"Los Angeles","geo_score":0.857,"number of projects":76,"id":"a62k133yygyt","geo_precision":"city","state":"CA"},"type":"Feature","geometry":{"type":"Point","coordinates":[-118.243685,34.052234]}},{"properties":{"city":"Miami","geo_score":0.857,"number of projects":5,"id":"a62k130atwdf","geo_precision":"city","state":"FL"},"type":"Feature","geometry":{"type":"Point","coordinates":[-80.193659,25.774266]}},{"properties":{"city":"Minneapolis","geo_score":0.857,"number of projects":6,"id":"a62k1351cms0","geo_precision":"city","state":"MN"},"type":"Feature","geometry":{"type":"Point","coordinates":[-93.263836,44.979965]}},{"properties":{"city":"New York","geo_score":0.857,"number of projects":36,"id":"a62k138eaetj","geo_precision":"city","state":"NY"},"type":"Feature","geometry":{"type":"Point","coordinates":[-74.005973,40.714269]}},{"properties":{"city":"Philadelphia","geo_score":0.857,"number of projects":8,"id":"a62k1314wwuo","geo_precision":"city","state":"PA"},"type":"Feature","geometry":{"type":"Point","coordinates":[-75.163789,39.952335]}},{"properties":{"city":"Phoenix","geo_score":0.857,"number of projects":5,"id":"a62k136ui07o","geo_precision":"city","state":"AZ"},"type":"Feature","geometry":{"type":"Point","coordinates":[-112.074037,33.448377]}},{"properties":{"city":"San Diego","geo_score":0.857,"number of projects":12,"id":"a62k1315910m","geo_precision":"city","state":"CA"},"type":"Feature","geometry":{"type":"Point","coordinates":[-117.157255,32.715329]}},{"properties":{"city":"San Francisco","geo_score":0.857,"number of projects":31,"id":"a62k13byulgx","geo_precision":"city","state":"CA"},"type":"Feature","geometry":{"type":"Point","coordinates":[-122.419416,37.77493]}},{"properties":{"city":"Seattle","geo_score":0.857,"number of projects":2,"id":"a62k12zoyusu","geo_precision":"city","state":"WA"},"type":"Feature","geometry":{"type":"Point","coordinates":[-122.332071,47.60621]}},{"properties":{"city":"St. Louis","geo_score":0.0,"number of projects":1,"id":"a62k139sg5k4","geo_precision":"unmatched","state":"MO"},"type":"Feature","geometry":null},{"properties":{"city":"Tampa Bay","geo_score":0.804,"number of projects":1,"id":"a62k134wudhj","geo_precision":"city","state":"FL"},"type":"Feature","geometry":{"type":"Point","coordinates":[-82.458428,27.947522]}},{"properties":{"city":"Washington DC","geo_score":0.833,"number of projects":54,"id":"a62k135taeey","geo_precision":"city","state":"DC"},"type":"Feature","geometry":{"type":"Point","coordinates":[-77.036366,38.895112]}},{"properties":{"city":"New Orleans","geo_score":0.857,"number of projects":15,"id":"a62k13ep5ejr","geo_precision":"city","state":"LA"},"type":"Feature","geometry":{"type":"Point","coordinates":[-89.930956,30.068812]}},{"properties":{"city":"Portland","geo_score":0.857,"number of projects":142,"id":"a62k13c5b1eh","geo_precision":"city","state":"OR"},"type":"Feature","geometry":{"type":"Point","coordinates":[-122.676207,45.523452]}}],"is_temporal":false,"author":{"url":"","metadata":"","contact_name":"","contact_address":"","source":"","contact_phone":""},"source":"","pagination":{"sort":null,"start":0,"total":22,"limit":1000000},"state":"complete","tags":"","published":"2014-08-15T01:29:11-04:00","id":228814}