{"type":"FeatureCollection","data_type":"Dataset","url_type":null,"permissions":[{"permissions":{"download":true,"view":true},"group_id":"everyone"}],"classification":null,"title":"VanWertCAIcsvCLEAN","count":276,"stream_id":229702,"contributor":{"url":"http://geocommons.com/users/12008","name":"pantheon"},"data_attributes":null,"calculation_params":null,"icon_link":null,"link":"http://geocommons.com/overlays/229702.json","extent":[-84.8031,40.6777,-84.34,40.9899],"geometry_types":["point"],"unique_name":null,"name":"VanWertCAIcsvCLEAN","feature_count":276,"description":"","next_feature":null,"is_raster":false,"short_classification":"Y","stats":{},"features":[{"properties":{"city":"Convoy","zip":"45832","geo_score":0.75,"biz name":"Taylor Chiropractic","id":"a64096a7oyf0","geo_precision":"street","address":"612 N Main St","state":"Ohio"},"type":"Feature","geometry":{"type":"Point","coordinates":[-84.707323,40.923725]}},{"properties":{"city":"Convoy","zip":"45832","geo_score":0.729,"biz name":"Convoy United Methodist Church","id":"a64095zi23jf","geo_precision":"street","address":"Sycamore &amp; Main","state":"Ohio"},"type":"Feature","geometry":{"type":"Point","coordinates":[-84.803107,40.950807]}},{"properties":{"city":"Convoy","zip":"45832","geo_score":0.912,"biz name":"Redeemer Lutheran Church","id":"a640967x0qz5","geo_precision":"range","address":"6727 State Route 49","state":"Ohio"},"type":"Feature","geometry":{"type":"Point","coordinates":[-84.707348,40.906247]}},{"properties":{"city":"Convoy","zip":"45832","geo_score":0.912,"biz name":"Sugar Ridge Church of God","id":"a640960ra07y","geo_precision":"range","address":"6432 Pollock Rd","state":"Ohio"},"type":"Feature","geometry":{"type":"Point","coordinates":[-84.69718,40.938733]}},{"properties":{"city":"Convoy","zip":"45832","geo_score":0.876,"biz name":"Trinity Evangelical Lutheran Church","id":"a640962h1tmt","geo_precision":"range","address":"117 E Tully S","state":"Ohio"},"type":"Feature","geometry":{"type":"Point","coordinates":[-84.707177,40.916926]}},{"properties":{"city":"Convoy","zip":"45832","geo_score":0.718,"biz name":"Convoy Mayor's Office","id":"a640967m9hog","geo_precision":"street","address":"123 S Main St","state":"Ohio"},"type":"Feature","geometry":{"type":"Point","coordinates":[-84.707327,40.915405]}},{"properties":{"city":"Convoy","zip":"45832","geo_score":0.912,"biz name":"Leigh Gregory","id":"a640961by420","geo_precision":"range","address":"108 Hall Dr","state":"Ohio"},"type":"Feature","geometry":{"type":"Point","coordinates":[-84.706094,40.918627]}},{"properties":{"city":"Convoy","zip":"45832","geo_score":0.912,"biz name":"Convoy Fire Dept","id":"a64096583t50","geo_precision":"range","address":"116 Franklin St,","state":"Ohio"},"type":"Feature","geometry":{"type":"Point","coordinates":[-84.707254,40.917292]}},{"properties":{"city":"Convoy","zip":"45832","geo_score":0.912,"biz name":"Convoy Branch Brumbach Library","id":"a640963y4utr","geo_precision":"range","address":"116 W Tully St","state":"Ohio"},"type":"Feature","geometry":{"type":"Point","coordinates":[-84.707574,40.916925]}},{"properties":{"city":"Convoy","zip":"45832","geo_score":0.912,"biz name":"Stoneco Inc","id":"a64096813h8z","geo_precision":"range","address":"2364 Richey Road","state":"Ohio"},"type":"Feature","geometry":{"type":"Point","coordinates":[-84.648771,40.969538]}},{"properties":{"city":"Convoy","zip":"45832","geo_score":0.912,"biz name":"Convoy Care Center","id":"a640965krnra","geo_precision":"range","address":"127 Mentzer Street","state":"Ohio"},"type":"Feature","geometry":{"type":"Point","coordinates":[-84.701135,40.918768]}},{"properties":{"city":"Convoy","zip":"45832","geo_score":0.912,"biz name":"US Post Office","id":"a640963wt980","geo_precision":"range","address":"116 West Tully Street","state":"Ohio"},"type":"Feature","geometry":{"type":"Point","coordinates":[-84.707574,40.916925]}},{"properties":{"city":"Convoy","zip":"45832","geo_score":0.912,"biz name":"Crestview Elementary","id":"a640960u9sld","geo_precision":"range","address":"531 E Tully St","state":"Ohio"},"type":"Feature","geometry":{"type":"Point","coordinates":[-84.70231,40.916891]}},{"properties":{"city":"Convoy","zip":"45832","geo_score":0.912,"biz name":"Crestview Middle School","id":"a6409631gy05","geo_precision":"range","address":"531 E Tully St","state":"Ohio"},"type":"Feature","geometry":{"type":"Point","coordinates":[-84.70231,40.916891]}},{"properties":{"city":"Convoy","zip":"45832","geo_score":0.912,"biz name":"Crestview High School","id":"a640960lb0qd","geo_precision":"range","address":"531 E Tully St","state":"Ohio"},"type":"Feature","geometry":{"type":"Point","coordinates":[-84.70231,40.916891]}},{"properties":{"city":"Delphos","zip":"45833","geo_score":0.922,"biz name":"American Legion","id":"a64096a740zj","geo_precision":"range","address":"415 North State Street","state":"Ohio"},"type":"Feature","geometry":{"type":"Point","coordinates":[-84.349348,40.845996]}},{"properties":{"city":"Delphos","zip":"45833","geo_score":0.922,"biz name":"Delphos Wesleyan Church","id":"a640963vftca","geo_precision":"range","address":"935 S Bredeick St","state":"Ohio"},"type":"Feature","geometry":{"type":"Point","coordinates":[-84.350272,40.835094]}},{"properties":{"city":"Delphos","zip":"45833","geo_score":0.922,"biz name":"First Assembly of God","id":"a640966vdg30","geo_precision":"range","address":"808 Metbliss Ave","state":"Ohio"},"type":"Feature","geometry":{"type":"Point","coordinates":[-84.344927,40.850355]}},{"properties":{"city":"Delphos","zip":"45833","geo_score":0.824,"biz name":"First United Presbyterian Church","id":"a64096boviyq","geo_precision":"range","address":"310 W 2nd St,","state":"Ohio"},"type":"Feature","geometry":{"type":"Point","coordinates":[-84.342435,40.843722]}},{"properties":{"city":"Delphos","zip":"45833","geo_score":0.922,"biz name":"Delphos City Water Treatment","id":"a64095xnseid","geo_precision":"range","address":"608 North Canal Street","state":"Ohio"},"type":"Feature","geometry":{"type":"Point","coordinates":[-84.341084,40.849161]}},{"properties":{"city":"Delphos","zip":"45833","geo_score":0.922,"biz name":"Delphos Waste Water Treatment","id":"a6409658rlli","geo_precision":"range","address":"24793 Pohlman Road","state":"Ohio"},"type":"Feature","geometry":{"type":"Point","coordinates":[-84.344798,40.859739]}},{"properties":{"city":"Delphos","zip":"45833","geo_score":0.457,"biz name":"Boratko Randy","id":"a640969ww6pe","geo_precision":"street","address":"9277 State Route 66 # B","state":"Ohio"},"type":"Feature","geometry":{"type":"Point","coordinates":[-84.349235,40.842251]}},{"properties":{"city":"Delphos","zip":"45833","geo_score":0.922,"biz name":"Lumm Ronald","id":"a640966s6m7e","geo_precision":"range","address":"333 South Clay Street","state":"Ohio"},"type":"Feature","geometry":{"type":"Point","coordinates":[-84.34357,40.84047]}},{"properties":{"city":"Delphos","zip":"45833","geo_score":0.824,"biz name":"Schmit Nicholas A DDS","id":"a64096010vx6","geo_precision":"range","address":"152 W 2nd St","state":"Ohio"},"type":"Feature","geometry":{"type":"Point","coordinates":[-84.34041,40.843712]}},{"properties":{"city":"Delphos","zip":"45833","geo_score":0.824,"biz name":"Morgan David O DDS","id":"a6409680z0v1","geo_precision":"range","address":"158 W 3rd St","state":"Ohio"},"type":"Feature","geometry":{"type":"Point","coordinates":[-84.340468,40.845051]}},{"properties":{"city":"Delphos","zip":"45833","geo_score":0.824,"biz name":"Jeffrey Blanford DDS","id":"a64095wazm5e","geo_precision":"range","address":"150 W 2nd St,","state":"Ohio"},"type":"Feature","geometry":{"type":"Point","coordinates":[-84.34039,40.843712]}},{"properties":{"city":"Delphos","zip":"45833","geo_score":0.922,"biz name":"Delphos Public Services Director","id":"a640965fne4u","geo_precision":"range","address":"608 North Canal Street","state":"Ohio"},"type":"Feature","geometry":{"type":"Point","coordinates":[-84.341084,40.849161]}},{"properties":{"city":"Delphos","zip":"45833","geo_score":0.922,"biz name":"Washington Township Office","id":"a64096b480zn","geo_precision":"range","address":"22693 Lincoln Hwy","state":"Ohio"},"type":"Feature","geometry":{"type":"Point","coordinates":[-84.384989,40.8516]}},{"properties":{"city":"Delphos","zip":"45833","geo_score":0.824,"biz name":"Delphos Public Library","id":"a640960j6nfv","geo_precision":"range","address":"309 W 2nd St,","state":"Ohio"},"type":"Feature","geometry":{"type":"Point","coordinates":[-84.342415,40.843723]}},{"properties":{"city":"Delphos","zip":"45833","geo_score":0.824,"biz name":"Sarah Jane Living Center","id":"a640964uepet","geo_precision":"range","address":"328 West 2nd Street","state":"Ohio"},"type":"Feature","geometry":{"type":"Point","coordinates":[-84.342616,40.843721]}},{"properties":{"city":"Delphos","zip":"45833","geo_score":0.561,"biz name":"Northwest Physical Therapy","id":"a64096c2j19l","geo_precision":"street","address":"333 North St # 102","state":"Ohio"},"type":"Feature","geometry":{"type":"Point","coordinates":[-84.342779,40.85248]}},{"properties":{"city":"Delphos","zip":"45833","geo_score":0.824,"biz name":"Wishing Well Pediatrics","id":"a640965dkk5p","geo_precision":"range","address":"154 W 3rd St","state":"Ohio"},"type":"Feature","geometry":{"type":"Point","coordinates":[-84.340424,40.845047]}},{"properties":{"city":"Delphos","zip":"45833","geo_score":0.922,"biz name":"St John's Preschool","id":"a640962udps7","geo_precision":"range","address":"722 South Jefferson Street","state":"Ohio"},"type":"Feature","geometry":{"type":"Point","coordinates":[-84.342303,40.836788]}},{"properties":{"city":"Delphos","zip":"45833","geo_score":0.8,"biz name":"Delphos Middle School","id":"a64096bfgu8k","geo_precision":"range","address":"227 N Jefferson St","state":"Ohio"},"type":"Feature","geometry":{"type":"Point","coordinates":[-84.342342,40.844596]}},{"properties":{"city":"Delphos","zip":"45833","geo_score":0.8,"biz name":"Delphos City Schools Superintendent","id":"a64096buj29u","geo_precision":"range","address":"227 N Jefferson St","state":"Ohio"},"type":"Feature","geometry":{"type":"Point","coordinates":[-84.342342,40.844596]}},{"properties":{"city":"Delphos","zip":"45833","geo_score":0.605,"biz name":"Jefferson High School","id":"a640960us9wp","geo_precision":"zip","address":"901 Wildcat Ln","state":"Ohio"},"type":"Feature","geometry":{"type":"Point","coordinates":[-84.339953,40.763939]}},{"properties":{"city":"Delphos","zip":"45833","geo_score":0.755,"biz name":"Veterans of Foreign Wars","id":"a64095zykteg","geo_precision":"range","address":"213 West 4th Stree","state":"Ohio"},"type":"Feature","geometry":{"type":"Point","coordinates":[-84.341202,40.84588]}},{"properties":{"city":"Grover Hill","zip":"45849","geo_score":0.744,"biz name":"Zion Christian Union Parsonage","id":"a640961ovbys","geo_precision":"street","address":"3025 Converse Roselm Road","state":"Ohio"},"type":"Feature","geometry":{"type":"Point","coordinates":[-84.418225,40.961105]}},{"properties":{"city":"Middle Point","zip":"45863","geo_score":0.869,"biz name":"Middle Point United Mthdst Chr","id":"a640961yliky","geo_precision":"range","address":"109 N Mill St","state":"Ohio"},"type":"Feature","geometry":{"type":"Point","coordinates":[-84.442178,40.854728]}},{"properties":{"city":"Middle Point","zip":"45863","geo_score":0.911,"biz name":"Grace Evangelistic Ministries","id":"a640960w4gqi","geo_precision":"range","address":"19357 Church Rd","state":"Ohio"},"type":"Feature","geometry":{"type":"Point","coordinates":[-84.44931,40.903075]}},{"properties":{"city":"Middle Point","zip":"45863","geo_score":0.875,"biz name":"Trinity Lutheran Church","id":"a640966pvdcs","geo_precision":"range","address":"303 Adams St","state":"Ohio"},"type":"Feature","geometry":{"type":"Point","coordinates":[-84.446034,40.85351]}},{"properties":{"city":"Middle Point","zip":"45863","geo_score":0.911,"biz name":"Middle Point Fire Dept","id":"a640969i9q74","geo_precision":"range","address":"104 E Jackson St","state":"Ohio"},"type":"Feature","geometry":{"type":"Point","coordinates":[-84.445998,40.855446]}},{"properties":{"city":"Middle Point","zip":"45863","geo_score":0.718,"biz name":"Middle Point Village Clerk","id":"a64095yp8beb","geo_precision":"street","address":"103 North Adams Street","state":"Ohio"},"type":"Feature","geometry":{"type":"Point","coordinates":[-84.446035,40.855452]}},{"properties":{"city":"Middle Point","zip":"45863","geo_score":0.911,"biz name":"Waste Water","id":"a6409613xjiq","geo_precision":"range","address":"10299 County Highway 185","state":"Ohio"},"type":"Feature","geometry":{"type":"Point","coordinates":[-84.436417,40.8557]}},{"properties":{"city":"Middle Point","zip":"45863","geo_score":0.911,"biz name":"Van Wert County Home","id":"a64096b66m0g","geo_precision":"range","address":"17872 Lincoln Hwy","state":"Ohio"},"type":"Feature","geometry":{"type":"Point","coordinates":[-84.479478,40.878541]}},{"properties":{"city":"Middle Point","zip":"45863","geo_score":0.559,"biz name":"Brumback Library Middle Point Branch","id":"a640962ocyxx","geo_precision":"street","address":"102 E Railroad St","state":"Ohio"},"type":"Feature","geometry":{"type":"Point","coordinates":[-84.445005,40.854273]}},{"properties":{"city":"Middle Point","zip":"45863","geo_score":0.911,"biz name":"Traveling &amp; Recycle Wood Products","id":"a64096c8t6oc","geo_precision":"range","address":"19590 Bellis Road","state":"Ohio"},"type":"Feature","geometry":{"type":"Point","coordinates":[-84.445311,40.851945]}},{"properties":{"city":"Middle Point","zip":"45863","geo_score":0.911,"biz name":"Buffalo Pub","id":"a640967c96ur","geo_precision":"range","address":"101 South Adams Street","state":"Ohio"},"type":"Feature","geometry":{"type":"Point","coordinates":[-84.446049,40.854397]}},{"properties":{"city":"Middle Point","zip":"45863","geo_score":0.875,"biz name":"Middle Point Ball Park","id":"a64096avps9v","geo_precision":"range","address":"406 Adams St","state":"Ohio"},"type":"Feature","geometry":{"type":"Point","coordinates":[-84.446041,40.857235]}},{"properties":{"city":"Middle Point","zip":"45863","geo_score":0.875,"biz name":"Middle Point Police","id":"a64095ynbqv7","geo_precision":"range","address":"107 Adams St","state":"Ohio"},"type":"Feature","geometry":{"type":"Point","coordinates":[-84.446041,40.854345]}},{"properties":{"city":"Middle Point","zip":"45863","geo_score":0.911,"biz name":"US Post Office","id":"a6409604qgne","geo_precision":"range","address":"206 East Jackson Street","state":"Ohio"},"type":"Feature","geometry":{"type":"Point","coordinates":[-84.443671,40.855165]}},{"properties":{"city":"Middle Point","zip":"45863","geo_score":0.911,"biz name":"Amvets Post 698","id":"a640966hhgon","geo_precision":"range","address":"102 South Adams Street","state":"Ohio"},"type":"Feature","geometry":{"type":"Point","coordinates":[-84.446046,40.85438]}},{"properties":{"city":"Ohio City","zip":"45874","geo_score":0.709,"biz name":"American Legion","id":"a64096bvp0ww","geo_precision":"street","address":"118 1/2 S Main St","state":"Ohio"},"type":"Feature","geometry":{"type":"Point","coordinates":[-84.615438,40.771492]}},{"properties":{"city":"Ohio City","zip":"45874","geo_score":0.902,"biz name":"Ohio City Church of God","id":"a6409661i4ed","geo_precision":"range","address":"204 E Carmean St","state":"Ohio"},"type":"Feature","geometry":{"type":"Point","coordinates":[-84.61198,40.771569]}},{"properties":{"city":"Ohio City","zip":"45874","geo_score":0.902,"biz name":"Ohio City United Methodist Church","id":"a6409687s621","geo_precision":"range","address":"110 S Main St","state":"Ohio"},"type":"Feature","geometry":{"type":"Point","coordinates":[-84.615435,40.771376]}},{"properties":{"city":"Ohio City","zip":"45874","geo_score":0.668,"biz name":"Pleasant View Baptist Church","id":"a640960sjwo1","geo_precision":"range","address":"14048 Ohio 49","state":"Ohio"},"type":"Feature","geometry":{"type":"Point","coordinates":[-84.775277,40.80042]}},{"properties":{"city":"Ohio City","zip":"45874","geo_score":0.715,"biz name":"St Paul's Reformed Chr In Amer","id":"a640967a33cq","geo_precision":"street","address":"6077 German Church Rd","state":"Ohio"},"type":"Feature","geometry":{"type":"Point","coordinates":[-84.70422,40.822374]}},{"properties":{"city":"Ohio City","zip":"45874","geo_score":0.902,"biz name":"St Thomas Lutheran Church","id":"a64095zzdeyl","geo_precision":"range","address":"6299 German Church Rd","state":"Ohio"},"type":"Feature","geometry":{"type":"Point","coordinates":[-84.701592,40.822364]}},{"properties":{"city":"Ohio City","zip":"45874","geo_score":0.902,"biz name":"Ohio City Church of God","id":"a6409622krxq","geo_precision":"range","address":"204 East Carmean Street","state":"Ohio"},"type":"Feature","geometry":{"type":"Point","coordinates":[-84.61198,40.771569]}},{"properties":{"city":"Ohio City","zip":"45874","geo_score":0.902,"biz name":"Ohio City Hall","id":"a640968tv0eh","geo_precision":"range","address":"105 South Main Street","state":"Ohio"},"type":"Feature","geometry":{"type":"Point","coordinates":[-84.615437,40.771446]}},{"properties":{"city":"Ohio City","zip":"45874","geo_score":0.902,"biz name":"Ohio City Fire Department","id":"a6409686ijyg","geo_precision":"range","address":"103 S Main St","state":"Ohio"},"type":"Feature","geometry":{"type":"Point","coordinates":[-84.615437,40.771469]}},{"properties":{"city":"Ohio City","zip":"45874","geo_score":0.771,"biz name":"Liberty Township Trustees","id":"a64095zyovh2","geo_precision":"street","address":"Woodlawn Rd","state":"Ohio"},"type":"Feature","geometry":{"type":"Point","coordinates":[-84.62525,40.773243]}},{"properties":{"city":"Ohio City","zip":"45874","geo_score":0.902,"biz name":"Ohio City Village Hall","id":"a640969e10wp","geo_precision":"range","address":"103 South Main Street","state":"Ohio"},"type":"Feature","geometry":{"type":"Point","coordinates":[-84.615437,40.771469]}},{"properties":{"city":"Ohio City","zip":"45874","geo_score":0.902,"biz name":"Ohio City Library","id":"a640969mmvmm","geo_precision":"range","address":"101 West Carmean Street","state":"Ohio"},"type":"Feature","geometry":{"type":"Point","coordinates":[-84.615438,40.771492]}},{"properties":{"city":"Ohio City","zip":"45874","geo_score":0.902,"biz name":"US Post Office","id":"a640966xvquh","geo_precision":"range","address":"118 South Main Street","state":"Ohio"},"type":"Feature","geometry":{"type":"Point","coordinates":[-84.615433,40.771283]}},{"properties":{"city":"Ohio City","zip":"45874","geo_score":0.902,"biz name":"US Post Office","id":"a64096ab52wx","geo_precision":"range","address":"118 South Main Street","state":"Ohio"},"type":"Feature","geometry":{"type":"Point","coordinates":[-84.615433,40.771283]}},{"properties":{"city":"Scott","zip":"45886","geo_score":0.924,"biz name":"Little Harvest Day Care","id":"a64095y73865","geo_precision":"range","address":"13625 Road 12","state":"Ohio"},"type":"Feature","geometry":{"type":"Point","coordinates":[-84.560885,40.989923]}},{"properties":{"city":"Scott","zip":"45886","geo_score":0.729,"biz name":"US Post Office","id":"a640960pc8tc","geo_precision":"street","address":"12436 Van Wert Paulding County Line Road","state":"Ohio"},"type":"Feature","geometry":{"type":"Point","coordinates":[-84.592019,40.989791]}},{"properties":{"city":"Spencerville","zip":"45887","geo_score":0.748,"biz name":"Mt Union United Brethren Chr","id":"a640966o3yci","geo_precision":"street","address":"04011 Deep Cut Rd","state":"Ohio"},"type":"Feature","geometry":{"type":"Point","coordinates":[-84.377799,40.677704]}},{"properties":{"city":"Van Wert","zip":"45891","geo_score":0.912,"biz name":"Pregnancy Life Center","id":"a64095xk5meu","geo_precision":"range","address":"215 Market St","state":"Ohio"},"type":"Feature","geometry":{"type":"Point","coordinates":[-84.580745,40.871061]}},{"properties":{"city":"Van Wert","zip":"45891","geo_score":0.944,"biz name":"Van Wert Municipal Airport","id":"a64095wkbsha","geo_precision":"range","address":"1400 Leeson Avenue","state":"Ohio"},"type":"Feature","geometry":{"type":"Point","coordinates":[-84.601571,40.866093]}},{"properties":{"city":"Van Wert","zip":"45891","geo_score":0.627,"biz name":"Life Star Rescue","id":"a640966kntxt","geo_precision":"zip","address":"1171 Production Drive","state":"Ohio"},"type":"Feature","geometry":{"type":"Point","coordinates":[-84.581344,40.946438]}},{"properties":{"city":"Van Wert","zip":"45891","geo_score":0.944,"biz name":"Associated Charities Inc","id":"a6409650lf00","geo_precision":"range","address":"121 E Main St","state":"Ohio"},"type":"Feature","geometry":{"type":"Point","coordinates":[-84.581912,40.869654]}},{"properties":{"city":"Van Wert","zip":"45891","geo_score":0.944,"biz name":"American Legion","id":"a64096bwr9bp","geo_precision":"range","address":"631 West Main Street","state":"Ohio"},"type":"Feature","geometry":{"type":"Point","coordinates":[-84.590518,40.871009]}},{"properties":{"city":"Van Wert","zip":"45891","geo_score":0.944,"biz name":"Lima Cancer Center","id":"a64095ybumxb","geo_precision":"range","address":"140 Fox Rd","state":"Ohio"},"type":"Feature","geometry":{"type":"Point","coordinates":[-84.585086,40.851672]}},{"properties":{"city":"Van Wert","zip":"45891","geo_score":0.822,"biz name":"Woodland Cemetery","id":"a64095xqqxp1","geo_precision":"range","address":"10968 Woodland Avenue","state":"Ohio"},"type":"Feature","geometry":{"type":"Point","coordinates":[-84.612724,40.869652]}},{"properties":{"city":"Van Wert","zip":"45891","geo_score":0.944,"biz name":"Van Wert Chamber of Commerce","id":"a64096b0zzj8","geo_precision":"range","address":"1199 Professional Drive","state":"Ohio"},"type":"Feature","geometry":{"type":"Point","coordinates":[-84.592115,40.851624]}},{"properties":{"city":"Van Wert","zip":"45891","geo_score":0.944,"biz name":"Kids Learning Place","id":"a640969puy18","geo_precision":"range","address":"813 N Franklin St","state":"Ohio"},"type":"Feature","geometry":{"type":"Point","coordinates":[-84.571843,40.880103]}},{"properties":{"city":"Van Wert","zip":"45891","geo_score":0.944,"biz name":"Calvary Preschool","id":"a6409605ooda","geo_precision":"range","address":"10686 Van Wert Decatur Rd","state":"Ohio"},"type":"Feature","geometry":{"type":"Point","coordinates":[-84.615552,40.858761]}},{"properties":{"city":"Van Wert","zip":"45891","geo_score":0.944,"biz name":"Early Headstart","id":"a64096bn11jo","geo_precision":"range","address":"1119 Westwood Dr","state":"Ohio"},"type":"Feature","geometry":{"type":"Point","coordinates":[-84.592452,40.856928]}},{"properties":{"city":"Van Wert","zip":"45891","geo_score":0.944,"biz name":"Foster Family Chiropractic","id":"a640961pj5vh","geo_precision":"range","address":"10963 Van Wert Decatur Rd","state":"Ohio"},"type":"Feature","geometry":{"type":"Point","coordinates":[-84.609933,40.85878]}},{"properties":{"city":"Van Wert","zip":"45891","geo_score":0.944,"biz name":"Holman Chiropractic Inc","id":"a640967vi5xr","geo_precision":"range","address":"10916 Lincoln Hwy","state":"Ohio"},"type":"Feature","geometry":{"type":"Point","coordinates":[-84.61209,40.875716]}},{"properties":{"city":"Van Wert","zip":"45891","geo_score":0.944,"biz name":"Johnson Todd D DC","id":"a64095x5b4yx","geo_precision":"range","address":"834 W Main St","state":"Ohio"},"type":"Feature","geometry":{"type":"Point","coordinates":[-84.5939,40.872252]}},{"properties":{"city":"Van Wert","zip":"45891","geo_score":0.944,"biz name":"Miller Chiropractic Office","id":"a640962eh1m4","geo_precision":"range","address":"10192 State Route 118","state":"Ohio"},"type":"Feature","geometry":{"type":"Point","coordinates":[-84.601599,40.850364]}},{"properties":{"city":"Van Wert","zip":"45891","geo_score":0.751,"biz name":"Nygren Family Chiropractic","id":"a64095wt8pjy","geo_precision":"street","address":"118 1/2 N Walnut St","state":"Ohio"},"type":"Feature","geometry":{"type":"Point","coordinates":[-84.579442,40.869667]}},{"properties":{"city":"Van Wert","zip":"45891","geo_score":0.944,"biz name":"Reed Chiropractic of Van Wert","id":"a6409673pijp","geo_precision":"range","address":"707 Fox Rd # 100","state":"Ohio"},"type":"Feature","geometry":{"type":"Point","coordinates":[-84.581628,40.851701]}},{"properties":{"city":"Van Wert","zip":"45891","geo_score":0.944,"biz name":"Taylor Chiropractic","id":"a6409682lsmi","geo_precision":"range","address":"1185 Westwood Dr","state":"Ohio"},"type":"Feature","geometry":{"type":"Point","coordinates":[-84.594749,40.852827]}},{"properties":{"city":"Van Wert","zip":"45891","geo_score":0.944,"biz name":"Tomlinson Harold E DC","id":"a640965oq9h2","geo_precision":"range","address":"821 Allen Dr","state":"Ohio"},"type":"Feature","geometry":{"type":"Point","coordinates":[-84.573452,40.860252]}},{"properties":{"city":"Van Wert","zip":"45891","geo_score":0.944,"biz name":"Antioch Chapel Friends","id":"a64095za58zl","geo_precision":"range","address":"9010 Van Wert Willshire Rd","state":"Ohio"},"type":"Feature","geometry":{"type":"Point","coordinates":[-84.648037,40.82947]}},{"properties":{"city":"Van Wert","zip":"45891","geo_score":0.944,"biz name":"Apostolic Church","id":"a640963585rw","geo_precision":"range","address":"1017 S Shannon St","state":"Ohio"},"type":"Feature","geometry":{"type":"Point","coordinates":[-84.596015,40.859911]}},{"properties":{"city":"Van Wert","zip":"45891","geo_score":0.944,"biz name":"Bethel United Methodist Church","id":"a640967aitgu","geo_precision":"range","address":"12493 Mendon Rd","state":"Ohio"},"type":"Feature","geometry":{"type":"Point","coordinates":[-84.552427,40.82289]}},{"properties":{"city":"Van Wert","zip":"45891","geo_score":0.944,"biz name":"Calvary Evangelical Church","id":"a640964ihbsi","geo_precision":"range","address":"10686 Van Wert Decatur Rd","state":"Ohio"},"type":"Feature","geometry":{"type":"Point","coordinates":[-84.615552,40.858761]}},{"properties":{"city":"Van Wert","zip":"45891","geo_score":0.944,"biz name":"Bethel United Methodist Church","id":"a640963uxkmv","geo_precision":"range","address":"1148 Rosalie Drive","state":"Ohio"},"type":"Feature","geometry":{"type":"Point","coordinates":[-84.56741,40.8601]}},{"properties":{"city":"Van Wert","zip":"45891","geo_score":0.922,"biz name":"Emmanuel Lutheran Church","id":"a6409619272o","geo_precision":"range","address":"705 S Washington S","state":"Ohio"},"type":"Feature","geometry":{"type":"Point","coordinates":[-84.582957,40.862496]}},{"properties":{"city":"Van Wert","zip":"45891","geo_score":0.944,"biz name":"St Mary of The Assumption","id":"a640961m5d9s","geo_precision":"range","address":"601 Jennings Rd","state":"Ohio"},"type":"Feature","geometry":{"type":"Point","coordinates":[-84.566177,40.863396]}},{"properties":{"city":"Van Wert","zip":"45891","geo_score":0.944,"biz name":"First Church of God","id":"a640968ixv5r","geo_precision":"range","address":"314 S Harrison St","state":"Ohio"},"type":"Feature","geometry":{"type":"Point","coordinates":[-84.576863,40.867435]}},{"properties":{"city":"Van Wert","zip":"45891","geo_score":0.944,"biz name":"First Friends Church","id":"a640966aycwb","geo_precision":"range","address":"210 S Franklin St","state":"Ohio"},"type":"Feature","geometry":{"type":"Point","coordinates":[-84.571967,40.868592]}},{"properties":{"city":"Van Wert","zip":"45891","geo_score":0.944,"biz name":"Trinity United Methodist Church","id":"a64095zr4bp7","geo_precision":"range","address":"403 E Crawford St","state":"Ohio"},"type":"Feature","geometry":{"type":"Point","coordinates":[-84.57814,40.867577]}},{"properties":{"city":"Van Wert","zip":"45891","geo_score":0.944,"biz name":"First United Brethren-In Christ","id":"a640966p34p8","geo_precision":"range","address":"501 S Race St","state":"Ohio"},"type":"Feature","geometry":{"type":"Point","coordinates":[-84.574464,40.865345]}},{"properties":{"city":"Van Wert","zip":"45891","geo_score":0.944,"biz name":"First Baptist Church","id":"a640969tyham","geo_precision":"range","address":"113 W Central Ave","state":"Ohio"},"type":"Feature","geometry":{"type":"Point","coordinates":[-84.584268,40.868643]}},{"properties":{"city":"Van Wert","zip":"45891","geo_score":0.944,"biz name":"First United Methodist Church","id":"a6409661d3zu","geo_precision":"range","address":"113 W Central Ave","state":"Ohio"},"type":"Feature","geometry":{"type":"Point","coordinates":[-84.584268,40.868643]}},{"properties":{"city":"Van Wert","zip":"45891","geo_score":0.944,"biz name":"Jehovah's Witnesses","id":"a640962kq3o6","geo_precision":"range","address":"11239 Van Wert Decatur Rd","state":"Ohio"},"type":"Feature","geometry":{"type":"Point","coordinates":[-84.604819,40.858806]}},{"properties":{"city":"Van Wert","zip":"45891","geo_score":0.944,"biz name":"First Baptist Church","id":"a64096be60vi","geo_precision":"range","address":"13887 Jennings Rd","state":"Ohio"},"type":"Feature","geometry":{"type":"Point","coordinates":[-84.555036,40.854215]}},{"properties":{"city":"Van Wert","zip":"45891","geo_score":0.847,"biz name":"Liberty Baptist Church","id":"a64096460i44","geo_precision":"range","address":"501 E 3rd St","state":"Ohio"},"type":"Feature","geometry":{"type":"Point","coordinates":[-84.577175,40.875547]}},{"properties":{"city":"Van Wert","zip":"45891","geo_score":0.944,"biz name":"Lifehouse","id":"a640960jcsi3","geo_precision":"range","address":"1179 Westwood Dr","state":"Ohio"},"type":"Feature","geometry":{"type":"Point","coordinates":[-84.594749,40.852827]}},{"properties":{"city":"Van Wert","zip":"45891","geo_score":0.944,"biz name":"Mt Pleasant Church","id":"a640960t86mq","geo_precision":"range","address":"3606 Slane Rd","state":"Ohio"},"type":"Feature","geometry":{"type":"Point","coordinates":[-84.495087,40.951963]}},{"properties":{"city":"Van Wert","zip":"45891","geo_score":0.944,"biz name":"New Life Fellowship","id":"a640967e3bn2","geo_precision":"range","address":"634 N Washington St","state":"Ohio"},"type":"Feature","geometry":{"type":"Point","coordinates":[-84.583078,40.876473]}},{"properties":{"city":"Van Wert","zip":"45891","geo_score":0.944,"biz name":"North Union United Methodist Church","id":"a64096c3ploe","geo_precision":"range","address":"4486 US Route 127","state":"Ohio"},"type":"Feature","geometry":{"type":"Point","coordinates":[-84.572193,40.939164]}},{"properties":{"city":"Van Wert","zip":"45891","geo_score":0.944,"biz name":"Pentecostal Way Church","id":"a640965t8aix","geo_precision":"range","address":"1213 Leeson Ave","state":"Ohio"},"type":"Feature","geometry":{"type":"Point","coordinates":[-84.600402,40.866102]}},{"properties":{"city":"Van Wert","zip":"45891","geo_score":0.944,"biz name":"Pleasant Chapel United Methodist Church","id":"a640969oz8jj","geo_precision":"range","address":"8164 Richey Rd","state":"Ohio"},"type":"Feature","geometry":{"type":"Point","coordinates":[-84.648457,40.885078]}},{"properties":{"city":"Van Wert","zip":"45891","geo_score":0.944,"biz name":"St Mark's Lutheran Church","id":"a6409682jpms","geo_precision":"range","address":"160 W Sycamore St","state":"Ohio"},"type":"Feature","geometry":{"type":"Point","coordinates":[-84.583721,40.872084]}},{"properties":{"city":"Van Wert","zip":"45891","geo_score":0.822,"biz name":"Jennings Road Church of Christ","id":"a640966tt71e","geo_precision":"range","address":"1124 Jennings Rd","state":"Ohio"},"type":"Feature","geometry":{"type":"Point","coordinates":[-84.560611,40.859042]}},{"properties":{"city":"Van Wert","zip":"45891","geo_score":0.944,"biz name":"Trinity Friends Church","id":"a64095xfs5mn","geo_precision":"range","address":"605 N Franklin St","state":"Ohio"},"type":"Feature","geometry":{"type":"Point","coordinates":[-84.571823,40.876391]}},{"properties":{"city":"Van Wert","zip":"45891","geo_score":0.944,"biz name":"Trinity United Methodist Church","id":"a640963blvqh","geo_precision":"range","address":"220 S Walnut St","state":"Ohio"},"type":"Feature","geometry":{"type":"Point","coordinates":[-84.579479,40.868436]}},{"properties":{"city":"Van Wert","zip":"45891","geo_score":0.944,"biz name":"Salvation Army","id":"a64095wvzpa5","geo_precision":"range","address":"1180 S Washington St","state":"Ohio"},"type":"Feature","geometry":{"type":"Point","coordinates":[-84.581943,40.85213]}},{"properties":{"city":"Van Wert","zip":"45891","geo_score":0.944,"biz name":"Vineyard Christian Fellowship of Van Wert","id":"a64095y6n85v","geo_precision":"range","address":"120 N Cherry St","state":"Ohio"},"type":"Feature","geometry":{"type":"Point","coordinates":[-84.578206,40.869864]}},{"properties":{"city":"Van Wert","zip":"45891","geo_score":0.944,"biz name":"Wesley United Methodist Church","id":"a64095wx8tp3","geo_precision":"range","address":"551 Center St","state":"Ohio"},"type":"Feature","geometry":{"type":"Point","coordinates":[-84.589984,40.874083]}},{"properties":{"city":"Van Wert","zip":"45891","geo_score":0.944,"biz name":"Westside Baptist Chapel","id":"a640967qlcsg","geo_precision":"range","address":"603 Airport Ave","state":"Ohio"},"type":"Feature","geometry":{"type":"Point","coordinates":[-84.595502,40.860454]}},{"properties":{"city":"Van Wert","zip":"45891","geo_score":0.944,"biz name":"Van Wert Economic Development","id":"a64095wzxox0","geo_precision":"range","address":"515 East Main St","state":"Ohio"},"type":"Feature","geometry":{"type":"Point","coordinates":[-84.576773,40.869647]}},{"properties":{"city":"Van Wert","zip":"45891","geo_score":0.944,"biz name":"Van Wert Mayor's Office","id":"a64095wpt37u","geo_precision":"range","address":"515 East Main Street","state":"Ohio"},"type":"Feature","geometry":{"type":"Point","coordinates":[-84.576773,40.869647]}},{"properties":{"city":"Van Wert","zip":"45891","geo_score":0.944,"biz name":"Van Wert City Income Tax Department","id":"a640965f5cig","geo_precision":"range","address":"515 E Main St","state":"Ohio"},"type":"Feature","geometry":{"type":"Point","coordinates":[-84.576773,40.869647]}},{"properties":{"city":"Van Wert","zip":"45891","geo_score":0.944,"biz name":"Van Wert Water Treatment Plant","id":"a64096b0c5s1","geo_precision":"range","address":"1260 South Washington Street","state":"Ohio"},"type":"Feature","geometry":{"type":"Point","coordinates":[-84.581403,40.848771]}},{"properties":{"city":"Van Wert","zip":"45891","geo_score":0.944,"biz name":"Bethel United Methodist Church","id":"a64095zqccur","geo_precision":"range","address":"1148 Rosalie Drive","state":"Ohio"},"type":"Feature","geometry":{"type":"Point","coordinates":[-84.56741,40.8601]}},{"properties":{"city":"Van Wert","zip":"45891","geo_score":0.944,"biz name":"Colvin Gale","id":"a640969kx6oa","geo_precision":"range","address":"403 East Crawford Street","state":"Ohio"},"type":"Feature","geometry":{"type":"Point","coordinates":[-84.57814,40.867577]}},{"properties":{"city":"Van Wert","zip":"45891","geo_score":0.537,"biz name":"Staas Dillon Rev","id":"a64096ao1roi","geo_precision":"street","address":"1 Leslie Ln","state":"Ohio"},"type":"Feature","geometry":{"type":"Point","coordinates":[-84.802247,40.800753]}},{"properties":{"city":"Van Wert","zip":"45891","geo_score":0.856,"biz name":"Watson Bill","id":"a64095zqjygv","geo_precision":"range","address":"526 South Race Stree","state":"Ohio"},"type":"Feature","geometry":{"type":"Point","coordinates":[-84.574455,40.864689]}},{"properties":{"city":"Van Wert","zip":"45891","geo_score":0.944,"biz name":"Fresenis Medical Care","id":"a640969590ew","geo_precision":"range","address":"140 Fox Rd","state":"Ohio"},"type":"Feature","geometry":{"type":"Point","coordinates":[-84.585086,40.851672]}},{"properties":{"city":"Van Wert","zip":"45891","geo_score":0.944,"biz name":"Van Wert County Municipal Court","id":"a64095wmmx73","geo_precision":"range","address":"124 South Market Street","state":"Ohio"},"type":"Feature","geometry":{"type":"Point","coordinates":[-84.580677,40.868891]}},{"properties":{"city":"Van Wert","zip":"45891","geo_score":0.944,"biz name":"Van Wert County Probate Court","id":"a640966yrktc","geo_precision":"range","address":"108 East Main Street","state":"Ohio"},"type":"Feature","geometry":{"type":"Point","coordinates":[-84.582795,40.869646]}},{"properties":{"city":"Van Wert","zip":"45891","geo_score":0.944,"biz name":"Van Wert County Juvenile Court","id":"a6409667zsdu","geo_precision":"range","address":"108 East Main Street","state":"Ohio"},"type":"Feature","geometry":{"type":"Point","coordinates":[-84.582795,40.869646]}},{"properties":{"city":"Van Wert","zip":"45891","geo_score":0.944,"biz name":"Van Wert Mayor's Office","id":"a64096678094","geo_precision":"range","address":"515 East Main Street","state":"Ohio"},"type":"Feature","geometry":{"type":"Point","coordinates":[-84.576773,40.869647]}},{"properties":{"city":"Van Wert","zip":"45891","geo_score":0.944,"biz name":"Van Wert Engineer's Tax Map","id":"a64096b5gldb","geo_precision":"range","address":"121 E Main St # 106","state":"Ohio"},"type":"Feature","geometry":{"type":"Point","coordinates":[-84.582844,40.869646]}},{"properties":{"city":"Van Wert","zip":"45891","geo_score":0.944,"biz name":"Van Wert Prosecuting Attorney","id":"a640967u1rpj","geo_precision":"range","address":"119 North Washington Street","state":"Ohio"},"type":"Feature","geometry":{"type":"Point","coordinates":[-84.583079,40.869809]}},{"properties":{"city":"Van Wert","zip":"45891","geo_score":0.944,"biz name":"Van Wert County Health Department","id":"a6409657g4m2","geo_precision":"range","address":"140 Fox Road","state":"Ohio"},"type":"Feature","geometry":{"type":"Point","coordinates":[-84.585086,40.851672]}},{"properties":{"city":"Van Wert","zip":"45891","geo_score":0.944,"biz name":"Van Wert County Emergency Management","id":"a640962xlpwe","geo_precision":"range","address":"1220 Lincoln Highway,","state":"Ohio"},"type":"Feature","geometry":{"type":"Point","coordinates":[-84.606604,40.875598]}},{"properties":{"city":"Van Wert","zip":"45891","geo_score":0.944,"biz name":"Child Support Enforcement Agency","id":"a6409614mm9m","geo_precision":"range","address":"114 E Main St","state":"Ohio"},"type":"Feature","geometry":{"type":"Point","coordinates":[-84.582648,40.869646]}},{"properties":{"city":"Van Wert","zip":"45891","geo_score":0.944,"biz name":"Van Wert County Job &amp; Family","id":"a64095xq09t8","geo_precision":"range","address":"114 E Main St","state":"Ohio"},"type":"Feature","geometry":{"type":"Point","coordinates":[-84.582648,40.869646]}},{"properties":{"city":"Van Wert","zip":"45891","geo_score":0.944,"biz name":"Van Wert County Jail","id":"a640965owb6f","geo_precision":"range","address":"204 North Washington Street","state":"Ohio"},"type":"Feature","geometry":{"type":"Point","coordinates":[-84.583047,40.870774]}},{"properties":{"city":"Van Wert","zip":"45891","geo_score":0.944,"biz name":"Frey Lori K DDS","id":"a64095zoa9yo","geo_precision":"range","address":"1142 Westwood Dr","state":"Ohio"},"type":"Feature","geometry":{"type":"Point","coordinates":[-84.59346,40.855461]}},{"properties":{"city":"Van Wert","zip":"45891","geo_score":0.944,"biz name":"Van Wert Family Dentistry","id":"a64096cavg54","geo_precision":"range","address":"1196 Professional Dr","state":"Ohio"},"type":"Feature","geometry":{"type":"Point","coordinates":[-84.592115,40.851672]}},{"properties":{"city":"Van Wert","zip":"45891","geo_score":0.944,"biz name":"Jeffery Carl DDS","id":"a6409638jiu4","geo_precision":"range","address":"685 Fox Rd","state":"Ohio"},"type":"Feature","geometry":{"type":"Point","coordinates":[-84.595968,40.851608]}},{"properties":{"city":"Van Wert","zip":"45891","geo_score":0.944,"biz name":"John C Cook Family Dentistry","id":"a64095xvcwqn","geo_precision":"range","address":"723 W Main St","state":"Ohio"},"type":"Feature","geometry":{"type":"Point","coordinates":[-84.593412,40.872077]}},{"properties":{"city":"Van Wert","zip":"45891","geo_score":0.944,"biz name":"John K Eversman Inc","id":"a64095yao2as","geo_precision":"range","address":"120 W Main St","state":"Ohio"},"type":"Feature","geometry":{"type":"Point","coordinates":[-84.58328,40.869639]}},{"properties":{"city":"Van Wert","zip":"45891","geo_score":0.944,"biz name":"Laing Kevin M DDS","id":"a640961fhf0l","geo_precision":"range","address":"101 S Shannon St","state":"Ohio"},"type":"Feature","geometry":{"type":"Point","coordinates":[-84.586585,40.869614]}},{"properties":{"city":"Van Wert","zip":"45891","geo_score":0.944,"biz name":"Gabrek Daniel F DDS MSD","id":"a6409630pe8b","geo_precision":"range","address":"1167 Westwood Dr","state":"Ohio"},"type":"Feature","geometry":{"type":"Point","coordinates":[-84.594758,40.853787]}},{"properties":{"city":"Van Wert","zip":"45891","geo_score":0.944,"biz name":"Roger J Okuley Inc","id":"a64095ybr5j2","geo_precision":"range","address":"707 Fox Rd","state":"Ohio"},"type":"Feature","geometry":{"type":"Point","coordinates":[-84.596256,40.851606]}},{"properties":{"city":"Van Wert","zip":"45891","geo_score":0.944,"biz name":"Van Wert License Bureau","id":"a64095xn3nym","geo_precision":"range","address":"777 Fox Road","state":"Ohio"},"type":"Feature","geometry":{"type":"Point","coordinates":[-84.597173,40.851598]}},{"properties":{"city":"Van Wert","zip":"45891","geo_score":0.944,"biz name":"Drive-Way Driving School","id":"a64096c13msb","geo_precision":"range","address":"215 Keplar St","state":"Ohio"},"type":"Feature","geometry":{"type":"Point","coordinates":[-84.579829,40.864926]}},{"properties":{"city":"Van Wert","zip":"45891","geo_score":0.944,"biz name":"Staffmark","id":"a640967weody","geo_precision":"range","address":"641 W Ervin Rd","state":"Ohio"},"type":"Feature","geometry":{"type":"Point","coordinates":[-84.590972,40.858881]}},{"properties":{"city":"Van Wert","zip":"45891","geo_score":0.944,"biz name":"US Department of Agriculture","id":"a64095ytxhiq","geo_precision":"range","address":"1189 Professional Dr","state":"Ohio"},"type":"Feature","geometry":{"type":"Point","coordinates":[-84.592114,40.851866]}},{"properties":{"city":"Van Wert","zip":"45891","geo_score":0.944,"biz name":"US Consolidated Farm Services Agency","id":"a64096bzpkbz","geo_precision":"range","address":"1362 East Ervin Road","state":"Ohio"},"type":"Feature","geometry":{"type":"Point","coordinates":[-84.561769,40.859125]}},{"properties":{"city":"Van Wert","zip":"45891","geo_score":0.944,"biz name":"Wren Fire and Ems","id":"a640964lq5jb","geo_precision":"range","address":"106 W Main St","state":"Ohio"},"type":"Feature","geometry":{"type":"Point","coordinates":[-84.583143,40.869643]}},{"properties":{"city":"Van Wert","zip":"45891","geo_score":0.944,"biz name":"Pleasant Township Trustee Office","id":"a640966y6vw1","geo_precision":"range","address":"10507 Factory Road","state":"Ohio"},"type":"Feature","geometry":{"type":"Point","coordinates":[-84.619653,40.866021]}},{"properties":{"city":"Van Wert","zip":"45891","geo_score":0.944,"biz name":"Van Wert Auditor's Office","id":"a64096b0g76k","geo_precision":"range","address":"515 East Main Street","state":"Ohio"},"type":"Feature","geometry":{"type":"Point","coordinates":[-84.576773,40.869647]}},{"properties":{"city":"Van Wert","zip":"45891","geo_score":0.944,"biz name":"Van Wert Safety Services Director","id":"a64095wqf5oj","geo_precision":"range","address":"515 East Main Street","state":"Ohio"},"type":"Feature","geometry":{"type":"Point","coordinates":[-84.576773,40.869647]}},{"properties":{"city":"Van Wert","zip":"45891","geo_score":0.944,"biz name":"Van Wert Engineer's Office","id":"a640966vl225","geo_precision":"range","address":"515 East Main Street","state":"Ohio"},"type":"Feature","geometry":{"type":"Point","coordinates":[-84.576773,40.869647]}},{"properties":{"city":"Van Wert","zip":"45891","geo_score":0.944,"biz name":"Engineer's Garage","id":"a64096chq8ft","geo_precision":"range","address":"1196 Grill Road","state":"Ohio"},"type":"Feature","geometry":{"type":"Point","coordinates":[-84.605676,40.880655]}},{"properties":{"city":"Van Wert","zip":"45891","geo_score":0.944,"biz name":"Van Wert County Fair Board","id":"a64096ah27qy","geo_precision":"range","address":"1055 S Washington St","state":"Ohio"},"type":"Feature","geometry":{"type":"Point","coordinates":[-84.584681,40.855289]}},{"properties":{"city":"Van Wert","zip":"45891","geo_score":0.944,"biz name":"Van Wert County Common Pleas","id":"a64095z7bm2t","geo_precision":"range","address":"121 E Main St","state":"Ohio"},"type":"Feature","geometry":{"type":"Point","coordinates":[-84.581912,40.869654]}},{"properties":{"city":"Van Wert","zip":"45891","geo_score":0.944,"biz name":"Van Wert County Veterans Services","id":"a640960w3tsp","geo_precision":"range","address":"121 E Main St","state":"Ohio"},"type":"Feature","geometry":{"type":"Point","coordinates":[-84.581912,40.869654]}},{"properties":{"city":"Van Wert","zip":"45891","geo_score":0.944,"biz name":"Van Wert County Commissioners","id":"a64096adz2ff","geo_precision":"range","address":"114 E Main St","state":"Ohio"},"type":"Feature","geometry":{"type":"Point","coordinates":[-84.582648,40.869646]}},{"properties":{"city":"Van Wert","zip":"45891","geo_score":0.944,"biz name":"Van Wert County Humane Society","id":"a6409640o479","geo_precision":"range","address":"309 Bonnewitz Avenue","state":"Ohio"},"type":"Feature","geometry":{"type":"Point","coordinates":[-84.586468,40.880784]}},{"properties":{"city":"Van Wert","zip":"45891","geo_score":0.944,"biz name":"Van Wert County Recorder's Office","id":"a640964o93gg","geo_precision":"range","address":"121 E Main St","state":"Ohio"},"type":"Feature","geometry":{"type":"Point","coordinates":[-84.581912,40.869654]}},{"properties":{"city":"Van Wert","zip":"45891","geo_score":0.944,"biz name":"Ohio State University Ext Van Wert","id":"a640962ftcbj","geo_precision":"range","address":"1055 South Washington Street","state":"Ohio"},"type":"Feature","geometry":{"type":"Point","coordinates":[-84.584681,40.855289]}},{"properties":{"city":"Van Wert","zip":"45891","geo_score":0.944,"biz name":"Van Wert County Auditor's Office","id":"a640963e59gc","geo_precision":"range","address":"121 E Main St","state":"Ohio"},"type":"Feature","geometry":{"type":"Point","coordinates":[-84.581912,40.869654]}},{"properties":{"city":"Van Wert","zip":"45891","geo_score":0.944,"biz name":"Van Wert County Regional Plan","id":"a64096747wb2","geo_precision":"range","address":"114 E Main St","state":"Ohio"},"type":"Feature","geometry":{"type":"Point","coordinates":[-84.582648,40.869646]}},{"properties":{"city":"Van Wert","zip":"45891","geo_score":0.944,"biz name":"Van Wert County Treasurer's","id":"a64095y9akrx","geo_precision":"range","address":"121 E Main St","state":"Ohio"},"type":"Feature","geometry":{"type":"Point","coordinates":[-84.581912,40.869654]}},{"properties":{"city":"Van Wert","zip":"45891","geo_score":0.944,"biz name":"Van Wert County Micrographics","id":"a64095xx9h6z","geo_precision":"range","address":"121 E Main St","state":"Ohio"},"type":"Feature","geometry":{"type":"Point","coordinates":[-84.581912,40.869654]}},{"properties":{"city":"Van Wert","zip":"45891","geo_score":0.944,"biz name":"Van Wert County Election Board","id":"a64096ccvspo","geo_precision":"range","address":"120 East Main Street","state":"Ohio"},"type":"Feature","geometry":{"type":"Point","coordinates":[-84.582343,40.869647]}},{"properties":{"city":"Van Wert","zip":"45891","geo_score":0.944,"biz name":"Van Wert County Job &amp; Family","id":"a64095wg75mx","geo_precision":"range","address":"114 E Main St","state":"Ohio"},"type":"Feature","geometry":{"type":"Point","coordinates":[-84.582648,40.869646]}},{"properties":{"city":"Van Wert","zip":"45891","geo_score":0.944,"biz name":"Van Wert Engineer's Office","id":"a640968lbqp5","geo_precision":"range","address":"220 South Market Street","state":"Ohio"},"type":"Feature","geometry":{"type":"Point","coordinates":[-84.580667,40.868409]}},{"properties":{"city":"Van Wert","zip":"45891","geo_score":0.944,"biz name":"Van Wert County Title Department","id":"a6409628f20c","geo_precision":"range","address":"121 E Main St","state":"Ohio"},"type":"Feature","geometry":{"type":"Point","coordinates":[-84.581912,40.869654]}},{"properties":{"city":"Van Wert","zip":"45891","geo_score":0.944,"biz name":"Comfort Keepers","id":"a64095xzg9q9","geo_precision":"range","address":"736 Fox Rd,","state":"Ohio"},"type":"Feature","geometry":{"type":"Point","coordinates":[-84.596649,40.851603]}},{"properties":{"city":"Van Wert","zip":"45891","geo_score":0.847,"biz name":"Van Wert Area Visiting Nurses &amp; Hospice","id":"a64096bs1wzf","geo_precision":"street","address":"1159 Westwood Dr","state":"Ohio"},"type":"Feature","geometry":{"type":"Point","coordinates":[-84.594602,40.85425]}},{"properties":{"city":"Van Wert","zip":"45891","geo_score":0.944,"biz name":"Fountain Park Home Care","id":"a640965yt4uz","geo_precision":"range","address":"120 W Main St","state":"Ohio"},"type":"Feature","geometry":{"type":"Point","coordinates":[-84.58328,40.869639]}},{"properties":{"city":"Van Wert","zip":"45891","geo_score":0.847,"biz name":"Community Health Professionals","id":"a64095z8dsal","geo_precision":"street","address":"1159 Westwood Drive","state":"Ohio"},"type":"Feature","geometry":{"type":"Point","coordinates":[-84.594602,40.85425]}},{"properties":{"city":"Van Wert","zip":"45891","geo_score":0.944,"biz name":"Starr Commonwealth","id":"a640962i318t","geo_precision":"range","address":"15145 Lincoln Hwy","state":"Ohio"},"type":"Feature","geometry":{"type":"Point","coordinates":[-84.529672,40.877889]}},{"properties":{"city":"Van Wert","zip":"45891","geo_score":0.944,"biz name":"Van Wert Inpatient Hospice Center","id":"a64095welpo1","geo_precision":"range","address":"1155 Westwood Dr","state":"Ohio"},"type":"Feature","geometry":{"type":"Point","coordinates":[-84.594177,40.854649]}},{"properties":{"city":"Van Wert","zip":"45891","geo_score":0.785,"biz name":"Family Caring Clinic","id":"a64095y7dsd9","geo_precision":"range","address":"140 Fox Rd Ste 304","state":"Ohio"},"type":"Feature","geometry":{"type":"Point","coordinates":[-84.585086,40.851672]}},{"properties":{"city":"Van Wert","zip":"45891","geo_score":0.944,"biz name":"Van Wert County Hospital","id":"a64095zu1pdf","geo_precision":"range","address":"1250 S Washington St","state":"Ohio"},"type":"Feature","geometry":{"type":"Point","coordinates":[-84.581404,40.850373]}},{"properties":{"city":"Van Wert","zip":"45891","geo_score":0.944,"biz name":"United Steelworkers of America","id":"a640967imld6","geo_precision":"range","address":"351 Pleasant St","state":"Ohio"},"type":"Feature","geometry":{"type":"Point","coordinates":[-84.589671,40.866866]}},{"properties":{"city":"Van Wert","zip":"45891","geo_score":0.944,"biz name":"Uswa Local 13029-30","id":"a640966uqbwa","geo_precision":"range","address":"975 Glenn St","state":"Ohio"},"type":"Feature","geometry":{"type":"Point","coordinates":[-84.589839,40.86126]}},{"properties":{"city":"Van Wert","zip":"45891","geo_score":0.944,"biz name":"Medi-Lab Inc","id":"a64096874ohd","geo_precision":"range","address":"1187 Westwood Dr","state":"Ohio"},"type":"Feature","geometry":{"type":"Point","coordinates":[-84.594749,40.852655]}},{"properties":{"city":"Van Wert","zip":"45891","geo_score":0.944,"biz name":"Brumback Library","id":"a64096631dk7","geo_precision":"range","address":"215 W Main St","state":"Ohio"},"type":"Feature","geometry":{"type":"Point","coordinates":[-84.584622,40.869634]}},{"properties":{"city":"Van Wert","zip":"45891","geo_score":0.944,"biz name":"Van Wert County Historical Society","id":"a640969mphkb","geo_precision":"range","address":"602 North Washington Street","state":"Ohio"},"type":"Feature","geometry":{"type":"Point","coordinates":[-84.583097,40.875536]}},{"properties":{"city":"Van Wert","zip":"45891","geo_score":0.944,"biz name":"Fastenal Co","id":"a64096c3rg55","geo_precision":"range","address":"529 Bonnewitz Avenue","state":"Ohio"},"type":"Feature","geometry":{"type":"Point","coordinates":[-84.589904,40.88076]}},{"properties":{"city":"Van Wert","zip":"45891","geo_score":0.944,"biz name":"Flip-Tuck Gymnastic Center","id":"a640969y9nij","geo_precision":"range","address":"730 Fox Road","state":"Ohio"},"type":"Feature","geometry":{"type":"Point","coordinates":[-84.59657,40.851603]}},{"properties":{"city":"Van Wert","zip":"45891","geo_score":0.944,"biz name":"Fortman's Crescent Linen Services","id":"a640966b8tac","geo_precision":"range","address":"223 North Market Street","state":"Ohio"},"type":"Feature","geometry":{"type":"Point","coordinates":[-84.580745,40.871159]}},{"properties":{"city":"Van Wert","zip":"45891","geo_score":0.944,"biz name":"Barnhart's Furniture Outlet","id":"a64096behqi7","geo_precision":"range","address":"200 East Main Street","state":"Ohio"},"type":"Feature","geometry":{"type":"Point","coordinates":[-84.580689,40.869664]}},{"properties":{"city":"Van Wert","zip":"45891","geo_score":0.944,"biz name":"Kids Learning Place","id":"a64095xxp4mn","geo_precision":"range","address":"813 North Franklin Street","state":"Ohio"},"type":"Feature","geometry":{"type":"Point","coordinates":[-84.571843,40.880103]}},{"properties":{"city":"Van Wert","zip":"45891","geo_score":0.944,"biz name":"Mengerink's Tuxedo Source","id":"a640967jukrp","geo_precision":"range","address":"148 East Main Street","state":"Ohio"},"type":"Feature","geometry":{"type":"Point","coordinates":[-84.581099,40.869663]}},{"properties":{"city":"Van Wert","zip":"45891","geo_score":0.944,"biz name":"Peking Chinese Restaurant","id":"a640968l4vzr","geo_precision":"range","address":"115 South Washington Street","state":"Ohio"},"type":"Feature","geometry":{"type":"Point","coordinates":[-84.583081,40.869503]}},{"properties":{"city":"Van Wert","zip":"45891","geo_score":0.944,"biz name":"Hotel Marsh","id":"a640967vrs9v","geo_precision":"range","address":"128 East Main Street","state":"Ohio"},"type":"Feature","geometry":{"type":"Point","coordinates":[-84.58118,40.869662]}},{"properties":{"city":"Van Wert","zip":"45891","geo_score":0.944,"biz name":"Crime Stoppers-Van Wert County","id":"a64095xbkyg5","geo_precision":"range","address":"113 North Market Street","state":"Ohio"},"type":"Feature","geometry":{"type":"Point","coordinates":[-84.580792,40.869778]}},{"properties":{"city":"Van Wert","zip":"45891","geo_score":0.944,"biz name":"Marsh Foundation School","id":"a64096b91lva","geo_precision":"range","address":"1229 Lincoln Highway","state":"Ohio"},"type":"Feature","geometry":{"type":"Point","coordinates":[-84.563637,40.871711]}},{"properties":{"city":"Van Wert","zip":"45891","geo_score":0.944,"biz name":"Associated Charities Inc Court House","id":"a64095ybv971","geo_precision":"range","address":"121 E Main St","state":"Ohio"},"type":"Feature","geometry":{"type":"Point","coordinates":[-84.581912,40.869654]}},{"properties":{"city":"Van Wert","zip":"45891","geo_score":0.944,"biz name":"Van Wert Superintendent Office","id":"a64096cmmi2w","geo_precision":"range","address":"205 West Crawford Street","state":"Ohio"},"type":"Feature","geometry":{"type":"Point","coordinates":[-84.584311,40.867343]}},{"properties":{"city":"Van Wert","zip":"45891","geo_score":0.944,"biz name":"Wassenberg Art Center","id":"a640963zaypk","geo_precision":"range","address":"643 South Washington Street","state":"Ohio"},"type":"Feature","geometry":{"type":"Point","coordinates":[-84.582964,40.863994]}},{"properties":{"city":"Van Wert","zip":"45891","geo_score":0.944,"biz name":"YMCA","id":"a640960dwh8g","geo_precision":"range","address":"241 W Main St","state":"Ohio"},"type":"Feature","geometry":{"type":"Point","coordinates":[-84.58508,40.869633]}},{"properties":{"city":"Van Wert","zip":"45891","geo_score":0.944,"biz name":"Stoller Carrie A","id":"a640967tjeo1","geo_precision":"range","address":"140 Fox Rd","state":"Ohio"},"type":"Feature","geometry":{"type":"Point","coordinates":[-84.585086,40.851672]}},{"properties":{"city":"Van Wert","zip":"45891","geo_score":0.944,"biz name":"Van Wert Manor","id":"a640960wwn64","geo_precision":"range","address":"160 Fox Road","state":"Ohio"},"type":"Feature","geometry":{"type":"Point","coordinates":[-84.587415,40.851659]}},{"properties":{"city":"Van Wert","zip":"45891","geo_score":0.944,"biz name":"Vancrest Health Care Center","id":"a64096akz9mb","geo_precision":"range","address":"10357 County Highway 434","state":"Ohio"},"type":"Feature","geometry":{"type":"Point","coordinates":[-84.622686,40.857603]}},{"properties":{"city":"Van Wert","zip":"45891","geo_score":0.944,"biz name":"Miller Dennis J OD","id":"a640964x0grx","geo_precision":"range","address":"321 W Main St","state":"Ohio"},"type":"Feature","geometry":{"type":"Point","coordinates":[-84.586767,40.86975]}},{"properties":{"city":"Van Wert","zip":"45891","geo_score":0.847,"biz name":"Van Wert Vision, Ltd.","id":"a64095zv4axh","geo_precision":"street","address":"1183 Westwood Drive","state":"Ohio"},"type":"Feature","geometry":{"type":"Point","coordinates":[-84.594749,40.852827]}},{"properties":{"city":"Van Wert","zip":"45891","geo_score":0.944,"biz name":"Van Wert Park Dept","id":"a64095wiazpo","geo_precision":"range","address":"137 Gleason Ave","state":"Ohio"},"type":"Feature","geometry":{"type":"Point","coordinates":[-84.581245,40.878582]}},{"properties":{"city":"Van Wert","zip":"45891","geo_score":0.944,"biz name":"Fountain Park","id":"a64096b8ll24","geo_precision":"range","address":"215 W Main St","state":"Ohio"},"type":"Feature","geometry":{"type":"Point","coordinates":[-84.584622,40.869634]}},{"properties":{"city":"Van Wert","zip":"45891","geo_score":0.944,"biz name":"Kelly J. Miller, PT","id":"a64096ad2tu5","geo_precision":"range","address":"1119 Westwood Drive","state":"Ohio"},"type":"Feature","geometry":{"type":"Point","coordinates":[-84.592452,40.856928]}},{"properties":{"city":"Van Wert","zip":"45891","geo_score":0.944,"biz name":"Van Wert Medical Svc","id":"a64096amz0i4","geo_precision":"range","address":"140 Fox Rd","state":"Ohio"},"type":"Feature","geometry":{"type":"Point","coordinates":[-84.585086,40.851672]}},{"properties":{"city":"Van Wert","zip":"45891","geo_score":0.944,"biz name":"Physical Medicine Ctr","id":"a64096c36nx9","geo_precision":"range","address":"140 Fox Rd","state":"Ohio"},"type":"Feature","geometry":{"type":"Point","coordinates":[-84.585086,40.851672]}},{"properties":{"city":"Van Wert","zip":"45891","geo_score":0.944,"biz name":"Conte Thomas MD","id":"a640965plq6m","geo_precision":"range","address":"140 Fox Rd","state":"Ohio"},"type":"Feature","geometry":{"type":"Point","coordinates":[-84.585086,40.851672]}},{"properties":{"city":"Van Wert","zip":"45891","geo_score":0.944,"biz name":"Van Wert Family Physicians","id":"a6409657szla","geo_precision":"range","address":"1178 Professional Dr","state":"Ohio"},"type":"Feature","geometry":{"type":"Point","coordinates":[-84.592114,40.852059]}},{"properties":{"city":"Van Wert","zip":"45891","geo_score":0.944,"biz name":"Canavati Isa S MD","id":"a640967kzku3","geo_precision":"range","address":"1250 S Washington St","state":"Ohio"},"type":"Feature","geometry":{"type":"Point","coordinates":[-84.581404,40.850373]}},{"properties":{"city":"Van Wert","zip":"45891","geo_score":0.944,"biz name":"Northeast Indiana Urology","id":"a64095xm6o97","geo_precision":"range","address":"140 Fox Rd","state":"Ohio"},"type":"Feature","geometry":{"type":"Point","coordinates":[-84.585086,40.851672]}},{"properties":{"city":"Van Wert","zip":"45891","geo_score":0.944,"biz name":"O'Donnell Philip MD","id":"a6409669uk63","geo_precision":"range","address":"321 W Main St","state":"Ohio"},"type":"Feature","geometry":{"type":"Point","coordinates":[-84.586767,40.86975]}},{"properties":{"city":"Van Wert","zip":"45891","geo_score":0.944,"biz name":"Briggs Lloyd C Jr MD","id":"a640963uj2tg","geo_precision":"range","address":"1180 Professional Dr","state":"Ohio"},"type":"Feature","geometry":{"type":"Point","coordinates":[-84.592114,40.852059]}},{"properties":{"city":"Van Wert","zip":"45891","geo_score":0.944,"biz name":"Ludwig Jerome J MD","id":"a640962ic76o","geo_precision":"range","address":"140 Fox Rd","state":"Ohio"},"type":"Feature","geometry":{"type":"Point","coordinates":[-84.585086,40.851672]}},{"properties":{"city":"Van Wert","zip":"45891","geo_score":0.944,"biz name":"Nieman James M MD","id":"a64095xpyiuy","geo_precision":"range","address":"1180 Professional Dr","state":"Ohio"},"type":"Feature","geometry":{"type":"Point","coordinates":[-84.592114,40.852059]}},{"properties":{"city":"Van Wert","zip":"45891","geo_score":0.944,"biz name":"Herr Brian D MD","id":"a640969hyc9t","geo_precision":"range","address":"140 Fox Rd","state":"Ohio"},"type":"Feature","geometry":{"type":"Point","coordinates":[-84.585086,40.851672]}},{"properties":{"city":"Van Wert","zip":"45891","geo_score":0.944,"biz name":"Khalil Abbas MD Facp","id":"a640964e55cl","geo_precision":"range","address":"140 Fox Rd","state":"Ohio"},"type":"Feature","geometry":{"type":"Point","coordinates":[-84.585086,40.851672]}},{"properties":{"city":"Van Wert","zip":"45891","geo_score":0.944,"biz name":"Grand Lake Podiatry Inc","id":"a64096atv3vf","geo_precision":"range","address":"140 Fox Rd","state":"Ohio"},"type":"Feature","geometry":{"type":"Point","coordinates":[-84.585086,40.851672]}},{"properties":{"city":"Van Wert","zip":"45891","geo_score":0.944,"biz name":"Neuschwanger Samuel Dpm","id":"a640961hao3i","geo_precision":"range","address":"1175 Westwood Dr","state":"Ohio"},"type":"Feature","geometry":{"type":"Point","coordinates":[-84.594757,40.853147]}},{"properties":{"city":"Van Wert","zip":"45891","geo_score":0.944,"biz name":"Chief of Police","id":"a64096a8ul00","geo_precision":"range","address":"515 E Main St","state":"Ohio"},"type":"Feature","geometry":{"type":"Point","coordinates":[-84.576773,40.869647]}},{"properties":{"city":"Van Wert","zip":"45891","geo_score":0.944,"biz name":"Van Wert Police Records Bureau","id":"a640963u0bpy","geo_precision":"range","address":"515 E Main St","state":"Ohio"},"type":"Feature","geometry":{"type":"Point","coordinates":[-84.576773,40.869647]}},{"properties":{"city":"Van Wert","zip":"45891","geo_score":0.944,"biz name":"City of Van Wert Police Dept","id":"a64096b0j93b","geo_precision":"range","address":"515 E Main St","state":"Ohio"},"type":"Feature","geometry":{"type":"Point","coordinates":[-84.576773,40.869647]}},{"properties":{"city":"Van Wert","zip":"45891","geo_score":0.944,"biz name":"Van Wert Police Detective Bureau","id":"a6409699eqak","geo_precision":"range","address":"515 East Main Street","state":"Ohio"},"type":"Feature","geometry":{"type":"Point","coordinates":[-84.576773,40.869647]}},{"properties":{"city":"Van Wert","zip":"45891","geo_score":0.944,"biz name":"US Post Office","id":"a64096ay5n95","geo_precision":"range","address":"314 East Main Street","state":"Ohio"},"type":"Feature","geometry":{"type":"Point","coordinates":[-84.579304,40.869667]}},{"properties":{"city":"Van Wert","zip":"45891","geo_score":0.785,"biz name":"Conte Thomas E MD","id":"a6409675s2y4","geo_precision":"range","address":"140 Fox Rd Ste 404","state":"Ohio"},"type":"Feature","geometry":{"type":"Point","coordinates":[-84.585086,40.851672]}},{"properties":{"city":"Van Wert","zip":"45891","geo_score":0.944,"biz name":"US Army Recruiting Office","id":"a640960710oj","geo_precision":"range","address":"105 W Main St","state":"Ohio"},"type":"Feature","geometry":{"type":"Point","coordinates":[-84.583124,40.869644]}},{"properties":{"city":"Van Wert","zip":"45891","geo_score":0.777,"biz name":"US Marine Corps Recruiting","id":"a640961np7u9","geo_precision":"range","address":"341 Town Center Blvd","state":"Ohio"},"type":"Feature","geometry":{"type":"Point","coordinates":[-84.586712,40.874118]}},{"properties":{"city":"Van Wert","zip":"45891","geo_score":0.944,"biz name":"St Mary's of the Assumption","id":"a64096b4hvyb","geo_precision":"range","address":"611 Jennings Rd","state":"Ohio"},"type":"Feature","geometry":{"type":"Point","coordinates":[-84.565646,40.862989]}},{"properties":{"city":"Van Wert","zip":"45891","geo_score":0.944,"biz name":"Franklin Elementary School","id":"a64096b6mztm","geo_precision":"range","address":"305 Frothingham St","state":"Ohio"},"type":"Feature","geometry":{"type":"Point","coordinates":[-84.578471,40.865341]}},{"properties":{"city":"Van Wert","zip":"45891","geo_score":0.944,"biz name":"Van Wert Middle School","id":"a6409686lk54","geo_precision":"range","address":"305 W Crawford St","state":"Ohio"},"type":"Feature","geometry":{"type":"Point","coordinates":[-84.585804,40.867325]}},{"properties":{"city":"Van Wert","zip":"45891","geo_score":0.944,"biz name":"Jefferson Elementary School","id":"a64095y33d8c","geo_precision":"range","address":"1120 Buckeye Dr","state":"Ohio"},"type":"Feature","geometry":{"type":"Point","coordinates":[-84.568584,40.85802]}},{"properties":{"city":"Van Wert","zip":"45891","geo_score":0.944,"biz name":"Lincolnview Junior High School","id":"a640960ui9xq","geo_precision":"range","address":"15945 County Highway 124","state":"Ohio"},"type":"Feature","geometry":{"type":"Point","coordinates":[-84.515138,40.851873]}},{"properties":{"city":"Van Wert","zip":"45891","geo_score":0.944,"biz name":"Lincolnview Senior High School","id":"a640963h4jke","geo_precision":"range","address":"15945 County Highway 124","state":"Ohio"},"type":"Feature","geometry":{"type":"Point","coordinates":[-84.515138,40.851873]}},{"properties":{"city":"Van Wert","zip":"45891","geo_score":0.877,"biz name":"Van Wert Schools","id":"a640962y1asz","geo_precision":"range","address":"15945 Middle Point Rd","state":"Ohio"},"type":"Feature","geometry":{"type":"Point","coordinates":[-84.515138,40.851873]}},{"properties":{"city":"Van Wert","zip":"45891","geo_score":0.944,"biz name":"Washington School","id":"a6409622rcra","geo_precision":"range","address":"839 Prospect Ave","state":"Ohio"},"type":"Feature","geometry":{"type":"Point","coordinates":[-84.594196,40.867064]}},{"properties":{"city":"Van Wert","zip":"45891","geo_score":0.944,"biz name":"Student Learning Center","id":"a640960ulrvj","geo_precision":"range","address":"620 N Cherry St","state":"Ohio"},"type":"Feature","geometry":{"type":"Point","coordinates":[-84.578269,40.876016]}},{"properties":{"city":"Van Wert","zip":"45891","geo_score":0.944,"biz name":"Thomas Edison Center","id":"a640963v45fw","geo_precision":"range","address":"813 N Franklin St","state":"Ohio"},"type":"Feature","geometry":{"type":"Point","coordinates":[-84.571843,40.880103]}},{"properties":{"city":"Van Wert","zip":"45891","geo_score":0.944,"biz name":"Van Wert Middle School","id":"a64096ahdsy9","geo_precision":"range","address":"10694 State Route 118","state":"Ohio"},"type":"Feature","geometry":{"type":"Point","coordinates":[-84.604157,40.845484]}},{"properties":{"city":"Van Wert","zip":"45891","geo_score":0.944,"biz name":"Van Wert High School","id":"a640963tg2tm","geo_precision":"range","address":"10708 State Route 118","state":"Ohio"},"type":"Feature","geometry":{"type":"Point","coordinates":[-84.604211,40.845346]}},{"properties":{"city":"Van Wert","zip":"45891","geo_score":0.944,"biz name":"Van Wert Superintendent Office","id":"a64096al0oqd","geo_precision":"range","address":"205 W Crawford St","state":"Ohio"},"type":"Feature","geometry":{"type":"Point","coordinates":[-84.584311,40.867343]}},{"properties":{"city":"Van Wert","zip":"45891","geo_score":0.944,"biz name":"Vantage Career Center","id":"a64095wun92g","geo_precision":"range","address":"818 North Franklin Street","state":"Ohio"},"type":"Feature","geometry":{"type":"Point","coordinates":[-84.571846,40.880277]}},{"properties":{"city":"Van Wert","zip":"45891","geo_score":0.944,"biz name":"Washington Elementary School","id":"a64095ws73eh","geo_precision":"range","address":"839 Prospect Ave","state":"Ohio"},"type":"Feature","geometry":{"type":"Point","coordinates":[-84.594196,40.867064]}},{"properties":{"city":"Van Wert","zip":"45891","geo_score":0.944,"biz name":"Marsh Foundation School","id":"a640968zmva2","geo_precision":"range","address":"1229 Lincoln Highway","state":"Ohio"},"type":"Feature","geometry":{"type":"Point","coordinates":[-84.563637,40.871711]}},{"properties":{"city":"Van Wert","zip":"45891","geo_score":0.944,"biz name":"Crime Stoppers","id":"a640969wybjw","geo_precision":"range","address":"113 N Market St","state":"Ohio"},"type":"Feature","geometry":{"type":"Point","coordinates":[-84.580792,40.869778]}},{"properties":{"city":"Van Wert","zip":"45891","geo_score":0.944,"biz name":"The Marsh Foundation","id":"a640962j8ela","geo_precision":"range","address":"1229 Lincoln Hwy","state":"Ohio"},"type":"Feature","geometry":{"type":"Point","coordinates":[-84.563637,40.871711]}},{"properties":{"city":"Van Wert","zip":"45891","geo_score":0.944,"biz name":"Van Wert County Municipal Court","id":"a64095wftjvc","geo_precision":"range","address":"124 South Market Street","state":"Ohio"},"type":"Feature","geometry":{"type":"Point","coordinates":[-84.580677,40.868891]}},{"properties":{"city":"Van Wert","zip":"45891","geo_score":0.944,"biz name":"American Red Cross","id":"a640968ff69o","geo_precision":"range","address":"208 E Main St","state":"Ohio"},"type":"Feature","geometry":{"type":"Point","coordinates":[-84.580617,40.869664]}},{"properties":{"city":"Van Wert","zip":"45891","geo_score":0.944,"biz name":"Work Force Investment Act","id":"a64095wewsoo","geo_precision":"range","address":"114 E Main St","state":"Ohio"},"type":"Feature","geometry":{"type":"Point","coordinates":[-84.582648,40.869646]}},{"properties":{"city":"Van Wert","zip":"45891","geo_score":0.944,"biz name":"Van Wert County WIC Program","id":"a64095xfdw40","geo_precision":"range","address":"1119 Westwood Dr","state":"Ohio"},"type":"Feature","geometry":{"type":"Point","coordinates":[-84.592452,40.856928]}},{"properties":{"city":"Van Wert","zip":"45891","geo_score":0.944,"biz name":"US Consolidated Farm Svc Agcy","id":"a640968dhu00","geo_precision":"range","address":"1189 Professional Dr","state":"Ohio"},"type":"Feature","geometry":{"type":"Point","coordinates":[-84.592114,40.851866]}},{"properties":{"city":"Van Wert","zip":"45891","geo_score":0.944,"biz name":"Highway Patrol","id":"a640963jlecj","geo_precision":"range","address":"10234 County Highway 434","state":"Ohio"},"type":"Feature","geometry":{"type":"Point","coordinates":[-84.624496,40.856952]}},{"properties":{"city":"Van Wert","zip":"45891","geo_score":0.944,"biz name":"Van Wert County Job &amp; Family","id":"a640963je4yb","geo_precision":"range","address":"114 E Main St","state":"Ohio"},"type":"Feature","geometry":{"type":"Point","coordinates":[-84.582648,40.869646]}},{"properties":{"city":"Van Wert","zip":"45891","geo_score":0.944,"biz name":"Transportation Department","id":"a640965eb6d2","geo_precision":"range","address":"10238 County Highway 434","state":"Ohio"},"type":"Feature","geometry":{"type":"Point","coordinates":[-84.624437,40.85697]}},{"properties":{"city":"Van Wert","zip":"45891","geo_score":0.944,"biz name":"Veterans of Foreign Wars","id":"a64095yd8i1u","geo_precision":"range","address":"111 North Shannon Street","state":"Ohio"},"type":"Feature","geometry":{"type":"Point","coordinates":[-84.586498,40.869769]}},{"properties":{"city":"Van Wert","zip":"45891","geo_score":0.944,"biz name":"YMCA","id":"a640967lv76u","geo_precision":"range","address":"241 West Main Street","state":"Ohio"},"type":"Feature","geometry":{"type":"Point","coordinates":[-84.58508,40.869633]}},{"properties":{"city":"Van Wert","zip":"45891","geo_score":0.944,"biz name":"Junior Achievement","id":"a64095zlqdh5","geo_precision":"range","address":"1420 Krendl Dr","state":"Ohio"},"type":"Feature","geometry":{"type":"Point","coordinates":[-84.608265,40.870076]}},{"properties":{"city":"Van Wert","zip":"45891","geo_score":0.944,"biz name":"Van Wert County Council-Aging","id":"a6409668htfb","geo_precision":"range","address":"220 Fox Road","state":"Ohio"},"type":"Feature","geometry":{"type":"Point","coordinates":[-84.589737,40.85164]}},{"properties":{"city":"Venedocia","zip":"45894","geo_score":0.924,"biz name":"Salem United Presbyterian Church","id":"a64095xgwcj8","geo_precision":"range","address":"15240 Main St","state":"Ohio"},"type":"Feature","geometry":{"type":"Point","coordinates":[-84.456409,40.783895]}},{"properties":{"city":"Venedocia","zip":"45894","geo_score":0.924,"biz name":"Salem United Presbyterian Church","id":"a640963badt9","geo_precision":"range","address":"15240 Main St","state":"Ohio"},"type":"Feature","geometry":{"type":"Point","coordinates":[-84.456409,40.783895]}},{"properties":{"city":"Venedocia","zip":"45894","geo_score":0.659,"biz name":"Masser Glenn","id":"a640966xhh6c","geo_precision":"street","address":"15195 Van Wert Mercer Co Line","state":"Ohio"},"type":"Feature","geometry":{"type":"Point","coordinates":[-84.47523,40.728227]}},{"properties":{"city":"Venedocia","zip":"45894","geo_score":0.924,"biz name":"US Post Office","id":"a64096a2zo6f","geo_precision":"range","address":"15155 Main Street","state":"Ohio"},"type":"Feature","geometry":{"type":"Point","coordinates":[-84.456406,40.784628]}},{"properties":{"city":"Willshire","zip":"45898","geo_score":0.913,"biz name":"Countryside Church of The Nazarene","id":"a640968xd490","geo_precision":"range","address":"15465 State Route 49","state":"Ohio"},"type":"Feature","geometry":{"type":"Point","coordinates":[-84.782462,40.775343]}},{"properties":{"city":"Willshire","zip":"45898","geo_score":0.791,"biz name":"Praise Point United Brethren","id":"a640967qhzyc","geo_precision":"range","address":"555 Decatur Rd","state":"Ohio"},"type":"Feature","geometry":{"type":"Point","coordinates":[-84.796271,40.749123]}},{"properties":{"city":"Willshire","zip":"45898","geo_score":0.913,"biz name":"Willshire United Methodist Church","id":"a640965lk0am","geo_precision":"range","address":"405 Hogan St.","state":"Ohio"},"type":"Feature","geometry":{"type":"Point","coordinates":[-84.79291,40.747077]}},{"properties":{"city":"Willshire","zip":"45898","geo_score":0.913,"biz name":"Zion Lutheran Church","id":"a64096agztvz","geo_precision":"range","address":"17434 Schumm Road","state":"Ohio"},"type":"Feature","geometry":{"type":"Point","coordinates":[-84.727393,40.750793]}},{"properties":{"city":"Willshire","zip":"45898","geo_score":0.72,"biz name":"Willshire Village Treasurer","id":"a6409600ifyw","geo_precision":"street","address":"315 State Street","state":"Ohio"},"type":"Feature","geometry":{"type":"Point","coordinates":[-84.790169,40.747572]}},{"properties":{"city":"Willshire","zip":"45898","geo_score":0.598,"biz name":"Willshire Water Treatment Plant","id":"a640964kx2jc","geo_precision":"street","address":"601 Green Street","state":"Ohio"},"type":"Feature","geometry":{"type":"Point","coordinates":[-84.796489,40.743584]}},{"properties":{"city":"Willshire","zip":"45898","geo_score":0.598,"biz name":"Wilishire Water Treatment","id":"a6409686ypfo","geo_precision":"street","address":"601 Green Street","state":"Ohio"},"type":"Feature","geometry":{"type":"Point","coordinates":[-84.796489,40.743584]}},{"properties":{"city":"Willshire","zip":"45898","geo_score":0.72,"biz name":"Willshire Fire Dept","id":"a640966t9tzd","geo_precision":"street","address":"309 State St","state":"Ohio"},"type":"Feature","geometry":{"type":"Point","coordinates":[-84.790169,40.747572]}},{"properties":{"city":"Willshire","zip":"45898","geo_score":0.913,"biz name":"Willshire Sewage Treatment Plant","id":"a640968co8hb","geo_precision":"range","address":"100 Hogan St.","state":"Ohio"},"type":"Feature","geometry":{"type":"Point","coordinates":[-84.795291,40.750803]}},{"properties":{"city":"Willshire","zip":"45898","geo_score":0.913,"biz name":"Willshire Twp Office","id":"a64096b786qo","geo_precision":"range","address":"15484 Clayton Road","state":"Ohio"},"type":"Feature","geometry":{"type":"Point","coordinates":[-84.765806,40.779197]}},{"properties":{"city":"Willshire","zip":"45898","geo_score":0.721,"biz name":"Willshire Library","id":"a640968rubg7","geo_precision":"street","address":"323 State Street","state":"Ohio"},"type":"Feature","geometry":{"type":"Point","coordinates":[-84.790169,40.747572]}},{"properties":{"city":"Willshire","zip":"45898","geo_score":0.913,"biz name":"US Post Office","id":"a64095xppmp9","geo_precision":"range","address":"110 Walcott St","state":"Ohio"},"type":"Feature","geometry":{"type":"Point","coordinates":[-84.79119,40.748464]}},{"properties":{"city":"Wren","zip":"45899","geo_score":1.0,"biz name":"Wren Library","id":"a64095zfjywb","geo_precision":"range","address":"101 Washington Street","state":"Ohio"},"type":"Feature","geometry":{"type":"Point","coordinates":[-84.776341,40.799628]}}],"is_temporal":false,"author":{"url":"","metadata":"","contact_name":"","contact_address":"","source":"","contact_phone":""},"source":"","pagination":{"sort":null,"start":0,"total":276,"limit":1000000},"state":"complete","tags":"","published":"2014-08-15T02:34:12-04:00","id":229702}