{"type":"FeatureCollection","data_type":"Dataset","url_type":null,"permissions":[{"permissions":{"download":true,"view":true},"group_id":"everyone"}],"classification":null,"title":"new updated lake monster","count":75,"stream_id":229801,"contributor":{"url":"http://geocommons.com/users/42465","name":"jonesre"},"data_attributes":null,"calculation_params":null,"icon_link":null,"link":"http://geocommons.com/overlays/229801.json","extent":[-154.897,-41.0535,175.25,66.05],"geometry_types":["point"],"unique_name":null,"name":"new updated lake monster","feature_count":75,"description":"","next_feature":null,"is_raster":false,"short_classification":"Y","stats":{},"features":[{"properties":{"name":"Alesund Monster","city":"Alesund","geo_score":1.0,"country":"Norway","id":"a6i4j2nb0cho","geo_precision":"zip"},"type":"Feature","geometry":{"type":"Point","coordinates":[6.15212917327881,62.4708311316135]}},{"properties":{"name":"Altamaha-ha","city":"Brunswick","geo_score":0.943,"country":"United States","id":"a6i4j2p0c9f6","geo_precision":"zip"},"type":"Feature","geometry":{"type":"Point","coordinates":[-78.2663883,34.0668378]}},{"properties":{"name":"Bear Lake Monster","city":"Fish Haven","geo_score":0.905,"country":"United States","id":"a6i4j2v7pkyx","geo_precision":"zip"},"type":"Feature","geometry":{"type":"Point","coordinates":[-90.0609506,40.3000428]}},{"properties":{"name":"Bear Lake Monster","city":"Garden City","geo_score":0.943,"country":"United States","id":"a6i4j2tejv2w","geo_precision":"zip"},"type":"Feature","geometry":{"type":"Point","coordinates":[-118.3089624,33.8883487]}},{"properties":{"name":"Bessie","city":"Ripley","geo_score":1.0,"country":"United States","id":"a6i4j2np1u7o","geo_precision":"zip"},"type":"Feature","geometry":{"type":"Point","coordinates":[-89.5297973,35.7453552]}},{"properties":{"name":"Bessie","city":"Erie","geo_score":1.0,"country":"United States","id":"a6i4j2ketygt","geo_precision":"zip"},"type":"Feature","geometry":{"type":"Point","coordinates":[-80.085059,42.1292241]}},{"properties":{"name":"Bessie","city":"Port Stanley","geo_score":0.896,"country":"United States","id":"a6i4j2so1ffg","geo_precision":"zip"},"type":"Feature","geometry":{"type":"Point","coordinates":[-98.7375911,37.6439071]}},{"properties":{"name":"Bessie","city":"Port Clinton","geo_score":0.948,"country":"United States","id":"a6i4j2pmb92l","geo_precision":"zip"},"type":"Feature","geometry":{"type":"Point","coordinates":[-82.9199212,42.5869787]}},{"properties":{"name":"Black Lake Monster","city":"Black River","geo_score":0.952,"country":"United States","id":"a6i4j2mr14mp","geo_precision":"zip"},"type":"Feature","geometry":{"type":"Point","coordinates":[-90.8515311,44.2946834]}},{"properties":{"name":"Brosnie","city":"Toropets","geo_score":1.0,"country":"Russia","id":"a6i4j2ihwo1x","geo_precision":"zip"},"type":"Feature","geometry":{"type":"Point","coordinates":[31.6347222,56.4952778]}},{"properties":{"name":"Bunyip","city":"Forster","geo_score":1.0,"country":"Australia","id":"a6i4j2kjjrwl","geo_precision":"zip"},"type":"Feature","geometry":{"type":"Point","coordinates":[152.5166667,-32.1666667]}},{"properties":{"name":"Bunyip","city":"Eden","geo_score":0.918,"country":"Australia","id":"a6i4j2wtlpcg","geo_precision":"zip"},"type":"Feature","geometry":{"type":"Point","coordinates":[133.6333333,-25.9]}},{"properties":{"name":"Caddy","city":"Vancouver","geo_score":1.0,"country":"Canada","id":"a6i4j2lp6vzd","geo_precision":"zip"},"type":"Feature","geometry":{"type":"Point","coordinates":[-123.119340403,49.249657393]}},{"properties":{"name":"Cassie","city":"Cumberland","geo_score":0.946,"country":"United States","id":"a6i4j2ipdbdv","geo_precision":"zip"},"type":"Feature","geometry":{"type":"Point","coordinates":[-78.8664137,35.0501642]}},{"properties":{"name":"Cameron Lake Monster","city":"Nanaimo","geo_score":1.0,"country":"Canada","id":"a6i4j2po6cj2","geo_precision":"zip"},"type":"Feature","geometry":{"type":"Point","coordinates":[-123.936012692,49.166337382]}},{"properties":{"name":"Lake Catemaco Monster","city":"Mexicali","geo_score":1.0,"country":"Mexico","id":"a6i4j2sdrc82","geo_precision":"zip"},"type":"Feature","geometry":{"type":"Point","coordinates":[-115.147705078125,32.5051292319189]}},{"properties":{"name":"Changbai Mountain Lake Monster","city":"Hami","geo_score":1.0,"country":"China","id":"a6i4j2mo3cwz","geo_precision":"zip"},"type":"Feature","geometry":{"type":"Point","coordinates":[93.45,42.8]}},{"properties":{"name":"Chessie","city":"Westland","geo_score":1.0,"country":"United States","id":"a6i4j2qmq1m8","geo_precision":"zip"},"type":"Feature","geometry":{"type":"Point","coordinates":[-83.400211,42.324204]}},{"properties":{"name":"Champ","city":"Champlain","geo_score":0.984,"country":"United States","id":"a6i4j2mylyci","geo_precision":"zip"},"type":"Feature","geometry":{"type":"Point","coordinates":[-93.3974538,45.1888539]}},{"properties":{"name":"Chiemsee Monster","city":"Chiemsee","geo_score":1.0,"country":"Germany","id":"a6i4j2jctfir","geo_precision":"zip"},"type":"Feature","geometry":{"type":"Point","coordinates":[12.4166667,47.8666667]}},{"properties":{"name":"Colossal Claude","city":"Warrenton","geo_score":1.0,"country":"United States","id":"a6i4j2kcd99t","geo_precision":"zip"},"type":"Feature","geometry":{"type":"Point","coordinates":[-77.7952712,38.7134516]}},{"properties":{"name":"Con Rit","city":"Hoan Kiem","geo_score":0.929,"country":"Vietnam","id":"a6i4j2q0bvqe","geo_precision":"zip"},"type":"Feature","geometry":{"type":"Point","coordinates":[105.85,21.0333333]}},{"properties":{"name":"Daedalus","city":"Cape Town","geo_score":1.0,"country":"South Africa","id":"a6i4j2trnhaj","geo_precision":"zip"},"type":"Feature","geometry":{"type":"Point","coordinates":[18.4166667,-33.9166667]}},{"properties":{"name":"Migo","city":"New Britain Island","geo_score":0.75,"country":"Papau New Guinea","id":"a6i4j2x2fahg","geo_precision":"zip"},"type":"Feature","geometry":{"type":"Point","coordinates":[32.5,41.5833333]}},{"properties":{"name":"Danau Poso Monster","city":"Danau Poso","geo_score":0.873,"country":"Indonesia","id":"a6i4j2l063ia","geo_precision":"zip"},"type":"Feature","geometry":{"type":"Point","coordinates":[107.75,-7.1]}},{"properties":{"name":"The Denbigh Dinosaur","city":"Denbigh","geo_score":0.857,"country":"Wales","id":"a6i4j2octyfb","geo_precision":"zip"},"type":"Feature","geometry":{"type":"Point","coordinates":[-3.4166667,53.1833333]}},{"properties":{"name":"Dobhar Chu","city":"Gubinea","geo_score":0.0,"country":"Ireland","id":"a6i4j2kd2lba","geo_precision":"unmatched"},"type":"Feature","geometry":null},{"properties":{"name":"The Flathead Lake Monster","city":"Kings Point","geo_score":0.971,"country":"United States","id":"a6i4j2l34zis","geo_precision":"zip"},"type":"Feature","geometry":{"type":"Point","coordinates":[-82.5618186,36.548434]}},{"properties":{"name":"Gloucester Sea Serpent","city":"Gloucester","geo_score":0.946,"country":"United States","id":"a6i4j2hp18pn","geo_precision":"zip"},"type":"Feature","geometry":{"type":"Point","coordinates":[-75.1329541,39.7334475]}},{"properties":{"name":"Hawkesbury River Monster","city":"Little Wobby","geo_score":0.896,"country":"Australia","id":"a6i4j2h5j9ey","geo_precision":"zip"},"type":"Feature","geometry":{"type":"Point","coordinates":[115.4666667,-33.6]}},{"properties":{"name":"Inkanyamba","city":"Howick","geo_score":1.0,"country":"South Africa","id":"a6i4j2sdsnsi","geo_precision":"zip"},"type":"Feature","geometry":{"type":"Point","coordinates":[30.2333333,-29.4666667]}},{"properties":{"name":"Igopogo","city":"Beaverton","geo_score":0.929,"country":"Canada","id":"a6i4j2q4q7e4","geo_precision":"zip"},"type":"Feature","geometry":{"type":"Point","coordinates":[-73.658538322,47.588201048]}},{"properties":{"name":"Igopogo, Mussie","city":"Madawaska Valley","geo_score":0.876,"country":"Canada","id":"a6i4j2p0t3h3","geo_precision":"zip"},"type":"Feature","geometry":{"type":"Point","coordinates":[-78.716270389,44.600116278]}},{"properties":{"name":"Issie","city":"Kyushu","geo_score":1.0,"country":"Japan","id":"a6i4j2uh658t","geo_precision":"zip"},"type":"Feature","geometry":{"type":"Point","coordinates":[131.0,33.0]}},{"properties":{"name":"Kanas Lake Monster","city":"Xingjiang","geo_score":0.948,"country":"China","id":"a6i4j2ukde7p","geo_precision":"zip"},"type":"Feature","geometry":{"type":"Point","coordinates":[127.4913889,42.175]}},{"properties":{"name":"Lake Kokkol Monster","city":"Koktuma","geo_score":0.762,"country":"Kazakstan","id":"a6i4j2nkfaeb","geo_precision":"zip"},"type":"Feature","geometry":{"type":"Point","coordinates":[2.3,6.3833333]}},{"properties":{"name":"Kussii","city":"Hokkaido","geo_score":1.0,"country":"Japan","id":"a6i4j2kchi4m","geo_precision":"zip"},"type":"Feature","geometry":{"type":"Point","coordinates":[141.346600055695,43.064514141994]}},{"properties":{"name":"Iliamna Lake Monster","city":"Newhalen","geo_score":1.0,"country":"United States","id":"a6i4j2ose9i8","geo_precision":"zip"},"type":"Feature","geometry":{"type":"Point","coordinates":[-154.8972222,59.72]}},{"properties":{"name":"Lake Labynkyr monster","city":"Labynkyr","geo_score":1.0,"country":"Russia","id":"a6i4j2n7076s","geo_precision":"zip"},"type":"Feature","geometry":{"type":"Point","coordinates":[143.7833333,62.7]}},{"properties":{"name":"Lakey","city":"Lake Coleridge","geo_score":0.901,"country":"New Zealand","id":"a6i4j2o7okfd","geo_precision":"zip"},"type":"Feature","geometry":{"type":"Point","coordinates":[175.250200271,-37.688211997]}},{"properties":{"name":"Loch Lomand Monster","city":"Culag","geo_score":0.905,"country":"United Kingdom","id":"a6i4j2gsyxfm","geo_precision":"zip"},"type":"Feature","geometry":{"type":"Point","coordinates":[-6.7,55.05]}},{"properties":{"name":"Nessie","city":"Inverness","geo_score":1.0,"country":"United Kingdom","id":"a6i4j2w18ehu","geo_precision":"zip"},"type":"Feature","geometry":{"type":"Point","coordinates":[-4.2333333,57.4666667]}},{"properties":{"name":"Lough Eske Monster","city":"Milltown","geo_score":1.0,"country":"Ireland","id":"a6i4j2s98wcp","geo_precision":"zip"},"type":"Feature","geometry":{"type":"Point","coordinates":[-8.2586111,54.6530556]}},{"properties":{"name":"Lusca","city":"Nassau","geo_score":1.0,"country":"Bahamas","id":"a6i4j2lo33nn","geo_precision":"zip"},"type":"Feature","geometry":{"type":"Point","coordinates":[-77.35,25.0833333]}},{"properties":{"name":"Monipogo","city":"Kinosota","geo_score":0.946,"country":"Canada","id":"a6i4j2kfd3vl","geo_precision":"zip"},"type":"Feature","geometry":{"type":"Point","coordinates":[-79.342950696,48.189069028]}},{"properties":{"name":"Memphre","city":"Vermot","geo_score":0.896,"country":"Canada","id":"a6i4j2pcz5v2","geo_precision":"zip"},"type":"Feature","geometry":{"type":"Point","coordinates":[-117.869018432,51.783224851]}},{"properties":{"name":"Mishipizheu","city":"Skanee","geo_score":0.881,"country":"United States","id":"a6i4j2m98hio","geo_precision":"zip"},"type":"Feature","geometry":{"type":"Point","coordinates":[-97.9647269,29.5688411]}},{"properties":{"name":"Morag","city":"Bracorina","geo_score":0.893,"country":"United Kingdom","id":"a6i4j2ugkmnh","geo_precision":"zip"},"type":"Feature","geometry":{"type":"Point","coordinates":[0.3,51.2833333]}},{"properties":{"name":"Mussie","city":"Ottawa","geo_score":1.0,"country":"Canada","id":"a6i4j2ihjrzo","geo_precision":"zip"},"type":"Feature","geometry":{"type":"Point","coordinates":[-75.6902861595154,45.4209405046496]}},{"properties":{"name":"Mokele-mbembe","city":"Mwiga","geo_score":0.971,"country":"Tanzania","id":"a6i4j2qh02yk","geo_precision":"zip"},"type":"Feature","geometry":{"type":"Point","coordinates":[37.5833333,-3.2833333]}},{"properties":{"name":"Muck Monster","city":"West Palm Beach","geo_score":0.905,"country":"United States","id":"a6i4j2o645lh","geo_precision":"zip"},"type":"Feature","geometry":{"type":"Point","coordinates":[-80.4497744,26.6503442]}},{"properties":{"name":"Naheulito","city":"Llao Llao","geo_score":1.0,"country":"Argentina","id":"a6i4j2sgm6qs","geo_precision":"zip"},"type":"Feature","geometry":{"type":"Point","coordinates":[-71.5366172790527,-41.0535311013867]}},{"properties":{"name":"Normandy Nessie","city":"Madeira Beach","geo_score":0.905,"country":"United States","id":"a6i4j2rritb6","geo_precision":"zip"},"type":"Feature","geometry":{"type":"Point","coordinates":[-90.1528519,29.9840922]}},{"properties":{"name":"Ogopogo","city":"Greata","geo_score":0.881,"country":"Canada","id":"a6i4j2nx8lfj","geo_precision":"zip"},"type":"Feature","geometry":{"type":"Point","coordinates":[-82.666466602,48.150115297]}},{"properties":{"name":"Lake Pend Oreille Monster","city":"Hope","geo_score":1.0,"country":"United States","id":"a6i4j2whodv2","geo_precision":"zip"},"type":"Feature","geometry":{"type":"Point","coordinates":[-93.5915665,33.6670616]}},{"properties":{"name":"Sharlie","city":"McCall","geo_score":0.918,"country":"United States","id":"a6i4j2vzfzw0","geo_precision":"zip"},"type":"Feature","geometry":{"type":"Point","coordinates":[-121.5783059,39.8121058]}},{"properties":{"name":"Pepie","city":"Lake City","geo_score":0.957,"country":"United States","id":"a6i4j2tv2f1q","geo_precision":"zip"},"type":"Feature","geometry":{"type":"Point","coordinates":[-95.0949303,29.5074538]}},{"properties":{"name":"Pressie","city":"Deer Park","geo_score":0.875,"country":"United States","id":"a6i4j2rsenvp","geo_precision":"zip"},"type":"Feature","geometry":{"type":"Point","coordinates":[-83.1499304,42.6055893]}},{"properties":{"name":"San Francisco Bay Monster","city":"San Francisco","geo_score":1.0,"country":"United States","id":"a6i4j2tzqhtw","geo_precision":"zip"},"type":"Feature","geometry":{"type":"Point","coordinates":[-122.4194155,37.7749295]}},{"properties":{"name":"Selma","city":"Brotakasi","geo_score":0.0,"country":"Norway","id":"a6i4j2s3vuwr","geo_precision":"unmatched"},"type":"Feature","geometry":null},{"properties":{"name":"Skrimsels","city":"Foldir","geo_score":0.893,"country":"Iceland","id":"a6i4j2qkzkl5","geo_precision":"zip"},"type":"Feature","geometry":{"type":"Point","coordinates":[-23.5166667,66.05]}},{"properties":{"name":"Songhua Lake Monster","city":"Jilin","geo_score":1.0,"country":"China","id":"a6i4j2mdy3yg","geo_precision":"zip"},"type":"Feature","geometry":{"type":"Point","coordinates":[126.5602778,43.8508333]}},{"properties":{"name":"Storsjoodjuret","city":"Ostersund","geo_score":1.0,"country":"Sweden","id":"a6i4j2hliasz","geo_precision":"zip"},"type":"Feature","geometry":{"type":"Point","coordinates":[14.6356558799744,63.1792043345253]}},{"properties":{"name":"Teggie","city":"Bala","geo_score":1.0,"country":"United Kingdom","id":"a6i4j2nr6bk6","geo_precision":"zip"},"type":"Feature","geometry":{"type":"Point","coordinates":[-3.6,52.9166667]}},{"properties":{"name":"Tessie","city":"Elk Point","geo_score":0.929,"country":"United States","id":"a6i4j2wp0tdl","geo_precision":"zip"},"type":"Feature","geometry":{"type":"Point","coordinates":[-115.7631232,40.8324211]}},{"properties":{"name":"Trunko","city":"Port Elizabeth","geo_score":1.0,"country":"South Africa","id":"a6i4j2u1b5xs","geo_precision":"zip"},"type":"Feature","geometry":{"type":"Point","coordinates":[25.5833333,-33.9666667]}},{"properties":{"name":"Turtle Lake Monster","city":"Turtleford","geo_score":0.896,"country":"Canada","id":"a6i4j2vbzpfx","geo_precision":"zip"},"type":"Feature","geometry":{"type":"Point","coordinates":[-74.261414804,46.329483454]}},{"properties":{"name":"Lake Utopia Monster","city":"Saint George","geo_score":0.948,"country":"Canada","id":"a6i4j2uy16g4","geo_precision":"zip"},"type":"Feature","geometry":{"type":"Point","coordinates":[-74.0036487579346,45.7803642486447]}},{"properties":{"name":"Lake Van Monster","city":"Tatvan","geo_score":1.0,"country":"Turkey","id":"a6i4j2iojn86","geo_precision":"zip"},"type":"Feature","geometry":{"type":"Point","coordinates":[42.2816667,38.5066667]}},{"properties":{"name":"Vatten","city":"Hjo","geo_score":1.0,"country":"Sweden","id":"a6i4j2na4g09","geo_precision":"zip"},"type":"Feature","geometry":{"type":"Point","coordinates":[14.2878377437592,58.3013323373322]}},{"properties":{"name":"Volkhov River Monster","city":"Novogrod","geo_score":0.923,"country":"Russia","id":"a6i4j2nxi7l2","geo_precision":"zip"},"type":"Feature","geometry":{"type":"Point","coordinates":[34.9888889,56.8375]}},{"properties":{"name":"Lake Vorota Monster","city":"Sakha","geo_score":0.914,"country":"Russia","id":"a6i4j2sy3i3i","geo_precision":"zip"},"type":"Feature","geometry":{"type":"Point","coordinates":[46.5461111,42.5977778]}},{"properties":{"name":"White River Monster","city":"White River","geo_score":0.914,"country":"United States","id":"a6i4j2x3h14x","geo_precision":"zip"},"type":"Feature","geometry":{"type":"Point","coordinates":[-83.402718,42.7022527]}},{"properties":{"name":"Bownessie","city":"Windermere","geo_score":0.857,"country":"England","id":"a6i4j2h1pacd","geo_precision":"zip"},"type":"Feature","geometry":{"type":"Point","coordinates":[-2.90708541870117,54.3808572937019]}},{"properties":{"name":"Zhangke River Monster","city":"Zhangke","geo_score":0.921,"country":"China","id":"a6i4j2nqutd4","geo_precision":"zip"},"type":"Feature","geometry":{"type":"Point","coordinates":[119.55,33.6083333]}}],"is_temporal":false,"author":{"url":"","metadata":"","contact_name":"","contact_address":"","source":"","contact_phone":""},"source":"","pagination":{"sort":null,"start":0,"total":75,"limit":1000000},"state":"complete","tags":"","published":"2014-08-15T02:39:37-04:00","id":229801}