{"type":"FeatureCollection","data_type":"Dataset","url_type":null,"permissions":[{"permissions":{"download":true,"view":true},"group_id":"everyone"}],"classification":null,"title":"ACS 2","count":30,"stream_id":230517,"contributor":{"url":"http://geocommons.com/users/27269","name":"wadestaylor"},"data_attributes":null,"calculation_params":null,"icon_link":null,"link":"http://geocommons.com/overlays/230517.json","extent":[-115.253,35.996,-115.112,36.2108],"geometry_types":["point"],"unique_name":null,"name":"ACS 2","feature_count":30,"description":"","next_feature":null,"is_raster":false,"short_classification":"Y","stats":{"fax":{"max":7029667766,"mean":7026724857.76923,"variance":7656116888043.54,"stdev":2766968.89900186,"min":7022274386,"median":7027966250},"telephone":{"max":7029523610,"mean":6804661413.6,"variance":7.11220086336916e+17,"stdev":843338654.596666,"min":3702227444,"median":7026855100}},"features":[{"properties":{"city":"Las Vegas","zip":"891064065","county":"Clark","geo_score":1.0,"group affiliation":"Alta Rose Surgery Center","street address":"501 Rose St","fax":7023869910,"telephone":7023869906,"provider name":"Alta Rose Surgery Center","id":"a6gkmdvxqy9v","geo_precision":"range","state":"NV"},"type":"Feature","geometry":{"type":"Point","coordinates":[-115.167713,36.166274]}},{"properties":{"city":"Las Vegas","zip":"891064065","county":"Clark","geo_score":1.0,"group affiliation":"Alta Rose Surgery Center","street address":"501 Rose St","fax":7023869910,"telephone":7023869906,"provider name":"Alta Rose Surgery Center","id":"a6gkmdvcw856","geo_precision":"range","state":"NV"},"type":"Feature","geometry":{"type":"Point","coordinates":[-115.167713,36.166274]}},{"properties":{"city":"Las Vegas","zip":"891280429","county":"Clark","geo_score":1.0,"group affiliation":"Box Canyon Surgery Ctr","street address":"2555 Box Canyon Dr","fax":7028232793,"telephone":7023164400,"provider name":"Box Canyon Surgery Ctr","id":"a6gkmdodx5o0","geo_precision":"range","state":"NV"},"type":"Feature","geometry":{"type":"Point","coordinates":[-115.247457,36.207574]}},{"properties":{"city":"Las Vegas","zip":"891280429","county":"Clark","geo_score":1.0,"group affiliation":"Box Canyon Surgery Ctr","street address":"2555 Box Canyon Dr","fax":7028232793,"telephone":7023164400,"provider name":"Box Canyon Surgery Ctr","id":"a6gkmdy0dgao","geo_precision":"range","state":"NV"},"type":"Feature","geometry":{"type":"Point","coordinates":[-115.247457,36.207574]}},{"properties":{"city":"Las Vegas","zip":"891283157","county":"Clark","geo_score":0.902,"group affiliation":"Elite Endoscopy Center","street address":"7150 Smoke Ranch Rd","fax":7029489488,"telephone":7026855100,"provider name":"Elite Endoscopy Center","id":"a6gkmdmebghm","geo_precision":"range","state":"NV"},"type":"Feature","geometry":{"type":"Point","coordinates":[-115.252966,36.203464]}},{"properties":{"city":"Las Vegas","zip":"891283157","county":"Clark","geo_score":0.902,"group affiliation":"Elite Endoscopy Center","street address":"7150 Smoke Ranch Rd","fax":7029489488,"telephone":7026855100,"provider name":"Elite Endoscopy Center","id":"a6gkmdnrqc7v","geo_precision":"range","state":"NV"},"type":"Feature","geometry":{"type":"Point","coordinates":[-115.252966,36.203464]}},{"properties":{"city":"Las Vegas","zip":"891213632","county":"Clark","geo_score":1.0,"group affiliation":"Institute of Orthopaedic Surgery","street address":"2800 E Desert Inn Rd","fax":null,"telephone":7027357355,"provider name":"Institute of Orthopaedic Surgery","id":"a6gkmdqji8wz","geo_precision":"range","state":"NV"},"type":"Feature","geometry":{"type":"Point","coordinates":[-115.112192,36.129785]}},{"properties":{"city":"Las Vegas","zip":"891213632","county":"Clark","geo_score":1.0,"group affiliation":"Institute of Orthopaedic Surgery","street address":"2800 E Desert Inn Rd","fax":null,"telephone":7027357355,"provider name":"Institute of Orthopaedic Surgery","id":"a6gkmdn25v1q","geo_precision":"range","state":"NV"},"type":"Feature","geometry":{"type":"Point","coordinates":[-115.112192,36.129785]}},{"properties":{"city":"Las Vegas","zip":"891063810","county":"Clark","geo_score":1.0,"group affiliation":"Las Vegas Surgery Center","street address":"870 S Rancho Dr","fax":null,"telephone":7028702090,"provider name":"Las Vegas Surgery Center","id":"a6gkmdp4q6vt","geo_precision":"range","state":"NV"},"type":"Feature","geometry":{"type":"Point","coordinates":[-115.172715,36.160968]}},{"properties":{"city":"Las Vegas","zip":"891063810","county":"Clark","geo_score":1.0,"group affiliation":"Las Vegas Surgery Center","street address":"870 S Rancho Dr","fax":null,"telephone":7028702090,"provider name":"Las Vegas Surgery Center","id":"a6gkmdsh7byg","geo_precision":"range","state":"NV"},"type":"Feature","geometry":{"type":"Point","coordinates":[-115.172715,36.160968]}},{"properties":{"city":"Las Vegas","zip":"891064062","county":"Clark","geo_score":1.0,"group affiliation":"Medical District Surgery Center","street address":"2020 Goldring Ave","fax":7028512473,"telephone":7024777000,"provider name":"Medical District Surgery Center","id":"a6gkmdxajc95","geo_precision":"range","state":"NV"},"type":"Feature","geometry":{"type":"Point","coordinates":[-115.168206,36.161614]}},{"properties":{"city":"Las Vegas","zip":"891064062","county":"Clark","geo_score":1.0,"group affiliation":"Medical District Surgery Center","street address":"2020 Goldring Ave","fax":7028512473,"telephone":7024777000,"provider name":"Medical District Surgery Center","id":"a6gkmdp1f0na","geo_precision":"range","state":"NV"},"type":"Feature","geometry":{"type":"Point","coordinates":[-115.168206,36.161614]}},{"properties":{"city":"Las Vegas","zip":"891024363","county":"Clark","geo_score":1.0,"group affiliation":"Sahara Surgery Center","street address":"2401 Paseo Del Prado","fax":7023623567,"telephone":7023627874,"provider name":"Sahara Surgery Center","id":"a6gkmdk1u32x","geo_precision":"range","state":"NV"},"type":"Feature","geometry":{"type":"Point","coordinates":[-115.177567,36.145505]}},{"properties":{"city":"Las Vegas","zip":"891024363","county":"Clark","geo_score":1.0,"group affiliation":"Sahara Surgery Center","street address":"2401 Paseo Del Prado","fax":7023623567,"telephone":7023627874,"provider name":"Sahara Surgery Center","id":"a6gkmdup870q","geo_precision":"range","state":"NV"},"type":"Feature","geometry":{"type":"Point","coordinates":[-115.177567,36.145505]}},{"properties":{"city":"Henderson","zip":"890524369","county":"Clark","geo_score":0.878,"group affiliation":"Seven Hills Surgery Center","street address":"876 Seven Hills Dr","fax":7026147456,"telephone":7029142028,"provider name":"Seven Hills Surgery Center","id":"a6gkmdwy5jc4","geo_precision":"range","state":"NV"},"type":"Feature","geometry":{"type":"Point","coordinates":[-115.12299,35.995958]}},{"properties":{"city":"Henderson","zip":"890524369","county":"Clark","geo_score":0.878,"group affiliation":"Seven Hills Surgery Center","street address":"876 Seven Hills Dr","fax":7026147456,"telephone":7029142028,"provider name":"Seven Hills Surgery Center","id":"a6gkmdt0czru","geo_precision":"range","state":"NV"},"type":"Feature","geometry":{"type":"Point","coordinates":[-115.12299,35.995958]}},{"properties":{"city":"Las Vegas","zip":"891280433","county":"Clark","geo_score":1.0,"group affiliation":"Specialty Surgery Center","street address":"7250 Cathedral Rock Dr","fax":7029333997,"telephone":7029333999,"provider name":"Specialty Surgery Center","id":"a6gkmdktokhf","geo_precision":"range","state":"NV"},"type":"Feature","geometry":{"type":"Point","coordinates":[-115.25005,36.204934]}},{"properties":{"city":"Las Vegas","zip":"891280433","county":"Clark","geo_score":1.0,"group affiliation":"Specialty Surgery Center","street address":"7250 Cathedral Rock Dr","fax":7029333997,"telephone":7029333999,"provider name":"Specialty Surgery Center","id":"a6gkmdletcrl","geo_precision":"range","state":"NV"},"type":"Feature","geometry":{"type":"Point","coordinates":[-115.25005,36.204934]}},{"properties":{"city":"Las Vegas","zip":"891032283","county":"Clark","geo_score":1.0,"group affiliation":"Spring Valley Surgery Ctr","street address":"3835 S Jones Blvd","fax":7022274386,"telephone":3702227444,"provider name":"Spring Valley Surgery Ctr","id":"a6gkmdxkpunh","geo_precision":"range","state":"NV"},"type":"Feature","geometry":{"type":"Point","coordinates":[-115.224893,36.119303]}},{"properties":{"city":"Las Vegas","zip":"891032283","county":"Clark","geo_score":1.0,"group affiliation":"Spring Valley Surgery Ctr","street address":"3835 S Jones Blvd","fax":7022274386,"telephone":3702227444,"provider name":"Spring Valley Surgery Ctr","id":"a6gkmdwdpl5z","geo_precision":"range","state":"NV"},"type":"Feature","geometry":{"type":"Point","coordinates":[-115.224893,36.119303]}},{"properties":{"city":"Las Vegas","zip":"891182558","county":"Clark","geo_score":0.927,"group affiliation":"Stonecreek Surgery Center","street address":"5915 S Rainbow Blvd","fax":7022276344,"telephone":7022277959,"provider name":"Stonecreek Surgery Center","id":"a6gkmdo4arlx","geo_precision":"range","state":"NV"},"type":"Feature","geometry":{"type":"Point","coordinates":[-115.242697,36.081232]}},{"properties":{"city":"Las Vegas","zip":"891182558","county":"Clark","geo_score":0.927,"group affiliation":"Stonecreek Surgery Center","street address":"5915 S Rainbow Blvd","fax":7022276344,"telephone":7022277959,"provider name":"Stonecreek Surgery Center","id":"a6gkmdxo2pb3","geo_precision":"range","state":"NV"},"type":"Feature","geometry":{"type":"Point","coordinates":[-115.242697,36.081232]}},{"properties":{"city":"Las Vegas","zip":"891215203","county":"Clark","geo_score":1.0,"group affiliation":"Sunrise Flamingo Surgery Center","street address":"2565 E Flamingo Rd","fax":7027966250,"telephone":7026977900,"provider name":"Sunrise Flamingo Surgery Center","id":"a6gkmdvndnzc","geo_precision":"range","state":"NV"},"type":"Feature","geometry":{"type":"Point","coordinates":[-115.115136,36.114821]}},{"properties":{"city":"Las Vegas","zip":"891215203","county":"Clark","geo_score":1.0,"group affiliation":"Sunrise Flamingo Surgery Center","street address":"2565 E Flamingo Rd","fax":7027966250,"telephone":7026977900,"provider name":"Sunrise Flamingo Surgery Center","id":"a6gkmdq9xey3","geo_precision":"range","state":"NV"},"type":"Feature","geometry":{"type":"Point","coordinates":[-115.115136,36.114821]}},{"properties":{"city":"Las Vegas","zip":"891195191","county":"Clark","geo_score":1.0,"group affiliation":"Surgery Center of Southern Nevada","street address":"2110 E Flamingo Rd","fax":7026505099,"telephone":7023696784,"provider name":"Surgery Center of Southern Nevada","id":"a6gkmdktss6e","geo_precision":"range","state":"NV"},"type":"Feature","geometry":{"type":"Point","coordinates":[-115.123734,36.114649]}},{"properties":{"city":"Las Vegas","zip":"891195191","county":"Clark","geo_score":1.0,"group affiliation":"Surgery Center of Southern Nevada","street address":"2110 E Flamingo Rd","fax":7026505099,"telephone":7023696784,"provider name":"Surgery Center of Southern Nevada","id":"a6gkmdtz1x3f","geo_precision":"range","state":"NV"},"type":"Feature","geometry":{"type":"Point","coordinates":[-115.123734,36.114649]}},{"properties":{"city":"Las Vegas","zip":"891281100","county":"Clark","geo_score":1.0,"group affiliation":"Tenaya Surgical Center","street address":"2800 N Tenaya Way","fax":7029667766,"telephone":7028387755,"provider name":"Tenaya Surgical Center","id":"a6gkmdivlsu1","geo_precision":"range","state":"NV"},"type":"Feature","geometry":{"type":"Point","coordinates":[-115.249433,36.210757]}},{"properties":{"city":"Las Vegas","zip":"891281100","county":"Clark","geo_score":1.0,"group affiliation":"Tenaya Surgical Center","street address":"2800 N Tenaya Way","fax":7029667766,"telephone":7028387755,"provider name":"Tenaya Surgical Center","id":"a6gkmdlooa1e","geo_precision":"range","state":"NV"},"type":"Feature","geometry":{"type":"Point","coordinates":[-115.249433,36.210757]}},{"properties":{"city":"Las Vegas","zip":"891281105","county":"Clark","geo_score":1.0,"group affiliation":"The Surgical Ctr @ Tenaya","street address":"2650 N Tenaya Way","fax":7029523622,"telephone":7029523610,"provider name":"The Surgical Ctr @ Tenaya","id":"a6gkmdviotf0","geo_precision":"range","state":"NV"},"type":"Feature","geometry":{"type":"Point","coordinates":[-115.249857,36.208503]}},{"properties":{"city":"Las Vegas","zip":"891281105","county":"Clark","geo_score":1.0,"group affiliation":"The Surgical Ctr @ Tenaya","street address":"2650 N Tenaya Way","fax":7029523622,"telephone":7029523610,"provider name":"The Surgical Ctr @ Tenaya","id":"a6gkmdoz7qjw","geo_precision":"range","state":"NV"},"type":"Feature","geometry":{"type":"Point","coordinates":[-115.249857,36.208503]}}],"is_temporal":false,"author":{"url":"","metadata":"","contact_name":"","contact_address":"","source":"","contact_phone":""},"source":"","pagination":{"sort":null,"start":0,"total":30,"limit":1000000},"state":"complete","tags":"","published":"2014-08-14T15:34:15-04:00","id":230517}