{"type":"FeatureCollection","data_type":"Dataset","url_type":null,"permissions":[{"permissions":{"download":true,"view":true},"group_id":"everyone"}],"classification":null,"title":"Carley_Briggs","count":62,"stream_id":231049,"contributor":{"url":"http://geocommons.com/users/42433","name":"pvonstackelberg"},"data_attributes":null,"calculation_params":null,"icon_link":null,"link":"http://geocommons.com/overlays/231049.json","extent":[0.0,0.0,0.0,0.0],"geometry_types":null,"unique_name":null,"name":"Carley_Briggs","feature_count":62,"description":"","next_feature":null,"is_raster":false,"short_classification":"Y","features":[{"properties":{"county":"Albany","id":"aovfxv4txtpe","state":"New York","persons below poverty level":"0.13"},"type":"Feature","geometry":null},{"properties":{"county":"Allegany","id":"aovfxvdav5sf","state":"New York","persons below poverty level":"0.17"},"type":"Feature","geometry":null},{"properties":{"county":"Bronx","id":"aovfxvaomuh7","state":"New York","persons below poverty level":"0.28"},"type":"Feature","geometry":null},{"properties":{"county":"Broome","id":"aovfxv5pw1yb","state":"New York","persons below poverty level":"0.16"},"type":"Feature","geometry":null},{"properties":{"county":"Cattaraugus","id":"aovfxvgo4t1o","state":"New York","persons below poverty level":"0.16"},"type":"Feature","geometry":null},{"properties":{"county":"Cayuga","id":"aovfxvfpyika","state":"New York","persons below poverty level":"0.12"},"type":"Feature","geometry":null},{"properties":{"county":"Chautauqua","id":"aovfxv5jduf8","state":"New York","persons below poverty level":"0.17"},"type":"Feature","geometry":null},{"properties":{"county":"Chemung","id":"aovfxvi3j074","state":"New York","persons below poverty level":"0.15"},"type":"Feature","geometry":null},{"properties":{"county":"Chenango","id":"aovfxvebe5ui","state":"New York","persons below poverty level":"0.14"},"type":"Feature","geometry":null},{"properties":{"county":"Clinton","id":"aovfxvg0kfwf","state":"New York","persons below poverty level":"0.13"},"type":"Feature","geometry":null},{"properties":{"county":"Columbia","id":"aovfxv535pie","state":"New York","persons below poverty level":"0.10"},"type":"Feature","geometry":null},{"properties":{"county":"Cortland","id":"aovfxvjm39xc","state":"New York","persons below poverty level":"0.14"},"type":"Feature","geometry":null},{"properties":{"county":"Delaware","id":"aovfxvdns3x6","state":"New York","persons below poverty level":"0.13"},"type":"Feature","geometry":null},{"properties":{"county":"Dutchess","id":"aovfxv3o9g8u","state":"New York","persons below poverty level":"0.08"},"type":"Feature","geometry":null},{"properties":{"county":"Erie","id":"aovfxvdg0rtp","state":"New York","persons below poverty level":"0.14"},"type":"Feature","geometry":null},{"properties":{"county":"Essex","id":"aovfxv3uuo14","state":"New York","persons below poverty level":"0.13"},"type":"Feature","geometry":null},{"properties":{"county":"Franklin","id":"aovfxvd178xp","state":"New York","persons below poverty level":"0.14"},"type":"Feature","geometry":null},{"properties":{"county":"Fulton","id":"aovfxvcbhri3","state":"New York","persons below poverty level":"0.17"},"type":"Feature","geometry":null},{"properties":{"county":"Genesee","id":"aovfxvk16ncg","state":"New York","persons below poverty level":"0.12"},"type":"Feature","geometry":null},{"properties":{"county":"Greene","id":"aovfxvg9aay6","state":"New York","persons below poverty level":"0.13"},"type":"Feature","geometry":null},{"properties":{"county":"Hamilton","id":"aovfxv8a0huk","state":"New York","persons below poverty level":"0.10"},"type":"Feature","geometry":null},{"properties":{"county":"Herkimer","id":"aovfxvc0hkh5","state":"New York","persons below poverty level":"0.13"},"type":"Feature","geometry":null},{"properties":{"county":"Jefferson","id":"aovfxv68t6k9","state":"New York","persons below poverty level":"0.14"},"type":"Feature","geometry":null},{"properties":{"county":"Kings","id":"aovfxvbwqtot","state":"New York","persons below poverty level":"0.22"},"type":"Feature","geometry":null},{"properties":{"county":"Lewis","id":"aovfxv7rdgcc","state":"New York","persons below poverty level":"0.15"},"type":"Feature","geometry":null},{"properties":{"county":"Livingston","id":"aovfxv6gyzj0","state":"New York","persons below poverty level":"0.12"},"type":"Feature","geometry":null},{"properties":{"county":"Madison","id":"aovfxvdpt4i0","state":"New York","persons below poverty level":"0.10"},"type":"Feature","geometry":null},{"properties":{"county":"Monroe","id":"aovfxv54cd7q","state":"New York","persons below poverty level":"0.14"},"type":"Feature","geometry":null},{"properties":{"county":"Montgomery","id":"aovfxvfxxhr4","state":"New York","persons below poverty level":"0.15"},"type":"Feature","geometry":null},{"properties":{"county":"Nassau","id":"aovfxvdq17md","state":"New York","persons below poverty level":"0.05"},"type":"Feature","geometry":null},{"properties":{"county":"New York","id":"aovfxv70oih5","state":"New York","persons below poverty level":"0.18"},"type":"Feature","geometry":null},{"properties":{"county":"Niagara","id":"aovfxvdgjfxi","state":"New York","persons below poverty level":"0.13"},"type":"Feature","geometry":null},{"properties":{"county":"Oneida","id":"aovfxvjw8wxi","state":"New York","persons below poverty level":"0.15"},"type":"Feature","geometry":null},{"properties":{"county":"Onondaga","id":"aovfxva4lhpr","state":"New York","persons below poverty level":"0.14"},"type":"Feature","geometry":null},{"properties":{"county":"Ontario","id":"aovfxvga9fq0","state":"New York","persons below poverty level":"0.09"},"type":"Feature","geometry":null},{"properties":{"county":"Orange","id":"aovfxv97acsu","state":"New York","persons below poverty level":"0.11"},"type":"Feature","geometry":null},{"properties":{"county":"Orleans","id":"aovfxvd31nl6","state":"New York","persons below poverty level":"0.12"},"type":"Feature","geometry":null},{"properties":{"county":"Oswego","id":"aovfxvbcb9l4","state":"New York","persons below poverty level":"0.15"},"type":"Feature","geometry":null},{"properties":{"county":"Otsego","id":"aovfxvcqijya","state":"New York","persons below poverty level":"0.15"},"type":"Feature","geometry":null},{"properties":{"county":"Putnam","id":"aovfxvi9d0w2","state":"New York","persons below poverty level":"0.07"},"type":"Feature","geometry":null},{"properties":{"county":"Queens","id":"aovfxv743f0r","state":"New York","persons below poverty level":"0.13"},"type":"Feature","geometry":null},{"properties":{"county":"Rensselaer","id":"aovfxv4kodec","state":"New York","persons below poverty level":"0.12"},"type":"Feature","geometry":null},{"properties":{"county":"Richmond","id":"aovfxvi13t2h","state":"New York","persons below poverty level":"0.10"},"type":"Feature","geometry":null},{"properties":{"county":"Rockland","id":"aovfxvc85w7j","state":"New York","persons below poverty level":"0.11"},"type":"Feature","geometry":null},{"properties":{"county":"St. Lawrence","id":"aovfxvedsbtl","state":"New York","persons below poverty level":"0.17"},"type":"Feature","geometry":null},{"properties":{"county":"Saratoga","id":"aovfxv9npvtw","state":"New York","persons below poverty level":"0.06"},"type":"Feature","geometry":null},{"properties":{"county":"Schenectady","id":"aovfxv65c7pd","state":"New York","persons below poverty level":"0.11"},"type":"Feature","geometry":null},{"properties":{"county":"Schoharie","id":"aovfxv62xkx2","state":"New York","persons below poverty level":"0.11"},"type":"Feature","geometry":null},{"properties":{"county":"Schuyler","id":"aovfxvcq41k0","state":"New York","persons below poverty level":"0.08"},"type":"Feature","geometry":null},{"properties":{"county":"Seneca","id":"aovfxv7s4r6y","state":"New York","persons below poverty level":"0.14"},"type":"Feature","geometry":null},{"properties":{"county":"Steuben","id":"aovfxvjvlfuj","state":"New York","persons below poverty level":"0.14"},"type":"Feature","geometry":null},{"properties":{"county":"Suffolk","id":"aovfxv6gwjgk","state":"New York","persons below poverty level":"0.06"},"type":"Feature","geometry":null},{"properties":{"county":"Sullivan","id":"aovfxvevo669","state":"New York","persons below poverty level":"0.17"},"type":"Feature","geometry":null},{"properties":{"county":"Tioga","id":"aovfxvjdt5bm","state":"New York","persons below poverty level":"0.10"},"type":"Feature","geometry":null},{"properties":{"county":"Tompkins","id":"aovfxvcfq4oo","state":"New York","persons below poverty level":"0.19"},"type":"Feature","geometry":null},{"properties":{"county":"Ulster","id":"aovfxvjfakxn","state":"New York","persons below poverty level":"0.11"},"type":"Feature","geometry":null},{"properties":{"county":"Warren","id":"aovfxv40495v","state":"New York","persons below poverty level":"0.10"},"type":"Feature","geometry":null},{"properties":{"county":"Washington","id":"aovfxvf5n7qj","state":"New York","persons below poverty level":"0.12"},"type":"Feature","geometry":null},{"properties":{"county":"Wayne","id":"aovfxv9vf4j6","state":"New York","persons below poverty level":"0.11"},"type":"Feature","geometry":null},{"properties":{"county":"Westchester","id":"aovfxv3zkum1","state":"New York","persons below poverty level":"0.08"},"type":"Feature","geometry":null},{"properties":{"county":"Wyoming","id":"aovfxv97kvne","state":"New York","persons below poverty level":"0.11"},"type":"Feature","geometry":null},{"properties":{"county":"Yates","id":"aovfxv6288ir","state":"New York","persons below poverty level":"0.15"},"type":"Feature","geometry":null}],"is_temporal":false,"author":{"url":"","metadata":null,"contact_name":null,"contact_address":null,"source":null,"contact_phone":null},"source":"","pagination":{"sort":null,"start":0,"total":62,"limit":1000000},"state":"parsed","tags":"","published":"2014-08-14T16:20:53-04:00","id":231049}