{"type":"FeatureCollection","data_type":"Dataset","url_type":null,"permissions":[{"permissions":{"download":true,"view":true},"group_id":"everyone"}],"classification":null,"title":"GHFGCompHeatMap","count":30,"stream_id":23156,"contributor":{"url":"http://geocommons.com/users/11139","name":"janakybrent"},"data_attributes":null,"calculation_params":null,"icon_link":null,"link":"http://geocommons.com/overlays/23156.json","extent":[-108.311,38.8041,-104.701,40.9458],"geometry_types":["point"],"unique_name":null,"name":"GHFGCompHeatMap","feature_count":30,"description":"","next_feature":null,"is_raster":false,"short_classification":"Y","stats":{"geo_score":{"max":1.0,"mean":0.9801,"variance":0.00205671379310345,"stdev":0.0453510065280083,"min":0.869,"median":1.0}},"features":[{"properties":{"city":"Colorado Springs","zip":"80909","firm":"A &amp; R Accounting and Tax Service Inc.","geo_score":0.876,"address 1":"1823 East Bijou Street","id":"a66j2prwhhjv","geo_precision":"zip","state":"CO"},"type":"Feature","geometry":{"type":"Point","coordinates":[-104.782752,38.839994]}},{"properties":{"city":"Colorado Springs","zip":"80917","firm":"Advisor Financial Services, LLC","geo_score":1.0,"address 1":"3355 N Academy Blvd","id":"a66j2pl6ojjn","geo_precision":"zip","state":"CO"},"type":"Feature","geometry":{"type":"Point","coordinates":[-104.746689,38.82513]}},{"properties":{"city":"Colorado Springs","zip":"80903","firm":"BennCo Advisors","geo_score":1.0,"address 1":"731 N. Tejon St.","id":"a66j2pkq7qdx","geo_precision":"zip","state":"CO"},"type":"Feature","geometry":{"type":"Point","coordinates":[-104.809929,38.828893]}},{"properties":{"city":"Colorado Springs","zip":"80904","firm":"Bennett Ron Investment Advisor","geo_score":1.0,"address 1":"2514 West Colorado Avenue","id":"a66j2pkk401r","geo_precision":"zip","state":"CO"},"type":"Feature","geometry":{"type":"Point","coordinates":[-104.874531,38.861981]}},{"properties":{"city":"Colorado Springs","zip":"80901","firm":"Carnick &amp; Company","geo_score":0.886,"address 1":"675 SOUTHPOINT COURT","id":"a66j2ptm3mrh","geo_precision":"zip","state":"CO"},"type":"Feature","geometry":{"type":"Point","coordinates":[-108.311485,40.945798]}},{"properties":{"city":"Colorado Springs","zip":"80903","firm":"Cascade Investment Group","geo_score":1.0,"address 1":"90 S. Cascade","id":"a66j2pq6t2mx","geo_precision":"zip","state":"CO"},"type":"Feature","geometry":{"type":"Point","coordinates":[-104.809929,38.828893]}},{"properties":{"city":"Centennial","zip":"80111","firm":"Centennial Investment Advisors","geo_score":0.886,"address 1":"6500 S Quebec","id":"a66j2psop4b0","geo_precision":"zip","state":"CO"},"type":"Feature","geometry":{"type":"Point","coordinates":[-104.864703,39.666811]}},{"properties":{"city":"Colorado Springs","zip":"80903","firm":"Central Bank &amp; Trust (CB&amp;T)","geo_score":1.0,"address 1":"1 South Nevada Avenue","id":"a66j2pj5j7dp","geo_precision":"zip","state":"CO"},"type":"Feature","geometry":{"type":"Point","coordinates":[-104.809929,38.828893]}},{"properties":{"city":"Colorado Springs","zip":"80903","firm":"Colorado Wealth Management of Raymond James &amp; Associates","geo_score":1.0,"address 1":"102 North Cascade Ave.","id":"a66j2pic0eui","geo_precision":"zip","state":"CO"},"type":"Feature","geometry":{"type":"Point","coordinates":[-104.809929,38.828893]}},{"properties":{"city":"Colorado Springs","zip":"80920","firm":"ENT Bank","geo_score":1.0,"address 1":"7250 Campus Dr","id":"a66j2pijhb7e","geo_precision":"zip","state":"CO"},"type":"Feature","geometry":{"type":"Point","coordinates":[-104.755956,38.965298]}},{"properties":{"city":"Colorado Springs","zip":"80919","firm":"Financial Planning Strategies","geo_score":1.0,"address 1":"6645 Delmonico Blvd.","id":"a66j2pirdqu5","geo_precision":"zip","state":"CO"},"type":"Feature","geometry":{"type":"Point","coordinates":[-104.917436,38.938149]}},{"properties":{"city":"Colorado Springs","zip":"80905","firm":"Gail Fernandez, Financial Advisor","geo_score":1.0,"address 1":"392 Pyrite Terrace","id":"a66j2ppwe24p","geo_precision":"zip","state":"CO"},"type":"Feature","geometry":{"type":"Point","coordinates":[-104.801472,38.844319]}},{"properties":{"city":"Boulder","zip":"80301","firm":"Gold Medal Waters","geo_score":1.0,"address 1":"4845 Pearl East Circle","id":"a66j2pg7gb52","geo_precision":"zip","state":"CO"},"type":"Feature","geometry":{"type":"Point","coordinates":[-105.278083,40.094787]}},{"properties":{"city":"Colorado Springs","zip":"80919","firm":"GoldenHills Financial Group","geo_score":1.0,"address 1":"1445 Golden Hills Rd.","id":"a66j2pox3ziq","geo_precision":"zip","state":"CO"},"type":"Feature","geometry":{"type":"Point","coordinates":[-104.917436,38.938149]}},{"properties":{"city":"Colorado Springs","zip":"80920","firm":"Legacy Wealth Management, Inc.","geo_score":1.0,"address 1":"7045 Campus Drive","id":"a66j2pu8wjn8","geo_precision":"zip","state":"CO"},"type":"Feature","geometry":{"type":"Point","coordinates":[-104.755956,38.965298]}},{"properties":{"city":"Centennial","zip":"80111","firm":"Mitchell, Kulick &amp; Company, P.C.","geo_score":0.886,"address 1":"7340 E. Caley Ave","id":"a66j2pkmtgu4","geo_precision":"zip","state":"CO"},"type":"Feature","geometry":{"type":"Point","coordinates":[-104.864703,39.666811]}},{"properties":{"city":"Englewood","zip":"80111","firm":"Oatley &amp; Diak, LLC","geo_score":1.0,"address 1":"5299 DTC Blvd","id":"a66j2pp3a1xu","geo_precision":"zip","state":"CO"},"type":"Feature","geometry":{"type":"Point","coordinates":[-104.864703,39.666811]}},{"properties":{"city":"Denver","zip":"80206","firm":"Oxford Financial Designs, Inc.","geo_score":1.0,"address 1":"44 Cook St","id":"a66j2pook2hz","geo_precision":"zip","state":"CO"},"type":"Feature","geometry":{"type":"Point","coordinates":[-104.953335,39.730787]}},{"properties":{"city":"Colorado Springs","zip":"80917","firm":"PRIME FINANCIAL STRATEGIES, INC.","geo_score":1.0,"address 1":"3253 W. Carefree Circle","id":"a66j2pw1au5s","geo_precision":"zip","state":"CO"},"type":"Feature","geometry":{"type":"Point","coordinates":[-104.746689,38.82513]}},{"properties":{"city":"Woodland Park","zip":"80863","firm":"Pathway Financial Advisory","geo_score":0.869,"address 1":"1151 Ponderosa Way","id":"a66j2pj3e2je","geo_precision":"zip","state":"CO"},"type":"Feature","geometry":{"type":"Point","coordinates":[-105.027205,38.955824]}},{"properties":{"city":"Colorado Springs","zip":"80919","firm":"Peak Investment Advisors","geo_score":1.0,"address 1":"5825 Delmonico Drive","id":"a66j2pqmf38s","geo_precision":"zip","state":"CO"},"type":"Feature","geometry":{"type":"Point","coordinates":[-104.917436,38.938149]}},{"properties":{"city":"Colorado Springs","zip":"80910","firm":"Pennica Financial Group, Inc.","geo_score":1.0,"address 1":"411 Lakewood Cir.","id":"a66j2pib4zjy","geo_precision":"zip","state":"CO"},"type":"Feature","geometry":{"type":"Point","coordinates":[-104.772059,38.804094]}},{"properties":{"city":"Colorado Springs","zip":"80919","firm":"Pinnacle Financial Concepts, Inc","geo_score":1.0,"address 1":"7025 Tall Oak Dr","id":"a66j2psvwuhn","geo_precision":"zip","state":"CO"},"type":"Feature","geometry":{"type":"Point","coordinates":[-104.917436,38.938149]}},{"properties":{"city":"Colorado Springs","zip":"80922","firm":"Professional Financial Planning, Inc.","geo_score":1.0,"address 1":"6799 Bismark Road","id":"a66j2pm9pbnj","geo_precision":"zip","state":"CO"},"type":"Feature","geometry":{"type":"Point","coordinates":[-104.70124,38.904817]}},{"properties":{"city":"Colorado Springs","zip":"80920","firm":"Strasbaugh Financial Advisory, Inc.","geo_score":1.0,"address 1":"8580 Scarborough Drive","id":"a66j2pkxeiqn","geo_precision":"zip","state":"CO"},"type":"Feature","geometry":{"type":"Point","coordinates":[-104.755956,38.965298]}},{"properties":{"city":"Colorado Springs","zip":"80920","firm":"Strategic Financial Partners Inc.","geo_score":1.0,"address 1":"1755 Telstar Dr","id":"a66j2pmtg509","geo_precision":"zip","state":"CO"},"type":"Feature","geometry":{"type":"Point","coordinates":[-104.755956,38.965298]}},{"properties":{"city":"Colorado Springs","zip":"80921","firm":"Summit Wealth Group","geo_score":1.0,"address 1":"13710 Struthers Road","id":"a66j2pow6ct4","geo_precision":"zip","state":"CO"},"type":"Feature","geometry":{"type":"Point","coordinates":[-104.89122,39.055054]}},{"properties":{"city":"Colorado Springs","zip":"80903","firm":"VanWagenen Investment Advisors","geo_score":1.0,"address 1":"2514 West Colorado Avenue","id":"a66j2psrogk7","geo_precision":"zip","state":"CO"},"type":"Feature","geometry":{"type":"Point","coordinates":[-104.809929,38.828893]}},{"properties":{"city":"Colorado Springs","zip":"80903","firm":"Wealth Logic, LLC","geo_score":1.0,"address 1":"102 S. Tejon Street","id":"a66j2phx615c","geo_precision":"zip","state":"CO"},"type":"Feature","geometry":{"type":"Point","coordinates":[-104.809929,38.828893]}},{"properties":{"city":"Colorado Springs","zip":"80919","firm":"Wismer Wealth Management Group","geo_score":1.0,"address 1":"6385 Corporate Dr.","id":"a66j2pkir2kr","geo_precision":"zip","state":"CO"},"type":"Feature","geometry":{"type":"Point","coordinates":[-104.917436,38.938149]}}],"is_temporal":false,"author":{"url":"","metadata":"","contact_name":"","contact_address":"","source":"","contact_phone":""},"source":"","pagination":{"sort":null,"start":0,"total":30,"limit":1000000},"state":"complete","tags":"","published":"2014-08-10T15:46:13-04:00","id":23156}