{"type":"FeatureCollection","data_type":"Dataset","url_type":null,"permissions":[{"permissions":{"download":true,"view":true},"group_id":"everyone"}],"classification":null,"title":"teen_birth_rates","count":51,"stream_id":232377,"contributor":{"url":"http://geocommons.com/users/40319","name":"ford0379"},"data_attributes":null,"calculation_params":null,"icon_link":null,"link":"http://geocommons.com/overlays/232377.json","extent":[0.0,0.0,0.0,0.0],"geometry_types":null,"unique_name":null,"name":"teen_birth_rates","feature_count":51,"description":"","next_feature":null,"is_raster":false,"short_classification":"Y","features":[{"properties":{"teen birth rates":"52.9","id":"ap49lpv0d4bm","state":"Alabama"},"type":"Feature","geometry":null},{"properties":{"teen birth rates":"46.9","id":"ap49lpzbrhhk","state":"Alaska"},"type":"Feature","geometry":null},{"properties":{"teen birth rates":"56.2","id":"ap49lq0qriih","state":"Arizona"},"type":"Feature","geometry":null},{"properties":{"teen birth rates":"61.8","id":"ap49lptjmudc","state":"Arkansas"},"type":"Feature","geometry":null},{"properties":{"teen birth rates":"38.4","id":"ap49lq52i2el","state":"California"},"type":"Feature","geometry":null},{"properties":{"teen birth rates":"42.5","id":"ap49lpxrqntu","state":"Colorado"},"type":"Feature","geometry":null},{"properties":{"teen birth rates":"22.9","id":"ap49lq615j4k","state":"Connecticut"},"type":"Feature","geometry":null},{"properties":{"teen birth rates":"40.4","id":"ap49lq3jxtx5","state":"Delaware"},"type":"Feature","geometry":null},{"properties":{"teen birth rates":"50.9","id":"ap49lq22mrl1","state":"District of Columbia"},"type":"Feature","geometry":null},{"properties":{"teen birth rates":"42.8","id":"ap49lq6h2nzg","state":"Florida"},"type":"Feature","geometry":null},{"properties":{"teen birth rates":"52","id":"ap49lptx9nya","state":"Georgia"},"type":"Feature","geometry":null},{"properties":{"teen birth rates":"42.1","id":"ap49lpxbqmwl","state":"Hawaii"},"type":"Feature","geometry":null},{"properties":{"teen birth rates":"41.2","id":"ap49lpuw53tn","state":"Idaho"},"type":"Feature","geometry":null},{"properties":{"teen birth rates":"38.1","id":"ap49lps4n2mr","state":"Illinois"},"type":"Feature","geometry":null},{"properties":{"teen birth rates":"43.7","id":"ap49lpswfw4q","state":"Indiana"},"type":"Feature","geometry":null},{"properties":{"teen birth rates":"33.9","id":"ap49lpxn5z1z","state":"Iowa"},"type":"Feature","geometry":null},{"properties":{"teen birth rates":"45.6","id":"ap49lq56z8g6","state":"Kansas"},"type":"Feature","geometry":null},{"properties":{"teen birth rates":"55.6","id":"ap49lpsqyc2u","state":"Kentucky"},"type":"Feature","geometry":null},{"properties":{"teen birth rates":"54.1","id":"ap49lpsucjlj","state":"Louisiana"},"type":"Feature","geometry":null},{"properties":{"teen birth rates":"26.1","id":"ap49lq4wfdri","state":"Maine"},"type":"Feature","geometry":null},{"properties":{"teen birth rates":"38.2","id":"ap49lq0mqo9s","state":"Maryland"},"type":"Feature","geometry":null},{"properties":{"teen birth rates":"20.1","id":"ap49lq5sl8w0","state":"Massachusetts"},"type":"Feature","geometry":null},{"properties":{"teen birth rates":"33.2","id":"ap49lpzyfzrn","state":"Michigan"},"type":"Feature","geometry":null},{"properties":{"teen birth rates":"27.2","id":"ap49lq39iksx","state":"Minnesota"},"type":"Feature","geometry":null},{"properties":{"teen birth rates":"65.7","id":"ap49lpzcm35q","state":"Mississippi"},"type":"Feature","geometry":null},{"properties":{"teen birth rates":"45.5","id":"ap49lq4zmxc9","state":"Missouri"},"type":"Feature","geometry":null},{"properties":{"teen birth rates":"40.7","id":"ap49lq79lecg","state":"Montana"},"type":"Feature","geometry":null},{"properties":{"teen birth rates":"36.5","id":"ap49lq70i65a","state":"Nebraska"},"type":"Feature","geometry":null},{"properties":{"teen birth rates":"53.5","id":"ap49lq3yj1li","state":"Nevada"},"type":"Feature","geometry":null},{"properties":{"teen birth rates":"19.8","id":"ap49lpy3qo0m","state":"New Hampshire"},"type":"Feature","geometry":null},{"properties":{"teen birth rates":"24.5","id":"ap49lq31sfi2","state":"New Jersey"},"type":"Feature","geometry":null},{"properties":{"teen birth rates":"64.1","id":"ap49lpthi7sn","state":"New Mexico"},"type":"Feature","geometry":null},{"properties":{"teen birth rates":"25.5","id":"ap49lpt20izr","state":"New York"},"type":"Feature","geometry":null},{"properties":{"teen birth rates":"49.4","id":"ap49lpznmsfx","state":"North Carolina"},"type":"Feature","geometry":null},{"properties":{"teen birth rates":"28.6","id":"ap49lps5bqpa","state":"North Dakota"},"type":"Feature","geometry":null},{"properties":{"teen birth rates":"41","id":"ap49lq05pkg0","state":"Ohio"},"type":"Feature","geometry":null},{"properties":{"teen birth rates":"61.6","id":"ap49lq76nlz5","state":"Oklahoma"},"type":"Feature","geometry":null},{"properties":{"teen birth rates":"37.2","id":"ap49lq0ylz5p","state":"Oregon"},"type":"Feature","geometry":null},{"properties":{"teen birth rates":"31.5","id":"ap49lptwmmt9","state":"Pennsylvania"},"type":"Feature","geometry":null},{"properties":{"teen birth rates":"28.5","id":"ap49lq4sybuh","state":"Rhode Island"},"type":"Feature","geometry":null},{"properties":{"teen birth rates":"53","id":"ap49lpxh5sj6","state":"South Carolina"},"type":"Feature","geometry":null},{"properties":{"teen birth rates":"40","id":"ap49lq430foq","state":"South Dakota"},"type":"Feature","geometry":null},{"properties":{"teen birth rates":"55.6","id":"ap49lq7qjg1s","state":"Tennessee"},"type":"Feature","geometry":null},{"properties":{"teen birth rates":"63.4","id":"ap49lpy0l424","state":"Texas"},"type":"Feature","geometry":null},{"properties":{"teen birth rates":"35.1","id":"ap49lpug0ss7","state":"Utah"},"type":"Feature","geometry":null},{"properties":{"teen birth rates":"21.3","id":"ap49lpugti5w","state":"Vermont"},"type":"Feature","geometry":null},{"properties":{"teen birth rates":"33.5","id":"ap49lq3c0yff","state":"Virginia"},"type":"Feature","geometry":null},{"properties":{"teen birth rates":"34.6","id":"ap49lq501nqp","state":"Washington"},"type":"Feature","geometry":null},{"properties":{"teen birth rates":"48.8","id":"ap49lq3f6dqb","state":"West Virginia"},"type":"Feature","geometry":null},{"properties":{"teen birth rates":"31.3","id":"ap49lpyww0w9","state":"Wisconsin"},"type":"Feature","geometry":null},{"properties":{"teen birth rates":"49.2","id":"ap49lpzbolgt","state":"Wyoming"},"type":"Feature","geometry":null}],"is_temporal":false,"author":{"url":"","metadata":null,"contact_name":null,"contact_address":null,"source":null,"contact_phone":null},"source":"","pagination":{"sort":null,"start":0,"total":51,"limit":1000000},"state":"parsed","tags":"","published":"2014-08-14T18:12:13-04:00","id":232377}