{"type":"FeatureCollection","data_type":"Dataset","url_type":null,"permissions":[{"permissions":{"download":true,"view":true},"group_id":"everyone"}],"classification":null,"title":"L-M 2011","count":32,"stream_id":232551,"contributor":{"url":"http://geocommons.com/users/38281","name":"briantalbot"},"data_attributes":null,"calculation_params":null,"icon_link":null,"link":"http://geocommons.com/overlays/232551.json","extent":[-122.436,37.237,-121.785,37.6215],"geometry_types":["point"],"unique_name":null,"name":"L-M 2011","feature_count":32,"description":"","next_feature":null,"is_raster":false,"short_classification":"Y","stats":{"latitude":{"max":37.6215,"variance":0.00426548576342637,"mean":37.40118684375,"stdev":0.0653106864412431,"min":37.237038,"median":37.38801},"longitude":{"max":-121.785202,"variance":0.0142222077084799,"mean":-121.9963043125,"stdev":0.119256897949259,"min":-122.436478,"median":-121.972763},"transaction sf":{"max":1000000,"variance":27141157138.9183,"mean":125991.71875,"stdev":164745.734812524,"min":52416,"median":87329},"street #":{"max":20450,"variance":14108737.5554435,"mean":2786.84375,"stdev":3756.15994806445,"min":3,"median":2190}},"features":[{"properties":{"name":"12 Network Cir, Menlo Park, CA","city":"Menlo Park","latitude":37.4843,"tenant/buyer":"Facebook","longitude":-122.150816,"street name":"Network Cir","id":"a63zq0q41gzi","transaction date":"2/1/2011","office class or r&d":"Class B","transaction sf":1000000,"state":"CA","street #":12},"type":"Feature","geometry":{"type":"Point","coordinates":[-122.150816,37.4843]}},{"properties":{"name":"455 Mary Ave, Sunnyvale, CA","city":"Santa Clara","latitude":37.375732,"tenant/buyer":"Affymetrix, Inc.","longitude":-121.989693,"street name":"Central Expwy","id":"a63zq0j0j8am","transaction date":"7/12/2011","office class or r&d":"R&amp;D/Flex","transaction sf":200428,"state":"CA","street #":3380},"type":"Feature","geometry":{"type":"Point","coordinates":[-121.989693,37.375732]}},{"properties":{"name":"6001 America Center Dr, San Jose, CA","city":"San Jose","latitude":37.364414,"tenant/buyer":"Atmel","longitude":-121.915276,"street name":"Technology Dr","id":"a63zq0hjwm86","transaction date":"9/1/2011","office class or r&d":"Class A","transaction sf":193977,"state":"CA","street #":1600},"type":"Feature","geometry":{"type":"Point","coordinates":[-121.915276,37.364414]}},{"properties":{"name":"3380 Central Expwy, Santa Clara, CA","city":"San Jose","latitude":37.411716,"tenant/buyer":"Microsemi Corp.","longitude":-121.947807,"street name":"First St","id":"a63zq0ilnmug","transaction date":"12/5/2011","office class or r&d":"R&amp;D/Flex","transaction sf":179232,"state":"CA","street #":3850},"type":"Feature","geometry":{"type":"Point","coordinates":[-121.947807,37.411716]}},{"properties":{"name":"1600 Technology Dr, San Jose, CA","city":"Sunnyvale","latitude":37.386036,"tenant/buyer":"Telenav","longitude":-122.005264,"street name":"Deguigne Dr","id":"a63zq0mve8he","transaction date":"7/13/2011","office class or r&d":"R&amp;D/Flex","transaction sf":175010,"state":"CA","street #":920},"type":"Feature","geometry":{"type":"Point","coordinates":[-122.005264,37.386036]}},{"properties":{"name":"20300 Stevens Creek Blvd, Cupertino, CA","city":"Santa Clara","latitude":37.412861,"tenant/buyer":"Dell","longitude":-121.9785,"street name":"Great America Pkwy","id":"a63zq0cu7681","transaction date":"3/29/2011","office class or r&d":"Class A","transaction sf":153584,"state":"CA","street #":5450},"type":"Feature","geometry":{"type":"Point","coordinates":[-121.9785,37.412861]}},{"properties":{"name":"911 Murphy Ranch Rd, Milpitas, CA","city":"San Jose","latitude":37.379086,"tenant/buyer":"Cavium Networks, Inc.","longitude":-121.924026,"street name":"First St","id":"a63zq0kbyr4h","transaction date":"3/1/2011","office class or r&d":"Class A","transaction sf":112131,"state":"CA","street #":2315},"type":"Feature","geometry":{"type":"Point","coordinates":[-121.924026,37.379086]}},{"properties":{"name":"190 Mathilda Pl, Sunnyvale, CA","city":"Sunnyvale","latitude":37.410912,"tenant/buyer":"Cepheid","longitude":-122.002914,"street name":"Chesapeake Terr","id":"a63zq0jy3z9y","transaction date":"6/21/2011","office class or r&d":"R&amp;D/Flex","transaction sf":110217,"state":"CA","street #":1315},"type":"Feature","geometry":{"type":"Point","coordinates":[-122.002914,37.410912]}},{"properties":{"name":"2011 Stierlin Ct, Mountain View, CA","city":"San Jose","latitude":37.364929,"tenant/buyer":"Magma Design","longitude":-121.914856,"street name":"Technology Dr","id":"a63zq0i5b2tk","transaction date":"10/31/2011","office class or r&d":"Class A","transaction sf":109453,"state":"CA","street #":1650},"type":"Feature","geometry":{"type":"Point","coordinates":[-121.914856,37.364929]}},{"properties":{"name":"600 Clipper Drive, Belmont, CA","city":"Mountain View","latitude":37.38801,"tenant/buyer":"Avid Technology","longitude":-122.05168,"street name":"Bernardo Ave","id":"a63zq0kp5fr3","transaction date":"5/16/2011","office class or r&d":"R&amp;D/Flex","transaction sf":106460,"state":"CA","street #":250},"type":"Feature","geometry":{"type":"Point","coordinates":[-122.05168,37.38801]}},{"properties":{"name":"525 Almanor Ave, Sunnyvale, CA","city":"Santa Clara","latitude":37.370777,"tenant/buyer":"Nvidia Corporation","longitude":-121.961136,"street name":"Scott Blvd","id":"a63zq0hzk9ek","transaction date":"11/1/2011","office class or r&d":"R&amp;D/Flex","transaction sf":99800,"state":"CA","street #":2770},"type":"Feature","geometry":{"type":"Point","coordinates":[-121.961136,37.370777]}},{"properties":{"name":"1565 Barber Ln, Milpitas, CA","city":"San Jose","latitude":37.418507,"tenant/buyer":"MicroChip","longitude":-121.941284,"street name":"Holger Wy","id":"a63zq0jd6urb","transaction date":"2/1/2011","office class or r&d":"R&amp;D/Flex","transaction sf":98421,"state":"CA","street #":450},"type":"Feature","geometry":{"type":"Point","coordinates":[-121.941284,37.418507]}},{"properties":{"name":"101 Redwood Shores Pkwy, Redwood City, CA","city":"Santa Clara","latitude":37.383183,"tenant/buyer":"ST Microelectronics","longitude":-121.972763,"street name":"Augustine Dr","id":"a63zq0mjvf9p","transaction date":"10/13/2011","office class or r&d":"R&amp;D/Flex","transaction sf":90000,"state":"CA","street #":2525},"type":"Feature","geometry":{"type":"Point","coordinates":[-121.972763,37.383183]}},{"properties":{"name":"355 Trimble Rd, San Jose, CA","city":"Santa Clara","latitude":37.412861,"tenant/buyer":"Dell","longitude":-121.9785,"street name":"Great America Pkwy","id":"a63zq0q5vwie","transaction date":"3/22/2011","office class or r&d":"Class A","transaction sf":87329,"state":"CA","street #":5450},"type":"Feature","geometry":{"type":"Point","coordinates":[-121.9785,37.412861]}},{"properties":{"name":"301 Penobscot Dr, Redwood City, CA","city":"San Jose","latitude":37.397102,"tenant/buyer":"NXP","longitude":-121.925446,"street name":"Plumeria Dr","id":"a63zq0flqi42","transaction date":"6/6/2011","office class or r&d":"R&amp;D/Flex","transaction sf":86602,"state":"CA","street #":411},"type":"Feature","geometry":{"type":"Point","coordinates":[-121.925446,37.397102]}},{"properties":{"name":"3475 Deer Creek Rd, Palo Alto, CA","city":"Sunnyvale","latitude":37.387089,"tenant/buyer":"Ariba Inc.","longitude":-122.040955,"street name":"Hermosa Ct","id":"a63zq0kwldng","transaction date":"2/8/2011","office class or r&d":"R&amp;D/Flex","transaction sf":86000,"state":"CA","street #":910},"type":"Feature","geometry":{"type":"Point","coordinates":[-122.040955,37.387089]}},{"properties":{"name":"3165 Porter Dr, Palo Alto, CA","city":"Santa Clara","latitude":37.38739,"tenant/buyer":"KPMG","longitude":-121.974449,"street name":"Freedom Cir","id":"a63zq0jp53tx","transaction date":"8/10/2011","office class or r&d":"Class A","transaction sf":82741,"state":"CA","street #":3975},"type":"Feature","geometry":{"type":"Point","coordinates":[-121.974449,37.38739]}},{"properties":{"name":"48761 Kato Rd, Fremont, CA","city":"San Jose","latitude":37.237038,"tenant/buyer":"Northrop Grumman Systems Corporation","longitude":-121.785202,"street name":"San Ignacio Ave","id":"a63zq0lvf5ch","transaction date":"10/27/2011","office class or r&d":"R&amp;D/Flex","transaction sf":82574,"state":"CA","street #":6377},"type":"Feature","geometry":{"type":"Point","coordinates":[-121.785202,37.237038]}},{"properties":{"name":"2830 De La Cruz Blvd, Santa Clara, CA","city":"San Jose","latitude":37.391476,"tenant/buyer":"A10 Networks","longitude":-121.931502,"street name":"Plumeria Dr","id":"a63zq0sinpn3","transaction date":"10/1/2011","office class or r&d":"R&amp;D/Flex","transaction sf":79803,"state":"CA","street #":3},"type":"Feature","geometry":{"type":"Point","coordinates":[-121.931502,37.391476]}},{"properties":{"name":"395 Page Mill Rd, Palo Alto, CA","city":"San Jose","latitude":37.383514,"tenant/buyer":"eBay","longitude":-121.926097,"street name":"First St","id":"a63zq0jmq68g","transaction date":"3/1/2011","office class or r&d":"R&amp;D/Flex","transaction sf":75432,"state":"CA","street #":2525},"type":"Feature","geometry":{"type":"Point","coordinates":[-121.926097,37.383514]}},{"properties":{"name":"47951 Westinghouse Dr, Fremont, CA","city":"Santa Clara","latitude":37.373058,"tenant/buyer":"Huawei Technologies","longitude":-121.959556,"street name":"Scott Blvd","id":"a63zq0ibglem","transaction date":"11/1/2011","office class or r&d":"R&amp;D/Flex","transaction sf":75000,"state":"CA","street #":2890},"type":"Feature","geometry":{"type":"Point","coordinates":[-121.959556,37.373058]}},{"properties":{"name":"18305 Sutter Blvd, Morgan Hill, CA","city":"San Jose","latitude":37.400417,"tenant/buyer":"Geometrics","longitude":-121.889458,"street name":"Fortune Dr","id":"a63zq0gtkoxa","transaction date":"4/1/2011","office class or r&d":"R&amp;D/Flex","transaction sf":64100,"state":"CA","street #":2190},"type":"Feature","geometry":{"type":"Point","coordinates":[-121.889458,37.400417]}},{"properties":{"name":"401 Kato Terrace, Fremont, CA","city":"Sunnyvale","latitude":37.382034,"tenant/buyer":"Dolby Laboratories","longitude":-121.992233,"street name":"Lakeside Dr","id":"a63zq0iz9ni3","transaction date":"6/6/2011","office class or r&d":"R&amp;D/Flex","transaction sf":63379,"state":"CA","street #":432},"type":"Feature","geometry":{"type":"Point","coordinates":[-121.992233,37.382034]}},{"properties":{"name":"1300 Seaport Blvd, Redwood City, CA","city":"Mountain View","latitude":37.392445,"tenant/buyer":"Concentric Medical, Inc.","longitude":-122.072646,"street name":"Evelyn Ave","id":"a63zq0gp7grs","transaction date":"10/12/2011","office class or r&d":"R&amp;D/Flex","transaction sf":61997,"state":"CA","street #":301},"type":"Feature","geometry":{"type":"Point","coordinates":[-122.072646,37.392445]}},{"properties":{"name":"48660 Kato Rd, Fremont, CA","city":"San Jose","latitude":37.398891,"tenant/buyer":"MediaTek USA","longitude":-121.92762,"street name":"Junction Ave","id":"a63zq0qseypo","transaction date":"11/16/2011","office class or r&d":"R&amp;D/Flex","transaction sf":61518,"state":"CA","street #":2860},"type":"Feature","geometry":{"type":"Point","coordinates":[-121.92762,37.398891]}},{"properties":{"name":"1745 Fox Dr, San Jose, CA","city":"San Jose","latitude":37.384952,"tenant/buyer":"Aruba Networks","longitude":-121.932007,"street name":"Orchard Pkwy","id":"a63zq0f8vecl","transaction date":"1/13/2011","office class or r&d":"R&amp;D/Flex","transaction sf":60633,"state":"CA","street #":2630},"type":"Feature","geometry":{"type":"Point","coordinates":[-121.932007,37.384952]}},{"properties":{"name":"39630 Eureka Dr, Newark, CA","city":"San Jose","latitude":37.367843,"tenant/buyer":"Netflix","longitude":-121.914001,"street name":"First St","id":"a63zq0dbf6e8","transaction date":"7/29/2011","office class or r&d":"Class A","transaction sf":57328,"state":"CA","street #":1732},"type":"Feature","geometry":{"type":"Point","coordinates":[-121.914001,37.367843]}},{"properties":{"name":"551 Lundy Ave, San Jose, CA","city":"Cupertino","latitude":37.321388,"tenant/buyer":"Lab 126","longitude":-122.030739,"street name":"Stevens Creek Blvd","id":"a63zq0nlsg8c","transaction date":"5/20/2011","office class or r&d":"Class A","transaction sf":52649,"state":"CA","street #":20450},"type":"Feature","geometry":{"type":"Point","coordinates":[-122.030739,37.321388]}},{"properties":{"name":"3305 Hillview Ave, Palo Alto, CA","city":"Mountain View","latitude":37.388741,"tenant/buyer":"NeuroPace","longitude":-122.048882,"street name":"Bernardo Ave","id":"a63zq0p9asno","transaction date":"9/1/2011","office class or r&d":"R&amp;D/Flex","transaction sf":52528,"state":"CA","street #":455},"type":"Feature","geometry":{"type":"Point","coordinates":[-122.048882,37.388741]}},{"properties":{"name":"675 Middlefield Rd, Mountain View, CA","city":"Fremont","latitude":37.546122,"tenant/buyer":"Gilead Sciences Inc.","longitude":-122.063878,"street name":"Dumbarton Cir","id":"a63zq0o25ia2","transaction date":"8/1/2011","office class or r&d":"R&amp;D/Flex","transaction sf":52416,"state":"CA","street #":7601},"type":"Feature","geometry":{"type":"Point","coordinates":[-122.063878,37.546122]}},{"properties":{"name":"600 Clipper Drive, Belmont, CA","city":"Belmont","latitude":37.513655,"tenant/buyer":"SunEdison","longitude":-122.296074,"street name":"Clipper Drive","id":"a63zq0f36y13","transaction date":"3/31/2011","office class or r&d":"Class ?","transaction sf":118741,"state":"CA","street #":600},"type":"Feature","geometry":{"type":"Point","coordinates":[-122.296074,37.513655]}},{"properties":{"name":"900 Cherry Ave, San Bruno, CA","city":"San Bruno","latitude":37.6215,"tenant/buyer":"Confidential","longitude":-122.436478,"street name":"Cherry Ave","id":"a63zq0e4z3sd","transaction date":"8/15/2011","office class or r&d":"Class ?","transaction sf":102252,"state":"CA","street #":900},"type":"Feature","geometry":{"type":"Point","coordinates":[-122.436478,37.6215]}}],"is_temporal":false,"author":{"url":"","metadata":"","contact_name":"","contact_address":"","source":"","contact_phone":""},"source":"","pagination":{"sort":null,"start":0,"total":32,"limit":1000000},"state":"complete","tags":"","published":"2014-08-14T18:24:26-04:00","id":232551}