{"type":"FeatureCollection","data_type":"Dataset","url_type":null,"permissions":[{"permissions":{"download":true,"view":true},"group_id":"everyone"}],"classification":null,"title":"L-L 2010","count":26,"stream_id":232530,"contributor":{"url":"http://geocommons.com/users/38281","name":"briantalbot"},"data_attributes":null,"calculation_params":null,"icon_link":null,"link":"http://geocommons.com/overlays/232530.json","extent":[-122.058,37.2374,-121.781,37.55],"geometry_types":["point"],"unique_name":null,"name":"L-L 2010","feature_count":26,"description":"","next_feature":null,"is_raster":false,"short_classification":"Y","stats":{"latitude":{"max":37.550026,"variance":0.00429483018322464,"mean":37.4086392307692,"stdev":0.0655349539041925,"min":37.237434,"median":37.405157},"longitude":{"max":-121.781304,"variance":0.00382929057081826,"mean":-121.947764461538,"stdev":0.0618812618715736,"min":-122.057816,"median":-121.941353},"transaction sf":{"max":264719,"variance":3381842628.07385,"mean":95864.0769230769,"stdev":58153.6123389927,"min":52391,"median":73728},"street #":{"max":47180,"variance":130748027.866154,"mean":5310.11538461538,"stdev":11434.510390312,"min":51,"median":1565}},"features":[{"properties":{"name":"950 Maude Ave, Sunnyvale, CA","city":"San Jose","latitude":37.237434,"tenant/buyer":"Stion Corporation","longitude":-121.781304,"street name":"San Ignacio Ave","id":"a63zpvehi47o","transaction date":"10/1/2010","office class or r&d":"R&amp;D/Flex","transaction sf":264719,"state":"CA","street #":6331},"type":"Feature","geometry":{"type":"Point","coordinates":[-121.781304,37.237434]}},{"properties":{"name":"7700 Gateway Blvd, Newark, CA","city":"Milpitas","latitude":37.417997,"tenant/buyer":"SanDisk","longitude":-121.920763,"street name":"Sumac Dr.","id":"a63zpvbhxkdt","transaction date":"5/1/2010","office class or r&d":"R&amp;D/Flex","transaction sf":255865,"state":"CA","street #":900},"type":"Feature","geometry":{"type":"Point","coordinates":[-121.920763,37.417997]}},{"properties":{"name":"180 Jefferson Dr, Menlo Park, CA","city":"San Jose","latitude":37.405567,"tenant/buyer":"SunPower","longitude":-121.945305,"street name":"Rio Robles St","id":"a63zpvjbzu35","transaction date":"11/12/2010","office class or r&d":"R&amp;D/Flex","transaction sf":185704,"state":"CA","street #":51},"type":"Feature","geometry":{"type":"Point","coordinates":[-121.945305,37.405567]}},{"properties":{"name":"200 Mathilda Ave, Sunnyvale, CA","city":"San Jose","latitude":37.393543,"tenant/buyer":"Intermolecular","longitude":-121.934822,"street name":"First St","id":"a63zpvgnk0lu","transaction date":"5/14/2010","office class or r&d":"R&amp;D/Flex","transaction sf":147000,"state":"CA","street #":3011},"type":"Feature","geometry":{"type":"Point","coordinates":[-121.934822,37.393543]}},{"properties":{"name":"985 Almanor Ave, Sunnyvale, CA","city":"San Jose","latitude":37.382782,"tenant/buyer":"Align Technology","longitude":-121.929535,"street name":"Orchard Pkwy","id":"a63zpvlu03sl","transaction date":"1/26/2010","office class or r&d":"R&amp;D/Flex","transaction sf":129024,"state":"CA","street #":2560},"type":"Feature","geometry":{"type":"Point","coordinates":[-121.929535,37.382782]}},{"properties":{"name":"101 Mission Falls Ln, Fremont, CA","city":"Sunnyvale","latitude":37.385513,"tenant/buyer":"Alta Devices","longitude":-121.989899,"street name":"Oakmead Pkwy","id":"a63zpvgwks38","transaction date":"10/1/2010","office class or r&d":"R&amp;D/Flex","transaction sf":115000,"state":"CA","street #":545},"type":"Feature","geometry":{"type":"Point","coordinates":[-121.989899,37.385513]}},{"properties":{"name":"2315 First St, San Jose, CA","city":"Milpitas","latitude":37.408604,"tenant/buyer":"NuvoSun, Inc.","longitude":-121.911972,"street name":"Barber Ln","id":"a63zpvle5qgw","transaction date":"9/1/2010","office class or r&d":"R&amp;D/Flex","transaction sf":102668,"state":"CA","street #":1565},"type":"Feature","geometry":{"type":"Point","coordinates":[-121.911972,37.408604]}},{"properties":{"name":"1650 Technology Dr, San Jose, CA","city":"Fremont","latitude":37.500792,"tenant/buyer":"Western Digital","longitude":-121.930316,"street name":"Reliance Wy","id":"a63zpvim0ckj","transaction date":"5/11/2010","office class or r&d":"R&amp;D/Flex","transaction sf":101882,"state":"CA","street #":1250},"type":"Feature","geometry":{"type":"Point","coordinates":[-121.930316,37.500792]}},{"properties":{"name":"1250 Reliance Wy, Fremont, CA","city":"Fremont","latitude":37.550026,"tenant/buyer":"OMRON Scientific Technologies, Inc.","longitude":-122.057816,"street name":"Dumbarton Cir","id":"a63zpvl2nvze","transaction date":"8/31/2010","office class or r&d":"R&amp;D/Flex","transaction sf":95710,"state":"CA","street #":6550},"type":"Feature","geometry":{"type":"Point","coordinates":[-122.057816,37.550026]}},{"properties":{"name":"110 Rio Robles St, San Jose, CA","city":"San Jose","latitude":37.402916,"tenant/buyer":"Olympus America Inc","longitude":-121.894897,"street name":"Ringwood Ave","id":"a63zpvifxhd4","transaction date":"10/14/2010","office class or r&d":"R&amp;D/Flex","transaction sf":80000,"state":"CA","street #":2400},"type":"Feature","geometry":{"type":"Point","coordinates":[-121.894897,37.402916]}},{"properties":{"name":"910 Hermosa Ct, Sunnyvale, CA","city":"San Jose","latitude":37.260895,"tenant/buyer":"Hospira, Inc.","longitude":-121.789482,"street name":"Fontonoso Wy","id":"a63zpvf3mcjr","transaction date":"5/28/2010","office class or r&d":"R&amp;D/Flex","transaction sf":78119,"state":"CA","street #":5717},"type":"Feature","geometry":{"type":"Point","coordinates":[-121.789482,37.260895]}},{"properties":{"name":"6377 San Ignacio Ave, San Jose, CA","city":"Sunnyvale","latitude":37.384225,"tenant/buyer":"Trimble Navigation","longitude":-122.007127,"street name":"Deguigne Dr","id":"a63zpvld09s4","transaction date":"10/14/2010","office class or r&d":"R&amp;D/Flex","transaction sf":75093,"state":"CA","street #":510},"type":"Feature","geometry":{"type":"Point","coordinates":[-122.007127,37.384225]}},{"properties":{"name":"1040 Enterprise Way, Sunnyvale, CA","city":"Sunnyvale","latitude":37.405157,"tenant/buyer":"Juniper Networks","longitude":-122.020192,"street name":"Borregas Ave","id":"a63zpvc0e0hn","transaction date":"4/1/2010","office class or r&d":"R&amp;D/Flex","transaction sf":73728,"state":"CA","street #":1143},"type":"Feature","geometry":{"type":"Point","coordinates":[-122.020192,37.405157]}},{"properties":{"name":"2400 Ringwood Ave, San Jose, CA","city":"San Jose","latitude":37.411121,"tenant/buyer":"NetScout Systems, Inc.","longitude":-121.93869,"street name":"Tasman Dr","id":"a63zpvp2bwpe","transaction date":"9/17/2010","office class or r&d":"R&amp;D/Flex","transaction sf":72742,"state":"CA","street #":178},"type":"Feature","geometry":{"type":"Point","coordinates":[-121.93869,37.411121]}},{"properties":{"name":"3 Plumeria Dr, San Jose, CA","city":"Fremont","latitude":37.464355,"tenant/buyer":"All Quality &amp; Services, Inc.","longitude":-121.919266,"street name":"Kato Terrace","id":"a63zpvo7txs7","transaction date":"8/1/2010","office class or r&d":"R&amp;D/Flex","transaction sf":72536,"state":"CA","street #":401},"type":"Feature","geometry":{"type":"Point","coordinates":[-121.919266,37.464355]}},{"properties":{"name":"2525 First St, San Jose, CA","city":"Santa Clara","latitude":37.412861,"tenant/buyer":"Arista","longitude":-121.9785,"street name":"Great America Pkwy","id":"a63zpvmeftrz","transaction date":"12/8/2010","office class or r&d":"Class A","transaction sf":66137,"state":"CA","street #":5450},"type":"Feature","geometry":{"type":"Point","coordinates":[-121.9785,37.412861]}},{"properties":{"name":"2151 Mission College Blvd, Santa Clara, CA","city":"Sunnyvale","latitude":37.384674,"tenant/buyer":"Trimble Navigation","longitude":-122.005447,"street name":"Stewart Dr","id":"a63zpvprx4kl","transaction date":"10/14/2010","office class or r&d":"R&amp;D/Flex","transaction sf":63781,"state":"CA","street #":935},"type":"Feature","geometry":{"type":"Point","coordinates":[-122.005447,37.384674]}},{"properties":{"name":"47220 Bayside Pkwy, Fremont, CA","city":"Milpitas","latitude":37.414701,"tenant/buyer":"Global Foundries, U.S.","longitude":-121.921341,"street name":"McCarthy Blvd","id":"a63zpvq906e4","transaction date":"4/12/2010","office class or r&d":"R&amp;D/Flex","transaction sf":62874,"state":"CA","street #":840},"type":"Feature","geometry":{"type":"Point","coordinates":[-121.921341,37.414701]}},{"properties":{"name":"310 Mary Ave, Sunnyvale, CA","city":"Newark","latitude":37.510674,"tenant/buyer":"Club Swim","longitude":-121.997452,"street name":"Eureka Dr","id":"a63zpveka5ti","transaction date":"6/1/2010","office class or r&d":"R&amp;D/Flex","transaction sf":62382,"state":"CA","street #":39630},"type":"Feature","geometry":{"type":"Point","coordinates":[-121.997452,37.510674]}},{"properties":{"name":"520 Almanor Ave, Sunnyvale, CA","city":"Sunnyvale","latitude":37.37302,"tenant/buyer":"Trident Micro Systems","longitude":-121.997208,"street name":"Kifer Rd","id":"a63zpvkxs6tt","transaction date":"3/9/2010","office class or r&d":"R&amp;D/Flex","transaction sf":57649,"state":"CA","street #":1170},"type":"Feature","geometry":{"type":"Point","coordinates":[-121.997208,37.37302]}},{"properties":{"name":"39630 Eureka Dr, Newark, CA","city":"Sunnyvale","latitude":37.383709,"tenant/buyer":"Alpha &amp; Omega Semiconductor","longitude":-121.989311,"street name":"Oakmead Pkwy","id":"a63zpvihfany","transaction date":"1/3/2010","office class or r&d":"R&amp;D/Flex","transaction sf":57310,"state":"CA","street #":475},"type":"Feature","geometry":{"type":"Point","coordinates":[-121.989311,37.383709]}},{"properties":{"name":"39655 Eureka Dr, Newark, CA","city":"Santa Clara","latitude":37.383591,"tenant/buyer":"Danaher Corp/Tektronix, Inc.","longitude":-121.973671,"street name":"Augustine Dr","id":"a63zpvq3u8g2","transaction date":"9/22/2010","office class or r&d":"R&amp;D/Flex","transaction sf":56606,"state":"CA","street #":2575},"type":"Feature","geometry":{"type":"Point","coordinates":[-121.973671,37.383591]}},{"properties":{"name":"2150 Commerce Dr, San Jose, CA","city":"Santa Clara","latitude":37.396645,"tenant/buyer":"Picarro","longitude":-121.984222,"street name":"Patrick Henry Dr","id":"a63zpvlly9i0","transaction date":"12/31/2010","office class or r&d":"R&amp;D/Flex","transaction sf":55944,"state":"CA","street #":3105},"type":"Feature","geometry":{"type":"Point","coordinates":[-121.984222,37.396645]}},{"properties":{"name":"3172 Porter Dr, Palo Alto, CA","city":"San Jose","latitude":37.404264,"tenant/buyer":"F5 Networks","longitude":-121.946499,"street name":"Rio Robles St","id":"a63zpvnw9jzq","transaction date":"11/1/2010","office class or r&d":"R&amp;D/Flex","transaction sf":53889,"state":"CA","street #":90},"type":"Feature","geometry":{"type":"Point","coordinates":[-121.946499,37.404264]}},{"properties":{"name":"6607 Dumbarton Cir, Fremont, CA","city":"Fremont","latitude":37.474979,"tenant/buyer":"Themis Computer","longitude":-121.935486,"street name":"Bayside Pkwy","id":"a63zpvlhnr2y","transaction date":"1/1/2010","office class or r&d":"R&amp;D/Flex","transaction sf":53713,"state":"CA","street #":47180},"type":"Feature","geometry":{"type":"Point","coordinates":[-121.935486,37.474979]}},{"properties":{"name":"47300 Kato Rd, Fremont, CA","city":"Fremont","latitude":37.474575,"tenant/buyer":"TCI","longitude":-121.941353,"street name":"Gateway Blvd","id":"a63zpvev7m8k","transaction date":"3/17/2010","office class or r&d":"R&amp;D/Flex","transaction sf":52391,"state":"CA","street #":3501},"type":"Feature","geometry":{"type":"Point","coordinates":[-121.941353,37.474575]}}],"is_temporal":false,"author":{"url":"","metadata":"","contact_name":"","contact_address":"","source":"","contact_phone":""},"source":"","pagination":{"sort":null,"start":0,"total":26,"limit":1000000},"state":"complete","tags":"","published":"2014-08-14T18:23:30-04:00","id":232530}