{"type":"FeatureCollection","data_type":"Dataset","url_type":null,"permissions":[{"permissions":{"download":true,"view":true},"group_id":"everyone"}],"classification":null,"title":"p162","count":16,"stream_id":232994,"contributor":{"url":"http://geocommons.com/users/44068","name":"gherlt"},"data_attributes":null,"calculation_params":null,"icon_link":null,"link":"http://geocommons.com/overlays/232994.json","extent":[-8.73551,50.1692,1.40166,51.749],"geometry_types":["point"],"unique_name":null,"name":"p162","feature_count":16,"description":"","next_feature":null,"is_raster":false,"short_classification":"Y","stats":{"latitude":{"max":51.7490143,"mean":51.04056284375,"variance":0.227930948466773,"stdev":0.477421143715665,"min":50.169173,"median":51.1464659},"longittude":{"max":1.401661,"mean":-2.9022349125,"variance":9.16079084978566,"stdev":3.02667983932653,"min":-8.7355059,"median":-2.58791},"numero prisioneros":{"max":31.26,"mean":3.876875,"variance":61.1514895833333,"stdev":7.81994178899903,"min":0.04,"median":0.42}},"features":[{"properties":{"city":"Bandon","latitude":51.7490143,"longittude":-8.7355059,"country":"ireland","porcentaje":null,"id":"a6awfpz5zuqb","numero prisioneros":0.15,"state":"cork"},"type":"Feature","geometry":{"type":"Point","coordinates":[-8.7355059,51.7490143]}},{"properties":{"city":"kinsale","latitude":51.7064401,"longittude":-8.523302,"country":"Ireland","porcentaje":null,"id":"a6awfqbmmzci","numero prisioneros":7.1,"state":"cork"},"type":"Feature","geometry":{"type":"Point","coordinates":[-8.523302,51.7064401]}},{"properties":{"city":"penryn","latitude":50.169173,"longittude":-5.107088,"country":"united kingdom","porcentaje":null,"id":"a6awfqc9rvxp","numero prisioneros":0.5,"state":"cornwall"},"type":"Feature","geometry":{"type":"Point","coordinates":[-5.107088,50.169173]}},{"properties":{"city":"PLYMOUTH","latitude":50.3719165,"longittude":-4.1360198,"country":"United Kingdom","porcentaje":null,"id":"a6awfq2r4i02","numero prisioneros":31.26,"state":"PLYMOUTH"},"type":"Feature","geometry":{"type":"Point","coordinates":[-4.1360198,50.3719165]}},{"properties":{"city":"tregadillet","latitude":50.640134,"longittude":-4.358558,"country":"united kingdom","porcentaje":null,"id":"a6awfq93k8iw","numero prisioneros":0.13,"state":"cornwall"},"type":"Feature","geometry":{"type":"Point","coordinates":[-4.358558,50.640134]}},{"properties":{"city":"Tavistock","latitude":50.5511229,"longittude":-4.141654,"country":"united kingdom","porcentaje":null,"id":"a6awfq3yr6ux","numero prisioneros":0.2,"state":"devon"},"type":"Feature","geometry":{"type":"Point","coordinates":[-4.141654,50.5511229]}},{"properties":{"city":"CREDITON","latitude":50.792592,"longittude":-3.651495,"country":"United Kingdom","porcentaje":null,"id":"a6awfq2avjsn","numero prisioneros":3.94,"state":"devon"},"type":"Feature","geometry":{"type":"Point","coordinates":[-3.651495,50.792592]}},{"properties":{"city":"exeter","latitude":50.718412,"longittude":-3.533899,"country":"united kingdom","porcentaje":null,"id":"a6awfq9wvht2","numero prisioneros":0.3,"state":"devon"},"type":"Feature","geometry":{"type":"Point","coordinates":[-3.533899,50.718412]}},{"properties":{"city":"BRISTOL","latitude":51.454513,"longittude":-2.58791,"country":"United Kingdom","porcentaje":null,"id":"a6awfpxnsb8i","numero prisioneros":6.8,"state":"bristol"},"type":"Feature","geometry":{"type":"Point","coordinates":[-2.58791,51.454513]}},{"properties":{"city":"chippenham","latitude":51.458058,"longittude":-2.1160739,"country":"united kingdom","porcentaje":null,"id":"a6awfqc9ei79","numero prisioneros":0.42,"state":"Wiltshire"},"type":"Feature","geometry":{"type":"Point","coordinates":[-2.1160739,51.458058]}},{"properties":{"city":"PORTSMOUTH","latitude":50.806985,"longittude":-1.086701,"country":"United Kingdom","porcentaje":null,"id":"a6awfqaffad8","numero prisioneros":7.87,"state":"PORTSMOUTH"},"type":"Feature","geometry":{"type":"Point","coordinates":[-1.086701,50.806985]}},{"properties":{"city":"ASHFORD","latitude":51.1464659,"longittude":0.875019,"country":"united kingdom","porcentaje":null,"id":"a6awfq2kwcx9","numero prisioneros":0.37,"state":"kent"},"type":"Feature","geometry":{"type":"Point","coordinates":[0.875019,51.1464659]}},{"properties":{"city":"andover","latitude":51.207093,"longittude":-1.481246,"country":"united kingdom","porcentaje":null,"id":"a6awfq2pftwq","numero prisioneros":0.4,"state":"hampshire"},"type":"Feature","geometry":{"type":"Point","coordinates":[-1.481246,51.207093]}},{"properties":{"city":"LONDON","latitude":51.5081289,"longittude":-0.128005,"country":"United Kingdom","porcentaje":null,"id":"a6awfq88wwp2","numero prisioneros":2.35,"state":"london"},"type":"Feature","geometry":{"type":"Point","coordinates":[-0.128005,51.5081289]}},{"properties":{"city":"ASHFORD","latitude":51.1464659,"longittude":0.875019,"country":"United Kingdom","porcentaje":null,"id":"a6awfq25tpnj","numero prisioneros":0.2,"state":"Kent"},"type":"Feature","geometry":{"type":"Point","coordinates":[0.875019,51.1464659]}},{"properties":{"city":"Deal","latitude":51.222491,"longittude":1.401661,"country":"united kingdom","porcentaje":null,"id":"a6awfq73ne67","numero prisioneros":0.04,"state":"kent"},"type":"Feature","geometry":{"type":"Point","coordinates":[1.401661,51.222491]}}],"is_temporal":false,"author":{"url":"","metadata":"","contact_name":"","contact_address":"","source":"","contact_phone":""},"source":"","pagination":{"sort":null,"start":0,"total":16,"limit":1000000},"state":"complete","tags":"","published":"2014-08-14T18:56:51-04:00","id":232994}