{"type":"FeatureCollection","data_type":"Dataset","url_type":null,"permissions":[{"permissions":{"download":true,"view":true},"group_id":"everyone"}],"classification":null,"title":"CNY","count":null,"stream_id":23295,"contributor":{"url":"http://geocommons.com/users/11145","name":"bwyker"},"data_attributes":null,"calculation_params":null,"icon_link":null,"link":"http://geocommons.com/overlays/23295.json","extent":[-76.5774,42.0826,-74.316,44.3352],"geometry_types":["point"],"unique_name":null,"name":"CNY","feature_count":0,"description":"","next_feature":null,"is_raster":false,"short_classification":"Y","stats":{"county":{"max":44,"mean":31.2019230769231,"variance":37.0947535474234,"stdev":6.09054624376364,"min":8,"median":33},"geo_score":{"max":1.0,"mean":0.833542857142857,"variance":0.030571365934066,"stdev":0.174846692659787,"min":0.286,"median":0.902},"orgid":{"max":109,"mean":53.9047619047619,"variance":1557.836996337,"stdev":39.4694438311081,"min":1,"median":57},"sessionid":{"max":136,"mean":60.2380952380952,"variance":1315.66391941392,"stdev":36.2720818180308,"min":1,"median":59}},"features":[{"properties":{"jsyid":"CNY","city":"Syracuse","zip":"13206-","county":33,"geo_score":0.61,"orgname":"Winds of Agape","sessiondate":"9-Sep-09","street address":"1414 Grant Ave.","id":"a68h7tn4na4i","geo_precision":"street","orgid":1,"sessionid":132,"state":"NY"},"type":"Feature","geometry":{"type":"Point","coordinates":[-76.123137,43.072202]}},{"properties":{"jsyid":"CNY","city":"Syracuse","zip":"13206-","county":33,"geo_score":0.61,"orgname":"Winds of Agape","sessiondate":"10-Jun-09","street address":"1414 Grant Ave.","id":"a68h7tccwavf","geo_precision":"street","orgid":1,"sessionid":98,"state":"NY"},"type":"Feature","geometry":{"type":"Point","coordinates":[-76.123137,43.072202]}},{"properties":{"jsyid":"CNY","city":"Syracuse","zip":"13206-","county":33,"geo_score":0.61,"orgname":"Winds of Agape","sessiondate":"10-Mar-09","street address":"1414 Grant Ave.","id":"a68h7tck0y7m","geo_precision":"street","orgid":1,"sessionid":64,"state":"NY"},"type":"Feature","geometry":{"type":"Point","coordinates":[-76.123137,43.072202]}},{"properties":{"jsyid":"CNY","city":"Watertown","zip":"13601-","county":22,"geo_score":0.917,"orgname":"Watertown Urban Mission","sessiondate":"25-Aug-09","street address":"247 Factory St.","id":"a68h7tezw5rp","geo_precision":"range","orgid":10,"sessionid":127,"state":"NY"},"type":"Feature","geometry":{"type":"Point","coordinates":[-75.905825,43.975606]}},{"properties":{"jsyid":"CNY","city":"Watertown","zip":"13601-","county":22,"geo_score":0.917,"orgname":"Watertown Urban Mission","sessiondate":"20-Aug-09","street address":"247 Factory St.","id":"a68h7tr7ewkq","geo_precision":"range","orgid":10,"sessionid":123,"state":"NY"},"type":"Feature","geometry":{"type":"Point","coordinates":[-75.905825,43.975606]}},{"properties":{"jsyid":"CNY","city":"Watertown","zip":"13601-","county":22,"geo_score":0.917,"orgname":"Watertown Urban Mission","sessiondate":"3-Sep-09","street address":"247 Factory St.","id":"a68h7tnaezlg","geo_precision":"range","orgid":10,"sessionid":130,"state":"NY"},"type":"Feature","geometry":{"type":"Point","coordinates":[-75.905825,43.975606]}},{"properties":{"jsyid":"CNY","city":"Watertown","zip":"13601-","county":22,"geo_score":0.917,"orgname":"Watertown Urban Mission","sessiondate":"24-Sep-09","street address":"247 Factory St.","id":"a68h7tpfm67m","geo_precision":"range","orgid":10,"sessionid":136,"state":"NY"},"type":"Feature","geometry":{"type":"Point","coordinates":[-75.905825,43.975606]}},{"properties":{"jsyid":"CNY","city":"Syracuse","zip":"13210-","county":33,"geo_score":0.963,"orgname":"PEACE Inc -Eastside Senior Exercise Group","sessiondate":"13-Feb-09","street address":"202 Beech St.","id":"a68h7thzsl2s","geo_precision":"range","orgid":100,"sessionid":55,"state":"NY"},"type":"Feature","geometry":{"type":"Point","coordinates":[-76.12765,43.049172]}},{"properties":{"jsyid":"CNY","city":"Syracuse","zip":"13210-","county":33,"geo_score":0.963,"orgname":"PEACE Inc -Eastside Senior Exercise Group","sessiondate":"23-Jan-09","street address":"202 Beech St.","id":"a68h7tdaxr4j","geo_precision":"range","orgid":100,"sessionid":48,"state":"NY"},"type":"Feature","geometry":{"type":"Point","coordinates":[-76.12765,43.049172]}},{"properties":{"jsyid":"CNY","city":"Syracuse","zip":"13210-","county":33,"geo_score":0.963,"orgname":"PEACE Inc -Eastside Senior Exercise Group","sessiondate":"13-Mar-09","street address":"202 Beech St.","id":"a68h7tr1gtct","geo_precision":"range","orgid":100,"sessionid":66,"state":"NY"},"type":"Feature","geometry":{"type":"Point","coordinates":[-76.12765,43.049172]}},{"properties":{"jsyid":"CNY","city":"Syracuse","zip":"13210-","county":33,"geo_score":0.963,"orgname":"PEACE Inc -Eastside Senior Exercise Group","sessiondate":"9-Jan-09","street address":"202 Beech St.","id":"a68h7tjpwr8b","geo_precision":"range","orgid":100,"sessionid":47,"state":"NY"},"type":"Feature","geometry":{"type":"Point","coordinates":[-76.12765,43.049172]}},{"properties":{"jsyid":"CNY","city":"Central Square","zip":"13036-","county":37,"geo_score":0.883,"orgname":"Oswego WIC @ Central Square","sessiondate":"18-Feb-09","street address":"701 Main St.","id":"a68h7tligkiv","geo_precision":"range","orgid":101,"sessionid":56,"state":"NY"},"type":"Feature","geometry":{"type":"Point","coordinates":[-76.14872,43.291224]}},{"properties":{"jsyid":"CNY","city":"Syracuse","zip":"13202-","county":33,"geo_score":1.0,"orgname":"Rescue Mission - Soup Kitchen","sessiondate":"28-Apr-09","street address":"148 Gifford St.","id":"a68h7tjwyw84","geo_precision":"range","orgid":102,"sessionid":80,"state":"NY"},"type":"Feature","geometry":{"type":"Point","coordinates":[-76.154871,43.043594]}},{"properties":{"jsyid":"CNY","city":"Syracuse","zip":"13202-","county":33,"geo_score":1.0,"orgname":"Rescue Mission - Soup Kitchen","sessiondate":"24-Mar-09","street address":"148 Gifford St.","id":"a68h7tki41gp","geo_precision":"range","orgid":102,"sessionid":70,"state":"NY"},"type":"Feature","geometry":{"type":"Point","coordinates":[-76.154871,43.043594]}},{"properties":{"jsyid":"CNY","city":"Syracuse","zip":"13202-","county":33,"geo_score":1.0,"orgname":"Rescue Mission - Soup Kitchen","sessiondate":"24-Feb-09","street address":"148 Gifford St.","id":"a68h7tps29ct","geo_precision":"range","orgid":102,"sessionid":58,"state":"NY"},"type":"Feature","geometry":{"type":"Point","coordinates":[-76.154871,43.043594]}},{"properties":{"jsyid":"CNY","city":"Syracuse","zip":null,"county":33,"geo_score":0.805,"orgname":"Rescue Mission- STEP","sessiondate":"12-Jun-09","street address":"155 Gifford St.","id":"a68h7td4x4nh","geo_precision":"range","orgid":103,"sessionid":100,"state":"NY"},"type":"Feature","geometry":{"type":"Point","coordinates":[-76.154976,43.043588]}},{"properties":{"jsyid":"CNY","city":"Syracuse","zip":null,"county":33,"geo_score":0.805,"orgname":"Rescue Mission- STEP","sessiondate":"18-Sep-09","street address":"155 Gifford St.","id":"a68h7tkzmhme","geo_precision":"range","orgid":103,"sessionid":134,"state":"NY"},"type":"Feature","geometry":{"type":"Point","coordinates":[-76.154976,43.043588]}},{"properties":{"jsyid":"CNY","city":"Syracuse","zip":null,"county":33,"geo_score":0.805,"orgname":"Rescue Mission- STEP","sessiondate":"12-Mar-09","street address":"155 Gifford St.","id":"a68h7ti8el27","geo_precision":"range","orgid":103,"sessionid":65,"state":"NY"},"type":"Feature","geometry":{"type":"Point","coordinates":[-76.154976,43.043588]}},{"properties":{"jsyid":"CNY","city":"Syracuse","zip":null,"county":33,"geo_score":0.805,"orgname":"Rescue Mission- STEP","sessiondate":"21-May-09","street address":"155 Gifford St.","id":"a68h7tl4u107","geo_precision":"range","orgid":103,"sessionid":90,"state":"NY"},"type":"Feature","geometry":{"type":"Point","coordinates":[-76.154976,43.043588]}},{"properties":{"jsyid":"CNY","city":"Baldwinsville","zip":"13027-","county":33,"geo_score":0.917,"orgname":"PEACE Inc-County West","sessiondate":"20-Apr-09","street address":"93 Syracuse St.","id":"a68h7to5xhrv","geo_precision":"range","orgid":104,"sessionid":75,"state":"NY"},"type":"Feature","geometry":{"type":"Point","coordinates":[-76.32783,43.149212]}},{"properties":{"jsyid":"CNY","city":"Baldwinsville","zip":"13027-","county":33,"geo_score":0.917,"orgname":"PEACE Inc-County West","sessiondate":"1-Apr-09","street address":"93 Syracuse St.","id":"a68h7tes1uhg","geo_precision":"range","orgid":104,"sessionid":74,"state":"NY"},"type":"Feature","geometry":{"type":"Point","coordinates":[-76.32783,43.149212]}},{"properties":{"jsyid":"CNY","city":"Baldwinsville","zip":"13027-","county":33,"geo_score":0.917,"orgname":"PEACE Inc-County West","sessiondate":"27-Apr-09","street address":"93 Syracuse St.","id":"a68h7tcymhz3","geo_precision":"range","orgid":104,"sessionid":79,"state":"NY"},"type":"Feature","geometry":{"type":"Point","coordinates":[-76.32783,43.149212]}},{"properties":{"jsyid":"CNY","city":"Baldwinsville","zip":"13027-","county":33,"geo_score":0.917,"orgname":"PEACE Inc-County West","sessiondate":"22-Apr-09","street address":"93 Syracuse St.","id":"a68h7toe2zxw","geo_precision":"range","orgid":104,"sessionid":76,"state":"NY"},"type":"Feature","geometry":{"type":"Point","coordinates":[-76.32783,43.149212]}},{"properties":{"jsyid":"CNY","city":"Bridgeport","zip":"13030-","county":33,"geo_score":0.766,"orgname":"Bridgeport Food Pantry","sessiondate":"20-May-09","street address":"Route 298","id":"a68h7tg2qypz","geo_precision":"street","orgid":106,"sessionid":89,"state":"NY"},"type":"Feature","geometry":{"type":"Point","coordinates":[-75.973749,43.152947]}},{"properties":{"jsyid":"CNY","city":"Bridgeport","zip":"13030-","county":33,"geo_score":0.766,"orgname":"Bridgeport Food Pantry","sessiondate":"17-Jun-09","street address":"Route 298","id":"a68h7tddadtq","geo_precision":"street","orgid":106,"sessionid":101,"state":"NY"},"type":"Feature","geometry":{"type":"Point","coordinates":[-75.973749,43.152947]}},{"properties":{"jsyid":"CNY","city":"Syracuse","zip":"13202-","county":33,"geo_score":0.619,"orgname":"Salvation Army Women's Shelter","sessiondate":"7-May-09","street address":"1704 S. Salina St.","id":"a68h7tkg10pc","geo_precision":"street","orgid":108,"sessionid":84,"state":"NY"},"type":"Feature","geometry":{"type":"Point","coordinates":[-76.152182,43.050543]}},{"properties":{"jsyid":"CNY","city":"Syracuse","zip":"13202-","county":33,"geo_score":0.619,"orgname":"Salvation Army Women's Shelter","sessiondate":"11-Jun-09","street address":"1704 S. Salina St.","id":"a68h7trm85xk","geo_precision":"street","orgid":108,"sessionid":99,"state":"NY"},"type":"Feature","geometry":{"type":"Point","coordinates":[-76.152182,43.050543]}},{"properties":{"jsyid":"CNY","city":"Syracuse","zip":"13202-","county":33,"geo_score":0.619,"orgname":"Salvation Army Women's Shelter","sessiondate":"13-May-09","street address":"1704 S. Salina St.","id":"a68h7tjg5ua5","geo_precision":"street","orgid":108,"sessionid":86,"state":"NY"},"type":"Feature","geometry":{"type":"Point","coordinates":[-76.152182,43.050543]}},{"properties":{"jsyid":"CNY","city":"Syracuse","zip":"13202-","county":33,"geo_score":0.619,"orgname":"Salvation Army Women's Shelter","sessiondate":"2-Jun-09","street address":"1704 S. Salina St.","id":"a68h7tjayeuf","geo_precision":"street","orgid":108,"sessionid":94,"state":"NY"},"type":"Feature","geometry":{"type":"Point","coordinates":[-76.152182,43.050543]}},{"properties":{"jsyid":"CNY","city":"Syracuse","zip":"13207-","county":null,"geo_score":1.0,"orgname":"Most Holy Rosary Food Pantry","sessiondate":"14-May-09","street address":"111 Roberts Ave","id":"a68h7tricq0m","geo_precision":"range","orgid":109,"sessionid":87,"state":"NY"},"type":"Feature","geometry":{"type":"Point","coordinates":[-76.172075,43.032677]}},{"properties":{"jsyid":"CNY","city":"Syracuse","zip":"13210-","county":33,"geo_score":0.614,"orgname":"University United Methodist Church","sessiondate":"31-Oct-08","street address":"1085 E. Genesee","id":"a68h7tlu0gjg","geo_precision":"street","orgid":12,"sessionid":14,"state":"NY"},"type":"Feature","geometry":{"type":"Point","coordinates":[-76.141941,43.046985]}},{"properties":{"jsyid":"CNY","city":"Syracuse","zip":"13210-","county":33,"geo_score":0.963,"orgname":"Peace Inc.- Beech St.","sessiondate":"16-Mar-09","street address":"202 Beech St.","id":"a68h7tnmwkpc","geo_precision":"range","orgid":16,"sessionid":67,"state":"NY"},"type":"Feature","geometry":{"type":"Point","coordinates":[-76.12765,43.049172]}},{"properties":{"jsyid":"CNY","city":"Syracuse","zip":"13210-","county":33,"geo_score":0.963,"orgname":"Peace Inc.- Beech St.","sessiondate":"15-Dec-08","street address":"202 Beech St.","id":"a68h7tkp6ji7","geo_precision":"range","orgid":16,"sessionid":28,"state":"NY"},"type":"Feature","geometry":{"type":"Point","coordinates":[-76.12765,43.049172]}},{"properties":{"jsyid":"CNY","city":"Cortland","zip":"13045-","county":11,"geo_score":0.915,"orgname":"Cortland Nutrition Program-Senior Program","sessiondate":"18-Nov-08","street address":"60 Central Ave","id":"a68h7tmc58sk","geo_precision":"range","orgid":17,"sessionid":20,"state":"NY"},"type":"Feature","geometry":{"type":"Point","coordinates":[-76.177939,42.600184]}},{"properties":{"jsyid":"CNY","city":"Cortland","zip":"13045-","county":11,"geo_score":0.915,"orgname":"Cortland Nutrition Program-Senior Program","sessiondate":"30-Jun-09","street address":"60 Central Ave","id":"a68h7tphwbju","geo_precision":"range","orgid":17,"sessionid":106,"state":"NY"},"type":"Feature","geometry":{"type":"Point","coordinates":[-76.177939,42.600184]}},{"properties":{"jsyid":"CNY","city":"Cortland","zip":"13045-","county":11,"geo_score":0.915,"orgname":"Cortland Nutrition Program-Senior Program","sessiondate":"22-Sep-09","street address":"60 Central Ave","id":"a68h7tgyf1tn","geo_precision":"range","orgid":17,"sessionid":135,"state":"NY"},"type":"Feature","geometry":{"type":"Point","coordinates":[-76.177939,42.600184]}},{"properties":{"jsyid":"CNY","city":"Syracuse","zip":"13204-","county":33,"geo_score":0.61,"orgname":"WIC of Onondaga County","sessiondate":"15-Jan-09","street address":"375 W. Onondaga St.","id":"a68h7tl7f1t9","geo_precision":"street","orgid":19,"sessionid":39,"state":"NY"},"type":"Feature","geometry":{"type":"Point","coordinates":[-76.158185,43.03998]}},{"properties":{"jsyid":"CNY","city":"Syracuse","zip":"13204-","county":33,"geo_score":0.61,"orgname":"WIC of Onondaga County","sessiondate":"10-Feb-09","street address":"375 W. Onondaga St.","id":"a68h7td5l6um","geo_precision":"street","orgid":19,"sessionid":53,"state":"NY"},"type":"Feature","geometry":{"type":"Point","coordinates":[-76.158185,43.03998]}},{"properties":{"jsyid":"CNY","city":"Syracuse","zip":"13202-","county":33,"geo_score":1.0,"orgname":"HARTS","sessiondate":"31-Mar-09","street address":"302 Burt St.","id":"a68h7tlreykm","geo_precision":"range","orgid":2,"sessionid":73,"state":"NY"},"type":"Feature","geometry":{"type":"Point","coordinates":[-76.14734,43.038231]}},{"properties":{"jsyid":"CNY","city":"Syracuse","zip":"13202-","county":33,"geo_score":1.0,"orgname":"HARTS","sessiondate":"19-Nov-08","street address":"302 Burt St.","id":"a68h7ts2jdad","geo_precision":"range","orgid":2,"sessionid":21,"state":"NY"},"type":"Feature","geometry":{"type":"Point","coordinates":[-76.14734,43.038231]}},{"properties":{"jsyid":"CNY","city":"Syracuse","zip":"13202-","county":33,"geo_score":1.0,"orgname":"HARTS","sessiondate":"19-Aug-09","street address":"302 Burt St.","id":"a68h7ton1uzh","geo_precision":"range","orgid":2,"sessionid":124,"state":"NY"},"type":"Feature","geometry":{"type":"Point","coordinates":[-76.14734,43.038231]}},{"properties":{"jsyid":"CNY","city":"Syracuse","zip":"13202-","county":33,"geo_score":1.0,"orgname":"HARTS","sessiondate":"26-May-09","street address":"302 Burt St.","id":"a68h7tlpwm0e","geo_precision":"range","orgid":2,"sessionid":91,"state":"NY"},"type":"Feature","geometry":{"type":"Point","coordinates":[-76.14734,43.038231]}},{"properties":{"jsyid":"CNY","city":"Syracuse","zip":"13202-","county":33,"geo_score":1.0,"orgname":"HARTS","sessiondate":"30-Oct-08","street address":"302 Burt St.","id":"a68h7tg4l7oz","geo_precision":"range","orgid":2,"sessionid":13,"state":"NY"},"type":"Feature","geometry":{"type":"Point","coordinates":[-76.14734,43.038231]}},{"properties":{"jsyid":"CNY","city":"Syracuse","zip":"13202-","county":33,"geo_score":1.0,"orgname":"HARTS","sessiondate":"23-Jun-09","street address":"302 Burt St.","id":"a68h7tdy47m7","geo_precision":"range","orgid":2,"sessionid":104,"state":"NY"},"type":"Feature","geometry":{"type":"Point","coordinates":[-76.14734,43.038231]}},{"properties":{"jsyid":"CNY","city":"Lafayette","zip":"13084-","county":33,"geo_score":0.704,"orgname":"Onondaga County WIC/Lafayette Outreach","sessiondate":"3-Feb-09","street address":"6104 Rt 20","id":"a68h7tp03aq6","geo_precision":"range","orgid":20,"sessionid":50,"state":"NY"},"type":"Feature","geometry":{"type":"Point","coordinates":[-76.098113,42.891526]}},{"properties":{"jsyid":"CNY","city":"Lafayette","zip":"13084-","county":33,"geo_score":0.704,"orgname":"Onondaga County WIC/Lafayette Outreach","sessiondate":"3-Mar-09","street address":"6104 Rt 20","id":"a68h7tclnct3","geo_precision":"range","orgid":20,"sessionid":62,"state":"NY"},"type":"Feature","geometry":{"type":"Point","coordinates":[-76.098113,42.891526]}},{"properties":{"jsyid":"CNY","city":"Lafayette","zip":"13084-","county":33,"geo_score":0.704,"orgname":"Onondaga County WIC/Lafayette Outreach","sessiondate":"6-Jan-09","street address":"6104 Rt 20","id":"a68h7tsbp8iv","geo_precision":"range","orgid":20,"sessionid":36,"state":"NY"},"type":"Feature","geometry":{"type":"Point","coordinates":[-76.098113,42.891526]}},{"properties":{"jsyid":"CNY","city":"Norwich","zip":"13815-","county":8,"geo_score":0.504,"orgname":"Chenango County WIC","sessiondate":"19-Mar-09","street address":"44 W. Main St.","id":"a68h7ts2y6n1","geo_precision":"street","orgid":25,"sessionid":68,"state":"NY"},"type":"Feature","geometry":{"type":"Point","coordinates":[-75.526249,42.530949]}},{"properties":{"jsyid":"CNY","city":"Cazenovia","zip":"13035-","county":26,"geo_score":0.696,"orgname":"CazCares","sessiondate":"9-Jun-09","street address":"101 Nelson St. Rte 20","id":"a68h7te5vzrv","geo_precision":"street","orgid":28,"sessionid":97,"state":"NY"},"type":"Feature","geometry":{"type":"Point","coordinates":[-75.758457,42.912915]}},{"properties":{"jsyid":"CNY","city":"Cazenovia","zip":"13035-","county":26,"geo_score":0.696,"orgname":"CazCares","sessiondate":"13-Jan-09","street address":"101 Nelson St. Rte 20","id":"a68h7tdfu4p8","geo_precision":"street","orgid":28,"sessionid":38,"state":"NY"},"type":"Feature","geometry":{"type":"Point","coordinates":[-75.758457,42.912915]}},{"properties":{"jsyid":"CNY","city":"Cazenovia","zip":"13035-","county":26,"geo_score":0.696,"orgname":"CazCares","sessiondate":"2-Feb-09","street address":"101 Nelson St.. Rte 20","id":"a68h7tsrd9em","geo_precision":"street","orgid":28,"sessionid":49,"state":"NY"},"type":"Feature","geometry":{"type":"Point","coordinates":[-75.758457,42.912915]}},{"properties":{"jsyid":"CNY","city":"Syracuse","zip":"13204-","county":33,"geo_score":0.854,"orgname":"Southwest Community Center","sessiondate":"20-Mar-09","street address":"401 South Ave","id":"a68h7tm4tkp7","geo_precision":"range","orgid":31,"sessionid":69,"state":"NY"},"type":"Feature","geometry":{"type":"Point","coordinates":[-76.158895,43.034948]}},{"properties":{"jsyid":"CNY","city":"Syracuse","zip":"13204-","county":33,"geo_score":0.854,"orgname":"Southwest Community Center","sessiondate":"16-Jan-09","street address":"401 South Ave","id":"a68h7tkfqpam","geo_precision":"range","orgid":31,"sessionid":40,"state":"NY"},"type":"Feature","geometry":{"type":"Point","coordinates":[-76.158895,43.034948]}},{"properties":{"jsyid":"CNY","city":"Syracuse","zip":"13204-","county":33,"geo_score":0.854,"orgname":"Southwest Community Center","sessiondate":"20-Feb-09","street address":"401 South Ave","id":"a68h7tqg9usa","geo_precision":"range","orgid":31,"sessionid":57,"state":"NY"},"type":"Feature","geometry":{"type":"Point","coordinates":[-76.158895,43.034948]}},{"properties":{"jsyid":"CNY","city":"Syracuse","zip":"13204-","county":33,"geo_score":0.854,"orgname":"Southwest Community Center","sessiondate":"19-Dec-08","street address":"401 South Ave","id":"a68h7tspgyfy","geo_precision":"range","orgid":31,"sessionid":32,"state":"NY"},"type":"Feature","geometry":{"type":"Point","coordinates":[-76.158895,43.034948]}},{"properties":{"jsyid":"CNY","city":"Syracuse","zip":"13204-","county":33,"geo_score":0.854,"orgname":"Southwest Community Center","sessiondate":"21-Nov-08","street address":"401 South Ave","id":"a68h7tilh4pz","geo_precision":"range","orgid":31,"sessionid":23,"state":"NY"},"type":"Feature","geometry":{"type":"Point","coordinates":[-76.158895,43.034948]}},{"properties":{"jsyid":"CNY","city":"Utica","zip":"13501-","county":32,"geo_score":1.0,"orgname":"First Presbyterian/Mount Zion Pantry","sessiondate":"18-Jun-09","street address":"1605 Genesee St.","id":"a68h7tcintlf","geo_precision":"range","orgid":38,"sessionid":102,"state":"NY"},"type":"Feature","geometry":{"type":"Point","coordinates":[-75.25129,43.091564]}},{"properties":{"jsyid":"CNY","city":"Utica","zip":"13501-","county":32,"geo_score":1.0,"orgname":"First Presbyterian/Mount Zion Pantry","sessiondate":"19-May-09","street address":"1605 Genesee St.","id":"a68h7tczbv8z","geo_precision":"range","orgid":38,"sessionid":88,"state":"NY"},"type":"Feature","geometry":{"type":"Point","coordinates":[-75.25129,43.091564]}},{"properties":{"jsyid":"CNY","city":"Vernon","zip":"13476-","county":32,"geo_score":1.0,"orgname":"Oneida WIC @ Vernon","sessiondate":"23-Dec-08","street address":"4343 Peterboro St.","id":"a68h7tnmw5em","geo_precision":"range","orgid":46,"sessionid":33,"state":"NY"},"type":"Feature","geometry":{"type":"Point","coordinates":[-75.543566,43.073202]}},{"properties":{"jsyid":"CNY","city":"Vernon","zip":"13476-","county":32,"geo_score":1.0,"orgname":"Oneida WIC @ Vernon","sessiondate":"28-Oct-08","street address":"4343 Peterboro St.","id":"a68h7tf72odv","geo_precision":"range","orgid":46,"sessionid":11,"state":"NY"},"type":"Feature","geometry":{"type":"Point","coordinates":[-75.543566,43.073202]}},{"properties":{"jsyid":"CNY","city":"Oswego","zip":"13126-","county":37,"geo_score":0.914,"orgname":"Oswego Co. WIC- Fulton Site","sessiondate":"14-Oct-08","street address":"33 S. Thiird St.","id":"a68h7tjv1xzs","geo_precision":"zip","orgid":54,"sessionid":5,"state":"NY"},"type":"Feature","geometry":{"type":"Point","coordinates":[-76.577446,43.412568]}},{"properties":{"jsyid":"CNY","city":"Oswego","zip":"13126-","county":37,"geo_score":0.914,"orgname":"Oswego Co. WIC- Fulton Site","sessiondate":"25-Nov-08","street address":"33 S. Thiird St.","id":"a68h7tsczt1i","geo_precision":"zip","orgid":54,"sessionid":24,"state":"NY"},"type":"Feature","geometry":{"type":"Point","coordinates":[-76.577446,43.412568]}},{"properties":{"jsyid":"CNY","city":"Cicero","zip":"13039-","county":33,"geo_score":1.0,"orgname":"Anna's Pantry/Sacred Heart","sessiondate":"27-Oct-08","street address":"8229 Brewerton Rd","id":"a68h7tqi2hfu","geo_precision":"range","orgid":57,"sessionid":10,"state":"NY"},"type":"Feature","geometry":{"type":"Point","coordinates":[-76.117592,43.168326]}},{"properties":{"jsyid":"CNY","city":"Norwich","zip":"13815-","county":8,"geo_score":0.912,"orgname":"Roots and Wings-Catholic Charities","sessiondate":"26-Jan-09","street address":"34 Berry St.","id":"a68h7tntmjuy","geo_precision":"range","orgid":59,"sessionid":45,"state":"NY"},"type":"Feature","geometry":{"type":"Point","coordinates":[-75.519037,42.538255]}},{"properties":{"jsyid":"CNY","city":"Cortland","zip":"13045-","county":11,"geo_score":0.915,"orgname":"Cortland Nutrition Program-Helping Hands Food Pant","sessiondate":"19-Jun-09","street address":"60 Central Ave","id":"a68h7tisrv6b","geo_precision":"range","orgid":6,"sessionid":103,"state":"NY"},"type":"Feature","geometry":{"type":"Point","coordinates":[-76.177939,42.600184]}},{"properties":{"jsyid":"CNY","city":"Syracuse","zip":"13203-","county":33,"geo_score":1.0,"orgname":"Onondaga County WIC @ Hawley","sessiondate":"29-Jan-09","street address":"716 Hawley Ave","id":"a68h7to4yxzc","geo_precision":"range","orgid":65,"sessionid":46,"state":"NY"},"type":"Feature","geometry":{"type":"Point","coordinates":[-76.133128,43.055208]}},{"properties":{"jsyid":"CNY","city":"Syracuse","zip":"13203-","county":33,"geo_score":1.0,"orgname":"Onondaga County WIC @ Hawley","sessiondate":"18-Dec-08","street address":"716 Hawley Ave","id":"a68h7tjah466","geo_precision":"range","orgid":65,"sessionid":31,"state":"NY"},"type":"Feature","geometry":{"type":"Point","coordinates":[-76.133128,43.055208]}},{"properties":{"jsyid":"CNY","city":"Syracuse","zip":"13203-","county":33,"geo_score":1.0,"orgname":"Onondaga County WIC @ Hawley","sessiondate":"2-Oct-08","street address":"716 Hawley Ave","id":"a68h7tqb3atb","geo_precision":"range","orgid":65,"sessionid":1,"state":"NY"},"type":"Feature","geometry":{"type":"Point","coordinates":[-76.133128,43.055208]}},{"properties":{"jsyid":"CNY","city":"Syracuse","zip":"13203-","county":33,"geo_score":1.0,"orgname":"Onondaga County WIC @ Hawley","sessiondate":"20-Nov-08","street address":"716 Hawley Ave","id":"a68h7te5914y","geo_precision":"range","orgid":65,"sessionid":22,"state":"NY"},"type":"Feature","geometry":{"type":"Point","coordinates":[-76.133128,43.055208]}},{"properties":{"jsyid":"CNY","city":"Syracuse","zip":"13057-","county":33,"geo_score":0.471,"orgname":"Onondaga County WIC @ E. Syracuse","sessiondate":"16-Dec-08","street address":"135 W. Manlius St.","id":"a68h7tm88vd0","geo_precision":"street","orgid":66,"sessionid":29,"state":"NY"},"type":"Feature","geometry":{"type":"Point","coordinates":[-76.071806,43.064025]}},{"properties":{"jsyid":"CNY","city":"Syracuse","zip":"13057-","county":33,"geo_score":0.471,"orgname":"Onondaga County WIC @ E. Syracuse","sessiondate":"21-Oct-08","street address":"135 W. Manlius St.","id":"a68h7tgvnxjn","geo_precision":"street","orgid":66,"sessionid":8,"state":"NY"},"type":"Feature","geometry":{"type":"Point","coordinates":[-76.071806,43.064025]}},{"properties":{"jsyid":"CNY","city":"Chittenango","zip":"13037-","county":33,"geo_score":0.92,"orgname":"Madison WIC @ Chittenango","sessiondate":"8-Jan-09","street address":"118 Arch St.","id":"a68h7tl16oxv","geo_precision":"range","orgid":67,"sessionid":35,"state":"NY"},"type":"Feature","geometry":{"type":"Point","coordinates":[-75.867702,43.04891]}},{"properties":{"jsyid":"CNY","city":"Syracuse","zip":"13204-","county":33,"geo_score":1.0,"orgname":"Family Support@Huntington Family Center","sessiondate":"16-Oct-08","street address":"405 Gifford St.","id":"a68h7tj50qjt","geo_precision":"range","orgid":7,"sessionid":7,"state":"NY"},"type":"Feature","geometry":{"type":"Point","coordinates":[-76.160568,43.043331]}},{"properties":{"jsyid":"CNY","city":"Syracuse","zip":"13204-","county":33,"geo_score":1.0,"orgname":"Family Support@Huntington Family Center","sessiondate":"11-Dec-08","street address":"405 Gifford St.","id":"a68h7tdvr23k","geo_precision":"range","orgid":7,"sessionid":27,"state":"NY"},"type":"Feature","geometry":{"type":"Point","coordinates":[-76.160568,43.043331]}},{"properties":{"jsyid":"CNY","city":"Syracuse","zip":"13204-","county":33,"geo_score":1.0,"orgname":"Family Support@Huntington Family Center","sessiondate":"29-Jul-09","street address":"405 Gifford St.","id":"a68h7tcut76f","geo_precision":"range","orgid":7,"sessionid":107,"state":"NY"},"type":"Feature","geometry":{"type":"Point","coordinates":[-76.160568,43.043331]}},{"properties":{"jsyid":"CNY","city":"Syracuse","zip":"13204-","county":33,"geo_score":1.0,"orgname":"Family Support@Huntington Family Center","sessiondate":"23-Apr-09","street address":"405 Gifford St.","id":"a68h7tfvf0l2","geo_precision":"range","orgid":7,"sessionid":78,"state":"NY"},"type":"Feature","geometry":{"type":"Point","coordinates":[-76.160568,43.043331]}},{"properties":{"jsyid":"CNY","city":"Syracuse","zip":"13204-","county":33,"geo_score":1.0,"orgname":"Family Support@Huntington Family Center","sessiondate":"13-Nov-08","street address":"405 Gifford St.","id":"a68h7thkwunc","geo_precision":"range","orgid":7,"sessionid":18,"state":"NY"},"type":"Feature","geometry":{"type":"Point","coordinates":[-76.160568,43.043331]}},{"properties":{"jsyid":"CNY","city":"Syracuse","zip":"13204-","county":33,"geo_score":1.0,"orgname":"Family Support@Huntington Family Center","sessiondate":"12-May-09","street address":"405 Gifford St.","id":"a68h7tc971a4","geo_precision":"range","orgid":7,"sessionid":85,"state":"NY"},"type":"Feature","geometry":{"type":"Point","coordinates":[-76.160568,43.043331]}},{"properties":{"jsyid":"CNY","city":"Syracuse","zip":"13204-","county":33,"geo_score":1.0,"orgname":"Family Support@Huntington Family Center","sessiondate":"26-Mar-09","street address":"405 Gifford St.","id":"a68h7trnc6gw","geo_precision":"range","orgid":7,"sessionid":72,"state":"NY"},"type":"Feature","geometry":{"type":"Point","coordinates":[-76.160568,43.043331]}},{"properties":{"jsyid":"CNY","city":"Rome","zip":"13440-","county":32,"geo_score":0.498,"orgname":"Oneida WIC-Rome 02","sessiondate":"6-Mar-09","street address":"212 W. Embargo St.","id":"a68h7tkuq0p7","geo_precision":"street","orgid":78,"sessionid":63,"state":"NY"},"type":"Feature","geometry":{"type":"Point","coordinates":[-75.454169,43.214262]}},{"properties":{"jsyid":"CNY","city":"Rome","zip":"13440-","county":32,"geo_score":0.498,"orgname":"Oneida WIC-Rome 02","sessiondate":"20-Jan-09","street address":"212 W. Embargo St.","id":"a68h7tmnnoh3","geo_precision":"street","orgid":78,"sessionid":16,"state":"NY"},"type":"Feature","geometry":{"type":"Point","coordinates":[-75.454169,43.214262]}},{"properties":{"jsyid":"CNY","city":"Rome","zip":"13440-","county":32,"geo_score":0.498,"orgname":"Oneida WIC-Rome 02","sessiondate":"7-Nov-08","street address":"212 W. Embargo St.","id":"a68h7tmbvq15","geo_precision":"street","orgid":78,"sessionid":15,"state":"NY"},"type":"Feature","geometry":{"type":"Point","coordinates":[-75.454169,43.214262]}},{"properties":{"jsyid":"CNY","city":"Rome","zip":"13440-","county":32,"geo_score":0.498,"orgname":"Oneida WIC-Rome 02","sessiondate":"6-Feb-09","street address":"212 W. Embargo St.","id":"a68h7tqs6svo","geo_precision":"street","orgid":78,"sessionid":52,"state":"NY"},"type":"Feature","geometry":{"type":"Point","coordinates":[-75.454169,43.214262]}},{"properties":{"jsyid":"CNY","city":"Syracuse","zip":"13204-","county":33,"geo_score":1.0,"orgname":"St. Lucy's Food Pantry","sessiondate":"22-Oct-08","street address":"432 Gifford St.","id":"a68h7tgflv8h","geo_precision":"range","orgid":8,"sessionid":9,"state":"NY"},"type":"Feature","geometry":{"type":"Point","coordinates":[-76.16151,43.043287]}},{"properties":{"jsyid":"CNY","city":"Syracuse","zip":"13202-","county":33,"geo_score":1.0,"orgname":"Samaritan Center","sessiondate":"14-Nov-08","street address":"310 Montgomery St.","id":"a68h7tq1bjnt","geo_precision":"range","orgid":80,"sessionid":19,"state":"NY"},"type":"Feature","geometry":{"type":"Point","coordinates":[-76.149281,43.048485]}},{"properties":{"jsyid":"CNY","city":"Syracuse","zip":"13202-","county":33,"geo_score":1.0,"orgname":"Samaritan Center","sessiondate":"10-Oct-08","street address":"310 Montgomery St.","id":"a68h7tjyon5d","geo_precision":"range","orgid":80,"sessionid":4,"state":"NY"},"type":"Feature","geometry":{"type":"Point","coordinates":[-76.149281,43.048485]}},{"properties":{"jsyid":"CNY","city":"Governeur","zip":"13642-","county":44,"geo_score":0.932,"orgname":"Christian Life Fellowship Food Pantry","sessiondate":"3-Sep-09","street address":"52 Church St.","id":"a68h7tmtz96j","geo_precision":"range","orgid":82,"sessionid":129,"state":"NY"},"type":"Feature","geometry":{"type":"Point","coordinates":[-75.467636,44.335218]}},{"properties":{"jsyid":"CNY","city":"Oswego","zip":null,"county":37,"geo_score":0.482,"orgname":"Oswego WIC-Oswego site","sessiondate":"26-Feb-09","street address":"101 W. Utica St.","id":"a68h7tqmltu0","geo_precision":"street","orgid":85,"sessionid":60,"state":"NY"},"type":"Feature","geometry":{"type":"Point","coordinates":[-76.51123,43.452144]}},{"properties":{"jsyid":"CNY","city":"Oswego","zip":null,"county":37,"geo_score":0.482,"orgname":"Oswego WIC-Oswego site","sessiondate":"30-Dec-08","street address":"101 W. Utica St.","id":"a68h7teraq3c","geo_precision":"street","orgid":85,"sessionid":34,"state":"NY"},"type":"Feature","geometry":{"type":"Point","coordinates":[-76.51123,43.452144]}},{"properties":{"jsyid":"CNY","city":"Oswego","zip":null,"county":37,"geo_score":0.482,"orgname":"Oswego WIC-Oswego site","sessiondate":"22-Jan-09","street address":"101 W. Utica St.","id":"a68h7tjuebob","geo_precision":"street","orgid":85,"sessionid":42,"state":"NY"},"type":"Feature","geometry":{"type":"Point","coordinates":[-76.51123,43.452144]}},{"properties":{"jsyid":"CNY","city":"Syracuse","zip":null,"county":33,"geo_score":0.805,"orgname":"Pilgrim Pantry","sessiondate":"12-Nov-08","street address":"310 Hatch St.","id":"a68h7tqd4835","geo_precision":"range","orgid":88,"sessionid":17,"state":"NY"},"type":"Feature","geometry":{"type":"Point","coordinates":[-76.152849,43.020884]}},{"properties":{"jsyid":"CNY","city":"Syracuse","zip":null,"county":33,"geo_score":0.805,"orgname":"Pilgrim Pantry","sessiondate":"22-Apr-09","street address":"310 Hatch St.","id":"a68h7tsq63xm","geo_precision":"range","orgid":88,"sessionid":77,"state":"NY"},"type":"Feature","geometry":{"type":"Point","coordinates":[-76.152849,43.020884]}},{"properties":{"jsyid":"CNY","city":"Syracuse","zip":null,"county":33,"geo_score":0.805,"orgname":"Pilgrim Pantry","sessiondate":"25-Mar-09","street address":"310 Hatch St.","id":"a68h7to230vj","geo_precision":"range","orgid":88,"sessionid":71,"state":"NY"},"type":"Feature","geometry":{"type":"Point","coordinates":[-76.152849,43.020884]}},{"properties":{"jsyid":"CNY","city":"Syracuse","zip":null,"county":33,"geo_score":0.805,"orgname":"Pilgrim Pantry","sessiondate":"27-May-09","street address":"310 Hatch St.","id":"a68h7tngz6f7","geo_precision":"range","orgid":88,"sessionid":92,"state":"NY"},"type":"Feature","geometry":{"type":"Point","coordinates":[-76.152849,43.020884]}},{"properties":{"jsyid":"CNY","city":"Syracuse","zip":null,"county":33,"geo_score":0.805,"orgname":"Pilgrim Pantry","sessiondate":"25-Feb-09","street address":"310 Hatch St.","id":"a68h7td8uiar","geo_precision":"range","orgid":88,"sessionid":59,"state":"NY"},"type":"Feature","geometry":{"type":"Point","coordinates":[-76.152849,43.020884]}},{"properties":{"jsyid":"CNY","city":"Waterville","zip":"13480-","county":32,"geo_score":0.286,"orgname":"Oneida WIC-Waterville","sessiondate":"8-Oct-08","street address":"122 S. Barton Ave.","id":"a68h7touytcb","geo_precision":"street","orgid":89,"sessionid":2,"state":"NY"},"type":"Feature","geometry":{"type":"Point","coordinates":[-75.458776,43.325342]}},{"properties":{"jsyid":"CNY","city":"Syracuse","zip":"13206-","county":33,"geo_score":0.902,"orgname":"Blessed Sacrament Food Pantry","sessiondate":"12-Feb-09","street address":"3127 James St.","id":"a68h7tihjlye","geo_precision":"range","orgid":9,"sessionid":54,"state":"NY"},"type":"Feature","geometry":{"type":"Point","coordinates":[-76.104011,43.068959]}},{"properties":{"jsyid":"CNY","city":"Syracuse","zip":"13206-","county":33,"geo_score":0.902,"orgname":"Blessed Sacrament Food Pantry","sessiondate":"5-Mar-09","street address":"3127 James St.","id":"a68h7tco0y6w","geo_precision":"range","orgid":9,"sessionid":61,"state":"NY"},"type":"Feature","geometry":{"type":"Point","coordinates":[-76.104011,43.068959]}},{"properties":{"jsyid":"CNY","city":"Syracuse","zip":"13206-","county":33,"geo_score":0.902,"orgname":"Blessed Sacrament Food Pantry","sessiondate":"30-Apr-09","street address":"3127 James St.","id":"a68h7te4rz5p","geo_precision":"range","orgid":9,"sessionid":82,"state":"NY"},"type":"Feature","geometry":{"type":"Point","coordinates":[-76.104011,43.068959]}},{"properties":{"jsyid":"CNY","city":"Syracuse","zip":"13206-","county":33,"geo_score":0.902,"orgname":"Blessed Sacrament Food Pantry","sessiondate":"28-May-09","street address":"3127 James St.","id":"a68h7tl7y4yt","geo_precision":"range","orgid":9,"sessionid":93,"state":"NY"},"type":"Feature","geometry":{"type":"Point","coordinates":[-76.104011,43.068959]}},{"properties":{"jsyid":"CNY","city":"N. Syracuse","zip":null,"county":33,"geo_score":0.805,"orgname":"North Syracuse Christian Church","sessiondate":"15-Oct-08","street address":"911 Church St.","id":"a68h7tdd74lh","geo_precision":"range","orgid":90,"sessionid":6,"state":"NY"},"type":"Feature","geometry":{"type":"Point","coordinates":[-76.114126,43.127582]}},{"properties":{"jsyid":"CNY","city":"Cicero","zip":"13039-","county":33,"geo_score":0.824,"orgname":"Head Start-Cicero","sessiondate":"17-Dec-08","street address":"6221 Route 31","id":"a68h7tnk6k8o","geo_precision":"range","orgid":91,"sessionid":30,"state":"NY"},"type":"Feature","geometry":{"type":"Point","coordinates":[-76.090712,43.176728]}},{"properties":{"jsyid":"CNY","city":"Cazenovia","zip":null,"county":26,"geo_score":0.902,"orgname":"Madison Co. WIC @ Cazenovia","sessiondate":"5-Feb-09","street address":"100 Albany St.","id":"a68h7trqvk5t","geo_precision":"range","orgid":96,"sessionid":51,"state":"NY"},"type":"Feature","geometry":{"type":"Point","coordinates":[-75.851996,42.929873]}},{"properties":{"jsyid":"CNY","city":"Cazenovia","zip":null,"county":26,"geo_score":0.902,"orgname":"Madison Co. WIC @ Cazenovia","sessiondate":"3-Dec-08","street address":"100 Albany St.","id":"a68h7tsdm80k","geo_precision":"range","orgid":96,"sessionid":25,"state":"NY"},"type":"Feature","geometry":{"type":"Point","coordinates":[-75.851996,42.929873]}},{"properties":{"jsyid":"CNY","city":"Phoenix","zip":null,"county":37,"geo_score":0.675,"orgname":"Oswego WIC @ Phoenix","sessiondate":"28-Jan-09","street address":"815 Main St.","id":"a68h7tfz7yc9","geo_precision":"street","orgid":99,"sessionid":43,"state":"NY"},"type":"Feature","geometry":{"type":"Point","coordinates":[-74.316035,42.08264]}}],"is_temporal":false,"author":{"url":"","metadata":"","contact_name":"","contact_address":"","source":"","contact_phone":""},"source":"","pagination":{"sort":null,"start":0,"total":null,"limit":1000000},"state":"verified","tags":"","published":"2014-08-10T15:59:57-04:00","id":23295}