{"type":"FeatureCollection","data_type":"Dataset","url_type":null,"permissions":[{"permissions":{"download":true,"view":true},"group_id":"everyone"}],"classification":null,"title":"ESPNU150","count":50,"stream_id":232963,"contributor":{"url":"http://geocommons.com/users/40695","name":"seem0040"},"data_attributes":null,"calculation_params":null,"icon_link":null,"link":"http://geocommons.com/overlays/232963.json","extent":[0.0,0.0,0.0,0.0],"geometry_types":null,"unique_name":null,"name":"ESPNU150","feature_count":50,"description":"","next_feature":null,"is_raster":false,"short_classification":"Y","features":[{"properties":{"recruits per million":"5.235602094","population in millions":"19.1","espnu150 recruits (last 3 years)":"100","f":"70.7","id":"ap4aipr8ulmn","state":"FLORIDA"},"type":"Feature","geometry":null},{"properties":{"recruits per million":"0.714285714","population in millions":"1.4","espnu150 recruits (last 3 years)":"1","f":"70","id":"ap4aipp2ljh7","state":"HAWAII"},"type":"Feature","geometry":null},{"properties":{"recruits per million":"3.260869565","population in millions":"4.6","espnu150 recruits (last 3 years)":"15","f":"66.4","id":"ap4aipf84a0w","state":"LOUISIANA"},"type":"Feature","geometry":null},{"properties":{"recruits per million":"2.373540856","population in millions":"25.7","espnu150 recruits (last 3 years)":"61","f":"64.8","id":"ap4aipjkvngg","state":"TEXAS"},"type":"Feature","geometry":null},{"properties":{"recruits per million":"4.489795918","population in millions":"9.8","espnu150 recruits (last 3 years)":"44","f":"63.5","id":"ap4aipnle4gb","state":"GEORGIA"},"type":"Feature","geometry":null},{"properties":{"recruits per million":"2.666666667","population in millions":"3","espnu150 recruits (last 3 years)":"8","f":"63.4","id":"ap4aipk4af87","state":"MISSISSIPPI"},"type":"Feature","geometry":null},{"properties":{"recruits per million":"4.166666667","population in millions":"4.8","espnu150 recruits (last 3 years)":"20","f":"62.8","id":"ap4aipmaee79","state":"ALABAMA"},"type":"Feature","geometry":null},{"properties":{"recruits per million":"1.489361702","population in millions":"4.7","espnu150 recruits (last 3 years)":"7","f":"62.4","id":"ap4aipkf20ln","state":"SOUTH CAROLINA"},"type":"Feature","geometry":null},{"properties":{"recruits per million":"1.724137931","population in millions":"2.9","espnu150 recruits (last 3 years)":"5","f":"60.4","id":"ap4aipia2y89","state":"ARKANSAS"},"type":"Feature","geometry":null},{"properties":{"recruits per million":"1.230769231","population in millions":"6.5","espnu150 recruits (last 3 years)":"8","f":"60.3","id":"ap4aipe3j4r7","state":"ARIZONA"},"type":"Feature","geometry":null},{"properties":{"recruits per million":"1.315789474","population in millions":"3.8","espnu150 recruits (last 3 years)":"5","f":"59.6","id":"ap4aipbgtn6j","state":"OKLAHOMA"},"type":"Feature","geometry":null},{"properties":{"recruits per million":"1.140583554","population in millions":"37.7","espnu150 recruits (last 3 years)":"43","f":"59.4","id":"ap4aipqdweda","state":"CALIFORNIA"},"type":"Feature","geometry":null},{"properties":{"recruits per million":"1.546391753","population in millions":"9.7","espnu150 recruits (last 3 years)":"15","f":"59","id":"ap4aipe0jr71","state":"NORTH CAROLINA"},"type":"Feature","geometry":null},{"properties":{"recruits per million":"0.625","population in millions":"6.4","espnu150 recruits (last 3 years)":"4","f":"57.6","id":"ap4aipbtgb6u","state":"TENNESSEE"},"type":"Feature","geometry":null},{"properties":{"recruits per million":"0.681818182","population in millions":"4.4","espnu150 recruits (last 3 years)":"3","f":"55.6","id":"ap4aiphgbg0d","state":"KENTUCKY"},"type":"Feature","geometry":null},{"properties":{"recruits per million":"0","population in millions":"0.9","espnu150 recruits (last 3 years)":"0","f":"55.3","id":"ap4aipgml11j","state":"DELAWARE"},"type":"Feature","geometry":null},{"properties":{"recruits per million":"1.975308642","population in millions":"8.1","espnu150 recruits (last 3 years)":"16","f":"55.1","id":"ap4aipj5hwk9","state":"VIRGINIA"},"type":"Feature","geometry":null},{"properties":{"recruits per million":"0.833333333","population in millions":"6","espnu150 recruits (last 3 years)":"5","f":"54.5","id":"ap4aipdpzxh6","state":"MISSOURI"},"type":"Feature","geometry":null},{"properties":{"recruits per million":"0.689655172","population in millions":"2.9","espnu150 recruits (last 3 years)":"2","f":"54.3","id":"ap4aipc6tt7d","state":"KANSAS"},"type":"Feature","geometry":null},{"properties":{"recruits per million":"1.551724138","population in millions":"5.8","espnu150 recruits (last 3 years)":"9","f":"54.2","id":"ap4aipo8wgck","state":"MARYLAND"},"type":"Feature","geometry":null},{"properties":{"recruits per million":"0.476190476","population in millions":"2.1","espnu150 recruits (last 3 years)":"1","f":"53.4","id":"ap4aipr2609n","state":"NEW MEXICO"},"type":"Feature","geometry":null},{"properties":{"recruits per million":"1.25","population in millions":"8.8","espnu150 recruits (last 3 years)":"11","f":"52.7","id":"ap4aipq5j9gg","state":"NEW JERSEY"},"type":"Feature","geometry":null},{"properties":{"recruits per million":"0.852713178","population in millions":"12.9","espnu150 recruits (last 3 years)":"11","f":"51.8","id":"ap4aipeextix","state":"ILLINOIS"},"type":"Feature","geometry":null},{"properties":{"recruits per million":"0","population in millions":"1.9","espnu150 recruits (last 3 years)":"0","f":"51.8","id":"ap4aiph92sla","state":"WEST VIRGINIA"},"type":"Feature","geometry":null},{"properties":{"recruits per million":"0.923076923","population in millions":"6.5","espnu150 recruits (last 3 years)":"6","f":"51.7","id":"ap4aiphzqr7g","state":"INDIANA"},"type":"Feature","geometry":null},{"properties":{"recruits per million":"1.47826087","population in millions":"11.5","espnu150 recruits (last 3 years)":"17","f":"50.7","id":"ap4aipbz9aao","state":"OHIO"},"type":"Feature","geometry":null},{"properties":{"recruits per million":"0","population in millions":"1.1","espnu150 recruits (last 3 years)":"0","f":"50.1","id":"ap4aipi2zo5w","state":"RHODE ISLAND"},"type":"Feature","geometry":null},{"properties":{"recruits per million":"0","population in millions":"2.7","espnu150 recruits (last 3 years)":"0","f":"49.9","id":"ap4aipp1qrm9","state":"NEVADA"},"type":"Feature","geometry":null},{"properties":{"recruits per million":"0","population in millions":"3.6","espnu150 recruits (last 3 years)":"0","f":"49","id":"ap4aipjpubes","state":"CONNECTICUTT"},"type":"Feature","geometry":null},{"properties":{"recruits per million":"0.866141732","population in millions":"12.7","espnu150 recruits (last 3 years)":"11","f":"48.8","id":"ap4aipr8ee8h","state":"PENNSYLVANIA"},"type":"Feature","geometry":null},{"properties":{"recruits per million":"0","population in millions":"1.8","espnu150 recruits (last 3 years)":"0","f":"48.8","id":"ap4aipnmsoyu","state":"NEBRASKA"},"type":"Feature","geometry":null},{"properties":{"recruits per million":"0.357142857","population in millions":"2.8","espnu150 recruits (last 3 years)":"1","f":"48.6","id":"ap4aipgpznei","state":"UTAH"},"type":"Feature","geometry":null},{"properties":{"recruits per million":"0.512820513","population in millions":"3.9","espnu150 recruits (last 3 years)":"2","f":"48.4","id":"ap4aipfpas8m","state":"OREGON"},"type":"Feature","geometry":null},{"properties":{"recruits per million":"0.735294118","population in millions":"6.8","espnu150 recruits (last 3 years)":"5","f":"48.3","id":"ap4aipcc4eeo","state":"WASHINGTON"},"type":"Feature","geometry":null},{"properties":{"recruits per million":"0","population in millions":"6.6","espnu150 recruits (last 3 years)":"0","f":"47.9","id":"ap4aipkdxoxh","state":"MASSACHUSETTS"},"type":"Feature","geometry":null},{"properties":{"recruits per million":"0","population in millions":"3.1","espnu150 recruits (last 3 years)":"0","f":"47.8","id":"ap4aipohij39","state":"IOWA"},"type":"Feature","geometry":null},{"properties":{"recruits per million":"0.153846154","population in millions":"19.5","espnu150 recruits (last 3 years)":"3","f":"45.4","id":"ap4aippqr4fu","state":"NEW YORK"},"type":"Feature","geometry":null},{"properties":{"recruits per million":"0","population in millions":"0.8","espnu150 recruits (last 3 years)":"0","f":"45.2","id":"ap4aipen5ooa","state":"SOUTH DAKOTA"},"type":"Feature","geometry":null},{"properties":{"recruits per million":"0.392156863","population in millions":"5.1","espnu150 recruits (last 3 years)":"2","f":"45.1","id":"ap4aipc9jj6o","state":"COLORADO"},"type":"Feature","geometry":null},{"properties":{"recruits per million":"0.707070707","population in millions":"9.9","espnu150 recruits (last 3 years)":"7","f":"44.4","id":"ap4aipfkyakl","state":"MICHIGAN"},"type":"Feature","geometry":null},{"properties":{"recruits per million":"0","population in millions":"1.6","espnu150 recruits (last 3 years)":"0","f":"44.4","id":"ap4aipppbdtd","state":"IDAHO"},"type":"Feature","geometry":null},{"properties":{"recruits per million":"0","population in millions":"1.3","espnu150 recruits (last 3 years)":"0","f":"43.8","id":"ap4aipi157oa","state":"NEW HAMPSHIRE"},"type":"Feature","geometry":null},{"properties":{"recruits per million":"0","population in millions":"5.7","espnu150 recruits (last 3 years)":"0","f":"43.1","id":"ap4aipn38sfq","state":"WISCONSIN"},"type":"Feature","geometry":null},{"properties":{"recruits per million":"0","population in millions":"0.6","espnu150 recruits (last 3 years)":"0","f":"42.9","id":"ap4aipcu7q3l","state":"VERMONT"},"type":"Feature","geometry":null},{"properties":{"recruits per million":"0","population in millions":"1","espnu150 recruits (last 3 years)":"0","f":"42.7","id":"ap4aipov43io","state":"MONTANA"},"type":"Feature","geometry":null},{"properties":{"recruits per million":"0","population in millions":"0.6","espnu150 recruits (last 3 years)":"0","f":"42","id":"ap4aipons12j","state":"WYOMING"},"type":"Feature","geometry":null},{"properties":{"recruits per million":"0.188679245","population in millions":"5.3","espnu150 recruits (last 3 years)":"1","f":"41.2","id":"ap4aiplmp063","state":"MINNESOTA"},"type":"Feature","geometry":null},{"properties":{"recruits per million":"0","population in millions":"1.3","espnu150 recruits (last 3 years)":"0","f":"41","id":"ap4aipb84fa7","state":"MAINE"},"type":"Feature","geometry":null},{"properties":{"recruits per million":"0","population in millions":"0.7","espnu150 recruits (last 3 years)":"0","f":"40.4","id":"ap4aipnargrs","state":"NORTH DAKOTA"},"type":"Feature","geometry":null},{"properties":{"recruits per million":"0","population in millions":"0.7","espnu150 recruits (last 3 years)":"0","f":"26.6","id":"ap4aipbmnqiz","state":"ALASKA"},"type":"Feature","geometry":null}],"is_temporal":false,"author":{"url":"","metadata":null,"contact_name":null,"contact_address":null,"source":null,"contact_phone":null},"source":"","pagination":{"sort":null,"start":0,"total":50,"limit":1000000},"state":"parsed","tags":"","published":"2014-08-14T18:55:18-04:00","id":232963}