{"type":"FeatureCollection","data_type":"Dataset","url_type":null,"permissions":[{"permissions":{"download":true,"view":true},"group_id":"everyone"}],"classification":null,"title":"Geo_project_data_set","count":71,"stream_id":233123,"contributor":{"url":"http://geocommons.com/users/40470","name":"leex6042"},"data_attributes":null,"calculation_params":null,"icon_link":null,"link":"http://geocommons.com/overlays/233123.json","extent":[-122.353,-21.2833,165.617,49.9499],"geometry_types":["point"],"unique_name":null,"name":"Geo_project_data_set","feature_count":71,"description":"","next_feature":null,"is_raster":false,"short_classification":"Y","stats":{"total undergraduates":{"max":42082,"mean":14663.6857142857,"variance":122788021.928778,"stdev":11080.97567585,"min":967,"median":9865}},"features":[{"properties":{"city":"Cambridge","rank (2012)":"1","total undergraduates":6641,"school name":"Harvard University","geo_score":0.0,"id":"a632xqgkfjl3","geo_precision":"unmatched","state":"MA","institution control":"Private"},"type":"Feature","geometry":null},{"properties":{"city":"Prinston","rank (2012)":"1","total undergraduates":5220,"school name":"Princeton University","geo_score":0.0,"id":"a632xqg4hfkq","geo_precision":"unmatched","state":"NJ","institution control":"Private"},"type":"Feature","geometry":null},{"properties":{"city":"New Haven","rank (2012)":"3","total undergraduates":5310,"school name":"Yale University","geo_score":0.0,"id":"a632xq41fykk","geo_precision":"unmatched","state":"CT","institution control":"Private"},"type":"Feature","geometry":null},{"properties":{"city":"New York","rank (2012)":"4","total undergraduates":5888,"school name":"Columbia University","geo_score":0.0,"id":"a632xq4qz8my","geo_precision":"unmatched","state":"NY","institution control":"Private"},"type":"Feature","geometry":null},{"properties":{"city":"Pasadena","rank (2012)":"5","total undergraduates":967,"school name":"California Institute of Technology","geo_score":1.0,"id":"a632xqbrcs9n","geo_precision":"zip","state":"CA","institution control":"Private"},"type":"Feature","geometry":{"type":"Point","coordinates":[-57.598368708,49.016714544]}},{"properties":{"city":"Cambridge","rank (2012)":"5","total undergraduates":4299,"school name":"Massachusetts Institute of Technology","geo_score":0.0,"id":"a632xq9a03lx","geo_precision":"unmatched","state":"MA","institution control":"Private"},"type":"Feature","geometry":null},{"properties":{"city":"Stanford","rank (2012)":"5","total undergraduates":6940,"school name":"Stanford University","geo_score":0.945,"id":"a632xqdb4xfj","geo_precision":"zip","state":"CA","institution control":"Private"},"type":"Feature","geometry":{"type":"Point","coordinates":[-122.352626713,49.816387809]}},{"properties":{"city":"Chicago","rank (2012)":"5","total undergraduates":5238,"school name":"University of Chicago","geo_score":0.0,"id":"a632xqg4tzhh","geo_precision":"unmatched","state":"IL","institution control":"Private"},"type":"Feature","geometry":null},{"properties":{"city":"Philadelphia","rank (2012)":"5","total undergraduates":9865,"school name":"University of Pennsylvania","geo_score":0.912,"id":"a632xqercgyu","geo_precision":"zip","state":"PA","institution control":"Private"},"type":"Feature","geometry":{"type":"Point","coordinates":[-81.4,7.9833333]}},{"properties":{"city":"Durham","rank (2012)":"10","total undergraduates":6664,"school name":"Duke University","geo_score":0.0,"id":"a632xq4bk4us","geo_precision":"unmatched","state":"NC","institution control":"Private"},"type":"Feature","geometry":null},{"properties":{"city":"Hanover","rank (2012)":"11","total undergraduates":4248,"school name":"Dartmouth College","geo_score":0.0,"id":"a632xqgb2i81","geo_precision":"unmatched","state":"NH","institution control":"Private"},"type":"Feature","geometry":null},{"properties":{"city":"Evanston","rank (2012)":"12","total undergraduates":8443,"school name":"Northwestern Univerisity","geo_score":0.0,"id":"a632xqb8uynz","geo_precision":"unmatched","state":"IL","institution control":"Private"},"type":"Feature","geometry":null},{"properties":{"city":"Baltimore","rank (2012)":"13","total undergraduates":5935,"school name":"Johns Hopkins University","geo_score":0.0,"id":"a632xqjfof4e","geo_precision":"unmatched","state":"MD","institution control":"Private"},"type":"Feature","geometry":null},{"properties":{"city":"St. Louis","rank (2012)":"14","total undergraduates":7138,"school name":"Washington University in St.Louis","geo_score":0.0,"id":"a632xqjdw5a6","geo_precision":"unmatched","state":"MO","institution control":"Private"},"type":"Feature","geometry":null},{"properties":{"city":"Providence","rank (2012)":"15","total undergraduates":6318,"school name":"Brown University","geo_score":0.0,"id":"a632xq4kcehq","geo_precision":"unmatched","state":"RI","institution control":"Private"},"type":"Feature","geometry":null},{"properties":{"city":"Ithaca","rank (2012)":"15","total undergraduates":13935,"school name":"Cornell University","geo_score":0.0,"id":"a632xqcihp6j","geo_precision":"unmatched","state":"NY","institution control":"Private"},"type":"Feature","geometry":null},{"properties":{"city":"Houston","rank (2012)":"17","total undergraduates":3529,"school name":"Rice Univerisity","geo_score":0.0,"id":"a632xqbrj8eb","geo_precision":"unmatched","state":"TX","institution control":"Private"},"type":"Feature","geometry":null},{"properties":{"city":"Nashville","rank (2012)":"17","total undergraduates":6879,"school name":"Vanderbilt University","geo_score":0.0,"id":"a632xqf5i9zs","geo_precision":"unmatched","state":"TN","institution control":"Private"},"type":"Feature","geometry":null},{"properties":{"city":"Notre Dame","rank (2012)":"19","total undergraduates":8442,"school name":"University of Notre Dame","geo_score":0.889,"id":"a632xq9uw5hu","geo_precision":"zip","state":"IN","institution control":"Private"},"type":"Feature","geometry":{"type":"Point","coordinates":[79.45,23.8333333]}},{"properties":{"city":"Atlanta","rank (2012)":"20","total undergraduates":7231,"school name":"Emory University","geo_score":0.0,"id":"a632xqhj9qm1","geo_precision":"unmatched","state":"GA","institution control":"Private"},"type":"Feature","geometry":null},{"properties":{"city":"Berkeley","rank (2012)":"21","total undergraduates":25540,"school name":"University of California--Berkeley","geo_score":0.929,"id":"a632xq83nm66","geo_precision":"zip","state":"CA","institution control":"Public"},"type":"Feature","geometry":{"type":"Point","coordinates":[-83.549785775,48.3834017]}},{"properties":{"city":"Washington","rank (2012)":"22","total undergraduates":7553,"school name":"Georgetown Univerisity","geo_score":0.0,"id":"a632xq6qj515","geo_precision":"unmatched","state":"DC","institution control":"Private"},"type":"Feature","geometry":null},{"properties":{"city":"Pittsburgh","rank (2012)":"23","total undergraduates":6108,"school name":"Carnegie Mellon University","geo_score":0.0,"id":"a632xqelzdhi","geo_precision":"unmatched","state":"PA","institution control":"Private"},"type":"Feature","geometry":null},{"properties":{"city":"Los Angeles","rank (2012)":"24","total undergraduates":17380,"school name":"University of Southern California","geo_score":0.9,"id":"a632xq8wcoml","geo_precision":"zip","state":"CA","institution control":"Private"},"type":"Feature","geometry":{"type":"Point","coordinates":[-55.598110211,49.949945903]}},{"properties":{"city":"Los Angeles","rank (2012)":"25","total undergraduates":26162,"school name":"University of California--Los Angeles","geo_score":0.9,"id":"a632xq8sr2r9","geo_precision":"zip","state":"CA","institution control":"Public"},"type":"Feature","geometry":{"type":"Point","coordinates":[-55.598110211,49.949945903]}},{"properties":{"city":"Charlottesville","rank (2012)":"25","total undergraduates":15595,"school name":"University of Virginia","geo_score":0.0,"id":"a632xqjr09kj","geo_precision":"unmatched","state":"VA","institution control":"Public"},"type":"Feature","geometry":null},{"properties":{"city":"Winston-Salem","rank (2012)":"25","total undergraduates":4657,"school name":"Wake Forest University","geo_score":0.0,"id":"a632xqf7i5zu","geo_precision":"unmatched","state":"NC","institution control":"Private"},"type":"Feature","geometry":null},{"properties":{"city":"Ann Arbor","rank (2012)":"28","total undergraduates":27027,"school name":"University of Michigan--Ann Arbor","geo_score":0.0,"id":"a632xqbml1vv","geo_precision":"unmatched","state":"MI","institution control":"Public"},"type":"Feature","geometry":null},{"properties":{"city":"Medford","rank (2012)":"29","total undergraduates":5224,"school name":"Tufts University","geo_score":0.0,"id":"a632xqaxi805","geo_precision":"unmatched","state":"MA","institution control":"Private"},"type":"Feature","geometry":null},{"properties":{"city":"Chapel Hill","rank (2012)":"29","total undergraduates":18579,"school name":"University of North Carolina--Chapel Hill","geo_score":0.886,"id":"a632xqj3c5ka","geo_precision":"zip","state":"NC","institution control":"Public"},"type":"Feature","geometry":{"type":"Point","coordinates":[165.6166667,-21.2833333]}},{"properties":{"city":"Chestnut Hill","rank (2012)":"31","total undergraduates":9099,"school name":"Boston College","geo_score":0.893,"id":"a632xq7pnuzm","geo_precision":"zip","state":"MA","institution control":"Private"},"type":"Feature","geometry":{"type":"Point","coordinates":[-5.35,31.65]}},{"properties":{"city":"Waltham","rank (2012)":"31","total undergraduates":3341,"school name":"Brandeis University","geo_score":0.0,"id":"a632xq9x91ec","geo_precision":"unmatched","state":"MA","institution control":"Private"},"type":"Feature","geometry":null},{"properties":{"city":"Williamsburg","rank (2012)":"33","total undergraduates":5898,"school name":"College of Willian and Mary","geo_score":0.0,"id":"a632xqj5spvb","geo_precision":"unmatched","state":"VA","institution control":"Private"},"type":"Feature","geometry":null},{"properties":{"city":"New York","rank (2012)":"33","total undergraduates":22097,"school name":"New York Univerisity","geo_score":0.0,"id":"a632xqho00b4","geo_precision":"unmatched","state":"NY","institution control":"Private"},"type":"Feature","geometry":null},{"properties":{"city":"Rochester","rank (2012)":"35","total undergraduates":5601,"school name":"University of Rochester","geo_score":0.0,"id":"a632xqi0hm7r","geo_precision":"unmatched","state":"NY","institution control":"Private"},"type":"Feature","geometry":null},{"properties":{"city":"Atlanta","rank (2012)":"36","total undergraduates":13750,"school name":"Georgia Institute of Technology","geo_score":0.0,"id":"a632xqhrbdn0","geo_precision":"unmatched","state":"GA","institution control":"Public"},"type":"Feature","geometry":null},{"properties":{"city":"La Jolla","rank (2012)":"37","total undergraduates":23663,"school name":"Univerisity of California--San Diego","geo_score":0.898,"id":"a632xqeynreg","geo_precision":"zip","state":"CA","institution control":"Public"},"type":"Feature","geometry":{"type":"Point","coordinates":[-79.982939834,42.933407616]}},{"properties":{"city":"Cleveland","rank (2012)":"38","total undergraduates":4227,"school name":"Case Western Reserve University","geo_score":0.0,"id":"a632xqfix2j2","geo_precision":"unmatched","state":"OH","institution control":"Private"},"type":"Feature","geometry":null},{"properties":{"city":"Bethlehem","rank (2012)":"38","total undergraduates":4781,"school name":"Lehigh University","geo_score":0.0,"id":"a632xq6162zg","geo_precision":"unmatched","state":"PA","institution control":"Private"},"type":"Feature","geometry":null},{"properties":{"city":"Davis","rank (2012)":"38","total undergraduates":24737,"school name":"University of California--Davis","geo_score":0.976,"id":"a632xqhlx6r6","geo_precision":"zip","state":"CA","institution control":"Public"},"type":"Feature","geometry":{"type":"Point","coordinates":[-86.049885389,49.183398935]}},{"properties":{"city":"Coral Gables","rank (2012)":"42","total undergraduates":10368,"school name":"University of Miami","geo_score":0.0,"id":"a632xqakkj33","geo_precision":"unmatched","state":"FL","institution control":"Private"},"type":"Feature","geometry":null},{"properties":{"city":"Santa Barbara","rank (2012)":"42","total undergraduates":19186,"school name":"Univerisity of California--Santa Barbara","geo_score":0.887,"id":"a632xqhgh5m8","geo_precision":"zip","state":"CA","institution control":"Public"},"type":"Feature","geometry":{"type":"Point","coordinates":[-79.432961055,47.466854478]}},{"properties":{"city":"Seattle","rank (2012)":"42","total undergraduates":29302,"school name":"University of Washington","geo_score":0.0,"id":"a632xq4zx3h5","geo_precision":"unmatched","state":"WA","institution control":"Public"},"type":"Feature","geometry":null},{"properties":{"city":"Madison","rank (2012)":"42","total undergraduates":30555,"school name":"University of Wisconsin--Madison","geo_score":0.0,"id":"a632xqielklc","geo_precision":"unmatched","state":"WI","institution control":"Public"},"type":"Feature","geometry":null},{"properties":{"city":"University Park","rank (2012)":"45","total undergraduates":38594,"school name":"Pennsylvania State University--University Park","geo_score":0.888,"id":"a632xqedi4fw","geo_precision":"zip","state":"PA","institution control":"Public"},"type":"Feature","geometry":{"type":"Point","coordinates":[-80.3,8.7166667]}},{"properties":{"city":"Irvine","rank (2012)":"45","total undergraduates":21976,"school name":"University of California--Irvine","geo_score":1.0,"id":"a632xqhpqqgw","geo_precision":"zip","state":"CA","institution control":"Public"},"type":"Feature","geometry":{"type":"Point","coordinates":[-52.864756525,47.533188019]}},{"properties":{"city":"Champaign","rank (2012)":"45","total undergraduates":31540,"school name":"University of Illinois--Urbana-Champaign","geo_score":0.0,"id":"a632xq9klbjo","geo_precision":"unmatched","state":"IL","institution control":"Public"},"type":"Feature","geometry":null},{"properties":{"city":"Austin","rank (2012)":"45","total undergraduates":38420,"school name":"University of Texas--Austin","geo_score":0.0,"id":"a632xq40i2xy","geo_precision":"unmatched","state":"TX","institution control":"Public"},"type":"Feature","geometry":null},{"properties":{"city":"New York","rank (2012)":"45","total undergraduates":2833,"school name":"Yeshiva University","geo_score":0.0,"id":"a632xq48d1p7","geo_precision":"unmatched","state":"NY","institution control":"Private"},"type":"Feature","geometry":null},{"properties":{"city":"Washington","rank (2012)":"50","total undergraduates":10358,"school name":"George Washington University","geo_score":0.0,"id":"a632xqa0x1l6","geo_precision":"unmatched","state":"DC","institution control":"Private"},"type":"Feature","geometry":null},{"properties":{"city":"Troy","rank (2012)":"50","total undergraduates":5431,"school name":"Rensselaer Polytechnic Institute","geo_score":0.0,"id":"a632xqk5iyo6","geo_precision":"unmatched","state":"NY","institution control":"Private"},"type":"Feature","geometry":null},{"properties":{"city":"New Orleans","rank (2012)":"50","total undergraduates":7803,"school name":"Tulane University","geo_score":0.886,"id":"a632xqhapawe","geo_precision":"zip","state":"LA","institution control":"Private"},"type":"Feature","geometry":{"type":"Point","coordinates":[107.1666667,15.35]}},{"properties":{"city":"Boston","rank (2012)":"53","total undergraduates":18714,"school name":"Boston University","geo_score":0.929,"id":"a632xqdjsm37","geo_precision":"zip","state":"MA","institution control":"Private"},"type":"Feature","geometry":{"type":"Point","coordinates":[-7.15,31.96]}},{"properties":{"city":"New York","rank (2012)":"53","total undergraduates":8220,"school name":"Fordham University","geo_score":0.0,"id":"a632xq6vhqhq","geo_precision":"unmatched","state":"NY","institution control":"Private"},"type":"Feature","geometry":null},{"properties":{"city":"Columbus","rank (2012)":"55","total undergraduates":42082,"school name":"Ohio State University--Columbus","geo_score":0.0,"id":"a632xqg0hnr9","geo_precision":"unmatched","state":"OH","institution control":"Public"},"type":"Feature","geometry":null},{"properties":{"city":"Malibu","rank (2012)":"55","total undergraduates":3447,"school name":"Pepperdine University","geo_score":0.929,"id":"a632xq5pukvo","geo_precision":"zip","state":"CA","institution control":"Private"},"type":"Feature","geometry":{"type":"Point","coordinates":[-55.164970784,47.633226762]}},{"properties":{"city":"College Park","rank (2012)":"55","total undergraduates":26876,"school name":"University of Maryland--College Park","geo_score":0.0,"id":"a632xqhgt5gt","geo_precision":"unmatched","state":"MD","institution control":"Public"},"type":"Feature","geometry":null},{"properties":{"city":"College Station","rank (2012)":"58","total undergraduates":39148,"school name":"Texas A&amp;M University--College Station","geo_score":0.0,"id":"a632xqc8x5we","geo_precision":"unmatched","state":"TX","institution control":"Public"},"type":"Feature","geometry":null},{"properties":{"city":"Storrs","rank (2012)":"58","total undergraduates":17345,"school name":"University of Connecticut","geo_score":0.0,"id":"a632xqd6172v","geo_precision":"unmatched","state":"CT","institution control":"Public"},"type":"Feature","geometry":null},{"properties":{"city":"Gainesville","rank (2012)":"58","total undergraduates":32660,"school name":"University of Florida","geo_score":0.0,"id":"a632xqiu2gm3","geo_precision":"unmatched","state":"FL","institution control":"Public"},"type":"Feature","geometry":null},{"properties":{"city":"Pittsburgh","rank (2012)":"58","total undergraduates":18371,"school name":"University of Pittsburgh","geo_score":0.0,"id":"a632xqj3ltdy","geo_precision":"unmatched","state":"PA","institution control":"Public"},"type":"Feature","geometry":null},{"properties":{"city":"Boston","rank (2012)":"62","total undergraduates":12838,"school name":"Northeastern University","geo_score":0.929,"id":"a632xq8i1bi7","geo_precision":"zip","state":"MA","institution control":"Private"},"type":"Feature","geometry":{"type":"Point","coordinates":[-7.15,31.96]}},{"properties":{"city":"West Lafayette","rank (2012)":"62","total undergraduates":30836,"school name":"Purdue University--West Lafayette","geo_score":0.0,"id":"a632xqjbuaqg","geo_precision":"unmatched","state":"IN","institution control":"Public"},"type":"Feature","geometry":null},{"properties":{"city":"Dallas","rank (2012)":"62","total undergraduates":6192,"school name":"Southern Methodist University","geo_score":0.0,"id":"a632xqgro6o6","geo_precision":"unmatched","state":"TX","institution control":"Private"},"type":"Feature","geometry":null},{"properties":{"city":"Syracuse","rank (2012)":"62","total undergraduates":14201,"school name":"Syracuse University","geo_score":0.0,"id":"a632xqctx1we","geo_precision":"unmatched","state":"NY","institution control":"Private"},"type":"Feature","geometry":null},{"properties":{"city":"Athens","rank (2012)":"62","total undergraduates":25947,"school name":"University of Georgia","geo_score":0.0,"id":"a632xq896ej1","geo_precision":"unmatched","state":"GA","institution control":"Public"},"type":"Feature","geometry":null},{"properties":{"city":"Worcester","rank (2012)":"62","total undergraduates":3649,"school name":"Worcester Polytechnic Institute","geo_score":0.0,"id":"a632xqcuvwf6","geo_precision":"unmatched","state":"MA","institution control":"Private"},"type":"Feature","geometry":null},{"properties":{"city":"Clemson","rank (2012)":"68","total undergraduates":15459,"school name":"Clemson University","geo_score":0.0,"id":"a632xqg2phov","geo_precision":"unmatched","state":"SC","institution control":"Public"},"type":"Feature","geometry":null},{"properties":{"city":"Piscataway","rank (2012)":"68","total undergraduates":30351,"school name":"Rutgers, the State University of New Jersey--New Brunswick","geo_score":0.0,"id":"a632xqgq603x","geo_precision":"unmatched","state":"NJ","institution control":"Public"},"type":"Feature","geometry":null},{"properties":{"city":"Minneapolis","rank (2012)":"68","total undergraduates":33607,"school name":"University of Minnesota--Twin Cities","geo_score":0.0,"id":"a632xqejzjia","geo_precision":"unmatched","state":"MN","institution control":"Public"},"type":"Feature","geometry":null},{"properties":{"city":null,"rank (2012)":"Data Source","total undergraduates":null,"school name":"University Directory-US NEWS","geo_score":0.0,"id":"a632xqi66aiz","geo_precision":"","state":null,"institution control":null},"type":"Feature","geometry":null}],"is_temporal":false,"author":{"url":"","metadata":null,"contact_name":null,"contact_address":null,"source":null,"contact_phone":null},"source":"","pagination":{"sort":null,"start":0,"total":71,"limit":1000000},"state":"complete","tags":"","published":"2014-08-14T19:04:32-04:00","id":233123}