{"type":"FeatureCollection","data_type":"Dataset","url_type":null,"permissions":[{"permissions":{"download":true,"view":true},"group_id":"everyone"}],"classification":null,"title":"test1","count":3,"stream_id":233418,"contributor":{"url":"http://geocommons.com/users/44421","name":"fabi1986"},"data_attributes":null,"calculation_params":null,"icon_link":null,"link":"http://geocommons.com/overlays/233418.json","extent":[-73.9875,40.7406,-73.9799,40.7706],"geometry_types":["point"],"unique_name":null,"name":"test1","feature_count":3,"description":"","next_feature":null,"is_raster":false,"short_classification":"Y","stats":{},"features":[{"properties":{"city":"New York","zip":"10010","store number":"Store 482","store name":"23rd And 6th NY","geo_score":0.941,"adress":"60 W 23rd St","id":"a64csabv9gca","geo_precision":"range","phone number":"212-111","state":"NY"},"type":"Feature","geometry":{"type":"Point","coordinates":[-73.987471,40.740572]}},{"properties":{"city":"New York","zip":"10017","store number":"Store 1028","store name":"44th And 5th NY","geo_score":0.902,"adress":"529 5th Ave","id":"a64csa9zazac","geo_precision":"range","phone number":"125-564","state":"NY"},"type":"Feature","geometry":{"type":"Point","coordinates":[-73.979936,40.754782]}},{"properties":{"city":"New York","zip":"10023","store number":"Store 1448","store name":"62nd And Broadway NY","geo_score":1.0,"adress":"1880 Broadway","id":"a64csad17kfe","geo_precision":"range","phone number":"545-466","state":"NY"},"type":"Feature","geometry":{"type":"Point","coordinates":[-73.982147,40.770574]}}],"is_temporal":false,"author":{"url":"","metadata":"","contact_name":"","contact_address":"","source":"","contact_phone":""},"source":"","pagination":{"sort":null,"start":0,"total":3,"limit":1000000},"state":"complete","tags":"","published":"2014-08-14T19:23:54-04:00","id":233418}