{"type":"FeatureCollection","data_type":"Dataset Analysis","url_type":null,"permissions":[{"permissions":{"download":true,"view":true},"group_id":"everyone"}],"classification":null,"title":"Merge of 'Supporting' into 'Opposing'","count":255,"stream_id":233702,"contributor":{"url":"http://geocommons.com/users/44498","name":"ksteph338"},"data_attributes":null,"calculation_params":[{"calculation":"union","input":{"merge":"none","ds1":"70225","ds2":"72679"}}],"icon_link":null,"link":"http://geocommons.com/overlays/233702.json","extent":[-123.461,32.7228,-116.514,40.7159],"geometry_types":["point"],"unique_name":null,"name":"Merge of 'Supporting' into 'Opposing'","feature_count":255,"description":"Dataset derived by merging the features of 'Supporting' into 'Opposing'","next_feature":null,"is_raster":false,"short_classification":"Y","stats":{"amount":{"max":49999.0,"variance":111454715.205747,"mean":8536.63333333333,"stdev":10557.2115260492,"min":100.0,"median":5000.0},"amount $":{"max":1408542.6,"variance":9370406132.55321,"mean":11140.4303555556,"stdev":96800.8581188887,"min":25.0,"median":250.0}},"features":[{"properties":{"city":"Sacramento","city_2":null,"zip":"95814","donor name":null,"zip code":null,"amount":5000.0,"id":"0","amount $":null,"donor":"ASSOC. OF ORANGE COUNTY DEPUTY SHERIFFS ISSUES COMMITTEE"},"type":"Feature","geometry":{"type":"Point","coordinates":[-121.494174,38.582493]}},{"properties":{"city":"Sacramento","city_2":null,"zip":"95814","donor name":null,"zip code":null,"amount":1000.0,"id":"1","amount $":null,"donor":"Association of Calif. School Administrators Issues PAC"},"type":"Feature","geometry":{"type":"Point","coordinates":[-121.492217,38.58033]}},{"properties":{"city":"SACRAMENTO","city_2":null,"zip":"95812","donor name":null,"zip code":null,"amount":16000.0,"id":"2","amount $":null,"donor":"CALBUSPAC"},"type":"Feature","geometry":{"type":"Point","coordinates":[-121.49,38.58]}},{"properties":{"city":"SACRAMENTO","city_2":null,"zip":"95814","donor name":null,"zip code":null,"amount":10000.0,"id":"3","amount $":null,"donor":"CALIF BEER &amp; BEVERAGE DISTRIBUTORS STATE ISSUES"},"type":"Feature","geometry":{"type":"Point","coordinates":[-121.488748,38.57668]}},{"properties":{"city":"ESCALON","city_2":null,"zip":"95320","donor name":null,"zip code":null,"amount":7500.0,"id":"4","amount $":null,"donor":"CALIF CORRECTIONAL SUPERVISORS ORGANIZATION, INC."},"type":"Feature","geometry":{"type":"Point","coordinates":[-120.996603,37.797427]}},{"properties":{"city":"Sacramento","city_2":null,"zip":"95818","donor name":null,"zip code":null,"amount":3000.0,"id":"5","amount $":null,"donor":"CALIF. ASSOCIATION OF HIGHWAY PATROLMEN PAC"},"type":"Feature","geometry":{"type":"Point","coordinates":[-121.485219,38.563363]}},{"properties":{"city":"BERNARDINO","city_2":null,"zip":"92415","donor name":null,"zip code":null,"amount":1000.0,"id":"6","amount $":null,"donor":"CALIF. DISTRICT ATTORNEY INVESTIGATORS' ASSOC."},"type":"Feature","geometry":{"type":"Point","coordinates":[-117.27202,34.098556]}},{"properties":{"city":"SANTA CLARITA","city_2":null,"zip":"91355","donor name":null,"zip code":null,"amount":20500.0,"id":"7","amount $":null,"donor":"CALIF. NARCOTIC OFFICERS' ASSOC."},"type":"Feature","geometry":{"type":"Point","coordinates":[-118.588183,34.438122]}},{"properties":{"city":"SACRAMENTO","city_2":null,"zip":"95815","donor name":null,"zip code":null,"amount":5000.0,"id":"8","amount $":null,"donor":"CALIF. PEACE OFFICERS ASSOC."},"type":"Feature","geometry":{"type":"Point","coordinates":[-121.438552,38.598008]}},{"properties":{"city":"SACRAMENTO","city_2":null,"zip":"95814","donor name":null,"zip code":null,"amount":49999.0,"id":"9","amount $":null,"donor":"CALIF. POLICE CHIEFS ASSOC."},"type":"Feature","geometry":{"type":"Point","coordinates":[-121.492797,38.578371]}},{"properties":{"city":"Sacramento","city_2":null,"zip":"95814","donor name":null,"zip code":null,"amount":16000.0,"id":"10","amount $":null,"donor":"Calif. Hospital Assoc. PAC"},"type":"Feature","geometry":{"type":"Point","coordinates":[-121.48982,38.578031]}},{"properties":{"city":"Woodside","city_2":null,"zip":"94062","donor name":null,"zip code":null,"amount":100.0,"id":"11","amount $":null,"donor":"Christy Brown"},"type":"Feature","geometry":{"type":"Point","coordinates":[-122.253856,37.429939]}},{"properties":{"city":"BAKERSFIELD","city_2":null,"zip":"93309","donor name":null,"zip code":null,"amount":5000.0,"id":"12","amount $":null,"donor":"Diane Lake"},"type":"Feature","geometry":{"type":"Point","coordinates":[-119.05763,35.351561]}},{"properties":{"city":"Elk Grove","city_2":null,"zip":"95624","donor name":null,"zip code":null,"amount":10000.0,"id":"13","amount $":null,"donor":"GOLDEN STATE LEADERSHIP COUNCIL: JIM NIELSEN BALLOT MEASURE COMMITTEE"},"type":"Feature","geometry":{"type":"Point","coordinates":[-121.48982,38.578031]}},{"properties":{"city":"Anaheim","city_2":null,"zip":"92869","donor name":null,"zip code":null,"amount":10000.0,"id":"14","amount $":null,"donor":"George Adams"},"type":"Feature","geometry":{"type":"Point","coordinates":[-117.795971,33.798177]}},{"properties":{"city":"Burlingame","city_2":null,"zip":"94010","donor name":null,"zip code":null,"amount":10000.0,"id":"15","amount $":null,"donor":"Greg Munks for Sheriff 2010"},"type":"Feature","geometry":{"type":"Point","coordinates":[-122.366082,37.584103]}},{"properties":{"city":"West Sacramento","city_2":null,"zip":"95605","donor name":null,"zip code":null,"amount":1000.0,"id":"16","amount $":null,"donor":"HENSEL PHELPS CONSTRUCTION CO., STE 13"},"type":"Feature","geometry":{"type":"Point","coordinates":[-121.526121,38.587433]}},{"properties":{"city":"Elk Grove","city_2":null,"zip":"95624","donor name":null,"zip code":null,"amount":1000.0,"id":"17","amount $":null,"donor":"Jan Scully for Dist. Atty."},"type":"Feature","geometry":{"type":"Point","coordinates":[-121.371618,38.408799]}},{"properties":{"city":"Fresno","city_2":null,"zip":"93712","donor name":null,"zip code":null,"amount":1000.0,"id":"18","amount $":null,"donor":"Margaret Mims for Sheriff"},"type":"Feature","geometry":{"type":"Point","coordinates":[-119.78,36.73]}},{"properties":{"city":"LOS ANGELES","city_2":null,"zip":"90012","donor name":null,"zip code":null,"amount":5000.0,"id":"19","amount $":null,"donor":"PEACE OFFICERS ASSOC. OF LOS ANGELES COUNTY FDTN"},"type":"Feature","geometry":{"type":"Point","coordinates":[-118.244329,34.055722]}},{"properties":{"city":"LOOMIS","city_2":null,"zip":"95650","donor name":null,"zip code":null,"amount":1000.0,"id":"20","amount $":null,"donor":"PLACER COUNTY DEPUTY SHERIFF'S ASSOCIATION PAC"},"type":"Feature","geometry":{"type":"Point","coordinates":[-121.159584,38.807413]}},{"properties":{"city":"San Dimas","city_2":null,"zip":"91773","donor name":null,"zip code":null,"amount":5000.0,"id":"21","amount $":null,"donor":"POPA INC., SPECIAL ISSUE COMMITTEE"},"type":"Feature","geometry":{"type":"Point","coordinates":[-117.81942,34.100995]}},{"properties":{"city":"Redlands","city_2":null,"zip":"92374","donor name":null,"zip code":null,"amount":1000.0,"id":"22","amount $":null,"donor":"Ramos Gretchen"},"type":"Feature","geometry":{"type":"Point","coordinates":[-117.155887,34.060565]}},{"properties":{"city":"Westlake Village","city_2":null,"zip":"91362","donor name":null,"zip code":null,"amount":2000.0,"id":"23","amount $":null,"donor":"Ronald Plotkin"},"type":"Feature","geometry":{"type":"Point","coordinates":[-118.805647,34.145839]}},{"properties":{"city":"LOS ANGELES","city_2":null,"zip":"90017","donor name":null,"zip code":null,"amount":3000.0,"id":"24","amount $":null,"donor":"STEVE COOLEY FOR ATTORNEY GENERAL 2010"},"type":"Feature","geometry":{"type":"Point","coordinates":[-118.26728,34.05438]}},{"properties":{"city":"El Cajon","city_2":null,"zip":"92019","donor name":null,"zip code":null,"amount":5000.0,"id":"25","amount $":null,"donor":"SYCUAN BAND OF THE KUMEYAAY NATION"},"type":"Feature","geometry":{"type":"Point","coordinates":[-116.962527,32.794773]}},{"properties":{"city":"Highlands","city_2":null,"zip":"92346","donor name":null,"zip code":null,"amount":25000.0,"id":"26","amount $":null,"donor":"San Manuel Band of Mission Indians"},"type":"Feature","geometry":{"type":"Point","coordinates":[-117.169722,34.109722]}},{"properties":{"city":"San Mateo","city_2":null,"zip":"94403","donor name":null,"zip code":null,"amount":10000.0,"id":"27","amount $":null,"donor":"San Mateo County Deputy Sheriff's Assoc. PAC"},"type":"Feature","geometry":{"type":"Point","coordinates":[-122.291704,37.552616]}},{"properties":{"city":"Santa Ana","city_2":null,"zip":"92705","donor name":null,"zip code":null,"amount":25000.0,"id":"28","amount $":null,"donor":"Sebastian Musco"},"type":"Feature","geometry":{"type":"Point","coordinates":[-117.867834,33.745573]}},{"properties":{"city":"Long Beach","city_2":null,"zip":"90815","donor name":null,"zip code":null,"amount":1000.0,"id":"29","amount $":null,"donor":"Tina Johnson"},"type":"Feature","geometry":{"type":"Point","coordinates":[-118.11812,33.79633]}},{"properties":{"city":"ACAMPO","city_2":null,"zip":null,"donor name":"RONALD CUSSINS","zip code":"95220","amount":null,"id":"0","donor":null,"amount $":260.24},"type":"Feature","geometry":{"type":"Point","coordinates":[-121.278559,38.17464]}},{"properties":{"city":"AGOURA HILLS","city_2":null,"zip":null,"donor name":"MARY JANES","zip code":"91367","amount":null,"id":"1","donor":null,"amount $":109.0},"type":"Feature","geometry":{"type":"Point","coordinates":[-118.761676,34.15334]}},{"properties":{"city":"ALAMEDA","city_2":null,"zip":null,"donor name":"BRIANNA LENGEL-BAIL ($198), KELSEY TILANDER ($149)","zip code":"94501","amount":null,"id":"2","donor":null,"amount $":347.0},"type":"Feature","geometry":{"type":"Point","coordinates":[-122.241635,37.765207]}},{"properties":{"city":"ALISO VIEJO","city_2":null,"zip":null,"donor name":"ELIZABETH JAEGER","zip code":"92656","amount":null,"id":"3","donor":null,"amount $":150.0},"type":"Feature","geometry":{"type":"Point","coordinates":[-117.725556,33.575]}},{"properties":{"city":"ANAHEIM","city_2":null,"zip":null,"donor name":"FAYEZ GENADRY","zip code":"92807","amount":null,"id":"4","donor":null,"amount $":125.0},"type":"Feature","geometry":{"type":"Point","coordinates":[-117.914504,33.835293]}},{"properties":{"city":"ANAHEIM","city_2":null,"zip":null,"donor name":"WAHEED AYUBI","zip code":"92805","amount":null,"id":"5","donor":null,"amount $":150.0},"type":"Feature","geometry":{"type":"Point","coordinates":[-117.907324,33.827605]}},{"properties":{"city":"ANTELOPE","city_2":null,"zip":null,"donor name":"PAUL SCHINDLER","zip code":"95843","amount":null,"id":"6","donor":null,"amount $":159.24},"type":"Feature","geometry":{"type":"Point","coordinates":[-121.359881,38.714907]}},{"properties":{"city":"ARCADIA","city_2":null,"zip":null,"donor name":"TED BROWN","zip code":"91006","amount":null,"id":"7","donor":null,"amount $":100.0},"type":"Feature","geometry":{"type":"Point","coordinates":[-118.035345,34.139729]}},{"properties":{"city":"AROMAS","city_2":null,"zip":null,"donor name":"GEORGE MORTAN","zip code":"95004","amount":null,"id":"8","donor":null,"amount $":1000.0},"type":"Feature","geometry":{"type":"Point","coordinates":[-121.643001,36.888565]}},{"properties":{"city":"ARTESIA","city_2":null,"zip":null,"donor name":"PHYSIS","zip code":"90701","amount":null,"id":"9","donor":null,"amount $":100.0},"type":"Feature","geometry":{"type":"Point","coordinates":[-118.080078,33.86483]}},{"properties":{"city":"BAKERSFIELD","city_2":null,"zip":null,"donor name":"GEORGE WILLIAMS","zip code":"93311","amount":null,"id":"10","donor":null,"amount $":100.0},"type":"Feature","geometry":{"type":"Point","coordinates":[-119.185578,35.126851]}},{"properties":{"city":"BELLA VISTA","city_2":null,"zip":null,"donor name":"JUANITA PENDERGAST","zip code":"96008","amount":null,"id":"11","donor":null,"amount $":277.27},"type":"Feature","geometry":{"type":"Point","coordinates":[-122.120301,40.715941]}},{"properties":{"city":"BELMONT","city_2":null,"zip":null,"donor name":"ADAM GLICKMAN ($239.36), CARLEEN FAYBUSOVICH ($150), CHARLES STONE ($124), STEPHEN MOORE ($107.48), VAL FAYBUSOVICH ($150)","zip code":"94002","amount":null,"id":"12","donor":null,"amount $":770.84},"type":"Feature","geometry":{"type":"Point","coordinates":[-122.305082,37.506281]}},{"properties":{"city":"BELVEDERE TIBURON","city_2":null,"zip":null,"donor name":"STEPHEN SILBERSTEIN","zip code":"94920","amount":null,"id":"13","donor":null,"amount $":70000.0},"type":"Feature","geometry":{"type":"Point","coordinates":[-122.463708,37.886993]}},{"properties":{"city":"BENICIA","city_2":null,"zip":null,"donor name":"MARNIX VAN AMMERS","zip code":"94510","amount":null,"id":"14","donor":null,"amount $":100.0},"type":"Feature","geometry":{"type":"Point","coordinates":[-122.117826,38.102383]}},{"properties":{"city":"BERKELEY","city_2":null,"zip":null,"donor name":"HAYNES ALEX","zip code":"94707","amount":null,"id":"15","donor":null,"amount $":350.0},"type":"Feature","geometry":{"type":"Point","coordinates":[-122.279567,37.898367]}},{"properties":{"city":"BERKELEY","city_2":null,"zip":null,"donor name":"DR. DALE GIERINGER ($12689.28), JOHN BETHENCOURT ($297)","zip code":"94704","amount":null,"id":"16","donor":null,"amount $":12986.28},"type":"Feature","geometry":{"type":"Point","coordinates":[-122.268224,37.863738]}},{"properties":{"city":"BERKELEY","city_2":null,"zip":null,"donor name":"ABRAHAM EPTON ($1000), NAOMI PITCAIRN ($1000)","zip code":"94705","amount":null,"id":"17","donor":null,"amount $":2000.0},"type":"Feature","geometry":{"type":"Point","coordinates":[-122.237027,37.861366]}},{"properties":{"city":"BERKELEY","city_2":null,"zip":null,"donor name":"BERKELEY PATIENTS GROUP, INC. ($5000), DONALD RAMSEY ($200), ETIENNE FONTAN ($1599)","zip code":"94702","amount":null,"id":"18","donor":null,"amount $":6799.0},"type":"Feature","geometry":{"type":"Point","coordinates":[-122.285237,37.868058]}},{"properties":{"city":"BERKELEY","city_2":null,"zip":null,"donor name":"MAURICIO GARZON","zip code":"94703","amount":null,"id":"19","donor":null,"amount $":100.0},"type":"Feature","geometry":{"type":"Point","coordinates":[-122.273896,37.852474]}},{"properties":{"city":"BEVERLY HILLS","city_2":null,"zip":null,"donor name":"ROBERT KAMEN","zip code":"90211","amount":null,"id":"20","donor":null,"amount $":225.0},"type":"Feature","geometry":{"type":"Point","coordinates":[-118.384178,34.066107]}},{"properties":{"city":"BEVERLY HILLS","city_2":null,"zip":null,"donor name":"GOLDRING, HERTZ &amp; LICHTENSTEIN, LLP","zip code":"90210","amount":null,"id":"21","donor":null,"amount $":1000.0},"type":"Feature","geometry":{"type":"Point","coordinates":[-118.400356,34.07362]}},{"properties":{"city":"BREA","city_2":null,"zip":null,"donor name":"BRUCE RUBIN","zip code":"92821","amount":null,"id":"22","donor":null,"amount $":125.0},"type":"Feature","geometry":{"type":"Point","coordinates":[-117.866307,33.925097]}},{"properties":{"city":"BRENTWOOD","city_2":null,"zip":null,"donor name":"MARIO ABAD ($159.24), WILLIAM COOKSON ($65.28)","zip code":"94513","amount":null,"id":"23","donor":null,"amount $":224.52},"type":"Feature","geometry":{"type":"Point","coordinates":[-121.695786,37.931868]}},{"properties":{"city":"BUENA PARK","city_2":null,"zip":null,"donor name":"UNITED FOOD AND COMMERCIAL WORKERS ISSUE EDUCATION FUND","zip code":"90620","amount":null,"id":"24","donor":null,"amount $":10000.0},"type":"Feature","geometry":{"type":"Point","coordinates":[-118.012753,33.842872]}},{"properties":{"city":"CAMARILLO","city_2":null,"zip":null,"donor name":"CLAYTON FOWLER","zip code":"93010","amount":null,"id":"25","donor":null,"amount $":125.0},"type":"Feature","geometry":{"type":"Point","coordinates":[-119.080901,34.233091]}},{"properties":{"city":"CARLSBAD","city_2":null,"zip":null,"donor name":"JOHN ABRAMS","zip code":"92009","amount":null,"id":"26","donor":null,"amount $":100.0},"type":"Feature","geometry":{"type":"Point","coordinates":[-117.238216,33.098212]}},{"properties":{"city":"CARPINTERIA","city_2":null,"zip":null,"donor name":"ROYCE STAUFFER","zip code":"93013","amount":null,"id":"27","donor":null,"amount $":100.0},"type":"Feature","geometry":{"type":"Point","coordinates":[-119.518456,34.398884]}},{"properties":{"city":"CONCORD","city_2":null,"zip":null,"donor name":"ANTONIO VARGAS ($453), LARRY RICHARDS ($1030), RAY SMITH ($150), TIMOTHY SHERWOOD ($500)","zip code":"94520","amount":null,"id":"28","donor":null,"amount $":2233.0},"type":"Feature","geometry":{"type":"Point","coordinates":[-122.049652,37.989907]}},{"properties":{"city":"CONCORD","city_2":null,"zip":null,"donor name":"CHERRI YOUNG","zip code":"94518","amount":null,"id":"29","donor":null,"amount $":100.0},"type":"Feature","geometry":{"type":"Point","coordinates":[-122.021234,37.946121]}},{"properties":{"city":"COSTA MESA","city_2":null,"zip":null,"donor name":"MATT FENNELL","zip code":"92627","amount":null,"id":"30","donor":null,"amount $":50.0},"type":"Feature","geometry":{"type":"Point","coordinates":[-117.919042,33.649625]}},{"properties":{"city":"DANVILLE","city_2":null,"zip":null,"donor name":"VAUGHAN JOHNSON","zip code":"94526","amount":null,"id":"31","donor":null,"amount $":125.0},"type":"Feature","geometry":{"type":"Point","coordinates":[-121.981435,37.800695]}},{"properties":{"city":"DUBLIN","city_2":null,"zip":null,"donor name":"MAX HUNT ($160.24), ROBERT SIMCOCK ($200)","zip code":"94568","amount":null,"id":"32","donor":null,"amount $":360.24},"type":"Feature","geometry":{"type":"Point","coordinates":[-121.907486,37.713038]}},{"properties":{"city":"EL CAJON","city_2":null,"zip":null,"donor name":"ERIC ISAACSON","zip code":"92020","amount":null,"id":"33","donor":null,"amount $":125.0},"type":"Feature","geometry":{"type":"Point","coordinates":[-116.967581,32.796322]}},{"properties":{"city":"EL CERRITO","city_2":null,"zip":null,"donor name":"HILARY CROSBY","zip code":"94530","amount":null,"id":"34","donor":null,"amount $":104.2},"type":"Feature","geometry":{"type":"Point","coordinates":[-122.293743,37.920206]}},{"properties":{"city":"EL DORADO","city_2":null,"zip":null,"donor name":"ROD MILLER","zip code":"95623","amount":null,"id":"35","donor":null,"amount $":125.0},"type":"Feature","geometry":{"type":"Point","coordinates":[-120.861378,38.610078]}},{"properties":{"city":"EL SEGUNDO","city_2":null,"zip":null,"donor name":"JEFF MURAD","zip code":"90245","amount":null,"id":"36","donor":null,"amount $":1000.0},"type":"Feature","geometry":{"type":"Point","coordinates":[-118.404626,33.915007]}},{"properties":{"city":"EL SOBRANTE","city_2":null,"zip":null,"donor name":"PATRICIA BACCHETTI","zip code":"94803","amount":null,"id":"37","donor":null,"amount $":210.86},"type":"Feature","geometry":{"type":"Point","coordinates":[-122.276731,37.958725]}},{"properties":{"city":"ENCINO","city_2":null,"zip":null,"donor name":"LISA SAWOYA","zip code":"91316","amount":null,"id":"38","donor":null,"amount $":295.0},"type":"Feature","geometry":{"type":"Point","coordinates":[-118.51559,34.16855]}},{"properties":{"city":"ENCINO","city_2":null,"zip":null,"donor name":"RUSSELL SCHMIDT($125), KEVIN BRIGHT ($77000)","zip code":"91436","amount":null,"id":"39","donor":null,"amount $":78125.0},"type":"Feature","geometry":{"type":"Point","coordinates":[-118.492235,34.154005]}},{"properties":{"city":"ESCONDIDO","city_2":null,"zip":null,"donor name":"THOMAS SHAPARD","zip code":"92025","amount":null,"id":"40","donor":null,"amount $":150.0},"type":"Feature","geometry":{"type":"Point","coordinates":[-117.044101,33.086449]}},{"properties":{"city":"ESCONDIDO","city_2":null,"zip":null,"donor name":"DAVID BRONNER","zip code":"92029","amount":null,"id":"41","donor":null,"amount $":75000.0},"type":"Feature","geometry":{"type":"Point","coordinates":[-117.13824,33.08526]}},{"properties":{"city":"FAIRFIELD","city_2":null,"zip":null,"donor name":"SANDRA MORIARTY","zip code":"94534","amount":null,"id":"42","donor":null,"amount $":1000.0},"type":"Feature","geometry":{"type":"Point","coordinates":[-122.106467,38.267263]}},{"properties":{"city":"FELTON","city_2":null,"zip":null,"donor name":"LAWRENCE MANZO ($125), JAMES GEARY ($130)","zip code":"95018","amount":null,"id":"43","donor":null,"amount $":255.0},"type":"Feature","geometry":{"type":"Point","coordinates":[-122.073297,37.051337]}},{"properties":{"city":"FREMONT","city_2":null,"zip":null,"donor name":"GEORGE ZIMMER","zip code":"94538","amount":null,"id":"44","donor":null,"amount $":70500.0},"type":"Feature","geometry":{"type":"Point","coordinates":[-121.958687,37.501143]}},{"properties":{"city":"FRESNO","city_2":null,"zip":null,"donor name":"GREGG EDWARDS","zip code":"93705","amount":null,"id":"45","donor":null,"amount $":256.98},"type":"Feature","geometry":{"type":"Point","coordinates":[-119.829443,36.789028]}},{"properties":{"city":"GARDEN GROVE","city_2":null,"zip":null,"donor name":"BRIAN ALLAN","zip code":"92845","amount":null,"id":"46","donor":null,"amount $":100.0},"type":"Feature","geometry":{"type":"Point","coordinates":[-118.027391,33.785268]}},{"properties":{"city":"GILROY","city_2":null,"zip":null,"donor name":"CHRIS CUEVAS","zip code":"95020","amount":null,"id":"47","donor":null,"amount $":160.24},"type":"Feature","geometry":{"type":"Point","coordinates":[-121.399899,37.040456]}},{"properties":{"city":"HAYWARD","city_2":null,"zip":null,"donor name":"DENISE MARTELLACCI","zip code":"94541","amount":null,"id":"48","donor":null,"amount $":310.0},"type":"Feature","geometry":{"type":"Point","coordinates":[-122.100787,37.673724]}},{"properties":{"city":"HAYWARD","city_2":null,"zip":null,"donor name":"WILLIAM QUIRK","zip code":"94542","amount":null,"id":"49","donor":null,"amount $":250.0},"type":"Feature","geometry":{"type":"Point","coordinates":[-122.021234,37.649984]}},{"properties":{"city":"HEMET","city_2":null,"zip":null,"donor name":"CHRISTOPHER FICHTNER","zip code":"92545","amount":null,"id":"50","donor":null,"amount $":120.0},"type":"Feature","geometry":{"type":"Point","coordinates":[-117.044101,33.730527]}},{"properties":{"city":"HERCULES","city_2":null,"zip":null,"donor name":"MICHAEL NOLIN","zip code":"94547","amount":null,"id":"51","donor":null,"amount $":4500.0},"type":"Feature","geometry":{"type":"Point","coordinates":[-122.262553,38.008249]}},{"properties":{"city":"HERMOSA BEACH","city_2":null,"zip":null,"donor name":"MILES SATTELMEIER","zip code":"90254","amount":null,"id":"52","donor":null,"amount $":100.0},"type":"Feature","geometry":{"type":"Point","coordinates":[-118.395863,33.863364]}},{"properties":{"city":"HOLLISTER","city_2":null,"zip":null,"donor name":"ALEX LEIJA ($150), DEREK STONE ($150)","zip code":"95023","amount":null,"id":"53","donor":null,"amount $":300.0},"type":"Feature","geometry":{"type":"Point","coordinates":[-121.401602,36.852455]}},{"properties":{"city":"HUNTINGTON BEACH","city_2":null,"zip":null,"donor name":"GARY SCAPELLATI","zip code":"92648","amount":null,"id":"54","donor":null,"amount $":1200.0},"type":"Feature","geometry":{"type":"Point","coordinates":[-118.012753,33.678196]}},{"properties":{"city":"HUNTINGTON BEACH","city_2":null,"zip":null,"donor name":"DOUGLAS CABLE","zip code":"92646","amount":null,"id":"55","donor":null,"amount $":500.0},"type":"Feature","geometry":{"type":"Point","coordinates":[-117.965904,33.66908]}},{"properties":{"city":"IRVINE","zip":null,"city_2":"IRVINE","zip code_2":"92618","donor name":"JAMES YAMADA","zip code":"92606","amount":null,"donor name_2":"MARK WELLNER","amount $_2":125.0,"id":"a62spc2wko0b","donor":null,"amount $":100.0},"type":"Feature","geometry":{"type":"Point","coordinates":[-117.725608,33.670933]}},{"properties":{"city":"LA CRESCENTA","city_2":null,"zip":null,"donor name":"LORING GREENE","zip code":"91214","amount":null,"id":"58","donor":null,"amount $":100.0},"type":"Feature","geometry":{"type":"Point","coordinates":[-118.240967,34.242634]}},{"properties":{"city":"LA MESA","city_2":null,"zip":null,"donor name":"STEVE WHITTINGTON","zip code":"91941","amount":null,"id":"59","donor":null,"amount $":396.0},"type":"Feature","geometry":{"type":"Point","coordinates":[-116.979355,32.762226]}},{"properties":{"city":"LAFAYETTE","city_2":null,"zip":null,"donor name":"JEFF WILCOX ($30099), WILCOX EMBARCADERO ASSOCIATES LLC ($10000)","zip code":"94549","amount":null,"id":"60","donor":null,"amount $":40099.0},"type":"Feature","geometry":{"type":"Point","coordinates":[-122.117826,37.892946]}},{"properties":{"city":"LAGUNA WOODS","city_2":null,"zip":null,"donor name":"WILLIAM SCHWIED","zip code":"92637","amount":null,"id":"61","donor":null,"amount $":155.0},"type":"Feature","geometry":{"type":"Point","coordinates":[-117.728541,33.610868]}},{"properties":{"city":"LAKE FOREST","city_2":null,"zip":null,"donor name":"WILLIAM BARRETT","zip code":"92630","amount":null,"id":"62","donor":null,"amount $":125.0},"type":"Feature","geometry":{"type":"Point","coordinates":[-117.684551,33.644752]}},{"properties":{"city":"LAKEPORT","city_2":null,"zip":null,"donor name":"EDWARD FAYLE","zip code":"95453","amount":null,"id":"63","donor":null,"amount $":100.0},"type":"Feature","geometry":{"type":"Point","coordinates":[-122.921226,39.066956]}},{"properties":{"city":"LANDERS","city_2":null,"zip":null,"donor name":"TERRY TURNER","zip code":"92285","amount":null,"id":"64","donor":null,"amount $":649.0},"type":"Feature","geometry":{"type":"Point","coordinates":[-116.513796,34.361173]}},{"properties":{"city":"LOMPOC","city_2":null,"zip":null,"donor name":"MATHEW ANDRESEN","zip code":"93436","amount":null,"id":"65","donor":null,"amount $":100.0},"type":"Feature","geometry":{"type":"Point","coordinates":[-120.389665,34.562191]}},{"properties":{"city":"LONG BEACH","city_2":null,"zip":null,"donor name":"VINCENT SCULLY","zip code":"90814","amount":null,"id":"66","donor":null,"amount $":545.0},"type":"Feature","geometry":{"type":"Point","coordinates":[-118.142989,33.770905]}},{"properties":{"city":"LOS ALTOS","city_2":null,"zip":null,"donor name":"JOSEPH LONSDALE ($5000), PAUL BUCHHEIT ($5000)","zip code":"94024","amount":null,"id":"67","donor":null,"amount $":10000.0},"type":"Feature","geometry":{"type":"Point","coordinates":[-122.117826,37.337866]}},{"properties":{"city":"LOS ALTOS","city_2":null,"zip":null,"donor name":"SHANTHI MANIAN ($224), ZAKI MANIAN ($125)","zip code":"94022","amount":null,"id":"68","donor":null,"amount $":349.0},"type":"Feature","geometry":{"type":"Point","coordinates":[-122.140541,37.369401]}},{"properties":{"city":"LOS ANGELES","city_2":null,"zip":null,"donor name":"CHRIS IOVENKO ($1000), SAMANTHA M. MARTIN ($100)","zip code":"90046","amount":null,"id":"69","donor":null,"amount $":1100.0},"type":"Feature","geometry":{"type":"Point","coordinates":[-118.363726,34.114731]}},{"properties":{"city":"LOS ANGELES","city_2":null,"zip":null,"donor name":"ROBBIE JAMES","zip code":"90045","amount":null,"id":"70","donor":null,"amount $":50.0},"type":"Feature","geometry":{"type":"Point","coordinates":[-118.404626,33.956003]}},{"properties":{"city":"LOS ANGELES","city_2":null,"zip":null,"donor name":"ALEXANDER CAMPBELL ($7365), ODAM COLLECTIVE ($8011), ELENA DE LEONARDIS ($100)","zip code":"90048","amount":null,"id":"71","donor":null,"amount $":15476.0},"type":"Feature","geometry":{"type":"Point","coordinates":[-118.372491,34.074155]}},{"properties":{"city":"LOS ANGELES","city_2":null,"zip":null,"donor name":"NEAL DONNER ($1350), SKUNK RUNNER MEDIA LLC ($1000)","zip code":"90064","amount":null,"id":"72","donor":null,"amount $":2350.0},"type":"Feature","geometry":{"type":"Point","coordinates":[-118.422152,34.038666]}},{"properties":{"city":"LOS ANGELES","city_2":null,"zip":null,"donor name":"ALAN HEINRICH","zip code":"91356","amount":null,"id":"73","donor":null,"amount $":1000.0},"type":"Feature","geometry":{"type":"Point","coordinates":[-118.544779,34.166285]}},{"properties":{"city":"LOS ANGELES","city_2":null,"zip":null,"donor name":"MARK KULKIS","zip code":"90039","amount":null,"id":"74","donor":null,"amount $":500.0},"type":"Feature","geometry":{"type":"Point","coordinates":[-118.25851,34.110341]}},{"properties":{"city":"LOS ANGELES","city_2":null,"zip":null,"donor name":"HOWARD PARIS","zip code":"90066","amount":null,"id":"75","donor":null,"amount $":100.0},"type":"Feature","geometry":{"type":"Point","coordinates":[-118.433834,34.005017]}},{"properties":{"city":"LOS ANGELES","city_2":null,"zip":null,"donor name":"FRANKLYN ADAMS","zip code":"90035","amount":null,"id":"76","donor":null,"amount $":420.0},"type":"Feature","geometry":{"type":"Point","coordinates":[-118.384178,34.050751]}},{"properties":{"city":"LOS ANGELES","city_2":null,"zip":null,"donor name":"JOSHUA ORANSKY","zip code":"90027","amount":null,"id":"77","donor":null,"amount $":100.0},"type":"Feature","geometry":{"type":"Point","coordinates":[-118.293589,34.122055]}},{"properties":{"city":"LOS ANGELES","city_2":null,"zip":null,"donor name":"PATRICK MCGINN","zip code":"90010","amount":null,"id":"78","donor":null,"amount $":175.0},"type":"Feature","geometry":{"type":"Point","coordinates":[-118.308934,34.062545]}},{"properties":{"city":"LOS ANGELES","city_2":null,"zip":null,"donor name":"STEARNS 201 INC.","zip code":"90036","amount":null,"id":"79","donor":null,"amount $":2500.0},"type":"Feature","geometry":{"type":"Point","coordinates":[-118.352039,34.066482]}},{"properties":{"city":"LOS ANGELES","city_2":null,"zip":null,"donor name":"ROBERT SCHWARZ","zip code":"90077","amount":null,"id":"80","donor":null,"amount $":100.0},"type":"Feature","geometry":{"type":"Point","coordinates":[-118.457197,34.101486]}},{"properties":{"city":"LOS ANGELES","city_2":null,"zip":null,"donor name":"ALEXANDER ROUSMANIERE","zip code":"90068","amount":null,"id":"81","donor":null,"amount $":1500.0},"type":"Feature","geometry":{"type":"Point","coordinates":[-118.328661,34.123516]}},{"properties":{"city":"LOS ANGELES","city_2":null,"zip":null,"donor name":"DUSTIN PARSONS","zip code":"90005","amount":null,"id":"82","donor":null,"amount $":125.0},"type":"Feature","geometry":{"type":"Point","coordinates":[-118.309665,34.057881]}},{"properties":{"city":"LOS GATOS","city_2":null,"zip":null,"donor name":"BRUCE RENOUARD","zip code":"95033","amount":null,"id":"83","donor":null,"amount $":1000.0},"type":"Feature","geometry":{"type":"Point","coordinates":[-122.004179,37.160484]}},{"properties":{"city":"MARTINEZ","city_2":null,"zip":null,"donor name":"WENDY SCHILLINGER","zip code":"94553","amount":null,"id":"84","donor":null,"amount $":478.72},"type":"Feature","geometry":{"type":"Point","coordinates":[-122.151897,37.987359]}},{"properties":{"city":"MENIFEE","city_2":null,"zip":null,"donor name":"THOMAS SWICK","zip code":"92584","amount":null,"id":"85","donor":null,"amount $":124.0},"type":"Feature","geometry":{"type":"Point","coordinates":[-117.185294,33.655739]}},{"properties":{"city":"MENLO PARK","city_2":null,"zip":null,"donor name":"JAMES FADIMAN","zip code":"94025","amount":null,"id":"86","donor":null,"amount $":100.0},"type":"Feature","geometry":{"type":"Point","coordinates":[-122.180281,37.448491]}},{"properties":{"city":"MILL VALLEY","city_2":null,"zip":null,"donor name":"ALAN SCOTT ($100), BARRY LYNN ($5)","zip code":"94941","amount":null,"id":"87","donor":null,"amount $":105.0},"type":"Feature","geometry":{"type":"Point","coordinates":[-122.542931,37.891055]}},{"properties":{"city":"MILLBRAE","city_2":null,"zip":null,"donor name":"RICCI WYNNE","zip code":"94030","amount":null,"id":"88","donor":null,"amount $":159.24},"type":"Feature","geometry":{"type":"Point","coordinates":[-122.407083,37.599372]}},{"properties":{"city":"MODESTO","city_2":null,"zip":null,"donor name":"ANTHONY VERRUSO ($159.24), JOHN KUNKEL ($159.24)","zip code":"95355","amount":null,"id":"89","donor":null,"amount $":318.48},"type":"Feature","geometry":{"type":"Point","coordinates":[-120.93026,37.67045]}},{"properties":{"city":"MONTEREY","city_2":null,"zip":null,"donor name":"MICHAEL HAM","zip code":"93940","amount":null,"id":"90","donor":null,"amount $":200.0},"type":"Feature","geometry":{"type":"Point","coordinates":[-121.822098,36.576041]}},{"properties":{"city":"MONTEREY PARK","city_2":null,"zip":null,"donor name":"SHANNON AHERN","zip code":"91754","amount":null,"id":"91","donor":null,"amount $":193.0},"type":"Feature","geometry":{"type":"Point","coordinates":[-118.141526,34.047232]}},{"properties":{"city":"MOORPARK","city_2":null,"zip":null,"donor name":"JIM CEKLARZ","zip code":"93021","amount":null,"id":"92","donor":null,"amount $":100.0},"type":"Feature","geometry":{"type":"Point","coordinates":[-118.882982,34.294277]}},{"properties":{"city":"MORRO BAY","city_2":null,"zip":null,"donor name":"JACOB WITORT ($159.24), MICHAEL WITORT ($159.24)","zip code":"93442","amount":null,"id":"93","donor":null,"amount $":318.48},"type":"Feature","geometry":{"type":"Point","coordinates":[-120.780968,35.39295]}},{"properties":{"city":"MOUNTAIN VIEW","city_2":null,"zip":null,"donor name":"SUE TEMPEY","zip code":"94041","amount":null,"id":"94","donor":null,"amount $":199.0},"type":"Feature","geometry":{"type":"Point","coordinates":[-122.075222,37.386773]}},{"properties":{"city":"MOUNTAIN VIEW","city_2":null,"zip":null,"donor name":"ALAN FENG ($124), DANIEL WAYLONIS ($149)","zip code":"94043","amount":null,"id":"95","donor":null,"amount $":273.0},"type":"Feature","geometry":{"type":"Point","coordinates":[-122.072382,37.428434]}},{"properties":{"city":"MOUNTAIN VIEW","city_2":null,"zip":null,"donor name":"DANIEL IGNATOFF ($224), NATHAN GAYLINN ($2000)","zip code":"94040","amount":null,"id":"96","donor":null,"amount $":2224.0},"type":"Feature","geometry":{"type":"Point","coordinates":[-122.086585,37.378535]}},{"properties":{"city":"NEWARK","city_2":null,"zip":null,"donor name":"TROY BURLEIGH","zip code":"94560","amount":null,"id":"97","donor":null,"amount $":240.36},"type":"Feature","geometry":{"type":"Point","coordinates":[-122.04024,37.529659]}},{"properties":{"city":"NIPOMO","city_2":null,"zip":null,"donor name":"MARY STACKHOUSE","zip code":"93444","amount":null,"id":"98","donor":null,"amount $":200.0},"type":"Feature","geometry":{"type":"Point","coordinates":[-120.458806,35.044361]}},{"properties":{"city":"OAKLAND","city_2":null,"zip":null,"donor name":"GERALD CARROLL","zip code":"94111","amount":null,"id":"99","donor":null,"amount $":204.0},"type":"Feature","geometry":{"type":"Point","coordinates":[-122.400003,37.798318]}},{"properties":{"city":"OAKLAND","city_2":null,"zip":null,"donor name":"K.L. FRY","zip code":"94607","amount":null,"id":"100","donor":null,"amount $":200.0},"type":"Feature","geometry":{"type":"Point","coordinates":[-122.290908,37.809143]}},{"properties":{"city":"OAKLAND","city_2":null,"zip":null,"donor name":"DAVID ABERNATHY","zip code":"94606","amount":null,"id":"101","donor":null,"amount $":497.61},"type":"Feature","geometry":{"type":"Point","coordinates":[-122.245536,37.794409]}},{"properties":{"city":"OAKLAND","city_2":null,"zip":null,"donor name":"NANCY NADEL","zip code":"94608","amount":null,"id":"102","donor":null,"amount $":125.0},"type":"Feature","geometry":{"type":"Point","coordinates":[-122.282402,37.837959]}},{"properties":{"city":"OAKLAND","city_2":null,"zip":null,"donor name":"GEORGE ROSEN","zip code":"94605","amount":null,"id":"103","donor":null,"amount $":198.0},"type":"Feature","geometry":{"type":"Point","coordinates":[-122.134863,37.758945]}},{"properties":{"city":"OAKLAND","city_2":null,"zip":null,"donor name":"DAN RUSH ($100), JOHN WAGERS ($130), RONIN PUBLISHING INC. ($100), SEAN LUSE ($250)","zip code":"94609","amount":null,"id":"104","donor":null,"amount $":580.0},"type":"Feature","geometry":{"type":"Point","coordinates":[-122.262553,37.832117]}},{"properties":{"city":"OAKLAND","city_2":null,"zip":null,"donor name":"JAMES SILVA ($916.49), JC ALVORD ($317.49), JOEL GILBERTSON-WHITE ($199)","zip code":"94610","amount":null,"id":"105","donor":null,"amount $":1433.97},"type":"Feature","geometry":{"type":"Point","coordinates":[-122.239864,37.810449]}},{"properties":{"city":"OAKLAND","city_2":null,"zip":null,"donor name":"CARISON STOKES ($160.24), GREG COVER ($309)","zip code":"94611","amount":null,"id":"106","donor":null,"amount $":469.24},"type":"Feature","geometry":{"type":"Point","coordinates":[-122.202983,37.833628]}},{"properties":{"city":"OAKLAND","city_2":null,"zip":null,"donor name":"CALIFORNIA CAPITAL GROUP ($250), JAMES WHEATON ATTORNEY AT LAW ($200), JEFFREY JONES ($3450), JIM SEKOCH ($159.24), LINDA JACKSON ($150), MINNIE WATSON ($5000), OLIVER SCOTT ($159.24), PAT SPEESE ($1959.37), REBECCA SCHNEIDER ($50)","zip code":"94612","amount":null,"id":"107","donor":null,"amount $":11377.85},"type":"Feature","geometry":{"type":"Point","coordinates":[-122.268224,37.811316]}},{"properties":{"city":"OAKLAND","city_2":null,"zip":null,"donor name":"CHRISTIAN SMITHERUM ($139.36), LINDA CARLTON ($105.43), SCOTT MACPHERSON ($100)","zip code":"94602","amount":null,"id":"108","donor":null,"amount $":544.79},"type":"Feature","geometry":{"type":"Point","coordinates":[-122.211495,37.804802]}},{"properties":{"city":"OAKLAND","city_2":null,"zip":null,"donor name":"PATRICIA DEDEKIAN","zip code":"94618","amount":null,"id":"109","donor":null,"amount $":105.43},"type":"Feature","geometry":{"type":"Point","coordinates":[-122.237027,37.842303]}},{"properties":{"city":"OAKLAND","city_2":null,"zip":null,"donor name":"FELICIA SHAW","zip code":"94619","amount":null,"id":"110","donor":null,"amount $":200.0},"type":"Feature","geometry":{"type":"Point","coordinates":[-122.146219,37.793681]}},{"properties":{"city":"OCEANSIDE","city_2":null,"zip":null,"donor name":"DION MARKGRAAFF","zip code":"92056","amount":null,"id":"111","donor":null,"amount $":125.0},"type":"Feature","geometry":{"type":"Point","coordinates":[-117.297003,33.198755]}},{"properties":{"city":"OJAI","city_2":null,"zip":null,"donor name":"PAT MCPHERSON ($100), RINALDO BRUTOCO ($1000)","zip code":"93023","amount":null,"id":"112","donor":null,"amount $":1100.0},"type":"Feature","geometry":{"type":"Point","coordinates":[-118.906279,34.633751]}},{"properties":{"city":"ONTARIO","city_2":null,"zip":null,"donor name":"ANTHONY WICHER","zip code":"91764","amount":null,"id":"113","donor":null,"amount $":200.0},"type":"Feature","geometry":{"type":"Point","coordinates":[-117.614146,34.073987]}},{"properties":{"city":"ORANGE","city_2":null,"zip":null,"donor name":"DARIN BROWN","zip code":"92868","amount":null,"id":"114","donor":null,"amount $":180.0},"type":"Feature","geometry":{"type":"Point","coordinates":[-117.875098,33.78659]}},{"properties":{"city":"ORINDA","city_2":null,"zip":null,"donor name":"ROBERT BOYD","zip code":"94563","amount":null,"id":"115","donor":null,"amount $":100.0},"type":"Feature","geometry":{"type":"Point","coordinates":[-122.185957,37.891253]}},{"properties":{"city":"Oakland","city_2":null,"zip":null,"donor name":"S.K. Seymour LLC, Oaksterdam University and affiliated entities","zip code":"94612","amount":null,"id":"116","donor":null,"amount $":1408542.6},"type":"Feature","geometry":{"type":"Point","coordinates":[-122.269679,37.805985]}},{"properties":{"city":"PACIFIC PALISADES","city_2":null,"zip":null,"donor name":"LUKE SINQUEFIELD ($1000), MATTHEW HEYMAN ($1000)","zip code":"90272","amount":null,"id":"117","donor":null,"amount $":2000.0},"type":"Feature","geometry":{"type":"Point","coordinates":[-118.544779,34.084525]}},{"properties":{"city":"PACIFICA","city_2":null,"zip":null,"donor name":"MICHAEL MARINACCI","zip code":"94044","amount":null,"id":"118","donor":null,"amount $":100.0},"type":"Feature","geometry":{"type":"Point","coordinates":[-122.458047,37.598045]}},{"properties":{"city":"PALO ALTO","city_2":null,"zip":null,"donor name":"BETSY CURRIE ($500), BRIAN ANDERSON ($175), ANDY HERTZFELD ($3000)","zip code":"94301","amount":null,"id":"119","donor":null,"amount $":3675.0},"type":"Feature","geometry":{"type":"Point","coordinates":[-122.157574,37.445797]}},{"properties":{"city":"PALO ALTO","city_2":null,"zip":null,"donor name":"MATTHEW LENNIG ($186), STEVE BEITLER ($200)","zip code":"94303","amount":null,"id":"120","donor":null,"amount $":386.0},"type":"Feature","geometry":{"type":"Point","coordinates":[-122.123505,37.45613]}},{"properties":{"city":"PASADENA","city_2":null,"zip":null,"donor name":"PHILLIP BLUM","zip code":"91104","amount":null,"id":"121","donor":null,"amount $":269.0},"type":"Feature","geometry":{"type":"Point","coordinates":[-118.11812,34.165771]}},{"properties":{"city":"PASADENA","city_2":null,"zip":null,"donor name":"DANIEL MONTANES","zip code":"91106","amount":null,"id":"122","donor":null,"amount $":159.24},"type":"Feature","geometry":{"type":"Point","coordinates":[-118.126898,34.140543]}},{"properties":{"city":"PEBBLE BEACH","city_2":null,"zip":null,"donor name":"DAVID SPILKER","zip code":"93953","amount":null,"id":"123","donor":null,"amount $":349.0},"type":"Feature","geometry":{"type":"Point","coordinates":[-121.941623,36.584194]}},{"properties":{"city":"PENN VALLEY","city_2":null,"zip":null,"donor name":"GENE WEST","zip code":"95946","amount":null,"id":"124","donor":null,"amount $":50.0},"type":"Feature","geometry":{"type":"Point","coordinates":[-121.205396,39.228051]}},{"properties":{"city":"PENNGROVE","city_2":null,"zip":null,"donor name":"H.R. DOWNS","zip code":"94951","amount":null,"id":"125","donor":null,"amount $":125.0},"type":"Feature","geometry":{"type":"Point","coordinates":[-122.6447,38.323659]}},{"properties":{"city":"PETALUMA","city_2":null,"zip":null,"donor name":"JIM MCCAFFREY","zip code":"94955","amount":null,"id":"126","donor":null,"amount $":232.98},"type":"Feature","geometry":{"type":"Point","coordinates":[-122.64,38.23]}},{"properties":{"city":"PHILO","city_2":null,"zip":null,"donor name":"ERIC ARBANOVELLA","zip code":"95466","amount":null,"id":"127","donor":null,"amount $":2000.0},"type":"Feature","geometry":{"type":"Point","coordinates":[-123.460774,39.117384]}},{"properties":{"city":"PLEASANT HILL","city_2":null,"zip":null,"donor name":"LAURA UNRUH","zip code":"94523","amount":null,"id":"128","donor":null,"amount $":100.0},"type":"Feature","geometry":{"type":"Point","coordinates":[-122.072382,37.944892]}},{"properties":{"city":"PLEASANTON","city_2":null,"zip":null,"donor name":"DARRELL CLARIDGE","zip code":"94566","amount":null,"id":"129","donor":null,"amount $":420.0},"type":"Feature","geometry":{"type":"Point","coordinates":[-121.867646,37.64362]}},{"properties":{"city":"PLEASANTON","city_2":null,"zip":null,"donor name":"JON TAYLOR","zip code":"94588","amount":null,"id":"130","donor":null,"amount $":125.0},"type":"Feature","geometry":{"type":"Point","coordinates":[-121.913176,37.687391]}},{"properties":{"city":"PLYMOUTH","city_2":null,"zip":null,"donor name":"MICHAEL BALDINELLI","zip code":"95669","amount":null,"id":"131","donor":null,"amount $":125.0},"type":"Feature","geometry":{"type":"Point","coordinates":[-120.872861,38.482902]}},{"properties":{"city":"PORTOLA VALLEY","city_2":null,"zip":null,"donor name":"BRIAN MCCLENDON","zip code":"94028","amount":null,"id":"132","donor":null,"amount $":500.0},"type":"Feature","geometry":{"type":"Point","coordinates":[-122.208658,37.387118]}},{"properties":{"city":"RANCHO CUCAMONGA","city_2":null,"zip":null,"donor name":"DAVID ALDRICH","zip code":"91701","amount":null,"id":"133","donor":null,"amount $":50.0},"type":"Feature","geometry":{"type":"Point","coordinates":[-117.614146,34.135667]}},{"properties":{"city":"RANCHO MURIETA","city_2":null,"zip":null,"donor name":"WILBUR HAINES","zip code":"95683","amount":null,"id":"134","donor":null,"amount $":102.0},"type":"Feature","geometry":{"type":"Point","coordinates":[-121.102294,38.491989]}},{"properties":{"city":"REDDING","city_2":null,"zip":null,"donor name":"PATTI T. SWAIM","zip code":"96003","amount":null,"id":"135","donor":null,"amount $":211.99},"type":"Feature","geometry":{"type":"Point","coordinates":[-122.289072,40.70998]}},{"properties":{"city":"REDWOOD CITY","city_2":null,"zip":null,"donor name":"BRIAN ESCOBAR ($100), MARC JACOBS ($250)","zip code":"94062","amount":null,"id":"136","donor":null,"amount $":350.0},"type":"Feature","geometry":{"type":"Point","coordinates":[-122.288073,37.410893]}},{"properties":{"city":"SACRAMENTO","zip":null,"city_2":"SACRAMENTO","zip code_2":"95842","donor name":"DRUG POLICY ACTION COMMITTEE TO TAX AND REGULATE MARIJUANA - YES ON PROP 19","zip code":"95842","amount":null,"donor name_2":"DRUG POLICY ACTION COMMITTEE TO TAX AND REGULATE MARIJUANA","amount $_2":35000.0,"id":"a62spc52s0en","donor":null,"amount $":310000.0},"type":"Feature","geometry":{"type":"Point","coordinates":[-121.348445,38.680413]}},{"properties":{"city":"SACRAMENTO","city_2":null,"zip":null,"donor name":"KIM OXHOLM","zip code":"95811","amount":null,"id":"138","donor":null,"amount $":100.0},"type":"Feature","geometry":{"type":"Point","coordinates":[-121.497029,38.598229]}},{"properties":{"city":"SACRAMENTO","city_2":null,"zip":null,"donor name":"JASON STERLING","zip code":"94822","amount":null,"id":"139","donor":null,"amount $":100.0},"type":"Feature","geometry":{"type":"Point","coordinates":[-122.311299,37.904997]}},{"properties":{"city":"SACRAMENTO","zip":null,"city_2":"SACRAMENTO","zip code_2":"95816","donor name":"RODNEY KINGSNORTH","zip code":"95816","amount":null,"donor name_2":"ROBERT SULLIVAN, MD","amount $_2":100.0,"id":"a62spc00ws9s","donor":null,"amount $":1000.0},"type":"Feature","geometry":{"type":"Point","coordinates":[-121.462758,38.570535]}},{"properties":{"city":"SAN BRUNO","city_2":null,"zip":null,"donor name":"ELIZABETH SWEETMAN","zip code":"94066","amount":null,"id":"143","donor":null,"amount $":318.48},"type":"Feature","geometry":{"type":"Point","coordinates":[-122.429737,37.62107]}},{"properties":{"city":"SAN CARLOS","city_2":null,"zip":null,"donor name":"CONNIE DESAUTELS","zip code":"94070","amount":null,"id":"144","donor":null,"amount $":50.0},"type":"Feature","geometry":{"type":"Point","coordinates":[-122.27106,37.497517]}},{"properties":{"city":"SAN DIEGO","city_2":null,"zip":null,"donor name":"LAWRENCE E. HESS","zip code":"92120","amount":null,"id":"145","donor":null,"amount $":5000.0},"type":"Feature","geometry":{"type":"Point","coordinates":[-117.073524,32.792626]}},{"properties":{"city":"SAN DIEGO","city_2":null,"zip":null,"donor name":"RA HALEVI","zip code":"92109","amount":null,"id":"146","donor":null,"amount $":125.0},"type":"Feature","geometry":{"type":"Point","coordinates":[-117.249975,32.803617]}},{"properties":{"city":"SAN DIEGO","city_2":null,"zip":null,"donor name":"SACHI WILSON","zip code":"92116","amount":null,"id":"147","donor":null,"amount $":125.0},"type":"Feature","geometry":{"type":"Point","coordinates":[-117.123534,32.762693]}},{"properties":{"city":"SAN DIEGO","city_2":null,"zip":null,"donor name":"ROBERT W. HOLDENVENZON","zip code":"92119","amount":null,"id":"148","donor":null,"amount $":124.0},"type":"Feature","geometry":{"type":"Point","coordinates":[-117.038216,32.811287]}},{"properties":{"city":"SAN DIEGO","city_2":null,"zip":null,"donor name":"ERIC KAUFMAN","zip code":"92106","amount":null,"id":"149","donor":null,"amount $":200.0},"type":"Feature","geometry":{"type":"Point","coordinates":[-117.238216,32.722844]}},{"properties":{"city":"SAN DIEGO","city_2":null,"zip":null,"donor name":"MATT ZIMMERMAN","zip code":"92121","amount":null,"id":"150","donor":null,"amount $":100.0},"type":"Feature","geometry":{"type":"Point","coordinates":[-117.202936,32.898114]}},{"properties":{"city":"SAN DIEGO","city_2":null,"zip":null,"donor name":"RICK ERICSON","zip code":"92123","amount":null,"id":"151","donor":null,"amount $":100.0},"type":"Feature","geometry":{"type":"Point","coordinates":[-117.132358,32.810253]}},{"properties":{"city":"SAN DIEGO","city_2":null,"zip":null,"donor name":"KEVIN LINDGREN","zip code":"92126","amount":null,"id":"152","donor":null,"amount $":50.0},"type":"Feature","geometry":{"type":"Point","coordinates":[-117.13824,32.918476]}},{"properties":{"city":"SAN DIEGO","city_2":null,"zip":null,"donor name":"ANDREW GOOD","zip code":"92127","amount":null,"id":"153","donor":null,"amount $":100.0},"type":"Feature","geometry":{"type":"Point","coordinates":[-117.114709,33.028256]}},{"properties":{"city":"SAN DIEGO","city_2":null,"zip":null,"donor name":"EDWARD EDUARDO","zip code":"92101","amount":null,"id":"154","donor":null,"amount $":1000.0},"type":"Feature","geometry":{"type":"Point","coordinates":[-117.164709,32.726967]}},{"properties":{"city":"SAN DIEGO","city_2":null,"zip":null,"donor name":"ROBERT GREENHALL","zip code":"92129","amount":null,"id":"155","donor":null,"amount $":500.0},"type":"Feature","geometry":{"type":"Point","coordinates":[-117.13824,32.960197]}},{"properties":{"city":"SAN DIEGO","city_2":null,"zip":null,"donor name":"HOWARD KNUDSEN ($135), JASON GRESCHLER ($125), MARGARET KETNER ($159.24)","zip code":"92117","amount":null,"id":"156","donor":null,"amount $":419.24},"type":"Feature","geometry":{"type":"Point","coordinates":[-117.202936,32.825077]}},{"properties":{"city":"SAN DIEGO","city_2":null,"zip":null,"donor name":"DANNY CRAIG","zip code":"92104","amount":null,"id":"157","donor":null,"amount $":100.0},"type":"Feature","geometry":{"type":"Point","coordinates":[-117.132358,32.747575]}},{"properties":{"city":"SAN FRANCISCO","city_2":null,"zip":null,"donor name":"CAROL RUTH SILVER ($50), JORDY MONT-REYNAUD ($1000)","zip code":"94103","amount":null,"id":"158","donor":null,"amount $":1050.0},"type":"Feature","geometry":{"type":"Point","coordinates":[-122.409915,37.77264]}},{"properties":{"city":"SAN FRANCISCO","city_2":null,"zip":null,"donor name":"CREDO VICTORY FUND - YES WE CANNABIS","zip code":"94105","amount":null,"id":"159","donor":null,"amount $":1449.97},"type":"Feature","geometry":{"type":"Point","coordinates":[-122.394339,37.79053]}},{"properties":{"city":"SAN FRANCISCO","city_2":null,"zip":null,"donor name":"ADAM WIGGINS ($4000), GIL SHAFIR ($100)","zip code":"94107","amount":null,"id":"160","donor":null,"amount $":4100.0},"type":"Feature","geometry":{"type":"Point","coordinates":[-122.398587,37.761824]}},{"properties":{"city":"SAN FRANCISCO","city_2":null,"zip":null,"donor name":"JAYNE GOLDSTEIN","zip code":"94108","amount":null,"id":"161","donor":null,"amount $":125.0},"type":"Feature","geometry":{"type":"Point","coordinates":[-122.408499,37.790943]}},{"properties":{"city":"SAN FRANCISCO","city_2":null,"zip":null,"donor name":"ALEXANDER KUTIK ($250), GREG GRIMALA ($50)","zip code":"94109","amount":null,"id":"162","donor":null,"amount $":300.0},"type":"Feature","geometry":{"type":"Point","coordinates":[-122.421242,37.792979]}},{"properties":{"city":"SAN FRANCISCO","city_2":null,"zip":null,"donor name":"SIGN DISPLAY &amp; ALLIED CRAFTS LOCAL 510 PAC","zip code":"91134","amount":null,"id":"163","donor":null,"amount $":500.0},"type":"Feature","geometry":{"type":"Point","coordinates":[-122.39771,37.793477]}},{"properties":{"city":"SAN FRANCISCO","city_2":null,"zip":null,"donor name":"ADAM HUPP ($500), DUSTIN MOSKOVITZ ($120,000), JAMES UPCHURCH ($100), JUSTIN ROSENSTEIN ($1275), MARK HUNTER ($100), ERIC THOGERSON ($100)","zip code":"94110","amount":null,"id":"164","donor":null,"amount $":122075.0},"type":"Feature","geometry":{"type":"Point","coordinates":[-122.418411,37.748582]}},{"properties":{"city":"SAN FRANCISCO","city_2":null,"zip":null,"donor name":"NEDRA RUIZ","zip code":"94133","amount":null,"id":"165","donor":null,"amount $":125.0},"type":"Feature","geometry":{"type":"Point","coordinates":[-122.409915,37.801226]}},{"properties":{"city":"SAN FRANCISCO","city_2":null,"zip":null,"donor name":"PETER THIEL","zip code":"94129","amount":null,"id":"166","donor":null,"amount $":70000.0},"type":"Feature","geometry":{"type":"Point","coordinates":[-122.466538,37.798085]}},{"properties":{"city":"SAN FRANCISCO","city_2":null,"zip":null,"donor name":"ADRIENNE SMITH ($119), C STEVEN SHORT ($155), DAVID C. GOLDMAN ($100), DAVID GARNER ($800), JOHN STAHL ($250), MAX MEIER ($100)","zip code":"94114","amount":null,"id":"167","donor":null,"amount $":1524.0},"type":"Feature","geometry":{"type":"Point","coordinates":[-122.432568,37.756144]}},{"properties":{"city":"SAN FRANCISCO","city_2":null,"zip":null,"donor name":"JENNIFER PHILLIPS ($40), MARSHA ROSENBAUM ($10000)","zip code":"94115","amount":null,"id":"168","donor":null,"amount $":10040.0},"type":"Feature","geometry":{"type":"Point","coordinates":[-122.438231,37.787752]}},{"properties":{"city":"SAN FRANCISCO","city_2":null,"zip":null,"donor name":"JACQUELINE PRITZKER ($1000), LATANYA LINZIE ($400), MARK STONER ($125), JOHN GILMORE ($2000)","zip code":"94117","amount":null,"id":"169","donor":null,"amount $":3525.0},"type":"Feature","geometry":{"type":"Point","coordinates":[-122.443893,37.771719]}},{"properties":{"city":"SAN FRANCISCO","city_2":null,"zip":null,"donor name":"JENNY OH ($105.43), LARRY EDELSTEIN ($120)","zip code":"94122","amount":null,"id":"170","donor":null,"amount $":225.43},"type":"Feature","geometry":{"type":"Point","coordinates":[-122.475029,37.759748]}},{"properties":{"city":"SAN FRANCISCO","city_2":null,"zip":null,"donor name":"MARTIN KAUFMAN","zip code":"94960","amount":null,"id":"171","donor":null,"amount $":1000.0},"type":"Feature","geometry":{"type":"Point","coordinates":[-122.565555,37.988536]}},{"properties":{"city":"SAN FRANCISCO","city_2":null,"zip":null,"donor name":"CODY PHIPPS","zip code":"94127","amount":null,"id":"172","donor":null,"amount $":159.24},"type":"Feature","geometry":{"type":"Point","coordinates":[-122.463708,37.734646]}},{"properties":{"city":"SAN FRANCISCO","city_2":null,"zip":null,"donor name":"GEORGE REY","zip code":"94131","amount":null,"id":"173","donor":null,"amount $":25.0},"type":"Feature","geometry":{"type":"Point","coordinates":[-122.438231,37.740104]}},{"properties":{"city":"SAN FRANCISCO","city_2":null,"zip":null,"donor name":"MARSHA ROSENBAUM ($1000), DOUGLAS GOLDMAN ($5000), LISA GOLDMAN ($5000)","zip code":"94123","amount":null,"id":"174","donor":null,"amount $":11000.0},"type":"Feature","geometry":{"type":"Point","coordinates":[-122.438231,37.802041]}},{"properties":{"city":"SAN GERONIMO","city_2":null,"zip":null,"donor name":"MR. GEORGE BIANCHINI","zip code":"94963","amount":null,"id":"175","donor":null,"amount $":1316.29},"type":"Feature","geometry":{"type":"Point","coordinates":[-122.667302,37.994899]}},{"properties":{"city":"SAN JOSE","city_2":null,"zip":null,"donor name":"PETKO PETKOV","zip code":"95123","amount":null,"id":"176","donor":null,"amount $":125.0},"type":"Feature","geometry":{"type":"Point","coordinates":[-121.827792,37.237485]}},{"properties":{"city":"SAN JOSE","city_2":null,"zip":null,"donor name":"JOHN ROPER","zip code":"95117","amount":null,"id":"177","donor":null,"amount $":420.0},"type":"Feature","geometry":{"type":"Point","coordinates":[-121.961531,37.310524]}},{"properties":{"city":"SAN JOSE","city_2":null,"zip":null,"donor name":"JACK SHANNON","zip code":"95128","amount":null,"id":"178","donor":null,"amount $":100.0},"type":"Feature","geometry":{"type":"Point","coordinates":[-121.930245,37.312713]}},{"properties":{"city":"SAN JOSE","city_2":null,"zip":null,"donor name":"JEFFREY SWANSON","zip code":"95139","amount":null,"id":"179","donor":null,"amount $":130.56},"type":"Feature","geometry":{"type":"Point","coordinates":[-121.762287,37.225711]}},{"properties":{"city":"SAN JOSE","city_2":null,"zip":null,"donor name":"MICHAEL LOPEZ","zip code":"95134","amount":null,"id":"180","donor":null,"amount $":100.0},"type":"Feature","geometry":{"type":"Point","coordinates":[-121.952999,37.43085]}},{"properties":{"city":"SAN JOSE","city_2":null,"zip":null,"donor name":"RICHARD STEEB","zip code":"95121","amount":null,"id":"181","donor":null,"amount $":279.2},"type":"Feature","geometry":{"type":"Point","coordinates":[-121.805012,37.302108]}},{"properties":{"city":"SAN LUIS OBISPO","city_2":null,"zip":null,"donor name":"GENE COURTER","zip code":"93401","amount":null,"id":"182","donor":null,"amount $":100.0},"type":"Feature","geometry":{"type":"Point","coordinates":[-120.642999,35.232662]}},{"properties":{"city":"SAN MATEO","city_2":null,"zip":null,"donor name":"ALAN RATHBURN","zip code":"94402","amount":null,"id":"183","donor":null,"amount $":200.0},"type":"Feature","geometry":{"type":"Point","coordinates":[-122.339094,37.524597]}},{"properties":{"city":"SAN RAFAEL","city_2":null,"zip":null,"donor name":"JEFF HAGGIN","zip code":"94901","amount":null,"id":"184","donor":null,"amount $":1000.0},"type":"Feature","geometry":{"type":"Point","coordinates":[-122.52596,37.97706]}},{"properties":{"city":"SANTA ANA","city_2":null,"zip":null,"donor name":"IAN KOSKELA","zip code":"92707","amount":null,"id":"185","donor":null,"amount $":125.0},"type":"Feature","geometry":{"type":"Point","coordinates":[-117.872168,33.702309]}},{"properties":{"city":"SANTA BARBARA","city_2":null,"zip":null,"donor name":"RICHARD B. MAZESS","zip code":"93108","amount":null,"id":"186","donor":null,"amount $":50000.0},"type":"Feature","geometry":{"type":"Point","coordinates":[-119.615143,34.438141]}},{"properties":{"city":"SANTA BARBARA","city_2":null,"zip":null,"donor name":"DAVID GIBBS","zip code":"93140","amount":null,"id":"187","donor":null,"amount $":1500.0},"type":"Feature","geometry":{"type":"Point","coordinates":[-119.68,34.42]}},{"properties":{"city":"SANTA BARBARA","city_2":null,"zip":null,"donor name":"ELAINE GIBSON ($100), PEG JARROTT ($100), LEN JARROTT ($2000), STEPHEN HOSEA ($1000)","zip code":"93105","amount":null,"id":"188","donor":null,"amount $":3200.0},"type":"Feature","geometry":{"type":"Point","coordinates":[-119.812079,34.010912]}},{"properties":{"city":"SANTA CLARA","city_2":null,"zip":null,"donor name":"BRYAN BOOT","zip code":"95054","amount":null,"id":"189","donor":null,"amount $":553.0},"type":"Feature","geometry":{"type":"Point","coordinates":[-121.964374,37.398604]}},{"properties":{"city":"SANTA CLARA","city_2":null,"zip":null,"donor name":"HEDLEY RAINNIE ($150), THE INTERNATIONAL CANNABIS &amp; HEMP EXPO ($100)","zip code":"95050","amount":null,"id":"190","donor":null,"amount $":250.0},"type":"Feature","geometry":{"type":"Point","coordinates":[-121.952999,37.353966]}},{"properties":{"city":"SANTA CRUZ","city_2":null,"zip":null,"donor name":"DOUGLAS BERGENGREN","zip code":"95062","amount":null,"id":"191","donor":null,"amount $":1000.0},"type":"Feature","geometry":{"type":"Point","coordinates":[-121.987122,36.977452]}},{"properties":{"city":"SANTA CRUZ","city_2":null,"zip":null,"donor name":"ETHAN WEISS ($824), JASALAH LEVERETTE ($159.24)","zip code":"95060","amount":null,"id":"192","donor":null,"amount $":983.24},"type":"Feature","geometry":{"type":"Point","coordinates":[-122.117826,37.010531]}},{"properties":{"city":"SANTA MONICA","city_2":null,"zip":null,"donor name":"ANTHONY CITRANO","zip code":"90403","amount":null,"id":"193","donor":null,"amount $":420.0},"type":"Feature","geometry":{"type":"Point","coordinates":[-118.495155,34.02799]}},{"properties":{"city":"SANTA MONICA","city_2":null,"zip":null,"donor name":"DARREN SCHULTZ","zip code":"90404","amount":null,"id":"194","donor":null,"amount $":125.0},"type":"Feature","geometry":{"type":"Point","coordinates":[-118.468878,34.026926]}},{"properties":{"city":"SANTA MONICA","city_2":null,"zip":null,"donor name":"ANDREW LAHDE","zip code":"90405","amount":null,"id":"195","donor":null,"amount $":5000.0},"type":"Feature","geometry":{"type":"Point","coordinates":[-118.465958,34.009746]}},{"properties":{"city":"SANTA ROSA","city_2":null,"zip":null,"donor name":"ISAAC HAUGEN","zip code":"95404","amount":null,"id":"196","donor":null,"amount $":477.72},"type":"Feature","geometry":{"type":"Point","coordinates":[-122.695547,38.538688]}},{"properties":{"city":"SEBASTOPOL","city_2":null,"zip":null,"donor name":"MARK HANDLEY","zip code":"95472","amount":null,"id":"197","donor":null,"amount $":107.48},"type":"Feature","geometry":{"type":"Point","coordinates":[-122.876131,38.369075]}},{"properties":{"city":"SHERMAN OAKS","city_2":null,"zip":null,"donor name":"KRISTINE STIEG","zip code":"91423","amount":null,"id":"198","donor":null,"amount $":100.0},"type":"Feature","geometry":{"type":"Point","coordinates":[-118.433834,34.148269]}},{"properties":{"city":"SHERMAN OAKS","city_2":null,"zip":null,"donor name":"RICHARD WOLFE ($2100), NORMAN B. GOLDBERG ($5000)","zip code":"91403","amount":null,"id":"199","donor":null,"amount $":7100.0},"type":"Feature","geometry":{"type":"Point","coordinates":[-118.457197,34.14239]}},{"properties":{"city":"SOLVANG","city_2":null,"zip":null,"donor name":"KAI HALLAUER ($500), RUDI VAN ENOO, DPM ($50)","zip code":"93463","amount":null,"id":"200","donor":null,"amount $":550.0},"type":"Feature","geometry":{"type":"Point","coordinates":[-120.147383,34.63834]}},{"properties":{"city":"SONOMA","city_2":null,"zip":null,"donor name":"ESTELLA CERVANTES","zip code":"95476","amount":null,"id":"201","donor":null,"amount $":3000.0},"type":"Feature","geometry":{"type":"Point","coordinates":[-122.458036,38.291859]}},{"properties":{"city":"STINSON BEACH","city_2":null,"zip":null,"donor name":"ALBERT COLES","zip code":"94970","amount":null,"id":"202","donor":null,"amount $":519.0},"type":"Feature","geometry":{"type":"Point","coordinates":[-122.633397,37.910531]}},{"properties":{"city":"STOCKTON","city_2":null,"zip":null,"donor name":"ALAN CHANDLER","zip code":"95207","amount":null,"id":"203","donor":null,"amount $":473.11},"type":"Feature","geometry":{"type":"Point","coordinates":[-121.319849,37.998375]}},{"properties":{"city":"STUDIO CITY","city_2":null,"zip":null,"donor name":"GLEN WHITMAN ($200), JEAN FLEMING ($95)","zip code":"91604","amount":null,"id":"204","donor":null,"amount $":295.0},"type":"Feature","geometry":{"type":"Point","coordinates":[-118.387099,34.13956]}},{"properties":{"city":"SUMMERLAND","city_2":null,"zip":null,"donor name":"STEVEN LEVINE","zip code":"93067","amount":null,"id":"205","donor":null,"amount $":100.0},"type":"Feature","geometry":{"type":"Point","coordinates":[-119.601376,34.420919]}},{"properties":{"city":"SUNNYVALE","city_2":null,"zip":null,"donor name":"RICHARD GEIGER ($965), ROBERT WEISSMAN ($50)","zip code":"94087","amount":null,"id":"206","donor":null,"amount $":1015.0},"type":"Feature","geometry":{"type":"Point","coordinates":[-122.032602,37.34921]}},{"properties":{"city":"TEHACHAPI","city_2":null,"zip":null,"donor name":"ADRIAN MOORE","zip code":"93561","amount":null,"id":"207","donor":null,"amount $":125.0},"type":"Feature","geometry":{"type":"Point","coordinates":[-118.533104,35.134675]}},{"properties":{"city":"THOUSAND OAKS","city_2":null,"zip":null,"donor name":"STEVEN WOODWARD ($100), GARY PIPES ($1000)","zip code":"91360","amount":null,"id":"208","donor":null,"amount $":1100.0},"type":"Feature","geometry":{"type":"Point","coordinates":[-118.894631,34.219999]}},{"properties":{"city":"TOPANGA","city_2":null,"zip":null,"donor name":"FRED DELISIO","zip code":"90290","amount":null,"id":"209","donor":null,"amount $":100.0},"type":"Feature","geometry":{"type":"Point","coordinates":[-118.61481,34.107698]}},{"properties":{"city":"TORRANCE","city_2":null,"zip":null,"donor name":"LARRY SNYDER","zip code":"90504","amount":null,"id":"210","donor":null,"amount $":100.0},"type":"Feature","geometry":{"type":"Point","coordinates":[-118.328661,33.867327]}},{"properties":{"city":"TUJUNGA","city_2":null,"zip":null,"donor name":"ROBERT ORSBURN","zip code":"91042","amount":null,"id":"211","donor":null,"amount $":200.0},"type":"Feature","geometry":{"type":"Point","coordinates":[-118.229271,34.296676]}},{"properties":{"city":"VACAVILLE","city_2":null,"zip":null,"donor name":"MICHAEL KIM","zip code":"95687","amount":null,"id":"212","donor":null,"amount $":99.0},"type":"Feature","geometry":{"type":"Point","coordinates":[-121.913176,38.316541]}},{"properties":{"city":"VACAVILLE","city_2":null,"zip":null,"donor name":"JACKIE SHIPLEY","zip code":"95688","amount":null,"id":"213","donor":null,"amount $":212.98},"type":"Feature","geometry":{"type":"Point","coordinates":[-122.015549,38.408701]}},{"properties":{"city":"VALLEY CENTER","city_2":null,"zip":null,"donor name":"BRETT JACKSON","zip code":"92082","amount":null,"id":"214","donor":null,"amount $":100.0},"type":"Feature","geometry":{"type":"Point","coordinates":[-117.008788,33.230094]}},{"properties":{"city":"VAN NUYS","city_2":null,"zip":null,"donor name":"ROBERT BROOKS","zip code":"91406","amount":null,"id":"215","donor":null,"amount $":75.0},"type":"Feature","geometry":{"type":"Point","coordinates":[-118.498074,34.198512]}},{"properties":{"city":"VENICE","city_2":null,"zip":null,"donor name":"ELISABETH LAFFERTY","zip code":"90291","amount":null,"id":"216","donor":null,"amount $":100.0},"type":"Feature","geometry":{"type":"Point","coordinates":[-118.468878,33.996214]}},{"properties":{"city":"VISALIA","city_2":null,"zip":null,"donor name":"STEVEN CANTRELL","zip code":"93291","amount":null,"id":"217","donor":null,"amount $":100.0},"type":"Feature","geometry":{"type":"Point","coordinates":[-119.348265,36.382084]}},{"properties":{"city":"WALNUT CREEK","city_2":null,"zip":null,"donor name":"SALWA IBRAHIM","zip code":"94595","amount":null,"id":"218","donor":null,"amount $":780.0},"type":"Feature","geometry":{"type":"Point","coordinates":[-122.0667,37.875107]}},{"properties":{"city":"WALNUT CREEK","city_2":null,"zip":null,"donor name":"BRYAN HYMAN ($150), COMPLEMENTARY ALTERNATIVE MEDICINE CORPORATION($200)","zip code":"94596","amount":null,"id":"219","donor":null,"amount $":350.0},"type":"Feature","geometry":{"type":"Point","coordinates":[-122.032602,37.885453]}},{"properties":{"city":"WEST COVINA","city_2":null,"zip":null,"donor name":"ALEX SMALL","zip code":"91791","amount":null,"id":"220","donor":null,"amount $":420.0},"type":"Feature","geometry":{"type":"Point","coordinates":[-117.895606,34.056638]}},{"properties":{"city":"WEST HILLS","city_2":null,"zip":null,"donor name":"CLAUDE WALDBAUM ($200), PRESCRIPTION VENDING MACHINES, INC ($5000)","zip code":"91307","amount":null,"id":"221","donor":null,"amount $":5200.0},"type":"Feature","geometry":{"type":"Point","coordinates":[-118.684811,34.212444]}},{"properties":{"city":"WEST HOLLYWOOD","city_2":null,"zip":null,"donor name":"PETER MALICK","zip code":"90069","amount":null,"id":"222","donor":null,"amount $":100.0},"type":"Feature","geometry":{"type":"Point","coordinates":[-118.378335,34.09316]}},{"properties":{"city":"WHITTIER","city_2":null,"zip":null,"donor name":"FRANCISCO SANCHEZ","zip code":"90601","amount":null,"id":"223","donor":null,"amount $":1100.0},"type":"Feature","geometry":{"type":"Point","coordinates":[-118.030319,34.008068]}},{"properties":{"city":"WHITTIER","city_2":null,"zip":null,"donor name":"JENNIFER GAYNOR","zip code":"90605","amount":null,"id":"224","donor":null,"amount $":435.0},"type":"Feature","geometry":{"type":"Point","coordinates":[-118.027391,33.954885]}},{"properties":{"city":"WOODLAND HILLS","city_2":null,"zip":null,"donor name":"HARRY FISHER","zip code":"91367","amount":null,"id":"225","donor":null,"amount $":100.0},"type":"Feature","geometry":{"type":"Point","coordinates":[-118.597305,34.178526]}},{"properties":{"city":"WRIGHTWOOD","city_2":null,"zip":null,"donor name":"MARY MELKONIAN","zip code":"92397","amount":null,"id":"226","donor":null,"amount $":500.0},"type":"Feature","geometry":{"type":"Point","coordinates":[-117.637617,34.376262]}},{"properties":{"city":"YUBA CITY","city_2":null,"zip":null,"donor name":"KARM BAINES","zip code":"95993","amount":null,"id":"227","donor":null,"amount $":500.0},"type":"Feature","geometry":{"type":"Point","coordinates":[-121.696744,39.071509]}}],"is_temporal":false,"author":{"url":null,"metadata":null,"contact_name":null,"contact_address":null,"source":null,"contact_phone":null},"source":null,"pagination":{"sort":null,"start":0,"total":255,"limit":1000000},"state":"complete","tags":"","published":"2014-08-14T19:44:19-04:00","id":233702}