{"type":"FeatureCollection","data_type":"Dataset","url_type":null,"permissions":[{"permissions":{"download":true,"view":true},"group_id":"everyone"}],"classification":null,"title":"State_Parks_in_the_Midwest","count":513,"stream_id":233874,"contributor":{"url":"http://geocommons.com/users/40224","name":"msloane12"},"data_attributes":null,"calculation_params":null,"icon_link":null,"link":"http://geocommons.com/overlays/233874.json","extent":[-9548300000000.0,3.34166,-80.289,3.90241e+15],"geometry_types":["point"],"unique_name":null,"name":"State_Parks_in_the_Midwest","feature_count":513,"description":"","next_feature":null,"is_raster":false,"short_classification":"Y","stats":{"lat":{"max":69.9657442,"mean":42.3005865644314,"variance":13.0054168934854,"stdev":3.60630238519808,"min":3.34166,"median":42.130234},"long":{"max":-80.2890451,"mean":-90.226889711745,"variance":27.0959367168306,"stdev":5.20537575174268,"min":-103.4742993,"median":-90.5020371}},"features":[{"properties":{"name":"Argyle Lake State Park","id":"a6kd45jide13","lat":40.455278,"long":-90.788889,"state":"Illinois"},"type":"Feature","geometry":{"type":"Point","coordinates":[-90.788889,40.455278]}},{"properties":{"name":"Beall Woods State Park","id":"a6kd45jbm2z6","lat":38.358611,"long":-87.825,"state":"Illinois"},"type":"Feature","geometry":{"type":"Point","coordinates":[-87.825,38.358611]}},{"properties":{"name":"Beaver Dam State Park","id":"a6kd45iasvux","lat":39.211111,"long":-89.976111,"state":"Illinois"},"type":"Feature","geometry":{"type":"Point","coordinates":[-89.976111,39.211111]}},{"properties":{"name":"Buffalo Rock State Park and Effigy Tumuli","id":"a6kd45nmt8t5","lat":41.326944,"long":-88.909722,"state":"Illinois"},"type":"Feature","geometry":{"type":"Point","coordinates":[-88.909722,41.326944]}},{"properties":{"name":"Castle Rock State Park","id":"a6kd45hru7r3","lat":41.968889,"long":-89.381944,"state":"Illinois"},"type":"Feature","geometry":{"type":"Point","coordinates":[-89.381944,41.968889]}},{"properties":{"name":"Cave-in-Rock State Park","id":"a6kd45ppzkbg","lat":37.468611,"long":-88.155833,"state":"Illinois"},"type":"Feature","geometry":{"type":"Point","coordinates":[-88.155833,37.468611]}},{"properties":{"name":"Chain O'Lakes State Park","id":"a6kd45kln20v","lat":42.458889,"long":-88.174167,"state":"Illinois"},"type":"Feature","geometry":{"type":"Point","coordinates":[-88.174167,42.458889]}},{"properties":{"name":"Channahon State Park","id":"a6kd45tfzbwc","lat":41.424167,"long":-88.2275,"state":"Illinois"},"type":"Feature","geometry":{"type":"Point","coordinates":[-88.2275,41.424167]}},{"properties":{"name":"Delabar State Park","id":"a6kd45v4k2ee","lat":40.962222,"long":-90.939444,"state":"Illinois"},"type":"Feature","geometry":{"type":"Point","coordinates":[-90.939444,40.962222]}},{"properties":{"name":"Dixon Springs State Park","id":"a6kd45m18yfn","lat":37.3825,"long":-88.665556,"state":"Illinois"},"type":"Feature","geometry":{"type":"Point","coordinates":[-88.665556,37.3825]}},{"properties":{"name":"Donnelley/Depue State Park","id":"a6kd45kjuj5g","lat":41.290278,"long":-89.3325,"state":"Illinois"},"type":"Feature","geometry":{"type":"Point","coordinates":[-89.3325,41.290278]}},{"properties":{"name":"Ferne Clyffe State Park","id":"a6kd45xe363r","lat":37.529444,"long":-88.982778,"state":"Illinois"},"type":"Feature","geometry":{"type":"Point","coordinates":[-88.982778,37.529444]}},{"properties":{"name":"Fort Massac","id":"a6kd45rfndzk","lat":37.143889,"long":-88.687222,"state":"Illinois"},"type":"Feature","geometry":{"type":"Point","coordinates":[-88.687222,37.143889]}},{"properties":{"name":"Fox Ridge State Park","id":"a6kd45j4z25p","lat":39.403333,"long":-88.153056,"state":"Illinois"},"type":"Feature","geometry":{"type":"Point","coordinates":[-88.153056,39.403333]}},{"properties":{"name":"Franklin Creek State Park","id":"a6kd45j5jejk","lat":41.849722,"long":-89.3358333,"state":"Illinois"},"type":"Feature","geometry":{"type":"Point","coordinates":[-89.3358333,41.849722]}},{"properties":{"name":"Gebhard Woods State Park","id":"a6kd45tcotrg","lat":41.356944,"long":-88.435278,"state":"Illinois"},"type":"Feature","geometry":{"type":"Point","coordinates":[-88.435278,41.356944]}},{"properties":{"name":"Giant City State Park","id":"a6kd45uho9an","lat":37.605,"long":-89.188333,"state":"Illinois"},"type":"Feature","geometry":{"type":"Point","coordinates":[-89.188333,37.605]}},{"properties":{"name":"Wildlife Prairie State Park","id":"a6kd45m3iatp","lat":40.733889,"long":-89.747222,"state":"Illinois"},"type":"Feature","geometry":{"type":"Point","coordinates":[-89.747222,40.733889]}},{"properties":{"name":"Hennepin Canal State Park","id":"a6kd45x27mbl","lat":41.378889,"long":-89.691389,"state":"Illinois"},"type":"Feature","geometry":{"type":"Point","coordinates":[-89.691389,41.378889]}},{"properties":{"name":"Horseshoe Lake State Park","id":"a6kd45mhgw8j","lat":38.685556,"long":-90.094167,"state":"Illinois"},"type":"Feature","geometry":{"type":"Point","coordinates":[-90.094167,38.685556]}},{"properties":{"name":"Illini State Park","id":"a6kd45w1mdr6","lat":41.321667,"long":-88.715833,"state":"Illinois"},"type":"Feature","geometry":{"type":"Point","coordinates":[-88.715833,41.321667]}},{"properties":{"name":"Illinois Beach State Park","id":"a6kd45weuo14","lat":42.417222,"long":-87.811667,"state":"Illinois"},"type":"Feature","geometry":{"type":"Point","coordinates":[-87.811667,42.417222]}},{"properties":{"name":"James \"Pate\" Philip State Park","id":"a6kd45w8s352","lat":41.981667,"long":-88.258889,"state":"Illinois"},"type":"Feature","geometry":{"type":"Point","coordinates":[-88.258889,41.981667]}},{"properties":{"name":"Johnson-Sauk Trail State Park","id":"a6kd45pl2u6o","lat":41.321389,"long":-89.890278,"state":"Illinois"},"type":"Feature","geometry":{"type":"Point","coordinates":[-89.890278,41.321389]}},{"properties":{"name":"Jubilee College State Park","id":"a6kd45ipr1cr","lat":40.816944,"long":-89.781111,"state":"Illinois"},"type":"Feature","geometry":{"type":"Point","coordinates":[-89.781111,40.816944]}},{"properties":{"name":"Kankakee River State Park","id":"a6kd45tvngqe","lat":41.213056,"long":-88.023056,"state":"Illinois"},"type":"Feature","geometry":{"type":"Point","coordinates":[-88.023056,41.213056]}},{"properties":{"name":"Lake Le-Aqua-Na State Park","id":"a6kd45q2dtvt","lat":42.42,"long":-89.836389,"state":"Illinois"},"type":"Feature","geometry":{"type":"Point","coordinates":[-89.836389,42.42]}},{"properties":{"name":"Lake Murphysboro State Park","id":"a6kd45iavfci","lat":37.7825,"long":-89.381944,"state":"Illinois"},"type":"Feature","geometry":{"type":"Point","coordinates":[-89.381944,37.7825]}},{"properties":{"name":"Lincoln Trail State Park","id":"a6kd45labg0l","lat":39.345833,"long":-87.718333,"state":"Illinois"},"type":"Feature","geometry":{"type":"Point","coordinates":[-87.718333,39.345833]}},{"properties":{"name":"Lowden State Park","id":"a6kd45iwqopv","lat":42.032222,"long":-89.326389,"state":"Illinois"},"type":"Feature","geometry":{"type":"Point","coordinates":[-89.326389,42.032222]}},{"properties":{"name":"Matthiessen State Park","id":"a6kd45joe600","lat":41.295556,"long":-89.025278,"state":"Illinois"},"type":"Feature","geometry":{"type":"Point","coordinates":[-89.025278,41.295556]}},{"properties":{"name":"Mississippi Palisades State Park","id":"a6kd45p4qh8g","lat":42.138333,"long":-90.158889,"state":"Illinois"},"type":"Feature","geometry":{"type":"Point","coordinates":[-90.158889,42.138333]}},{"properties":{"name":"Moraine Hills State Park","id":"a6kd45n7kgrs","lat":42.310278,"long":-88.249167,"state":"Illinois"},"type":"Feature","geometry":{"type":"Point","coordinates":[-88.249167,42.310278]}},{"properties":{"name":"Morrison- Rockwood State Park","id":"a6kd45i6t6xp","lat":41.849167,"long":-89.965278,"state":"Illinois"},"type":"Feature","geometry":{"type":"Point","coordinates":[-89.965278,41.849167]}},{"properties":{"name":"Nauvoo State Park","id":"a6kd45j9d4iz","lat":40.544167,"long":-91.380833,"state":"Illinois"},"type":"Feature","geometry":{"type":"Point","coordinates":[-91.380833,40.544167]}},{"properties":{"name":"Pere Marquette State Park","id":"a6kd45x85rez","lat":38.999167,"long":-90.525833,"state":"Illinois"},"type":"Feature","geometry":{"type":"Point","coordinates":[-90.525833,38.999167]}},{"properties":{"name":"Red Hills State Park","id":"a6kd45pksbuk","lat":38.729722,"long":-87.835556,"state":"Illinois"},"type":"Feature","geometry":{"type":"Point","coordinates":[-87.835556,38.729722]}},{"properties":{"name":"Rock Cut State Park","id":"a6kd45ppempj","lat":42.351667,"long":-88.976389,"state":"Illinois"},"type":"Feature","geometry":{"type":"Point","coordinates":[-88.976389,42.351667]}},{"properties":{"name":"Rock Island Trail State Park","id":"a6kd45nfj31p","lat":40.97,"long":-89.745,"state":"Illinois"},"type":"Feature","geometry":{"type":"Point","coordinates":[-89.745,40.97]}},{"properties":{"name":"Shabbona Lake State Park","id":"a6kd45mownui","lat":41.739444,"long":-88.852222,"state":"Illinois"},"type":"Feature","geometry":{"type":"Point","coordinates":[-88.852222,41.739444]}},{"properties":{"name":"Siloam Springs State Park","id":"a6kd45sckc7h","lat":39.883056,"long":-90.925278,"state":"Illinois"},"type":"Feature","geometry":{"type":"Point","coordinates":[-90.925278,39.883056]}},{"properties":{"name":"South Shore State Park","id":"a6kd45nz8kde","lat":38.620278,"long":-89.303611,"state":"Illinois"},"type":"Feature","geometry":{"type":"Point","coordinates":[-89.303611,38.620278]}},{"properties":{"name":"Starved Rock State Park","id":"a6kd45q7kl6z","lat":41.321389,"long":-88.990278,"state":"Illinois"},"type":"Feature","geometry":{"type":"Point","coordinates":[-88.990278,41.321389]}},{"properties":{"name":"Walnut Point State Park","id":"a6kd45jndy6j","lat":39.697778,"long":-88.037778,"state":"Illinois"},"type":"Feature","geometry":{"type":"Point","coordinates":[-88.037778,39.697778]}},{"properties":{"name":"Weinberg- King State Park","id":"a6kd45tn4e4n","lat":40.235556,"long":-90.896944,"state":"Illinois"},"type":"Feature","geometry":{"type":"Point","coordinates":[-90.896944,40.235556]}},{"properties":{"name":"White Pines Forest State Park","id":"a6kd45k62i1s","lat":41.995556,"long":-89.468611,"state":"Illinois"},"type":"Feature","geometry":{"type":"Point","coordinates":[-89.468611,41.995556]}},{"properties":{"name":"William G. Stratton State Park","id":"a6kd45py3n1j","lat":41.353056,"long":-88.417778,"state":"Illinois"},"type":"Feature","geometry":{"type":"Point","coordinates":[-88.417778,41.353056]}},{"properties":{"name":"Brown County","id":"a6kd45vkg2s9","lat":39.11,"long":-86.26,"state":"Indiana"},"type":"Feature","geometry":{"type":"Point","coordinates":[-86.26,39.11]}},{"properties":{"name":"Chain O'Lakes","id":"a6kd45ipdw2h","lat":41.33,"long":-85.38,"state":"Indiana"},"type":"Feature","geometry":{"type":"Point","coordinates":[-85.38,41.33]}},{"properties":{"name":"Charlestown","id":"a6kd45id0fab","lat":38.43,"long":-85.63,"state":"Indiana"},"type":"Feature","geometry":{"type":"Point","coordinates":[-85.63,38.43]}},{"properties":{"name":"Clifty Falls","id":"a6kd45qym0fz","lat":38.76,"long":-85.42,"state":"Indiana"},"type":"Feature","geometry":{"type":"Point","coordinates":[-85.42,38.76]}},{"properties":{"name":"Falls of the Ohio","id":"a6kd45krcqow","lat":38.277,"long":-85.763,"state":"Indiana"},"type":"Feature","geometry":{"type":"Point","coordinates":[-85.763,38.277]}},{"properties":{"name":"Fort Harrison","id":"a6kd45m8n664","lat":39.87,"long":-86.01,"state":"Indiana"},"type":"Feature","geometry":{"type":"Point","coordinates":[-86.01,39.87]}},{"properties":{"name":"Harmonie","id":"a6kd45vywr66","lat":38.06,"long":-87.95,"state":"Indiana"},"type":"Feature","geometry":{"type":"Point","coordinates":[-87.95,38.06]}},{"properties":{"name":"Indiana Dunes","id":"a6kd45x1m4hn","lat":41.66,"long":-87.04,"state":"Indiana"},"type":"Feature","geometry":{"type":"Point","coordinates":[-87.04,41.66]}},{"properties":{"name":"Lincoln","id":"a6kd45k5iqai","lat":38.1,"long":-86.0,"state":"Indiana"},"type":"Feature","geometry":{"type":"Point","coordinates":[-86.0,38.1]}},{"properties":{"name":"McCormick's Creek State Park","id":"a6kd45mnvqhg","lat":39.29,"long":-86.73,"state":"Indiana"},"type":"Feature","geometry":{"type":"Point","coordinates":[-86.73,39.29]}},{"properties":{"name":"Mounds State Park","id":"a6kd45p2p06q","lat":40.1,"long":-85.62,"state":"Indiana"},"type":"Feature","geometry":{"type":"Point","coordinates":[-85.62,40.1]}},{"properties":{"name":"O'Banon Woods State Park","id":"a6kd45q03zhm","lat":38.23,"long":-86.3,"state":"Indiana"},"type":"Feature","geometry":{"type":"Point","coordinates":[-86.3,38.23]}},{"properties":{"name":"Ouabache State Park","id":"a6kd45qwdecw","lat":40.72,"long":-86.11,"state":"Indiana"},"type":"Feature","geometry":{"type":"Point","coordinates":[-86.11,40.72]}},{"properties":{"name":"Pokagon State Park","id":"a6kd45k5s35y","lat":41.71,"long":-85.36,"state":"Indiana"},"type":"Feature","geometry":{"type":"Point","coordinates":[-85.36,41.71]}},{"properties":{"name":"Potato Creek State Park","id":"a6kd45nq3lb9","lat":41.55,"long":-86.58,"state":"Indiana"},"type":"Feature","geometry":{"type":"Point","coordinates":[-86.58,41.55]}},{"properties":{"name":"Prophetstown State Park","id":"a6kd45jy7n1l","lat":40.5,"long":-86.83,"state":"Indiana"},"type":"Feature","geometry":{"type":"Point","coordinates":[-86.83,40.5]}},{"properties":{"name":"Shades State Park","id":"a6kd45lllgsl","lat":39.93,"long":-87.08,"state":"Indiana"},"type":"Feature","geometry":{"type":"Point","coordinates":[-87.08,39.93]}},{"properties":{"name":"Shakamak State Park","id":"a6kd45oqd97o","lat":39.17,"long":-87.24,"state":"Indiana"},"type":"Feature","geometry":{"type":"Point","coordinates":[-87.24,39.17]}},{"properties":{"name":"Spring Mill State Park","id":"a6kd45k3g74x","lat":38.73,"long":-86.42,"state":"Indiana"},"type":"Feature","geometry":{"type":"Point","coordinates":[-86.42,38.73]}},{"properties":{"name":"Summit Lake State Park","id":"a6kd45myqb5m","lat":40.03,"long":-85.3,"state":"Indiana"},"type":"Feature","geometry":{"type":"Point","coordinates":[-85.3,40.03]}},{"properties":{"name":"Tippecanoe River State Park","id":"a6kd45tvzr8x","lat":41.15,"long":-86.6,"state":"Indiana"},"type":"Feature","geometry":{"type":"Point","coordinates":[-86.6,41.15]}},{"properties":{"name":"Turkey Run State Park","id":"a6kd45qi06cx","lat":39.88,"long":-87.21,"state":"Indiana"},"type":"Feature","geometry":{"type":"Point","coordinates":[-87.21,39.88]}},{"properties":{"name":"Versailles State Park","id":"a6kd45tj7pkz","lat":39.08,"long":-85.23,"state":"Indiana"},"type":"Feature","geometry":{"type":"Point","coordinates":[-85.23,39.08]}},{"properties":{"name":"White River State Park","id":"a6kd45n3bt22","lat":39.77,"long":-86.17,"state":"Indiana"},"type":"Feature","geometry":{"type":"Point","coordinates":[-86.17,39.77]}},{"properties":{"name":"Whitewater Memorial State Park","id":"a6kd45o5awqa","lat":39.61,"long":-84.97,"state":"Indiana"},"type":"Feature","geometry":{"type":"Point","coordinates":[-84.97,39.61]}},{"properties":{"name":"Red Haw State Park","id":"a6kd45rp0ipx","lat":40.999722,"long":-93.276944,"state":"Iowa"},"type":"Feature","geometry":{"type":"Point","coordinates":[-93.276944,40.999722]}},{"properties":{"name":"Rock Creek State Park","id":"a6kd45ju2s5d","lat":41.748889,"long":-92.8425,"state":"Iowa"},"type":"Feature","geometry":{"type":"Point","coordinates":[-92.8425,41.748889]}},{"properties":{"name":"Spring brook State Park","id":"a6kd45r0fa6y","lat":41.776667,"long":-94.459444,"state":"Iowa"},"type":"Feature","geometry":{"type":"Point","coordinates":[-94.459444,41.776667]}},{"properties":{"name":"Stone State Park","id":"a6kd45n4yofa","lat":42.548889,"long":-96.466667,"state":"Iowa"},"type":"Feature","geometry":{"type":"Point","coordinates":[-96.466667,42.548889]}},{"properties":{"name":"Walnut Woods State Park","id":"a6kd45uaoqna","lat":41.541944,"long":-93.742778,"state":"Iowa"},"type":"Feature","geometry":{"type":"Point","coordinates":[-93.742778,41.541944]}},{"properties":{"name":"Waubonsie State Park","id":"a6kd45po6dn9","lat":40.672222,"long":-95.988333,"state":"Iowa"},"type":"Feature","geometry":{"type":"Point","coordinates":[-95.988333,40.672222]}},{"properties":{"name":"Wildcat Den State Park","id":"a6kd45l4ouk3","lat":41.469444,"long":-90.882222,"state":"Iowa"},"type":"Feature","geometry":{"type":"Point","coordinates":[-90.882222,41.469444]}},{"properties":{"name":"Ambrose A Call State Park","id":"a6kd45n3xy36","lat":43.051111,"long":-94.25,"state":"Iowa"},"type":"Feature","geometry":{"type":"Point","coordinates":[-94.25,43.051111]}},{"properties":{"name":"Backbone State Park","id":"a6kd45q19wzl","lat":42.633056,"long":-91.561667,"state":"Iowa"},"type":"Feature","geometry":{"type":"Point","coordinates":[-91.561667,42.633056]}},{"properties":{"name":"Bellevue State Park","id":"a6kd45no7xmg","lat":42.247222,"long":-90.422778,"state":"Iowa"},"type":"Feature","geometry":{"type":"Point","coordinates":[-90.422778,42.247222]}},{"properties":{"name":"Black Hawk State Park","id":"a6kd45qe5krn","lat":42.293333,"long":-95.023333,"state":"Iowa"},"type":"Feature","geometry":{"type":"Point","coordinates":[-95.023333,42.293333]}},{"properties":{"name":"Cedar Rock State Park","id":"a6kd45pg0m7n","lat":42.406111,"long":-91.77,"state":"Iowa"},"type":"Feature","geometry":{"type":"Point","coordinates":[-91.77,42.406111]}},{"properties":{"name":"Clear Lake State Park","id":"a6kd45jkj57o","lat":43.125556,"long":-93.424722,"state":"Iowa"},"type":"Feature","geometry":{"type":"Point","coordinates":[-93.424722,43.125556]}},{"properties":{"name":"Dolliver Memorial State Park","id":"a6kd45lkfgaz","lat":42.386944,"long":-94.083611,"state":"Iowa"},"type":"Feature","geometry":{"type":"Point","coordinates":[-94.083611,42.386944]}},{"properties":{"name":"Elinor Bedell State Park","id":"a6kd45stq13p","lat":43.412222,"long":-95.070556,"state":"Iowa"},"type":"Feature","geometry":{"type":"Point","coordinates":[-95.070556,43.412222]}},{"properties":{"name":"Elk Rock State Park","id":"a6kd45nynavm","lat":41.400833,"long":-93.086944,"state":"Iowa"},"type":"Feature","geometry":{"type":"Point","coordinates":[-93.086944,41.400833]}},{"properties":{"name":"Fort Atkinson State Preserve","id":"a6kd45suipkd","lat":43.145278,"long":-91.939444,"state":"Iowa"},"type":"Feature","geometry":{"type":"Point","coordinates":[-91.939444,43.145278]}},{"properties":{"name":"Fort Defiance State Park","id":"a6kd45oric9y","lat":43.391944,"long":-94.860278,"state":"Iowa"},"type":"Feature","geometry":{"type":"Point","coordinates":[-94.860278,43.391944]}},{"properties":{"name":"Geode State Park","id":"a6kd45h5bxvd","lat":40.826111,"long":-91.380278,"state":"Iowa"},"type":"Feature","geometry":{"type":"Point","coordinates":[-91.380278,40.826111]}},{"properties":{"name":"George Wyth Memorial State Park","id":"a6kd45tb67yf","lat":42.535278,"long":-92.401111,"state":"Iowa"},"type":"Feature","geometry":{"type":"Point","coordinates":[-92.401111,42.535278]}},{"properties":{"name":"Green Valley State Park","id":"a6kd45wonl7z","lat":41.1025,"long":-94.386389,"state":"Iowa"},"type":"Feature","geometry":{"type":"Point","coordinates":[-94.386389,41.1025]}},{"properties":{"name":"Gull Point State Park","id":"a6kd45msva8k","lat":43.370833,"long":-95.165278,"state":"Iowa"},"type":"Feature","geometry":{"type":"Point","coordinates":[-95.165278,43.370833]}},{"properties":{"name":"Lake Ahquabi State Park","id":"a6kd45u2h769","lat":41.289444,"long":-93.590833,"state":"Iowa"},"type":"Feature","geometry":{"type":"Point","coordinates":[-93.590833,41.289444]}},{"properties":{"name":"Lake Anita State Park","id":"a6kd45orjp09","lat":41.423889,"long":-94.775833,"state":"Iowa"},"type":"Feature","geometry":{"type":"Point","coordinates":[-94.775833,41.423889]}},{"properties":{"name":"Lake Darling State Park","id":"a6kd45i5buni","lat":41.11667,"long":-91.895833,"state":"Iowa"},"type":"Feature","geometry":{"type":"Point","coordinates":[-91.895833,41.11667]}},{"properties":{"name":"Lake Keomah State Park","id":"a6kd45o5qmjo","lat":41.289722,"long":-92.540833,"state":"Iowa"},"type":"Feature","geometry":{"type":"Point","coordinates":[-92.540833,41.289722]}},{"properties":{"name":"Ledges State Park","id":"a6kd45qwqnjb","lat":41.990833,"long":-93.883333,"state":"Iowa"},"type":"Feature","geometry":{"type":"Point","coordinates":[-93.883333,41.990833]}},{"properties":{"name":"Manquoketa Caves State Park","id":"a6kd45ihg4l9","lat":42.118333,"long":-90.778056,"state":"Iowa"},"type":"Feature","geometry":{"type":"Point","coordinates":[-90.778056,42.118333]}},{"properties":{"name":"Okamanpeedan Lake","id":"a6kd45x9yg71","lat":43.505556,"long":-94.575,"state":"Iowa"},"type":"Feature","geometry":{"type":"Point","coordinates":[-94.575,43.505556]}},{"properties":{"name":"Pikes Peak State Park","id":"a6kd45q7nuni","lat":42.996944,"long":-91.163611,"state":"Iowa"},"type":"Feature","geometry":{"type":"Point","coordinates":[-91.163611,42.996944]}},{"properties":{"name":"Pine Lake State Park","id":"a6kd45xfijqu","lat":42.370278,"long":-93.077778,"state":"Iowa"},"type":"Feature","geometry":{"type":"Point","coordinates":[-93.077778,42.370278]}},{"properties":{"name":"Preparation Canyon State Park","id":"a6kd45lmuog3","lat":41.8930637,"long":-95.9079551,"state":"Iowa"},"type":"Feature","geometry":{"type":"Point","coordinates":[-95.9079551,41.8930637]}},{"properties":{"name":"Rice Lake State Park","id":"a6kd45tsg8qy","lat":43.396246,"long":-93.4927655,"state":"Iowa"},"type":"Feature","geometry":{"type":"Point","coordinates":[-93.4927655,43.396246]}},{"properties":{"name":"Templar Park Saint State Park","id":"a6kd45nkikms","lat":43.4566245,"long":-95.1178018,"state":"Iowa"},"type":"Feature","geometry":{"type":"Point","coordinates":[-95.1178018,43.4566245]}},{"properties":{"name":"Trapper's Bay State Park","id":"a6kd45j7vuib","lat":43.4551988,"long":-95.3331264,"state":"Iowa"},"type":"Feature","geometry":{"type":"Point","coordinates":[-95.3331264,43.4551988]}},{"properties":{"name":"Twin Lakes State Park","id":"a6kd45rc1sxq","lat":42.4592067,"long":-94.6527845,"state":"Iowa"},"type":"Feature","geometry":{"type":"Point","coordinates":[-94.6527845,42.4592067]}},{"properties":{"name":"Union Grove State Park","id":"a6kd45ltyoty","lat":42.130234,"long":-92.7133005,"state":"Iowa"},"type":"Feature","geometry":{"type":"Point","coordinates":[-92.7133005,42.130234]}},{"properties":{"name":"Viking Lake State Park","id":"a6kd45i7iwvf","lat":40.9724775,"long":-93.0364522,"state":"Iowa"},"type":"Feature","geometry":{"type":"Point","coordinates":[-93.0364522,40.9724775]}},{"properties":{"name":"Volga State Park","id":"a6kd45rmwvhv","lat":42.8794812,"long":-91.7636181,"state":"Iowa"},"type":"Feature","geometry":{"type":"Point","coordinates":[-91.7636181,42.8794812]}},{"properties":{"name":"Wapsipinicon State Park","id":"a6kd45s11qxl","lat":42.0944979,"long":-91.2854924,"state":"Iowa"},"type":"Feature","geometry":{"type":"Point","coordinates":[-91.2854924,42.0944979]}},{"properties":{"name":"Wilson Island State Park","id":"a6kd45tpj6ql","lat":41.4819951,"long":-96.0070569,"state":"Iowa"},"type":"Feature","geometry":{"type":"Point","coordinates":[-96.0070569,41.4819951]}},{"properties":{"name":"Banner Lakes at Summerset State Park","id":"a6kd45tq1wj1","lat":41.4429335,"long":-93.5496428,"state":"Iowa"},"type":"Feature","geometry":{"type":"Point","coordinates":[-93.5496428,41.4429335]}},{"properties":{"name":"Beed's Lake State Park","id":"a6kd45kbfmtn","lat":42.7703605,"long":-93.2470488,"state":"Iowa"},"type":"Feature","geometry":{"type":"Point","coordinates":[-93.2470488,42.7703605]}},{"properties":{"name":"Big Creek State Park","id":"a6kd45l6b2bs","lat":41.8143208,"long":-93.7384311,"state":"Iowa"},"type":"Feature","geometry":{"type":"Point","coordinates":[-93.7384311,41.8143208]}},{"properties":{"name":"Emerson Bay State Park","id":"a6kd45x19m30","lat":43.3575275,"long":-95.1761201,"state":"Iowa"},"type":"Feature","geometry":{"type":"Point","coordinates":[-95.1761201,43.3575275]}},{"properties":{"name":"Wildcat Den State Park","id":"a6kd45l40gji","lat":41.4703888,"long":-90.8841992,"state":"Iowa"},"type":"Feature","geometry":{"type":"Point","coordinates":[-90.8841992,41.4703888]}},{"properties":{"name":"Honey Creek Resort State Park","id":"a6kd45n64wis","lat":40.8786682,"long":-92.930081,"state":"Iowa"},"type":"Feature","geometry":{"type":"Point","coordinates":[-92.930081,40.8786682]}},{"properties":{"name":"Lacey-Keosauqua State Park","id":"a6kd45q1375v","lat":40.7116807,"long":-91.9759204,"state":"Iowa"},"type":"Feature","geometry":{"type":"Point","coordinates":[-91.9759204,40.7116807]}},{"properties":{"name":"Lake Macbride State Park","id":"a6kd45r2z1q7","lat":41.8042861,"long":-91.5709591,"state":"Iowa"},"type":"Feature","geometry":{"type":"Point","coordinates":[-91.5709591,41.8042861]}},{"properties":{"name":"Lake Manawa State Park","id":"a6kd45mqke02","lat":41.1971563,"long":-95.8617632,"state":"Iowa"},"type":"Feature","geometry":{"type":"Point","coordinates":[-95.8617632,41.1971563]}},{"properties":{"name":"Lake of Three Fires State Park","id":"a6kd45lw9vk8","lat":40.7170025,"long":-94.6915484,"state":"Iowa"},"type":"Feature","geometry":{"type":"Point","coordinates":[-94.6915484,40.7170025]}},{"properties":{"name":"Lake Wapello State Park","id":"a6kd45x9uk5t","lat":40.8160931,"long":-92.5866855,"state":"Iowa"},"type":"Feature","geometry":{"type":"Point","coordinates":[-92.5866855,40.8160931]}},{"properties":{"name":"Lewis and Clark State Park","id":"a6kd45mmy1jh","lat":42.0434499,"long":-96.1712596,"state":"Iowa"},"type":"Feature","geometry":{"type":"Point","coordinates":[-96.1712596,42.0434499]}},{"properties":{"name":"Lower Gar State Park","id":"a6kd45qom3od","lat":43.3525408,"long":-95.1197556,"state":"Iowa"},"type":"Feature","geometry":{"type":"Point","coordinates":[-95.1197556,43.3525408]}},{"properties":{"name":"Marble Beach State Park","id":"a6kd45q5e12y","lat":43.4671993,"long":-95.1230122,"state":"Iowa"},"type":"Feature","geometry":{"type":"Point","coordinates":[-95.1230122,43.4671993]}},{"properties":{"name":"McIntosh Woods State Park","id":"a6kd45ufo7fn","lat":43.1300515,"long":-95.4523589,"state":"Iowa"},"type":"Feature","geometry":{"type":"Point","coordinates":[-95.4523589,43.1300515]}},{"properties":{"name":"Mini-Wakan State Park","id":"a6kd45qayj03","lat":43.4997705,"long":-95.0992438,"state":"Iowa"},"type":"Feature","geometry":{"type":"Point","coordinates":[-95.0992438,43.4997705]}},{"properties":{"name":"Nine Eagles State Park","id":"a6kd45votwl5","lat":40.59909,"long":-93.7587457,"state":"Iowa"},"type":"Feature","geometry":{"type":"Point","coordinates":[-93.7587457,40.59909]}},{"properties":{"name":"Palisades-Kepler State Park","id":"a6kd45unmomd","lat":41.9072903,"long":-91.5087605,"state":"Iowa"},"type":"Feature","geometry":{"type":"Point","coordinates":[-91.5087605,41.9072903]}},{"properties":{"name":"Pikes Point State Park","id":"a6kd45i96ccq","lat":43.4158724,"long":-95.1624311,"state":"Iowa"},"type":"Feature","geometry":{"type":"Point","coordinates":[-95.1624311,43.4158724]}},{"properties":{"name":"Pilot Knob State Park","id":"a6kd45pkl80a","lat":43.2527018,"long":-93.5534369,"state":"Iowa"},"type":"Feature","geometry":{"type":"Point","coordinates":[-93.5534369,43.2527018]}},{"properties":{"name":"Pleasant Creek State Park","id":"a6kd45k5s9sz","lat":42.118074,"long":-91.8269573,"state":"Iowa"},"type":"Feature","geometry":{"type":"Point","coordinates":[-91.8269573,42.118074]}},{"properties":{"name":"Prairie Rose State Park","id":"a6kd45lnxm5r","lat":41.6039296,"long":-95.2175331,"state":"Iowa"},"type":"Feature","geometry":{"type":"Point","coordinates":[-95.2175331,41.6039296]}},{"properties":{"name":"Cedar Bluff State Park","id":"a6kd45vpzfig","lat":38.7740772,"long":-99.7650804,"state":"Kansas"},"type":"Feature","geometry":{"type":"Point","coordinates":[-99.7650804,38.7740772]}},{"properties":{"name":"Cheney State Park","id":"a6kd45sb5esq","lat":37.763889,"long":-97.794922,"state":"Kansas"},"type":"Feature","geometry":{"type":"Point","coordinates":[-97.794922,37.763889]}},{"properties":{"name":"Clinton State Park","id":"a6kd45nn1jjl","lat":38.9350207,"long":-95.3651679,"state":"Kansas"},"type":"Feature","geometry":{"type":"Point","coordinates":[-95.3651679,38.9350207]}},{"properties":{"name":"Crawford State Park","id":"a6kd45lykash","lat":37.6378568,"long":-94.8118909,"state":"Kansas"},"type":"Feature","geometry":{"type":"Point","coordinates":[-94.8118909,37.6378568]}},{"properties":{"name":"Cross Timbers State Park","id":"a6kd45pyflqs","lat":37.755922,"long":-95.9449341,"state":"Kansas"},"type":"Feature","geometry":{"type":"Point","coordinates":[-95.9449341,37.755922]}},{"properties":{"name":"Eisenhower State Park","id":"a6kd45w2bb2q","lat":38.5200227,"long":-95.7484139,"state":"Kansas"},"type":"Feature","geometry":{"type":"Point","coordinates":[-95.7484139,38.5200227]}},{"properties":{"name":"El Dorado State Park","id":"a6kd45q7sre1","lat":37.8615081,"long":-96.7574289,"state":"Kansas"},"type":"Feature","geometry":{"type":"Point","coordinates":[-96.7574289,37.8615081]}},{"properties":{"name":"Elk  City State Park","id":"a6kd45s7q7eb","lat":37.2542517,"long":-95.7734377,"state":"Kansas"},"type":"Feature","geometry":{"type":"Point","coordinates":[-95.7734377,37.2542517]}},{"properties":{"name":"Fall River State Park","id":"a6kd45un97m8","lat":37.6541157,"long":-96.097049,"state":"Kansas"},"type":"Feature","geometry":{"type":"Point","coordinates":[-96.097049,37.6541157]}},{"properties":{"name":"Glen Elder State Park","id":"a6kd45qc7924","lat":39.505852,"long":-98.3225325,"state":"Kansas"},"type":"Feature","geometry":{"type":"Point","coordinates":[-98.3225325,39.505852]}},{"properties":{"name":"Hillsdale State Park","id":"a6kd45x5u7p3","lat":38.6583315,"long":-94.9234094,"state":"Kansas"},"type":"Feature","geometry":{"type":"Point","coordinates":[-94.9234094,38.6583315]}},{"properties":{"name":"Kaw River State Park","id":"a6kd45ulq1qf","lat":39.1163649,"long":-94.6117894,"state":"Kansas"},"type":"Feature","geometry":{"type":"Point","coordinates":[-94.6117894,39.1163649]}},{"properties":{"name":"Kanopolis State Park","id":"a6kd45k05d3y","lat":38.6540422,"long":-98.0001633,"state":"Kansas"},"type":"Feature","geometry":{"type":"Point","coordinates":[-98.0001633,38.6540422]}},{"properties":{"name":"Lovewell State Park","id":"a6kd45nmel8i","lat":39.9054357,"long":-98.05061,"state":"Kansas"},"type":"Feature","geometry":{"type":"Point","coordinates":[-98.05061,39.9054357]}},{"properties":{"name":"Meade State Park","id":"a6kd45rvy6t0","lat":37.1689661,"long":-100.4424658,"state":"Kansas"},"type":"Feature","geometry":{"type":"Point","coordinates":[-100.4424658,37.1689661]}},{"properties":{"name":"Milford State Park","id":"a6kd45x809su","lat":39.1035284,"long":-96.9021321,"state":"Kansas"},"type":"Feature","geometry":{"type":"Point","coordinates":[-96.9021321,39.1035284]}},{"properties":{"name":"Mushroom Rock State Park","id":"a6kd45jfq9mi","lat":38.7256569,"long":-98.0306657,"state":"Kansas"},"type":"Feature","geometry":{"type":"Point","coordinates":[-98.0306657,38.7256569]}},{"properties":{"name":"Perry State Park","id":"152","lat":"39.1348294","long":"-9.5483E+12","state":"Kansas"},"type":"Feature","geometry":{"type":"Point","coordinates":[-9548300000000.0,39.1348294]}},{"properties":{"name":"Vassar State Park","id":"153","lat":"38.6545906","long":"-9.5893E+11","state":"Kansas"},"type":"Feature","geometry":{"type":"Point","coordinates":[-958930000000.0,38.6545906]}},{"properties":{"name":"Prairie Dog State Park","id":"a6kd45pupszb","lat":39.8072286,"long":-99.9493019,"state":"Kansas"},"type":"Feature","geometry":{"type":"Point","coordinates":[-99.9493019,39.8072286]}},{"properties":{"name":"Prairie Spirit Trail State Park","id":"a6kd45u2944s","lat":39.011902,"long":-98.4842465,"state":"Kansas"},"type":"Feature","geometry":{"type":"Point","coordinates":[-98.4842465,39.011902]}},{"properties":{"name":"Sand Hills State Park","id":"a6kd45lxqyu9","lat":38.1231028,"long":-97.8449549,"state":"Kansas"},"type":"Feature","geometry":{"type":"Point","coordinates":[-97.8449549,38.1231028]}},{"properties":{"name":"Scott State Park","id":"a6kd45ho3kf8","lat":38.6767907,"long":-100.9157235,"state":"Kansas"},"type":"Feature","geometry":{"type":"Point","coordinates":[-100.9157235,38.6767907]}},{"properties":{"name":"Tuttle Creek State Park","id":"a6kd45lpi4c3","lat":39.2572534,"long":-96.58301,"state":"Kansas"},"type":"Feature","geometry":{"type":"Point","coordinates":[-96.58301,39.2572534]}},{"properties":{"name":"Webster State Park","id":"a6kd45tpieag","lat":39.4027596,"long":-99.4644893,"state":"Kansas"},"type":"Feature","geometry":{"type":"Point","coordinates":[-99.4644893,39.4027596]}},{"properties":{"name":"Wilson State Park","id":"a6kd45i8obhi","lat":38.9146516,"long":-98.5034561,"state":"Kansas"},"type":"Feature","geometry":{"type":"Point","coordinates":[-98.5034561,38.9146516]}},{"properties":{"name":"Algonac State Park","id":"a6kd45tn75ap","lat":42.6547684,"long":-82.5348172,"state":"Michigan"},"type":"Feature","geometry":{"type":"Point","coordinates":[-82.5348172,42.6547684]}},{"properties":{"name":"Aloha State Park","id":"a6kd45h9b6gj","lat":45.5201373,"long":-84.4643295,"state":"Michigan"},"type":"Feature","geometry":{"type":"Point","coordinates":[-84.4643295,45.5201373]}},{"properties":{"name":"Baraga State Park","id":"a6kd45og30el","lat":46.760435,"long":-88.501116,"state":"Michigan"},"type":"Feature","geometry":{"type":"Point","coordinates":[-88.501116,46.760435]}},{"properties":{"name":"Bewabic State Park","id":"a6kd45ozxf96","lat":46.0909236,"long":-88.4321049,"state":"Michigan"},"type":"Feature","geometry":{"type":"Point","coordinates":[-88.4321049,46.0909236]}},{"properties":{"name":"Brimley State Park","id":"a6kd45jyoza4","lat":46.4140935,"long":-84.5578252,"state":"Michigan"},"type":"Feature","geometry":{"type":"Point","coordinates":[-84.5578252,46.4140935]}},{"properties":{"name":"Burt Lake State Park","id":"a6kd45r4w7u2","lat":45.3925362,"long":-84.6386138,"state":"Michigan"},"type":"Feature","geometry":{"type":"Point","coordinates":[-84.6386138,45.3925362]}},{"properties":{"name":"Cambridge Junction Historic State Park","id":"a6kd45woz2vd","lat":44.3148443,"long":-85.6023643,"state":"Michigan"},"type":"Feature","geometry":{"type":"Point","coordinates":[-85.6023643,44.3148443]}},{"properties":{"name":"Cheboygan State Park","id":"a6kd45jlgatt","lat":45.648692,"long":-84.408623,"state":"Michigan"},"type":"Feature","geometry":{"type":"Point","coordinates":[-84.408623,45.648692]}},{"properties":{"name":"Clear Lake State Park","id":"a6kd45rzllts","lat":45.137617,"long":-84.1905393,"state":"Michigan"},"type":"Feature","geometry":{"type":"Point","coordinates":[-84.1905393,45.137617]}},{"properties":{"name":"Coldwater Lake State Park","id":"a6kd45ltum2k","lat":41.8025036,"long":-84.9739521,"state":"Michigan"},"type":"Feature","geometry":{"type":"Point","coordinates":[-84.9739521,41.8025036]}},{"properties":{"name":"Craig Lake State Park","id":"a6kd45hm5k9i","lat":46.60777582,"long":-88.1748415,"state":"Michigan"},"type":"Feature","geometry":{"type":"Point","coordinates":[-88.1748415,46.60777582]}},{"properties":{"name":"Dodge #4 State Park","id":"a6kd45oo9grw","lat":42.6148587,"long":-83.3695896,"state":"Michigan"},"type":"Feature","geometry":{"type":"Point","coordinates":[-83.3695896,42.6148587]}},{"properties":{"name":"Duck Lake State Park","id":"a6kd45v3l7v7","lat":43.3474695,"long":-86.390883,"state":"Michigan"},"type":"Feature","geometry":{"type":"Point","coordinates":[-86.390883,43.3474695]}},{"properties":{"name":"Fayette Historic State Park","id":"a6kd45oknffc","lat":45.7198765,"long":-86.3227952,"state":"Michigan"},"type":"Feature","geometry":{"type":"Point","coordinates":[-86.3227952,45.7198765]}},{"properties":{"name":"Fisherman's Island State Park","id":"a6kd45hxq4gz","lat":45.2808785,"long":-85.3486883,"state":"Michigan"},"type":"Feature","geometry":{"type":"Point","coordinates":[-85.3486883,45.2808785]}},{"properties":{"name":"Fort Wilkins State Park","id":"a6kd45tf4pa5","lat":47.4672762,"long":-87.8674718,"state":"Michigan"},"type":"Feature","geometry":{"type":"Point","coordinates":[-87.8674718,47.4672762]}},{"properties":{"name":"Grand Haven State Park","id":"a6kd45n7bzc2","lat":43.0558029,"long":-86.2469686,"state":"Michigan"},"type":"Feature","geometry":{"type":"Point","coordinates":[-86.2469686,43.0558029]}},{"properties":{"name":"Grand Mere State Park","id":"a6kd45u97uym","lat":42.0016069,"long":-86.5451167,"state":"Michigan"},"type":"Feature","geometry":{"type":"Point","coordinates":[-86.5451167,42.0016069]}},{"properties":{"name":"Harrisville State Park","id":"a6kd45i10m3o","lat":44.6482406,"long":-83.2974204,"state":"Michigan"},"type":"Feature","geometry":{"type":"Point","coordinates":[-83.2974204,44.6482406]}},{"properties":{"name":"Hart-Montague Trail State Park","id":"a6kd45i8ck20","lat":43.655676,"long":-86.4111374,"state":"Michigan"},"type":"Feature","geometry":{"type":"Point","coordinates":[-86.4111374,43.655676]}},{"properties":{"name":"Hartwick Pines State Park","id":"a6kd45ubbtom","lat":44.7549078,"long":-84.6792931,"state":"Michigan"},"type":"Feature","geometry":{"type":"Point","coordinates":[-84.6792931,44.7549078]}},{"properties":{"name":"Hayes State Park","id":"a6kd45v3xiu9","lat":42.0644705,"long":-84.1355982,"state":"Michigan"},"type":"Feature","geometry":{"type":"Point","coordinates":[-84.1355982,42.0644705]}},{"properties":{"name":"Historic Mill Creek State Park","id":"a6kd45qpzt9o","lat":45.7442681,"long":-84.6668811,"state":"Michigan"},"type":"Feature","geometry":{"type":"Point","coordinates":[-84.6668811,45.7442681]}},{"properties":{"name":"Hoeft State Park","id":"a6kd45jrf99m","lat":45.4612304,"long":-83.8912946,"state":"Michigan"},"type":"Feature","geometry":{"type":"Point","coordinates":[-83.8912946,45.4612304]}},{"properties":{"name":"Hoffmaster State Park","id":"a6kd45j32pp2","lat":43.1186621,"long":-86.2615689,"state":"Michigan"},"type":"Feature","geometry":{"type":"Point","coordinates":[-86.2615689,43.1186621]}},{"properties":{"name":"Holland State Park","id":"a6kd45k40v0q","lat":42.7752484,"long":-86.2084968,"state":"Michigan"},"type":"Feature","geometry":{"type":"Point","coordinates":[-86.2084968,42.7752484]}},{"properties":{"name":"Indian Lake State Park","id":"a6kd45qznnq3","lat":45.941792,"long":-86.3376265,"state":"Michigan"},"type":"Feature","geometry":{"type":"Point","coordinates":[-86.3376265,45.941792]}},{"properties":{"name":"Interlochen State Park","id":"a6kd45o5nu5t","lat":44.627295,"long":-85.7628196,"state":"Michigan"},"type":"Feature","geometry":{"type":"Point","coordinates":[-85.7628196,44.627295]}},{"properties":{"name":"Kal-Haven Trail State Park","id":"a6kd45ok7li2","lat":42.3838038,"long":-85.963433,"state":"Michigan"},"type":"Feature","geometry":{"type":"Point","coordinates":[-85.963433,42.3838038]}},{"properties":{"name":"Lake Gogebic State Park","id":"a6kd45s4uss5","lat":46.4553547,"long":-89.5783576,"state":"Michigan"},"type":"Feature","geometry":{"type":"Point","coordinates":[-89.5783576,46.4553547]}},{"properties":{"name":"Lakelands Trail State Park","id":"a6kd45ut2zza","lat":42.4617112,"long":-83.9769817,"state":"Michigan"},"type":"Feature","geometry":{"type":"Point","coordinates":[-83.9769817,42.4617112]}},{"properties":{"name":"Lakeport State Park","id":"a6kd45i28y2x","lat":43.1238212,"long":-82.4959621,"state":"Michigan"},"type":"Feature","geometry":{"type":"Point","coordinates":[-82.4959621,43.1238212]}},{"properties":{"name":"Leelanau State Park","id":"a6kd45q9uyfu","lat":45.1831339,"long":-85.5688426,"state":"Michigan"},"type":"Feature","geometry":{"type":"Point","coordinates":[-85.5688426,45.1831339]}},{"properties":{"name":"Ludington State Park","id":"a6kd45qzjx3l","lat":44.0474721,"long":-86.504708,"state":"Michigan"},"type":"Feature","geometry":{"type":"Point","coordinates":[-86.504708,44.0474721]}},{"properties":{"name":"Mackinac Island State Park","id":"a6kd45tkcbd7","lat":45.8683129,"long":-84.6275658,"state":"Michigan"},"type":"Feature","geometry":{"type":"Point","coordinates":[-84.6275658,45.8683129]}},{"properties":{"name":"Fort Mackinac","id":"a6kd45pocnbi","lat":45.8522222,"long":-84.6172222,"state":"Michigan"},"type":"Feature","geometry":{"type":"Point","coordinates":[-84.6172222,45.8522222]}},{"properties":{"name":"Maybury State Park","id":"a6kd45vam4th","lat":42.429908,"long":-83.5310068,"state":"Michigan"},"type":"Feature","geometry":{"type":"Point","coordinates":[-83.5310068,42.429908]}},{"properties":{"name":"McLain State Park","id":"a6kd45rdjamk","lat":47.2363129,"long":-88.3070536,"state":"Michigan"},"type":"Feature","geometry":{"type":"Point","coordinates":[-88.3070536,47.2363129]}},{"properties":{"name":"Charles Mears State Park","id":"a6kd45toyt85","lat":43.796202,"long":-86.4301186,"state":"Michigan"},"type":"Feature","geometry":{"type":"Point","coordinates":[-86.4301186,43.796202]}},{"properties":{"name":"Meridian-Baseline Historic State Park","id":"a6kd45i85wmf","lat":42.4236696,"long":-84.3634056,"state":"Michigan"},"type":"Feature","geometry":{"type":"Point","coordinates":[-84.3634056,42.4236696]}},{"properties":{"name":"Old Mackinac Point Lighthouse","id":"a6kd45v8a8i3","lat":45.7868782,"long":-84.7284242,"state":"Michigan"},"type":"Feature","geometry":{"type":"Point","coordinates":[-84.7284242,45.7868782]}},{"properties":{"name":"Colonial Michilimackinac  Old Mackinac Point Lighthouse","id":"a6kd45q3sc9j","lat":45.7872163,"long":-84.7319747,"state":"Michigan"},"type":"Feature","geometry":{"type":"Point","coordinates":[-84.7319747,45.7872163]}},{"properties":{"name":"Mitchell State Park","id":"a6kd45l78ubk","lat":44.2498294,"long":-85.4504511,"state":"Michigan"},"type":"Feature","geometry":{"type":"Point","coordinates":[-85.4504511,44.2498294]}},{"properties":{"name":"Muskallonge Lake State Park","id":"a6kd45pupwvk","lat":46.6769371,"long":-85.6274629,"state":"Michigan"},"type":"Feature","geometry":{"type":"Point","coordinates":[-85.6274629,46.6769371]}},{"properties":{"name":"Negwegon State Park","id":"a6kd45orr2h1","lat":44.8659534,"long":-83.3275477,"state":"Michigan"},"type":"Feature","geometry":{"type":"Point","coordinates":[-83.3275477,44.8659534]}},{"properties":{"name":"Newaygo State Park","id":"a6kd45swwwub","lat":43.5022691,"long":-85.589507,"state":"Michigan"},"type":"Feature","geometry":{"type":"Point","coordinates":[-85.589507,43.5022691]}},{"properties":{"name":"North Higgins Lake State Park","id":"a6kd45h48o2v","lat":44.5134426,"long":-84.7537537,"state":"Michigan"},"type":"Feature","geometry":{"type":"Point","coordinates":[-84.7537537,44.5134426]}},{"properties":{"name":"Onaway State Park","id":"a6kd45uydzmh","lat":45.4345989,"long":-84.307709,"state":"Michigan"},"type":"Feature","geometry":{"type":"Point","coordinates":[-84.307709,45.4345989]}},{"properties":{"name":"Orchard Beach State Park","id":"a6kd45tdtg1z","lat":44.2796271,"long":-86.3110516,"state":"Michigan"},"type":"Feature","geometry":{"type":"Point","coordinates":[-86.3110516,44.2796271]}},{"properties":{"name":"Otsego Lake State Park","id":"a6kd45k65bc1","lat":44.931011,"long":-84.6895637,"state":"Michigan"},"type":"Feature","geometry":{"type":"Point","coordinates":[-84.6895637,44.931011]}},{"properties":{"name":"Palms Book State Park","id":"a6kd45m3ipew","lat":46.006317,"long":-86.3806956,"state":"Michigan"},"type":"Feature","geometry":{"type":"Point","coordinates":[-86.3806956,46.006317]}},{"properties":{"name":"Petoskey State Park","id":"a6kd45p3lb27","lat":45.4058458,"long":-84.9081834,"state":"Michigan"},"type":"Feature","geometry":{"type":"Point","coordinates":[-84.9081834,45.4058458]}},{"properties":{"name":"Porcupine Mountains State Park","id":"a6kd45kgwln3","lat":46.7283702,"long":-89.8213038,"state":"Michigan"},"type":"Feature","geometry":{"type":"Point","coordinates":[-89.8213038,46.7283702]}},{"properties":{"name":"Port Crescent State Park","id":"a6kd45n2h0sy","lat":43.9977133,"long":-83.0710358,"state":"Michigan"},"type":"Feature","geometry":{"type":"Point","coordinates":[-83.0710358,43.9977133]}},{"properties":{"name":"Rockport State Park","id":"a6kd45t1zdpz","lat":45.2082359,"long":-83.4115594,"state":"Michigan"},"type":"Feature","geometry":{"type":"Point","coordinates":[-83.4115594,45.2082359]}},{"properties":{"name":"Sanilac Petroglyphs Historic State Park","id":"a6kd45p0awmz","lat":43.6502943,"long":-83.030767,"state":"Michigan"},"type":"Feature","geometry":{"type":"Point","coordinates":[-83.030767,43.6502943]}},{"properties":{"name":"Saugatuck Dunes State Park","id":"a6kd45vkjfde","lat":42.7006675,"long":-86.1947393,"state":"Michigan"},"type":"Feature","geometry":{"type":"Point","coordinates":[-86.1947393,42.7006675]}},{"properties":{"name":"Seven Lakes State Park","id":"a6kd45q7eff8","lat":42.808665,"long":-83.6720756,"state":"Michigan"},"type":"Feature","geometry":{"type":"Point","coordinates":[-83.6720756,42.808665]}},{"properties":{"name":"Silver Lake State Park","id":"a6kd45ibvy1f","lat":43.6756419,"long":-86.5148133,"state":"Michigan"},"type":"Feature","geometry":{"type":"Point","coordinates":[-86.5148133,43.6756419]}},{"properties":{"name":"Sleeper State Park","id":"a6kd45uv582w","lat":43.9722541,"long":-83.1997296,"state":"Michigan"},"type":"Feature","geometry":{"type":"Point","coordinates":[-83.1997296,43.9722541]}},{"properties":{"name":"Sleepy Hollow State Park","id":"a6kd45pqe86q","lat":42.9367696,"long":-84.412014,"state":"Michigan"},"type":"Feature","geometry":{"type":"Point","coordinates":[-84.412014,42.9367696]}},{"properties":{"name":"South Higgins Lake State Park","id":"a6kd45om8yv3","lat":44.4215584,"long":-84.6740642,"state":"Michigan"},"type":"Feature","geometry":{"type":"Point","coordinates":[-84.6740642,44.4215584]}},{"properties":{"name":"Sterling State Park","id":"a6kd45s4j6d7","lat":41.9199614,"long":-83.3415334,"state":"Michigan"},"type":"Feature","geometry":{"type":"Point","coordinates":[-83.3415334,41.9199614]}},{"properties":{"name":"Straits State Park","id":"a6kd45i8eyex","lat":45.852207,"long":-84.7162365,"state":"Michigan"},"type":"Feature","geometry":{"type":"Point","coordinates":[-84.7162365,45.852207]}},{"properties":{"name":"Tahquamenon Falls State Park","id":"a6kd45n63mcz","lat":46.5886671,"long":-85.1833161,"state":"Michigan"},"type":"Feature","geometry":{"type":"Point","coordinates":[-85.1833161,46.5886671]}},{"properties":{"name":"Tawas Point State Park","id":"a6kd45o952ym","lat":44.2552303,"long":-83.4470142,"state":"Michigan"},"type":"Feature","geometry":{"type":"Point","coordinates":[-83.4470142,44.2552303]}},{"properties":{"name":"Thompson's Harbor State Park","id":"a6kd45k2eovt","lat":45.3519526,"long":-83.619851,"state":"Michigan"},"type":"Feature","geometry":{"type":"Point","coordinates":[-83.619851,45.3519526]}},{"properties":{"name":"Traverse City State Park","id":"a6kd45rpocw6","lat":44.7459403,"long":-85.550273,"state":"Michigan"},"type":"Feature","geometry":{"type":"Point","coordinates":[-85.550273,44.7459403]}},{"properties":{"name":"William G. Milliken State Park and Harbor","id":"a6kd45ma4kxz","lat":42.331944,"long":-83.02278,"state":"Michigan"},"type":"Feature","geometry":{"type":"Point","coordinates":[-83.02278,42.331944]}},{"properties":{"name":"Twin Lakes State Park","id":"a6kd45kuh3ow","lat":46.8915391,"long":-88.8559595,"state":"Michigan"},"type":"Feature","geometry":{"type":"Point","coordinates":[-88.8559595,46.8915391]}},{"properties":{"name":"Van Buren State Park","id":"a6kd45veead0","lat":42.3318449,"long":-86.2996368,"state":"Michigan"},"type":"Feature","geometry":{"type":"Point","coordinates":[-86.2996368,42.3318449]}},{"properties":{"name":"Van Buren Trail State Park","id":"a6kd45jcw1zv","lat":42.289433,"long":-86.2529544,"state":"Michigan"},"type":"Feature","geometry":{"type":"Point","coordinates":[-86.2529544,42.289433]}},{"properties":{"name":"Warren Dunes State Park","id":"a6kd45u0ui6o","lat":41.9235823,"long":-86.5854925,"state":"Michigan"},"type":"Feature","geometry":{"type":"Point","coordinates":[-86.5854925,41.9235823]}},{"properties":{"name":"Warren Woods State Park","id":"a6kd45sy7yf1","lat":41.8329431,"long":-86.6233149,"state":"Michigan"},"type":"Feature","geometry":{"type":"Point","coordinates":[-86.6233149,41.8329431]}},{"properties":{"name":"J. W. Wells State Park","id":"a6kd45hk5b3r","lat":45.3937252,"long":-87.369773,"state":"Michigan"},"type":"Feature","geometry":{"type":"Point","coordinates":[-87.369773,45.3937252]}},{"properties":{"name":"White Pine Trail State Park","id":"a6kd45ltbluq","lat":43.71775,"long":-85.4859,"state":"Michigan"},"type":"Feature","geometry":{"type":"Point","coordinates":[-85.4859,43.71775]}},{"properties":{"name":"Wilderness State Park","id":"a6kd45v6aj0e","lat":45.748807,"long":-84.8912335,"state":"Michigan"},"type":"Feature","geometry":{"type":"Point","coordinates":[-84.8912335,45.748807]}},{"properties":{"name":"Wilson State Park","id":"a6kd45uugg9s","lat":44.0286052,"long":-84.8039924,"state":"Michigan"},"type":"Feature","geometry":{"type":"Point","coordinates":[-84.8039924,44.0286052]}},{"properties":{"name":"Young State Park","id":"a6kd45v0mrro","lat":45.2322995,"long":-85.0510471,"state":"Michigan"},"type":"Feature","geometry":{"type":"Point","coordinates":[-85.0510471,45.2322995]}},{"properties":{"name":"Afton State Park","id":"a6kd45jfpz26","lat":44.8480517,"long":-92.7867759,"state":"Minnesota"},"type":"Feature","geometry":{"type":"Point","coordinates":[-92.7867759,44.8480517]}},{"properties":{"name":"Banning State Park","id":"a6kd45mq8or0","lat":46.1642939,"long":-92.8447317,"state":"Minnesota"},"type":"Feature","geometry":{"type":"Point","coordinates":[-92.8447317,46.1642939]}},{"properties":{"name":"Bear Head Lake State Park","id":"a6kd45ilt9lz","lat":47.791764,"long":-92.0791441,"state":"Minnesota"},"type":"Feature","geometry":{"type":"Point","coordinates":[-92.0791441,47.791764]}},{"properties":{"name":"Beaver Creek Valley State Park","id":"a6kd45ovr63s","lat":43.6446045,"long":-91.5826356,"state":"Minnesota"},"type":"Feature","geometry":{"type":"Point","coordinates":[-91.5826356,43.6446045]}},{"properties":{"name":"Big Stone Lake State Park","id":"a6kd45xgrzvl","lat":45.3843616,"long":-95.5164188,"state":"Minnesota"},"type":"Feature","geometry":{"type":"Point","coordinates":[-95.5164188,45.3843616]}},{"properties":{"name":"Blue Mounds State Park","id":"a6kd45k9dzj7","lat":43.7053199,"long":-96.179216,"state":"Minnesota"},"type":"Feature","geometry":{"type":"Point","coordinates":[-96.179216,43.7053199]}},{"properties":{"name":"Buffalo River State Park","id":"a6kd45pduzdi","lat":46.8640937,"long":-96.4599125,"state":"Minnesota"},"type":"Feature","geometry":{"type":"Point","coordinates":[-96.4599125,46.8640937]}},{"properties":{"name":"Camden State Park","id":"a6kd45s3izol","lat":44.3637967,"long":-95.9251211,"state":"Minnesota"},"type":"Feature","geometry":{"type":"Point","coordinates":[-95.9251211,44.3637967]}},{"properties":{"name":"Carley State Park","id":"a6kd45ksbi7b","lat":44.1169556,"long":-92.1757278,"state":"Minnesota"},"type":"Feature","geometry":{"type":"Point","coordinates":[-92.1757278,44.1169556]}},{"properties":{"name":"Cascade River State Park","id":"a6kd45o1r0u4","lat":47.698304,"long":-90.5622388,"state":"Minnesota"},"type":"Feature","geometry":{"type":"Point","coordinates":[-90.5622388,47.698304]}},{"properties":{"name":"Charles A. Lindbergh State Park","id":"a6kd45uvbm9l","lat":45.6436,"long":-94.387646,"state":"Minnesota"},"type":"Feature","geometry":{"type":"Point","coordinates":[-94.387646,45.6436]}},{"properties":{"name":"Crow Wing State Park","id":"a6kd45qjih3m","lat":46.2763769,"long":-94.3334276,"state":"Minnesota"},"type":"Feature","geometry":{"type":"Point","coordinates":[-94.3334276,46.2763769]}},{"properties":{"name":"Father Hennepin State Park","id":"a6kd45xhonek","lat":46.1473883,"long":-93.4985846,"state":"Minnesota"},"type":"Feature","geometry":{"type":"Point","coordinates":[-93.4985846,46.1473883]}},{"properties":{"name":"Flandrau State Park","id":"a6kd45hwgir3","lat":44.2906933,"long":-94.4722512,"state":"Minnesota"},"type":"Feature","geometry":{"type":"Point","coordinates":[-94.4722512,44.2906933]}},{"properties":{"name":"Forestville/Mystery Cave State Park","id":"a6kd45vksc36","lat":43.6449478,"long":-92.213889,"state":"Minnesota"},"type":"Feature","geometry":{"type":"Point","coordinates":[-92.213889,43.6449478]}},{"properties":{"name":"Fort Ridgely State Park","id":"a6kd45hezbf6","lat":44.4546027,"long":-94.735514,"state":"Minnesota"},"type":"Feature","geometry":{"type":"Point","coordinates":[-94.735514,44.4546027]}},{"properties":{"name":"Fort Snelling State park","id":"a6kd45qu5c64","lat":44.8670933,"long":-93.1829868,"state":"Minnesota"},"type":"Feature","geometry":{"type":"Point","coordinates":[-93.1829868,44.8670933]}},{"properties":{"name":"Franz Jevne State Park","id":"a6kd45udorw4","lat":48.6436381,"long":-94.0699075,"state":"Minnesota"},"type":"Feature","geometry":{"type":"Point","coordinates":[-94.0699075,48.6436381]}},{"properties":{"name":"Frontenac State Park","id":"a6kd45sp8tr2","lat":44.5308665,"long":-92.3468195,"state":"Minnesota"},"type":"Feature","geometry":{"type":"Point","coordinates":[-92.3468195,44.5308665]}},{"properties":{"name":"George H. Crosby Manitou State Park","id":"a6kd45jfsuxs","lat":47.4731831,"long":-91.1021921,"state":"Minnesota"},"type":"Feature","geometry":{"type":"Point","coordinates":[-91.1021921,47.4731831]}},{"properties":{"name":"Glacial Lakes State Park","id":"a6kd45rv5xrh","lat":45.5386891,"long":-95.515768,"state":"Minnesota"},"type":"Feature","geometry":{"type":"Point","coordinates":[-95.515768,45.5386891]}},{"properties":{"name":"Glendalough State Park","id":"a6kd45m87mav","lat":46.3230289,"long":-95.6694594,"state":"Minnesota"},"type":"Feature","geometry":{"type":"Point","coordinates":[-95.6694594,46.3230289]}},{"properties":{"name":"Gooseberry Falls State Park","id":"a6kd45wgqiy9","lat":47.1453853,"long":-91.4643142,"state":"Minnesota"},"type":"Feature","geometry":{"type":"Point","coordinates":[-91.4643142,47.1453853]}},{"properties":{"name":"Grand Portage State Park","id":"a6kd45hiar86","lat":47.9614022,"long":-90.0413921,"state":"Minnesota"},"type":"Feature","geometry":{"type":"Point","coordinates":[-90.0413921,47.9614022]}},{"properties":{"name":"Great River Bluffs State Park","id":"a6kd45wcwc12","lat":43.9399,"long":-91.3999969,"state":"Minnesota"},"type":"Feature","geometry":{"type":"Point","coordinates":[-91.3999969,43.9399]}},{"properties":{"name":"Hayes Lake State Park","id":"a6kd45na502p","lat":48.6314489,"long":-95.5374355,"state":"Minnesota"},"type":"Feature","geometry":{"type":"Point","coordinates":[-95.5374355,48.6314489]}},{"properties":{"name":"Hill-Annex Mine State Park","id":"a6kd45s6dc3r","lat":47.3290198,"long":-93.2759797,"state":"Minnesota"},"type":"Feature","geometry":{"type":"Point","coordinates":[-93.2759797,47.3290198]}},{"properties":{"name":"Interstate State Park","id":"a6kd45qoaqs1","lat":45.16667,"long":-92.6652778,"state":"Minnesota"},"type":"Feature","geometry":{"type":"Point","coordinates":[-92.6652778,45.16667]}},{"properties":{"name":"Itasca State Park","id":"a6kd45jfpgir","lat":47.1649735,"long":-95.1966977,"state":"Minnesota"},"type":"Feature","geometry":{"type":"Point","coordinates":[-95.1966977,47.1649735]}},{"properties":{"name":"Jay Cooke State Park","id":"a6kd45kgivfx","lat":46.6569716,"long":-92.3513569,"state":"Minnesota"},"type":"Feature","geometry":{"type":"Point","coordinates":[-92.3513569,46.6569716]}},{"properties":{"name":"John Latsch State Park","id":"a6kd45r5tepq","lat":44.1690564,"long":-91.8440259,"state":"Minnesota"},"type":"Feature","geometry":{"type":"Point","coordinates":[-91.8440259,44.1690564]}},{"properties":{"name":"Judge C. R Magney State Park","id":"a6kd45pbsc3x","lat":47.8610502,"long":-90.0651275,"state":"Minnesota"},"type":"Feature","geometry":{"type":"Point","coordinates":[-90.0651275,47.8610502]}},{"properties":{"name":"Kilen Woods State Park","id":"a6kd45ozmw15","lat":43.7233758,"long":-95.0585677,"state":"Minnesota"},"type":"Feature","geometry":{"type":"Point","coordinates":[-95.0585677,43.7233758]}},{"properties":{"name":"Lac qui Parle State Park","id":"a6kd45ioc4f8","lat":45.0238463,"long":-95.8841958,"state":"Minnesota"},"type":"Feature","geometry":{"type":"Point","coordinates":[-95.8841958,45.0238463]}},{"properties":{"name":"Lake Bemidji State Park","id":"a6kd45o17nxg","lat":47.5397161,"long":-94.8153346,"state":"Minnesota"},"type":"Feature","geometry":{"type":"Point","coordinates":[-94.8153346,47.5397161]}},{"properties":{"name":"Lake Bronson State Park","id":"a6kd45rkapw7","lat":48.7260362,"long":-96.6071996,"state":"Minnesota"},"type":"Feature","geometry":{"type":"Point","coordinates":[-96.6071996,48.7260362]}},{"properties":{"name":"Lake Carlos State Park","id":"a6kd45uiwq38","lat":46.0007414,"long":-95.345467,"state":"Minnesota"},"type":"Feature","geometry":{"type":"Point","coordinates":[-95.345467,46.0007414]}},{"properties":{"name":"Lake Louise State Park","id":"a6kd45is4e2f","lat":43.5233333,"long":-92.5152778,"state":"Minnesota"},"type":"Feature","geometry":{"type":"Point","coordinates":[-92.5152778,43.5233333]}},{"properties":{"name":"Lake Maria State Park","id":"a6kd45wtjeoy","lat":45.3158627,"long":-93.9484841,"state":"Minnesota"},"type":"Feature","geometry":{"type":"Point","coordinates":[-93.9484841,45.3158627]}},{"properties":{"name":"Lake Shetek State Park","id":"a6kd45rctlnr","lat":44.1071906,"long":-95.6872159,"state":"Minnesota"},"type":"Feature","geometry":{"type":"Point","coordinates":[-95.6872159,44.1071906]}},{"properties":{"name":"Maplewood State Park","id":"a6kd45udx5lm","lat":46.5065081,"long":-95.9472229,"state":"Minnesota"},"type":"Feature","geometry":{"type":"Point","coordinates":[-95.9472229,46.5065081]}},{"properties":{"name":"McCarthy Beach State Park","id":"a6kd45tglrvl","lat":47.6728435,"long":-93.0301666,"state":"Minnesota"},"type":"Feature","geometry":{"type":"Point","coordinates":[-93.0301666,47.6728435]}},{"properties":{"name":"Mille Lacs Kathio State Park","id":"a6kd45qxqbn1","lat":46.1285438,"long":-93.7538943,"state":"Minnesota"},"type":"Feature","geometry":{"type":"Point","coordinates":[-93.7538943,46.1285438]}},{"properties":{"name":"Minneopa State Park","id":"a6kd45hgp4s0","lat":44.1714996,"long":-94.1181171,"state":"Minnesota"},"type":"Feature","geometry":{"type":"Point","coordinates":[-94.1181171,44.1714996]}},{"properties":{"name":"Monson Lake State Park","id":"a6kd45mna531","lat":45.32616685,"long":-95.2687377,"state":"Minnesota"},"type":"Feature","geometry":{"type":"Point","coordinates":[-95.2687377,45.32616685]}},{"properties":{"name":"Moose Lake State Park","id":"a6kd45xltyq3","lat":46.4402,"long":-92.7412926,"state":"Minnesota"},"type":"Feature","geometry":{"type":"Point","coordinates":[-92.7412926,46.4402]}},{"properties":{"name":"Myre-Big Island State Park","id":"a6kd45lv4543","lat":43.6328131,"long":-93.3137121,"state":"Minnesota"},"type":"Feature","geometry":{"type":"Point","coordinates":[-93.3137121,43.6328131]}},{"properties":{"name":"Nerstrand-Big Woods State Park","id":"a6kd45laqnzt","lat":44.3428298,"long":-93.1127413,"state":"Minnesota"},"type":"Feature","geometry":{"type":"Point","coordinates":[-93.1127413,44.3428298]}},{"properties":{"name":"Old Mill State Park","id":"a6kd45r7qwbv","lat":48.3626277,"long":-96.569632,"state":"Minnesota"},"type":"Feature","geometry":{"type":"Point","coordinates":[-96.569632,48.3626277]}},{"properties":{"name":"Rice Lake State Park","id":"a6kd45s9ozzw","lat":47.0344469,"long":-95.0311428,"state":"Minnesota"},"type":"Feature","geometry":{"type":"Point","coordinates":[-95.0311428,47.0344469]}},{"properties":{"name":"St. Croix Islands State Park","id":"a6kd45ocosqm","lat":45.0765868,"long":-92.7966888,"state":"Minnesota"},"type":"Feature","geometry":{"type":"Point","coordinates":[-92.7966888,45.0765868]}},{"properties":{"name":"Sakatah Lake State Park","id":"a6kd45so45y4","lat":44.2249829,"long":-93.5079264,"state":"Minnesota"},"type":"Feature","geometry":{"type":"Point","coordinates":[-93.5079264,44.2249829]}},{"properties":{"name":"Savanna Portage State Park","id":"a6kd45wbnht1","lat":46.8499483,"long":-93.1486892,"state":"Minnesota"},"type":"Feature","geometry":{"type":"Point","coordinates":[-93.1486892,46.8499483]}},{"properties":{"name":"Scenic State Park","id":"a6kd45lp4zjq","lat":47.7234054,"long":-93.5622586,"state":"Minnesota"},"type":"Feature","geometry":{"type":"Point","coordinates":[-93.5622586,47.7234054]}},{"properties":{"name":"Schoolcraft State Park","id":"a6kd45mcmwpn","lat":47.2233244,"long":-93.8029594,"state":"Minnesota"},"type":"Feature","geometry":{"type":"Point","coordinates":[-93.8029594,47.2233244]}},{"properties":{"name":"Sibley State Park","id":"a6kd45ioa9ja","lat":45.3234613,"long":-95.0683584,"state":"Minnesota"},"type":"Feature","geometry":{"type":"Point","coordinates":[-95.0683584,45.3234613]}},{"properties":{"name":"Soudan Underground Mine State Park","id":"a6kd45ppekir","lat":47.823371,"long":-92.241868,"state":"Minnesota"},"type":"Feature","geometry":{"type":"Point","coordinates":[-92.241868,47.823371]}},{"properties":{"name":"Split Rock Creek State Park","id":"a6kd45uzjspu","lat":43.8988638,"long":-96.3638269,"state":"Minnesota"},"type":"Feature","geometry":{"type":"Point","coordinates":[-96.3638269,43.8988638]}},{"properties":{"name":"Split Rock Lighthouse State Park","id":"a6kd45rt96pp","lat":47.1909809,"long":-91.4076475,"state":"Minnesota"},"type":"Feature","geometry":{"type":"Point","coordinates":[-91.4076475,47.1909809]}},{"properties":{"name":"Temperance River State Park","id":"a6kd45wc29y1","lat":47.5584702,"long":-90.8914647,"state":"Minnesota"},"type":"Feature","geometry":{"type":"Point","coordinates":[-90.8914647,47.5584702]}},{"properties":{"name":"Tettegouche State Park","id":"a6kd45lvy1tl","lat":47.3539155,"long":-91.2641804,"state":"Minnesota"},"type":"Feature","geometry":{"type":"Point","coordinates":[-91.2641804,47.3539155]}},{"properties":{"name":"Upper Sioux Agency State Park","id":"a6kd45nnpoz7","lat":44.7352114,"long":-95.4410924,"state":"Minnesota"},"type":"Feature","geometry":{"type":"Point","coordinates":[-95.4410924,44.7352114]}},{"properties":{"name":"Whitewater State Park","id":"a6kd45o6zg3p","lat":44.0538944,"long":-92.0518154,"state":"Minnesota"},"type":"Feature","geometry":{"type":"Point","coordinates":[-92.0518154,44.0538944]}},{"properties":{"name":"Wild River State Park","id":"a6kd45nqsa3z","lat":45.5877544,"long":-92.895094,"state":"Minnesota"},"type":"Feature","geometry":{"type":"Point","coordinates":[-92.895094,45.5877544]}},{"properties":{"name":"William O'Brien State Park","id":"a6kd45jc1n40","lat":45.2237288,"long":-92.7678398,"state":"Minnesota"},"type":"Feature","geometry":{"type":"Point","coordinates":[-92.7678398,45.2237288]}},{"properties":{"name":"Zippel Bay State Park","id":"a6kd45jwvida","lat":48.8636147,"long":-94.8552937,"state":"Minnesota"},"type":"Feature","geometry":{"type":"Point","coordinates":[-94.8552937,48.8636147]}},{"properties":{"name":"Babler State Park","id":"a6kd45tdxrjp","lat":38.6247284,"long":-90.6915393,"state":"Missouri"},"type":"Feature","geometry":{"type":"Point","coordinates":[-90.6915393,38.6247284]}},{"properties":{"name":"Sam A. Baker State Park","id":"a6kd45lfost3","lat":37.2576173,"long":-90.5040609,"state":"Missouri"},"type":"Feature","geometry":{"type":"Point","coordinates":[-90.5040609,37.2576173]}},{"properties":{"name":"Bennett Spring State Park","id":"a6kd45lg5sbb","lat":37.7214105,"long":-92.852962,"state":"Missouri"},"type":"Feature","geometry":{"type":"Point","coordinates":[-92.852962,37.7214105]}},{"properties":{"name":"Big Lake State Park","id":"a6kd45mkteo0","lat":40.086706,"long":-95.36122435,"state":"Missouri"},"type":"Feature","geometry":{"type":"Point","coordinates":[-95.36122435,40.086706]}},{"properties":{"name":"Big Oak Tree State Park","id":"a6kd45uqnon8","lat":36.6478593,"long":-89.3060878,"state":"Missouri"},"type":"Feature","geometry":{"type":"Point","coordinates":[-89.3060878,36.6478593]}},{"properties":{"name":"Big Sugar Creek State Park","id":"a6kd45pkg2x2","lat":36.6321133,"long":-94.2923223,"state":"Missouri"},"type":"Feature","geometry":{"type":"Point","coordinates":[-94.2923223,36.6321133]}},{"properties":{"name":"Castlewood State Park","id":"a6kd45sdyyds","lat":38.552506,"long":-90.5399631,"state":"Missouri"},"type":"Feature","geometry":{"type":"Point","coordinates":[-90.5399631,38.552506]}},{"properties":{"name":"Cuivre River State Park","id":"a6kd45pv100w","lat":39.0309121,"long":-90.9295234,"state":"Missouri"},"type":"Feature","geometry":{"type":"Point","coordinates":[-90.9295234,39.0309121]}},{"properties":{"name":"Current River State Park","id":"a6kd45wdluil","lat":37.1748244,"long":-91.0490374,"state":"Missouri"},"type":"Feature","geometry":{"type":"Point","coordinates":[-91.0490374,37.1748244]}},{"properties":{"name":"Elephant Rocks State Park","id":"a6kd45km5rlk","lat":37.6552832,"long":-90.6891664,"state":"Missouri"},"type":"Feature","geometry":{"type":"Point","coordinates":[-90.6891664,37.6552832]}},{"properties":{"name":"Finger Lakes State Park","id":"a6kd45wl1l22","lat":39.871434,"long":-92.3196972,"state":"Missouri"},"type":"Feature","geometry":{"type":"Point","coordinates":[-92.3196972,39.871434]}},{"properties":{"name":"Graham Cave State Park","id":"a6kd45op832r","lat":38.9065515,"long":-91.5814235,"state":"Missouri"},"type":"Feature","geometry":{"type":"Point","coordinates":[-91.5814235,38.9065515]}},{"properties":{"name":"Grand Gulf State Park","id":"a6kd45rpen9s","lat":36.5454616,"long":-91.6432837,"state":"Missouri"},"type":"Feature","geometry":{"type":"Point","coordinates":[-91.6432837,36.5454616]}},{"properties":{"name":"Ha Ha Tonka State Park","id":"a6kd45kz1j52","lat":37.970015,"long":-92.7605585,"state":"Missouri"},"type":"Feature","geometry":{"type":"Point","coordinates":[-92.7605585,37.970015]}},{"properties":{"name":"Harry S Trumen State Park","id":"a6kd45qjhptn","lat":38.2746339,"long":-93.4424129,"state":"Missouri"},"type":"Feature","geometry":{"type":"Point","coordinates":[-93.4424129,38.2746339]}},{"properties":{"name":"Hawn State Park","id":"a6kd45x3evlk","lat":37.8138379,"long":-90.2385387,"state":"Missouri"},"type":"Feature","geometry":{"type":"Point","coordinates":[-90.2385387,37.8138379]}},{"properties":{"name":"Johnson's Shut-Ins State Park","id":"a6kd45sooxft","lat":37.5344632,"long":-90.8436885,"state":"Missouri"},"type":"Feature","geometry":{"type":"Point","coordinates":[-90.8436885,37.5344632]}},{"properties":{"name":"Jones-Confluence Point State Park","id":"a6kd45l3suw5","lat":38.8361644,"long":-90.1261013,"state":"Missouri"},"type":"Feature","geometry":{"type":"Point","coordinates":[-90.1261013,38.8361644]}},{"properties":{"name":"Katy Trail State Park","id":"a6kd45x99ibc","lat":38.6391733,"long":-92.2006221,"state":"Missouri"},"type":"Feature","geometry":{"type":"Point","coordinates":[-92.2006221,38.6391733]}},{"properties":{"name":"Knob Noster State Park","id":"a6kd45ig0so9","lat":38.7493963,"long":-93.6065848,"state":"Missouri"},"type":"Feature","geometry":{"type":"Point","coordinates":[-93.6065848,38.7493963]}},{"properties":{"name":"Lake of the Ozarks State Park","id":"a6kd45lr1y6g","lat":38.1096026,"long":-92.5495112,"state":"Missouri"},"type":"Feature","geometry":{"type":"Point","coordinates":[-92.5495112,38.1096026]}},{"properties":{"name":"Lake Wappapello State Park","id":"a6kd45hucrfv","lat":36.9402019,"long":-90.3348372,"state":"Missouri"},"type":"Feature","geometry":{"type":"Point","coordinates":[-90.3348372,36.9402019]}},{"properties":{"name":"Lewis and Clark State Park","id":"a6kd45sjyfa3","lat":39.5356663,"long":-95.0559654,"state":"Missouri"},"type":"Feature","geometry":{"type":"Point","coordinates":[-95.0559654,39.5356663]}},{"properties":{"name":"Long Branch State Park","id":"a6kd45oeejz2","lat":39.7713143,"long":-92.5272209,"state":"Missouri"},"type":"Feature","geometry":{"type":"Point","coordinates":[-92.5272209,39.7713143]}},{"properties":{"name":"Mark Twain State Park","id":"a6kd45m7qwgs","lat":39.4648739,"long":-91.7952762,"state":"Missouri"},"type":"Feature","geometry":{"type":"Point","coordinates":[-91.7952762,39.4648739]}},{"properties":{"name":"Meramec State Park","id":"a6kd45ndltfr","lat":38.2163279,"long":-91.095191,"state":"Missouri"},"type":"Feature","geometry":{"type":"Point","coordinates":[-91.095191,38.2163279]}},{"properties":{"name":"Montauk State Park","id":"a6kd45jxu8o8","lat":37.4535317,"long":-91.68335681,"state":"Missouri"},"type":"Feature","geometry":{"type":"Point","coordinates":[-91.68335681,37.4535317]}},{"properties":{"name":"Morris State Park","id":"a6kd45qyxeie","lat":36.5378199,"long":-90.038487,"state":"Missouri"},"type":"Feature","geometry":{"type":"Point","coordinates":[-90.038487,36.5378199]}},{"properties":{"name":"Onondaga Cave State Park","id":"a6kd45sdc134","lat":38.0619612,"long":-91.2361706,"state":"Missouri"},"type":"Feature","geometry":{"type":"Point","coordinates":[-91.2361706,38.0619612]}},{"properties":{"name":"Pershing State Park","id":"a6kd45mrpvem","lat":39.7567022,"long":-93.2231727,"state":"Missouri"},"type":"Feature","geometry":{"type":"Point","coordinates":[-93.2231727,39.7567022]}},{"properties":{"name":"Pomme de Terre State Park","id":"a6kd45khxblo","lat":37.880219,"long":-93.3174882,"state":"Missouri"},"type":"Feature","geometry":{"type":"Point","coordinates":[-93.3174882,37.880219]}},{"properties":{"name":"Prairie State Park","id":"a6kd45hi0ft0","lat":37.5243639,"long":-94.5572847,"state":"Missouri"},"type":"Feature","geometry":{"type":"Point","coordinates":[-94.5572847,37.5243639]}},{"properties":{"name":"Roaring River State Park","id":"a6kd45hfizne","lat":36.5861724,"long":-93.8197381,"state":"Missouri"},"type":"Feature","geometry":{"type":"Point","coordinates":[-93.8197381,36.5861724]}},{"properties":{"name":"Robertsville State Park","id":"a6kd45oyccvu","lat":38.424323,"long":-90.815117,"state":"Missouri"},"type":"Feature","geometry":{"type":"Point","coordinates":[-90.815117,38.424323]}},{"properties":{"name":"Rock Bridge Memorial State Park","id":"a6kd45tb7118","lat":38.8832328,"long":-91.3313117,"state":"Missouri"},"type":"Feature","geometry":{"type":"Point","coordinates":[-91.3313117,38.8832328]}},{"properties":{"name":"Route 66 State Park","id":"a6kd45i40ppf","lat":38.5070917,"long":-90.6038393,"state":"Missouri"},"type":"Feature","geometry":{"type":"Point","coordinates":[-90.6038393,38.5070917]}},{"properties":{"name":"St. Francois State Park","id":"a6kd45x8rwlr","lat":37.9760923,"long":-90.5169162,"state":"Missouri"},"type":"Feature","geometry":{"type":"Point","coordinates":[-90.5169162,37.9760923]}},{"properties":{"name":"St. Joe State Park","id":"a6kd45skqi13","lat":37.7977323,"long":-90.5020371,"state":"Missouri"},"type":"Feature","geometry":{"type":"Point","coordinates":[-90.5020371,37.7977323]}},{"properties":{"name":"Stockton State Park","id":"a6kd45mlx6r6","lat":37.6138235,"long":-93.7511268,"state":"Missouri"},"type":"Feature","geometry":{"type":"Point","coordinates":[-93.7511268,37.6138235]}},{"properties":{"name":"Table Rock State Park","id":"a6kd45livooe","lat":36.5879936,"long":-93.3061608,"state":"Missouri"},"type":"Feature","geometry":{"type":"Point","coordinates":[-93.3061608,36.5879936]}},{"properties":{"name":"Taum Sauk Mountain State Park","id":"a6kd45jg1zyk","lat":37.504888,"long":-90.8257356,"state":"Missouri"},"type":"Feature","geometry":{"type":"Point","coordinates":[-90.8257356,37.504888]}},{"properties":{"name":"Thousand Hills State Park","id":"a6kd45x137cc","lat":40.1714798,"long":-92.6437438,"state":"Missouri"},"type":"Feature","geometry":{"type":"Point","coordinates":[-92.6437438,40.1714798]}},{"properties":{"name":"Trail of Tears State park","id":"a6kd45wqfnke","lat":37.4509463,"long":-89.4694913,"state":"Missouri"},"type":"Feature","geometry":{"type":"Point","coordinates":[-89.4694913,37.4509463]}},{"properties":{"name":"Van Meter State Park","id":"a6kd45x8ouok","lat":39.2723849,"long":-93.2659066,"state":"Missouri"},"type":"Feature","geometry":{"type":"Point","coordinates":[-93.2659066,39.2723849]}},{"properties":{"name":"Wakonda State Park","id":"a6kd45uddbee","lat":40.0047451,"long":-91.5136009,"state":"Missouri"},"type":"Feature","geometry":{"type":"Point","coordinates":[-91.5136009,40.0047451]}},{"properties":{"name":"Wallace State Park","id":"a6kd45xexns0","lat":39.655484,"long":-94.215396,"state":"Missouri"},"type":"Feature","geometry":{"type":"Point","coordinates":[-94.215396,39.655484]}},{"properties":{"name":"Washington State Park","id":"a6kd45wvm0a2","lat":38.0848766,"long":-90.6986585,"state":"Missouri"},"type":"Feature","geometry":{"type":"Point","coordinates":[-90.6986585,38.0848766]}},{"properties":{"name":"Watkins Woolen Mill State Park","id":"a6kd45mqp7ak","lat":39.4035333,"long":-94.2589738,"state":"Missouri"},"type":"Feature","geometry":{"type":"Point","coordinates":[-94.2589738,39.4035333]}},{"properties":{"name":"Weston Bend State Park","id":"a6kd45ojr1kj","lat":39.3923106,"long":-94.875403,"state":"Missouri"},"type":"Feature","geometry":{"type":"Point","coordinates":[-94.875403,39.3923106]}},{"properties":{"name":"Chadron State Park","id":"a6kd45n9z8k2","lat":42.7088593,"long":-103.0174069,"state":"Nebraska"},"type":"Feature","geometry":{"type":"Point","coordinates":[-103.0174069,42.7088593]}},{"properties":{"name":"Eugene T. Mahoney State Park","id":"a6kd45q3cj9k","lat":41.0252391,"long":-96.3146324,"state":"Nebraska"},"type":"Feature","geometry":{"type":"Point","coordinates":[-96.3146324,41.0252391]}},{"properties":{"name":"Fort Robinson State park","id":"a6kd45uyqm9e","lat":42.666726,"long":-103.4742993,"state":"Nebraska"},"type":"Feature","geometry":{"type":"Point","coordinates":[-103.4742993,42.666726]}},{"properties":{"name":"Indian Cave State park","id":"a6kd45uys4f6","lat":40.26194444,"long":-95.5669786,"state":"Nebraska"},"type":"Feature","geometry":{"type":"Point","coordinates":[-95.5669786,40.26194444]}},{"properties":{"name":"Niobrara State Park","id":"a6kd45mxsl3r","lat":42.7599379,"long":-98.0628862,"state":"Nebraska"},"type":"Feature","geometry":{"type":"Point","coordinates":[-98.0628862,42.7599379]}},{"properties":{"name":"Platte River State Park","id":"a6kd45vx9r9s","lat":40.9899547,"long":-96.224322,"state":"Nebraska"},"type":"Feature","geometry":{"type":"Point","coordinates":[-96.224322,40.9899547]}},{"properties":{"name":"Smith Falls State Park","id":"a6kd45wp642y","lat":42.8890593,"long":-100.3147096,"state":"Nebraska"},"type":"Feature","geometry":{"type":"Point","coordinates":[-100.3147096,42.8890593]}},{"properties":{"name":"Ashfall Fossil Beds State Park","id":"a6kd45wlk8jo","lat":42.4245812,"long":-98.1584394,"state":"Nebraska"},"type":"Feature","geometry":{"type":"Point","coordinates":[-98.1584394,42.4245812]}},{"properties":{"name":"Ash Hollow State Park","id":"a6kd45q5x22v","lat":41.2929166,"long":-102.1232558,"state":"Nebraska"},"type":"Feature","geometry":{"type":"Point","coordinates":[-102.1232558,41.2929166]}},{"properties":{"name":"Arbor Lodge State Park","id":"a6kd45ronvrx","lat":40.6798674,"long":-95.8769366,"state":"Nebraska"},"type":"Feature","geometry":{"type":"Point","coordinates":[-95.8769366,40.6798674]}},{"properties":{"name":"Bowring Ranch State Park","id":"a6kd45uqge7a","lat":42.9562325,"long":-101.6698299,"state":"Nebraska"},"type":"Feature","geometry":{"type":"Point","coordinates":[-101.6698299,42.9562325]}},{"properties":{"name":"Buffalo Bill Ranch State Park","id":"a6kd45k2ik4x","lat":41.1624527,"long":-100.7929537,"state":"Nebraska"},"type":"Feature","geometry":{"type":"Point","coordinates":[-100.7929537,41.1624527]}},{"properties":{"name":"Champion Mill State Park","id":"a6kd45t1990p","lat":40.4716357,"long":-101.7513175,"state":"Nebraska"},"type":"Feature","geometry":{"type":"Point","coordinates":[-101.7513175,40.4716357]}},{"properties":{"name":"Fort Atkinson State Park","id":"a6kd45hcgquf","lat":41.454047,"long":-96.0168855,"state":"Nebraska"},"type":"Feature","geometry":{"type":"Point","coordinates":[-96.0168855,41.454047]}},{"properties":{"name":"Fort Hartsuff State Park","id":"a6kd45s3722a","lat":41.7238127,"long":-99.023599,"state":"Nebraska"},"type":"Feature","geometry":{"type":"Point","coordinates":[-99.023599,41.7238127]}},{"properties":{"name":"Fort Kearney State Park","id":"a6kd45ukygs8","lat":40.6430054,"long":-99.0066767,"state":"Nebraska"},"type":"Feature","geometry":{"type":"Point","coordinates":[-99.0066767,40.6430054]}},{"properties":{"name":"Rock Creek Station State Park","id":"a6kd45r2enjx","lat":40.1130407,"long":-97.0592553,"state":"Nebraska"},"type":"Feature","geometry":{"type":"Point","coordinates":[-97.0592553,40.1130407]}},{"properties":{"name":"Beaver Lake state Park","id":"a6kd45hbpnxe","lat":46.4046235,"long":-99.618234,"state":"North Dakota"},"type":"Feature","geometry":{"type":"Point","coordinates":[-99.618234,46.4046235]}},{"properties":{"name":"Cross Ranch State Park","id":"a6kd45mjtyyh","lat":47.2189681,"long":-100.9951026,"state":"North Dakota"},"type":"Feature","geometry":{"type":"Point","coordinates":[-100.9951026,47.2189681]}},{"properties":{"name":"Grahams Island State Park","id":"a6kd45odpx78","lat":48.0432215,"long":-99.0689278,"state":"North Dakota"},"type":"Feature","geometry":{"type":"Point","coordinates":[-99.0689278,48.0432215]}},{"properties":{"name":"Doyle Memorial State Park","id":"a6kd45pjzl14","lat":46.2049391,"long":-99.48072278,"state":"North Dakota"},"type":"Feature","geometry":{"type":"Point","coordinates":[-99.48072278,46.2049391]}},{"properties":{"name":"Fort Abraham Lincoln State Park","id":"a6kd45tgp5a1","lat":46.7637354,"long":-100.847339,"state":"North Dakota"},"type":"Feature","geometry":{"type":"Point","coordinates":[-100.847339,46.7637354]}},{"properties":{"name":"Fort Ransom State Park","id":"a6kd45rwb5h4","lat":46.5575992,"long":-97.9324067,"state":"North Dakota"},"type":"Feature","geometry":{"type":"Point","coordinates":[-97.9324067,46.5575992]}},{"properties":{"name":"Fort Stevenson State Park","id":"a6kd45livf2u","lat":47.592249,"long":-101.4206902,"state":"North Dakota"},"type":"Feature","geometry":{"type":"Point","coordinates":[-101.4206902,47.592249]}},{"properties":{"name":"Historic Elmwood","id":"a6kd45up5it5","lat":47.5514926,"long":-101.0020119,"state":"North Dakota"},"type":"Feature","geometry":{"type":"Point","coordinates":[-101.0020119,47.5514926]}},{"properties":{"name":"Icelandic State Park","id":"a6kd45ln5lqg","lat":48.7794296,"long":-97.7526245,"state":"North Dakota"},"type":"Feature","geometry":{"type":"Point","coordinates":[-97.7526245,48.7794296]}},{"properties":{"name":"Lake Metigoshe State Park","id":"a6kd45h6v2va","lat":48.9885599,"long":-100.3305581,"state":"North Dakota"},"type":"Feature","geometry":{"type":"Point","coordinates":[-100.3305581,48.9885599]}},{"properties":{"name":"Lewis and Clark State Park","id":"a6kd45jmhfts","lat":48.1149436,"long":-103.2425371,"state":"North Dakota"},"type":"Feature","geometry":{"type":"Point","coordinates":[-103.2425371,48.1149436]}},{"properties":{"name":"Little Missouri State Park","id":"a6kd45kd4nkn","lat":47.5117253,"long":-102.6706384,"state":"North Dakota"},"type":"Feature","geometry":{"type":"Point","coordinates":[-102.6706384,47.5117253]}},{"properties":{"name":"Turtle River State Park","id":"a6kd45mt4hh6","lat":47.9372494,"long":-97.5026179,"state":"North Dakota"},"type":"Feature","geometry":{"type":"Point","coordinates":[-97.5026179,47.9372494]}},{"properties":{"name":"A W. Marion State Park","id":"a6kd45juudnv","lat":39.6271955,"long":-82.8829048,"state":"Ohio"},"type":"Feature","geometry":{"type":"Point","coordinates":[-82.8829048,39.6271955]}},{"properties":{"name":"Adams Lake State Park","id":"a6kd45svp7uq","lat":38.8126571,"long":-83.5296744,"state":"Ohio"},"type":"Feature","geometry":{"type":"Point","coordinates":[-83.5296744,38.8126571]}},{"properties":{"name":"Alum Creek State Park","id":"a6kd45o1woh9","lat":40.2438126,"long":-82.9770371,"state":"Ohio"},"type":"Feature","geometry":{"type":"Point","coordinates":[-82.9770371,40.2438126]}},{"properties":{"name":"Barkcamp State Park","id":"a6kd45vuvzkr","lat":40.033643,"long":-81.018046,"state":"Ohio"},"type":"Feature","geometry":{"type":"Point","coordinates":[-81.018046,40.033643]}},{"properties":{"name":"Beaver Creek State Park","id":"a6kd45pmr3ae","lat":40.7246946,"long":-80.6077132,"state":"Ohio"},"type":"Feature","geometry":{"type":"Point","coordinates":[-80.6077132,40.7246946]}},{"properties":{"name":"Blue Rock State Park","id":"a6kd45xd58iz","lat":39.8164049,"long":-81.849481,"state":"Ohio"},"type":"Feature","geometry":{"type":"Point","coordinates":[-81.849481,39.8164049]}},{"properties":{"name":"Buck Creek State Park","id":"a6kd45ubdn12","lat":69.9657442,"long":-83.7305392,"state":"Ohio"},"type":"Feature","geometry":{"type":"Point","coordinates":[-83.7305392,69.9657442]}},{"properties":{"name":"Buckeye Lake State Park","id":"a6kd45jxxabu","lat":39.9247576,"long":-82.483398,"state":"Ohio"},"type":"Feature","geometry":{"type":"Point","coordinates":[-82.483398,39.9247576]}},{"properties":{"name":"Burr Oak State Park","id":"a6kd45qpo7wf","lat":39.5277514,"long":-82.0233347,"state":"Ohio"},"type":"Feature","geometry":{"type":"Point","coordinates":[-82.0233347,39.5277514]}},{"properties":{"name":"Ceasar Creek State Park","id":"a6kd45q6yp9q","lat":39.5236265,"long":-84.0114544,"state":"Ohio"},"type":"Feature","geometry":{"type":"Point","coordinates":[-84.0114544,39.5236265]}},{"properties":{"name":"Catawba Island State Park","id":"a6kd45rzk6pu","lat":41.5746866,"long":-82.856995,"state":"Ohio"},"type":"Feature","geometry":{"type":"Point","coordinates":[-82.856995,41.5746866]}},{"properties":{"name":"Cleveland Lakefront State Park","id":"a6kd45itwysh","lat":41.5828243,"long":-81.5695827,"state":"Ohio"},"type":"Feature","geometry":{"type":"Point","coordinates":[-81.5695827,41.5828243]}},{"properties":{"name":"Cowan Lake State Park","id":"a6kd45o76cwp","lat":39.3793565,"long":-83.891003,"state":"Ohio"},"type":"Feature","geometry":{"type":"Point","coordinates":[-83.891003,39.3793565]}},{"properties":{"name":"Crane Creek State Park","id":"a6kd45t4ymvr","lat":41.6275352,"long":-83.1903543,"state":"Ohio"},"type":"Feature","geometry":{"type":"Point","coordinates":[-83.1903543,41.6275352]}},{"properties":{"name":"Deer Creek State Park","id":"a6kd45trps05","lat":39.6360032,"long":-83.2452478,"state":"Ohio"},"type":"Feature","geometry":{"type":"Point","coordinates":[-83.2452478,39.6360032]}},{"properties":{"name":"Delaware State Park","id":"a6kd45tb06et","lat":40.3885482,"long":-83.0602998,"state":"Ohio"},"type":"Feature","geometry":{"type":"Point","coordinates":[-83.0602998,40.3885482]}},{"properties":{"name":"Dillon State Park","id":"a6kd45wox38o","lat":40.0046448,"long":-82.1115119,"state":"Ohio"},"type":"Feature","geometry":{"type":"Point","coordinates":[-82.1115119,40.0046448]}},{"properties":{"name":"East Fork State Park","id":"a6kd45itigua","lat":39.0426797,"long":-84.171249,"state":"Ohio"},"type":"Feature","geometry":{"type":"Point","coordinates":[-84.171249,39.0426797]}},{"properties":{"name":"East Harbor State Park","id":"a6kd45kn6ije","lat":41.550595,"long":-82.809303,"state":"Ohio"},"type":"Feature","geometry":{"type":"Point","coordinates":[-82.809303,41.550595]}},{"properties":{"name":"Findley State Park","id":"a6kd45hhkbpr","lat":41.1304823,"long":-82.2121421,"state":"Ohio"},"type":"Feature","geometry":{"type":"Point","coordinates":[-82.2121421,41.1304823]}},{"properties":{"name":"Forked Run State Park","id":"a6kd45laekgs","lat":39.0956705,"long":-81.7814363,"state":"Ohio"},"type":"Feature","geometry":{"type":"Point","coordinates":[-81.7814363,39.0956705]}},{"properties":{"name":"Geneva State Park","id":"a6kd45mbpxkw","lat":41.8540164,"long":-80.973294,"state":"Ohio"},"type":"Feature","geometry":{"type":"Point","coordinates":[-80.973294,41.8540164]}},{"properties":{"name":"Grand Lake St. Marys State Park","id":"a6kd45mrfb5p","lat":40.5448802,"long":-84.4651744,"state":"Ohio"},"type":"Feature","geometry":{"type":"Point","coordinates":[-84.4651744,40.5448802]}},{"properties":{"name":"Great Seal State Park","id":"a6kd45qy1zkm","lat":39.3709788,"long":-82.9447782,"state":"Ohio"},"type":"Feature","geometry":{"type":"Point","coordinates":[-82.9447782,39.3709788]}},{"properties":{"name":"Guilford Lake State Park","id":"a6kd45q2807e","lat":40.7973039,"long":-80.8696038,"state":"Ohio"},"type":"Feature","geometry":{"type":"Point","coordinates":[-80.8696038,40.7973039]}},{"properties":{"name":"Harrison Lake State Park","id":"a6kd45w2zsi3","lat":41.641624,"long":-84.3686625,"state":"Ohio"},"type":"Feature","geometry":{"type":"Point","coordinates":[-84.3686625,41.641624]}},{"properties":{"name":"Headlands Beach State Park","id":"a6kd45u52p5k","lat":41.7563792,"long":-80.2890451,"state":"Ohio"},"type":"Feature","geometry":{"type":"Point","coordinates":[-80.2890451,41.7563792]}},{"properties":{"name":"Hocking Hills State Park","id":"a6kd45u5ezgr","lat":39.437076,"long":-82.539741,"state":"Ohio"},"type":"Feature","geometry":{"type":"Point","coordinates":[-82.539741,39.437076]}},{"properties":{"name":"Hueston Woods State Park","id":"a6kd45rs6257","lat":39.5768626,"long":-84.7393916,"state":"Ohio"},"type":"Feature","geometry":{"type":"Point","coordinates":[-84.7393916,39.5768626]}},{"properties":{"name":"Independence Dam State Park","id":"a6kd45pl5ckk","lat":41.29199,"long":-84.2756121,"state":"Ohio"},"type":"Feature","geometry":{"type":"Point","coordinates":[-84.2756121,41.29199]}},{"properties":{"name":"Indian Lake State Park","id":"a6kd45xmkazj","lat":40.4990656,"long":-83.89500042,"state":"Ohio"},"type":"Feature","geometry":{"type":"Point","coordinates":[-83.89500042,40.4990656]}},{"properties":{"name":"Jackson Lake State Park","id":"a6kd45qwrcaf","lat":38.9020885,"long":-82.5949829,"state":"Ohio"},"type":"Feature","geometry":{"type":"Point","coordinates":[-82.5949829,38.9020885]}},{"properties":{"name":"Jefferson Lake State Park","id":"a6kd45t4ho0q","lat":40.4714377,"long":-80.8087941,"state":"Ohio"},"type":"Feature","geometry":{"type":"Point","coordinates":[-80.8087941,40.4714377]}},{"properties":{"name":"John Bryan State Park","id":"a6kd45l80fed","lat":39.791873,"long":-83.867726,"state":"Ohio"},"type":"Feature","geometry":{"type":"Point","coordinates":[-83.867726,39.791873]}},{"properties":{"name":"Kelleys Island State Park","id":"a6kd45xl4kzp","lat":41.6049149,"long":-82.700989,"state":"Ohio"},"type":"Feature","geometry":{"type":"Point","coordinates":[-82.700989,41.6049149]}},{"properties":{"name":"Kiser Lake State Park","id":"a6kd45omavy8","lat":40.1845211,"long":-83.9559036,"state":"Ohio"},"type":"Feature","geometry":{"type":"Point","coordinates":[-83.9559036,40.1845211]}},{"properties":{"name":"Lake Alma State Park","id":"a6kd45syrxkm","lat":39.1436529,"long":-82.5169263,"state":"Ohio"},"type":"Feature","geometry":{"type":"Point","coordinates":[-82.5169263,39.1436529]}},{"properties":{"name":"Lake Hope State Park","id":"a6kd45rif738","lat":3.34166,"long":-82.3587511,"state":"Ohio"},"type":"Feature","geometry":{"type":"Point","coordinates":[-82.3587511,3.34166]}},{"properties":{"name":"Lake Logan State Park","id":"a6kd45v63eai","lat":39.5383747,"long":-82.4659853,"state":"Ohio"},"type":"Feature","geometry":{"type":"Point","coordinates":[-82.4659853,39.5383747]}},{"properties":{"name":"Lake Loramie State Park","id":"a6kd45qaa5uk","lat":40.3765504,"long":-84.3305394,"state":"Ohio"},"type":"Feature","geometry":{"type":"Point","coordinates":[-84.3305394,40.3765504]}},{"properties":{"name":"Lake White State Park","id":"a6kd45w2fo5k","lat":39.1073059,"long":-83.030767,"state":"Ohio"},"type":"Feature","geometry":{"type":"Point","coordinates":[-83.030767,39.1073059]}},{"properties":{"name":"Madison Lake State Park","id":"a6kd45q29db0","lat":39.8704814,"long":-83.3749322,"state":"Ohio"},"type":"Feature","geometry":{"type":"Point","coordinates":[-83.3749322,39.8704814]}},{"properties":{"name":"Malabar Farm State Park","id":"a6kd45sdege6","lat":40.6557666,"long":-82.4021319,"state":"Ohio"},"type":"Feature","geometry":{"type":"Point","coordinates":[-82.4021319,40.6557666]}},{"properties":{"name":"Mary Jane Thurston State Park","id":"a6kd45hmsd27","lat":41.4107903,"long":-83.8837444,"state":"Ohio"},"type":"Feature","geometry":{"type":"Point","coordinates":[-83.8837444,41.4107903]}},{"properties":{"name":"Maumee Bay State Park","id":"a6kd45kakpzs","lat":41.6818422,"long":-83.3762678,"state":"Ohio"},"type":"Feature","geometry":{"type":"Point","coordinates":[-83.3762678,41.6818422]}},{"properties":{"name":"Mohican State Park","id":"a6kd45ium00g","lat":40.610616,"long":-82.3129393,"state":"Ohio"},"type":"Feature","geometry":{"type":"Point","coordinates":[-82.3129393,40.610616]}},{"properties":{"name":"Mosquito Lake State Park","id":"a6kd45jorcgz","lat":41.3381092,"long":-80.7740912,"state":"Ohio"},"type":"Feature","geometry":{"type":"Point","coordinates":[-80.7740912,41.3381092]}},{"properties":{"name":"Mount Gilead State Park","id":"a6kd45s7cx7n","lat":40.5500616,"long":-82.8122182,"state":"Ohio"},"type":"Feature","geometry":{"type":"Point","coordinates":[-82.8122182,40.5500616]}},{"properties":{"name":"Nelson Kennedy Ledges State Park","id":"a6kd45r1agyz","lat":41.3303022,"long":-81.0366518,"state":"Ohio"},"type":"Feature","geometry":{"type":"Point","coordinates":[-81.0366518,41.3303022]}},{"properties":{"name":"Paint Creek State Park","id":"a6kd45wn9lmi","lat":39.2549045,"long":-83.3869516,"state":"Ohio"},"type":"Feature","geometry":{"type":"Point","coordinates":[-83.3869516,39.2549045]}},{"properties":{"name":"Pike Lake State Park","id":"a6kd45jjxmdy","lat":39.16,"long":-83.21833333,"state":"Ohio"},"type":"Feature","geometry":{"type":"Point","coordinates":[-83.21833333,39.16]}},{"properties":{"name":"Portage Lakes State Park","id":"a6kd45ks6vo0","lat":40.9678165,"long":-81.5404443,"state":"Ohio"},"type":"Feature","geometry":{"type":"Point","coordinates":[-81.5404443,40.9678165]}},{"properties":{"name":"Punderson State Park","id":"a6kd45mcldyw","lat":41.4569147,"long":-81.2105713,"state":"Ohio"},"type":"Feature","geometry":{"type":"Point","coordinates":[-81.2105713,41.4569147]}},{"properties":{"name":"Pymatuning State Park","id":"a6kd45tolg6p","lat":41.6308146,"long":-80.4437781,"state":"Ohio"},"type":"Feature","geometry":{"type":"Point","coordinates":[-80.4437781,41.6308146]}},{"properties":{"name":"Quail Hollow State Park","id":"a6kd45mqrvh7","lat":40.9806547,"long":-81.3096828,"state":"Ohio"},"type":"Feature","geometry":{"type":"Point","coordinates":[-81.3096828,40.9806547]}},{"properties":{"name":"Rocky Fork State Park","id":"a6kd45txhygn","lat":39.1723079,"long":-83.5056874,"state":"Ohio"},"type":"Feature","geometry":{"type":"Point","coordinates":[-83.5056874,39.1723079]}},{"properties":{"name":"Salt Fork State Park","id":"a6kd45hxx5f4","lat":40.1077024,"long":-81.482819,"state":"Ohio"},"type":"Feature","geometry":{"type":"Point","coordinates":[-81.482819,40.1077024]}},{"properties":{"name":"Scioto Trail State Park","id":"a6kd45pcld8g","lat":39.2249096,"long":-82.9635978,"state":"Ohio"},"type":"Feature","geometry":{"type":"Point","coordinates":[-82.9635978,39.2249096]}},{"properties":{"name":"Shawnee State Park","id":"a6kd45up8xp0","lat":38.7291895,"long":-83.2291862,"state":"Ohio"},"type":"Feature","geometry":{"type":"Point","coordinates":[-83.2291862,38.7291895]}},{"properties":{"name":"South Bass Island State Park","id":"a6kd45poxdn4","lat":41.64338495,"long":-82.836462,"state":"Ohio"},"type":"Feature","geometry":{"type":"Point","coordinates":[-82.836462,41.64338495]}},{"properties":{"name":"Stonelick State Park","id":"a6kd45o3xu01","lat":39.2138906,"long":-84.0669545,"state":"Ohio"},"type":"Feature","geometry":{"type":"Point","coordinates":[-84.0669545,39.2138906]}},{"properties":{"name":"Strouds Run State Park","id":"a6kd45ujd46l","lat":39.3534357,"long":-82.0352647,"state":"Ohio"},"type":"Feature","geometry":{"type":"Point","coordinates":[-82.0352647,39.3534357]}},{"properties":{"name":"Sycamore State Park","id":"a6kd45jdorzf","lat":39.7976865,"long":-84.3489467,"state":"Ohio"},"type":"Feature","geometry":{"type":"Point","coordinates":[-84.3489467,39.7976865]}},{"properties":{"name":"Tar Hollow State Park","id":"448","lat":"3.90241E+15","long":"-82.7715602","state":"Ohio"},"type":"Feature","geometry":{"type":"Point","coordinates":[-82.7715602,3.90241e+15]}},{"properties":{"name":"Tinker's Creek State Park","id":"a6kd45quqblx","lat":41.2849854,"long":-81.3701881,"state":"Ohio"},"type":"Feature","geometry":{"type":"Point","coordinates":[-81.3701881,41.2849854]}},{"properties":{"name":"Van Buren State Park","id":"a6kd45qaxu3z","lat":41.132409,"long":-83.6381682,"state":"Ohio"},"type":"Feature","geometry":{"type":"Point","coordinates":[-83.6381682,41.132409]}},{"properties":{"name":"West Branch State Park","id":"a6kd45moa8vw","lat":41.1349428,"long":-81.1361543,"state":"Ohio"},"type":"Feature","geometry":{"type":"Point","coordinates":[-81.1361543,41.1349428]}},{"properties":{"name":"Wolf Run State Park","id":"a6kd45uwy7dg","lat":39.7934534,"long":-81.5394157,"state":"Ohio"},"type":"Feature","geometry":{"type":"Point","coordinates":[-81.5394157,39.7934534]}},{"properties":{"name":"Bear Butte State Park","id":"a6kd45m71tai","lat":44.455305,"long":-103.444511,"state":"South Dakota"},"type":"Feature","geometry":{"type":"Point","coordinates":[-103.444511,44.455305]}},{"properties":{"name":"Custer State Park","id":"a6kd45vcc09d","lat":47.79989,"long":-103.35472,"state":"South Dakota"},"type":"Feature","geometry":{"type":"Point","coordinates":[-103.35472,47.79989]}},{"properties":{"name":"Fisher Grove State Park","id":"a6kd45tczztk","lat":44.8891975,"long":-98.3579294,"state":"South Dakota"},"type":"Feature","geometry":{"type":"Point","coordinates":[-98.3579294,44.8891975]}},{"properties":{"name":"Fort Sisseton Historic Staet Park","id":"a6kd45oodpbh","lat":45.6587904,"long":-97.5318624,"state":"South Dakota"},"type":"Feature","geometry":{"type":"Point","coordinates":[-97.5318624,45.6587904]}},{"properties":{"name":"Hartford Beach State Park","id":"a6kd45hyicwt","lat":45.4027554,"long":-96.6680093,"state":"South Dakota"},"type":"Feature","geometry":{"type":"Point","coordinates":[-96.6680093,45.4027554]}},{"properties":{"name":"Lake Herman State Park","id":"a6kd45sek9at","lat":43.9864002,"long":-97.1695981,"state":"South Dakota"},"type":"Feature","geometry":{"type":"Point","coordinates":[-97.1695981,43.9864002]}},{"properties":{"name":"Newton Hills State Park","id":"a6kd45jvymb5","lat":43.2248279,"long":-96.581008,"state":"South Dakota"},"type":"Feature","geometry":{"type":"Point","coordinates":[-96.581008,43.2248279]}},{"properties":{"name":"Oakewood Lakes State Park","id":"a6kd45kd7f4u","lat":44.4483856,"long":-96.9866904,"state":"South Dakota"},"type":"Feature","geometry":{"type":"Point","coordinates":[-96.9866904,44.4483856]}},{"properties":{"name":"Palisades State Park","id":"a6kd45qijd3o","lat":43.690208,"long":-96.515642,"state":"South Dakota"},"type":"Feature","geometry":{"type":"Point","coordinates":[-96.515642,43.690208]}},{"properties":{"name":"Roy Lake State Park","id":"a6kd45s675ga","lat":45.7067304,"long":-97.4538846,"state":"South Dakota"},"type":"Feature","geometry":{"type":"Point","coordinates":[-97.4538846,45.7067304]}},{"properties":{"name":"Sica Hollow State Park","id":"a6kd45rvcch7","lat":45.7395097,"long":-97.2313373,"state":"South Dakota"},"type":"Feature","geometry":{"type":"Point","coordinates":[-97.2313373,45.7395097]}},{"properties":{"name":"Union Grove State Park","id":"a6kd45llcsik","lat":42.9223638,"long":-96.7748298,"state":"South Dakota"},"type":"Feature","geometry":{"type":"Point","coordinates":[-96.7748298,42.9223638]}},{"properties":{"name":"Amnicon Falls State Park","id":"a6kd45ph3nf9","lat":46.618679,"long":-91.8954989,"state":"Wisconsin"},"type":"Feature","geometry":{"type":"Point","coordinates":[-91.8954989,46.618679]}},{"properties":{"name":"Aztalan State Park","id":"a6kd45uzj84v","lat":43.0660421,"long":-88.8610997,"state":"Wisconsin"},"type":"Feature","geometry":{"type":"Point","coordinates":[-88.8610997,43.0660421]}},{"properties":{"name":"Belmont Mound State Park","id":"a6kd45o9qtiq","lat":42.7901017,"long":-90.3513021,"state":"Wisconsin"},"type":"Feature","geometry":{"type":"Point","coordinates":[-90.3513021,42.7901017]}},{"properties":{"name":"Big Bay State Park","id":"a6kd45wy3jli","lat":46.798963,"long":-90.6960263,"state":"Wisconsin"},"type":"Feature","geometry":{"type":"Point","coordinates":[-90.6960263,46.798963]}},{"properties":{"name":"Big Foot Beach State Park","id":"a6kd45ito1ka","lat":42.5709012,"long":-88.4319073,"state":"Wisconsin"},"type":"Feature","geometry":{"type":"Point","coordinates":[-88.4319073,42.5709012]}},{"properties":{"name":"Blue Mound State Park","id":"a6kd45jsgaqu","lat":43.0266823,"long":-89.8528416,"state":"Wisconsin"},"type":"Feature","geometry":{"type":"Point","coordinates":[-89.8528416,43.0266823]}},{"properties":{"name":"Brunet Island State Park","id":"a6kd45iocy82","lat":45.1824376,"long":-91.170937,"state":"Wisconsin"},"type":"Feature","geometry":{"type":"Point","coordinates":[-91.170937,45.1824376]}},{"properties":{"name":"Buckhorn State Park","id":"a6kd45lce5xm","lat":43.96891,"long":-89.995337,"state":"Wisconsin"},"type":"Feature","geometry":{"type":"Point","coordinates":[-89.995337,43.96891]}},{"properties":{"name":"Capitpl Springs State Park","id":"a6kd45q9lnjp","lat":43.0212262,"long":-89.3381105,"state":"Wisconsin"},"type":"Feature","geometry":{"type":"Point","coordinates":[-89.3381105,43.0212262]}},{"properties":{"name":"Copper Culture State Park","id":"a6kd45m6s3ep","lat":44.886793,"long":-87.8985381,"state":"Wisconsin"},"type":"Feature","geometry":{"type":"Point","coordinates":[-87.8985381,44.886793]}},{"properties":{"name":"Copper Falls State Park","id":"a6kd45mtoy8o","lat":46.3654497,"long":-90.6457855,"state":"Wisconsin"},"type":"Feature","geometry":{"type":"Point","coordinates":[-90.6457855,46.3654497]}},{"properties":{"name":"Council Grounds State Park","id":"a6kd45t2diji","lat":45.1830879,"long":-89.7422187,"state":"Wisconsin"},"type":"Feature","geometry":{"type":"Point","coordinates":[-89.7422187,45.1830879]}},{"properties":{"name":"Devil's Lake State Park","id":"a6kd45ubzrhm","lat":43.4343602,"long":-89.7390872,"state":"Wisconsin"},"type":"Feature","geometry":{"type":"Point","coordinates":[-89.7390872,43.4343602]}},{"properties":{"name":"Governor Dodge State Park","id":"a6kd45hdo308","lat":43.0291594,"long":-90.10278,"state":"Wisconsin"},"type":"Feature","geometry":{"type":"Point","coordinates":[-90.10278,43.0291594]}},{"properties":{"name":"Governor Nelson State Park","id":"a6kd45ieeblm","lat":43.1370062,"long":-89.4387562,"state":"Wisconsin"},"type":"Feature","geometry":{"type":"Point","coordinates":[-89.4387562,43.1370062]}},{"properties":{"name":"Governor Thompson State Park","id":"a6kd45nj13ur","lat":45.3375107,"long":-88.2392882,"state":"Wisconsin"},"type":"Feature","geometry":{"type":"Point","coordinates":[-88.2392882,45.3375107]}},{"properties":{"name":"Harrington Beach State Park","id":"a6kd45tp38rc","lat":43.493986,"long":-87.803382,"state":"Wisconsin"},"type":"Feature","geometry":{"type":"Point","coordinates":[-87.803382,43.493986]}},{"properties":{"name":"Hartman Creek State Park","id":"a6kd45j8o1am","lat":44.3256875,"long":-89.2134345,"state":"Wisconsin"},"type":"Feature","geometry":{"type":"Point","coordinates":[-89.2134345,44.3256875]}},{"properties":{"name":"Heritage Hill State Historical Park","id":"a6kd45ku9d2z","lat":44.475036,"long":-88.0344745,"state":"Wisconsin"},"type":"Feature","geometry":{"type":"Point","coordinates":[-88.0344745,44.475036]}},{"properties":{"name":"High Clliff State Park","id":"a6kd45jsboa9","lat":44.1521868,"long":-88.2923363,"state":"Wisconsin"},"type":"Feature","geometry":{"type":"Point","coordinates":[-88.2923363,44.1521868]}},{"properties":{"name":"InterState State Park","id":"a6kd45haf3il","lat":45.3916667,"long":-92.6652778,"state":"Wisconsin"},"type":"Feature","geometry":{"type":"Point","coordinates":[-92.6652778,45.3916667]}},{"properties":{"name":"Kinnickinnic State Park","id":"a6kd45oh66nw","lat":44.8317357,"long":-92.7431421,"state":"Wisconsin"},"type":"Feature","geometry":{"type":"Point","coordinates":[-92.7431421,44.8317357]}},{"properties":{"name":"Kohler- Andrae State Park","id":"a6kd45mawiif","lat":43.6700141,"long":-87.7199245,"state":"Wisconsin"},"type":"Feature","geometry":{"type":"Point","coordinates":[-87.7199245,43.6700141]}},{"properties":{"name":"Lake Kegonsa Stat Park","id":"a6kd45uk9tn7","lat":42.9761484,"long":-89.2347903,"state":"Wisconsin"},"type":"Feature","geometry":{"type":"Point","coordinates":[-89.2347903,42.9761484]}},{"properties":{"name":"Lake Wissota State Park","id":"a6kd45ja9az3","lat":44.9693746,"long":-91.293919,"state":"Wisconsin"},"type":"Feature","geometry":{"type":"Point","coordinates":[-91.293919,44.9693746]}},{"properties":{"name":"Lakeshore State Park","id":"a6kd45q8gypo","lat":43.031156,"long":-87.8948584,"state":"Wisconsin"},"type":"Feature","geometry":{"type":"Point","coordinates":[-87.8948584,43.031156]}},{"properties":{"name":"Merrick State Park","id":"a6kd45hcg4mv","lat":44.1573658,"long":-91.7575326,"state":"Wisconsin"},"type":"Feature","geometry":{"type":"Point","coordinates":[-91.7575326,44.1573658]}},{"properties":{"name":"Mill Bluff State Park","id":"a6kd45m1rq2q","lat":43.9575533,"long":-90.3136781,"state":"Wisconsin"},"type":"Feature","geometry":{"type":"Point","coordinates":[-90.3136781,43.9575533]}},{"properties":{"name":"Mirror Lake State Park","id":"a6kd45rw5rxa","lat":43.565,"long":-89.82,"state":"Wisconsin"},"type":"Feature","geometry":{"type":"Point","coordinates":[-89.82,43.565]}},{"properties":{"name":"Natural Bridge State Park","id":"a6kd45v7z05v","lat":43.3463428,"long":-89.9323304,"state":"Wisconsin"},"type":"Feature","geometry":{"type":"Point","coordinates":[-89.9323304,43.3463428]}},{"properties":{"name":"Nelson Dewey State Park","id":"a6kd45vd65h2","lat":42.7348226,"long":-91.0227145,"state":"Wisconsin"},"type":"Feature","geometry":{"type":"Point","coordinates":[-91.0227145,42.7348226]}},{"properties":{"name":"New Glarus Woods State Park","id":"a6kd45i7oebw","lat":42.7827296,"long":-89.632226,"state":"Wisconsin"},"type":"Feature","geometry":{"type":"Point","coordinates":[-89.632226,42.7827296]}},{"properties":{"name":"Newport State Park","id":"a6kd45j5e2sh","lat":45.2269874,"long":-86.9896149,"state":"Wisconsin"},"type":"Feature","geometry":{"type":"Point","coordinates":[-86.9896149,45.2269874]}},{"properties":{"name":"Pattison State Park","id":"a6kd45vk6et1","lat":46.5279414,"long":-92.1217125,"state":"Wisconsin"},"type":"Feature","geometry":{"type":"Point","coordinates":[-92.1217125,46.5279414]}},{"properties":{"name":"Peninsula State Park","id":"a6kd45xiev53","lat":45.1484576,"long":-87.2193507,"state":"Wisconsin"},"type":"Feature","geometry":{"type":"Point","coordinates":[-87.2193507,45.1484576]}},{"properties":{"name":"Perrot State Park","id":"a6kd45itb6s0","lat":44.0186111,"long":-91.4675,"state":"Wisconsin"},"type":"Feature","geometry":{"type":"Point","coordinates":[-91.4675,44.0186111]}},{"properties":{"name":"Potawatomi State Park","id":"a6kd45wkkjrn","lat":44.8610902,"long":-87.4133145,"state":"Wisconsin"},"type":"Feature","geometry":{"type":"Point","coordinates":[-87.4133145,44.8610902]}},{"properties":{"name":"Rib Mountain State Park","id":"a6kd45vndlw5","lat":44.9178936,"long":-89.6839714,"state":"Wisconsin"},"type":"Feature","geometry":{"type":"Point","coordinates":[-89.6839714,44.9178936]}},{"properties":{"name":"Roche-a-Cri State Park","id":"a6kd45tvizo6","lat":44.0031076,"long":-89.8200632,"state":"Wisconsin"},"type":"Feature","geometry":{"type":"Point","coordinates":[-89.8200632,44.0031076]}},{"properties":{"name":"Rock Island State Park","id":"a6kd45rq07by","lat":45.4174086,"long":-86.818964,"state":"Wisconsin"},"type":"Feature","geometry":{"type":"Point","coordinates":[-86.818964,45.4174086]}},{"properties":{"name":"Rocky Arbor State Park","id":"a6kd45jbc0z0","lat":43.6409682,"long":-82.801784,"state":"Wisconsin"},"type":"Feature","geometry":{"type":"Point","coordinates":[-82.801784,43.6409682]}},{"properties":{"name":"Straight Lake State Park","id":"a6kd45hiqyvp","lat":45.6013252,"long":-92.4112735,"state":"Wisconsin"},"type":"Feature","geometry":{"type":"Point","coordinates":[-92.4112735,45.6013252]}},{"properties":{"name":"Tower Hill State Park","id":"a6kd45nv4z5y","lat":43.1492739,"long":-90.0431547,"state":"Wisconsin"},"type":"Feature","geometry":{"type":"Point","coordinates":[-90.0431547,43.1492739]}},{"properties":{"name":"Whitefish Dunes State Park","id":"a6kd45oy5bq8","lat":44.925996,"long":-87.1946269,"state":"Wisconsin"},"type":"Feature","geometry":{"type":"Point","coordinates":[-87.1946269,44.925996]}},{"properties":{"name":"Wildcat Mountain State Park","id":"a6kd45q53itg","lat":43.6984651,"long":-90.5683399,"state":"Wisconsin"},"type":"Feature","geometry":{"type":"Point","coordinates":[-90.5683399,43.6984651]}},{"properties":{"name":"Willow River State Park","id":"a6kd45l1q0x1","lat":45.0200074,"long":-92.6783278,"state":"Wisconsin"},"type":"Feature","geometry":{"type":"Point","coordinates":[-92.6783278,45.0200074]}},{"properties":{"name":"Wyalusing State Park","id":"a6kd45hzvqh0","lat":42.9701836,"long":-91.1305049,"state":"Wisconsin"},"type":"Feature","geometry":{"type":"Point","coordinates":[-91.1305049,42.9701836]}},{"properties":{"name":"Yellowstone Lake State Park","id":"a6kd45x9voob","lat":42.7613491,"long":-89.9860092,"state":"Wisconsin"},"type":"Feature","geometry":{"type":"Point","coordinates":[-89.9860092,42.7613491]}}],"is_temporal":false,"author":{"url":"","metadata":null,"contact_name":null,"contact_address":null,"source":null,"contact_phone":null},"source":"","pagination":{"sort":null,"start":0,"total":513,"limit":1000000},"state":"complete","tags":"","published":"2014-08-14T20:07:14-04:00","id":233874}