{"type":"FeatureCollection","data_type":"Dataset","url_type":null,"permissions":[{"permissions":{"download":true,"view":true},"group_id":"everyone"}],"classification":null,"title":"coal powerplants in mi","count":33,"stream_id":234377,"contributor":{"url":"http://geocommons.com/users/44386","name":"kennyhartman"},"data_attributes":null,"calculation_params":null,"icon_link":null,"link":"http://geocommons.com/overlays/234377.json","extent":[-89.3347,41.7903,-82.5437,46.7381],"geometry_types":["point"],"unique_name":null,"name":"coal powerplants in mi","feature_count":33,"description":"","next_feature":null,"is_raster":false,"short_classification":"Y","stats":{"geo_score":{"max":0.857,"mean":0.804515151515151,"variance":0.0223229450757576,"stdev":0.149408651274809,"min":0.0,"median":0.857},"co2 emissi":{"max":17401929,"mean":2318732.84848485,"variance":13745562767916.8,"stdev":3707500.87901767,"min":0,"median":602055}},"features":[{"properties":{"city":"Alpena","geo_precis":"city","power plan":"Louisiana Pacific Alpena Power Plant","geo_score":0.81,"co2 emissi":0,"id":"a6321v36yac7","state":"MI"},"type":"Feature","geometry":{"type":"Point","coordinates":[-85.685035,43.072803]}},{"properties":{"city":"Alpena","geo_precis":"city","power plan":"Lafarge Alpena Power Plant","geo_score":0.81,"co2 emissi":0,"id":"a6321v912htq","state":"MI"},"type":"Feature","geometry":{"type":"Point","coordinates":[-85.685035,43.072803]}},{"properties":{"city":"China","geo_precis":"unmatched","power plan":"Belle River Power Plant","geo_score":0.0,"co2 emissi":8797833,"id":"a6321v850y77","state":"MI"},"type":"Feature","geometry":null},{"properties":{"city":"East China","geo_precis":"city","power plan":"St. Clair Power Plant","geo_score":0.857,"co2 emissi":7818581,"id":"a6321v8wmgw5","state":"MI"},"type":"Feature","geometry":{"type":"Point","coordinates":[-82.543697,42.776889]}},{"properties":{"city":"East Lansing","geo_precis":"city","power plan":"MSU Simon Power Plant","geo_score":0.805,"co2 emissi":602055,"id":"a6321vactim9","state":"MI"},"type":"Feature","geometry":{"type":"Point","coordinates":[-84.555535,42.732535]}},{"properties":{"city":"Erie","geo_precis":"city","power plan":"Whiting Generating Plant","geo_score":0.857,"co2 emissi":2905549,"id":"a6321v4a9w38","state":"MI"},"type":"Feature","geometry":{"type":"Point","coordinates":[-83.504033,41.790287]}},{"properties":{"city":"Escanaba","geo_precis":"city","power plan":"Escanaba Generating Station","geo_score":0.857,"co2 emissi":243277,"id":"a6321v63gs96","state":"MI"},"type":"Feature","geometry":{"type":"Point","coordinates":[-87.057049,45.851343]}},{"properties":{"city":"Escanaba","geo_precis":"city","power plan":"Escanaba Paper Power Plant","geo_score":0.857,"co2 emissi":584342,"id":"a6321vb81qli","state":"MI"},"type":"Feature","geometry":{"type":"Point","coordinates":[-87.057049,45.851343]}},{"properties":{"city":"Essexville","geo_precis":"city","power plan":"Karn Generating Plant","geo_score":0.857,"co2 emissi":4261230,"id":"a6321vdukv6h","state":"MI"},"type":"Feature","geometry":{"type":"Point","coordinates":[-83.778971,43.601522]}},{"properties":{"city":"Essexville","geo_precis":"city","power plan":"Weadock Generating Plant","geo_score":0.857,"co2 emissi":2103672,"id":"a6321v9g209n","state":"MI"},"type":"Feature","geometry":{"type":"Point","coordinates":[-83.778971,43.601522]}},{"properties":{"city":"Filer City","geo_precis":"city","power plan":"Filer City Station","geo_score":0.762,"co2 emissi":629166,"id":"a6321vbeey0v","state":"MI"},"type":"Feature","geometry":{"type":"Point","coordinates":[-89.10375,46.296893]}},{"properties":{"city":"Grand Haven","geo_precis":"city","power plan":"Sims Generating Station","geo_score":0.757,"co2 emissi":469531,"id":"a6321v33roal","state":"MI"},"type":"Feature","geometry":{"type":"Point","coordinates":[-85.306756,46.158336]}},{"properties":{"city":"Harbor Beach","geo_precis":"city","power plan":"Harbor Beach Power Plant","geo_score":0.766,"co2 emissi":90876,"id":"a6321vd7al1e","state":"MI"},"type":"Feature","geometry":{"type":"Point","coordinates":[-83.295486,42.377814]}},{"properties":{"city":"Holland","geo_precis":"city","power plan":"James De Young Generating Station","geo_score":0.804,"co2 emissi":490473,"id":"a6321v6ttj1o","state":"MI"},"type":"Feature","geometry":{"type":"Point","coordinates":[-83.422549,42.701111]}},{"properties":{"city":"Lansing","geo_precis":"city","power plan":"Eckert Station","geo_score":0.857,"co2 emissi":2325241,"id":"a6321vb46kjo","state":"MI"},"type":"Feature","geometry":{"type":"Point","coordinates":[-84.555535,42.732535]}},{"properties":{"city":"Lansing","geo_precis":"city","power plan":"Erickson Station","geo_score":0.857,"co2 emissi":1348921,"id":"a6321v8jqhp7","state":"MI"},"type":"Feature","geometry":{"type":"Point","coordinates":[-84.555535,42.732535]}},{"properties":{"city":"Litchfield","geo_precis":"city","power plan":"Endicott Generating Station","geo_score":0.857,"co2 emissi":648613,"id":"a6321v29f2sy","state":"MI"},"type":"Feature","geometry":{"type":"Point","coordinates":[-84.619228,42.029101]}},{"properties":{"city":"Marquette","geo_precis":"city","power plan":"Presque Isle Power Plant","geo_score":0.857,"co2 emissi":3984922,"id":"a6321v6kjx8e","state":"MI"},"type":"Feature","geometry":{"type":"Point","coordinates":[-87.615282,46.593435]}},{"properties":{"city":"Marquette","geo_precis":"city","power plan":"Shiras Station","geo_score":0.857,"co2 emissi":424147,"id":"a6321v0ksv7x","state":"MI"},"type":"Feature","geometry":{"type":"Point","coordinates":[-87.615282,46.593435]}},{"properties":{"city":"Marysville","geo_precis":"city","power plan":"Marysville Power Plant","geo_score":0.814,"co2 emissi":1373229,"id":"a6321v7asbxi","state":"MI"},"type":"Feature","geometry":{"type":"Point","coordinates":[-83.866078,43.236415]}},{"properties":{"city":"Menominee","geo_precis":"city","power plan":"Menominee Paper Power Plant","geo_score":0.857,"co2 emissi":34446,"id":"a6321v1fsxmv","state":"MI"},"type":"Feature","geometry":{"type":"Point","coordinates":[-87.56772,45.228959]}},{"properties":{"city":"Monroe","geo_precis":"city","power plan":"Monroe Power Plant","geo_score":0.857,"co2 emissi":17401929,"id":"a6321v4qk6ya","state":"MI"},"type":"Feature","geometry":{"type":"Point","coordinates":[-83.430682,41.928024]}},{"properties":{"city":"Munising","geo_precis":"city","power plan":"Neenah Paper Munising Mill Power Plant","geo_score":0.857,"co2 emissi":92083,"id":"a6321v8jdvsy","state":"MI"},"type":"Feature","geometry":{"type":"Point","coordinates":[-86.460319,46.414779]}},{"properties":{"city":"Muskegon","geo_precis":"city","power plan":"S.D. Warren Muskegon Power Plant","geo_score":0.79,"co2 emissi":0,"id":"a6321v44uqfk","state":"MI"},"type":"Feature","geometry":{"type":"Point","coordinates":[-86.238946,43.201126]}},{"properties":{"city":"Muskegon","geo_precis":"city","power plan":"Cobb Generating Plant","geo_score":0.79,"co2 emissi":2278267,"id":"a6321v4923t4","state":"MI"},"type":"Feature","geometry":{"type":"Point","coordinates":[-86.238946,43.201126]}},{"properties":{"city":"Ontonagon","geo_precis":"city","power plan":"Stone Container Ontonagon Power Plant","geo_score":0.857,"co2 emissi":291617,"id":"a6321vdph3rp","state":"MI"},"type":"Feature","geometry":{"type":"Point","coordinates":[-89.334696,46.73807]}},{"properties":{"city":"Pontiac","geo_precis":"city","power plan":"GM Pontiac Power Plant","geo_score":0.857,"co2 emissi":1373,"id":"a6321v2bwpbj","state":"MI"},"type":"Feature","geometry":{"type":"Point","coordinates":[-83.289036,42.670272]}},{"properties":{"city":"River Rouge","geo_precis":"city","power plan":"River Rouge Power Plant","geo_score":0.857,"co2 emissi":3094070,"id":"a6321va7ez3j","state":"MI"},"type":"Feature","geometry":{"type":"Point","coordinates":[-83.135137,42.268761]}},{"properties":{"city":"St. Clair","geo_precis":"city","power plan":"Cargill Salt Power Plant","geo_score":0.755,"co2 emissi":0,"id":"a6321v1rbnk1","state":"MI"},"type":"Feature","geometry":{"type":"Point","coordinates":[-86.166684,42.112819]}},{"properties":{"city":"Trenton","geo_precis":"city","power plan":"Trenton Channel Power Plant","geo_score":0.857,"co2 emissi":4605739,"id":"a6321v7bxnso","state":"MI"},"type":"Feature","geometry":{"type":"Point","coordinates":[-83.217937,42.138209]}},{"properties":{"city":"West Olive","geo_precis":"city","power plan":"Campbell Generating Plant","geo_score":0.857,"co2 emissi":9017689,"id":"a6321v62g28w","state":"MI"},"type":"Feature","geometry":{"type":"Point","coordinates":[-86.095232,42.929518]}},{"properties":{"city":"White Pine","geo_precis":"city","power plan":"White Pine Power Plant","geo_score":0.746,"co2 emissi":67118,"id":"a6321vddv5wm","state":"MI"},"type":"Feature","geometry":{"type":"Point","coordinates":[-85.935838,41.946991]}},{"properties":{"city":"Wyandotte","geo_precis":"city","power plan":"Wyandotte Municipal Power Plant","geo_score":0.857,"co2 emissi":532195,"id":"a6321v2etwju","state":"MI"},"type":"Feature","geometry":{"type":"Point","coordinates":[-83.206572,42.19499]}}],"is_temporal":false,"author":{"url":"","metadata":"","contact_name":"","contact_address":"","source":"","contact_phone":""},"source":"","pagination":{"sort":null,"start":0,"total":33,"limit":1000000},"state":"complete","tags":"coal,plants,power","published":"2014-08-14T20:41:59-04:00","id":234377}