{"type":"FeatureCollection","data_type":"Dataset","url_type":null,"permissions":[{"permissions":{"download":true,"view":true},"group_id":"everyone"}],"classification":null,"title":"Health_facility--esri_test","count":20,"stream_id":235691,"contributor":{"url":"http://geocommons.com/users/31042","name":"rnldwendt"},"data_attributes":null,"calculation_params":null,"icon_link":null,"link":"http://geocommons.com/overlays/235691.json","extent":[36.5673,-1.27,36.8401,-0.870245],"geometry_types":["point"],"unique_name":null,"name":"Health_facility--esri_test","feature_count":20,"description":"","next_feature":null,"is_raster":false,"short_classification":"Y","stats":{"latitude":{"max":-0.870245,"mean":-1.0896874,"variance":0.00892342956667368,"stdev":0.0944639061582448,"min":-1.27,"median":-1.08108},"facility type":{"max":4,"mean":3.75,"variance":0.197368421052632,"stdev":0.444261658319319,"min":3,"median":4},"hmis":{"max":3731,"mean":1331.93333333333,"variance":1809917.63809524,"stdev":1345.33179479831,"min":190,"median":612},"facility number":{"max":20,"mean":10.5,"variance":35.0,"stdev":5.91607978309962,"min":1,"median":11},"longitude":{"max":36.84009,"mean":36.71681505,"variance":0.00559957563531309,"stdev":0.0748303122759292,"min":36.56731,"median":36.7392}},"features":[{"properties":{"latitude":-1.137387,"facility type":4,"sub-location":"ANMER","district":"KIAMBU","hmis":190,"f_name":"ANMER DISP","agency":"MOH","division":"KIAMBAA","facility number":1,"spatial reference method":"1:50000 MAPS","longitude":36.84009,"id":"a6dbcfpx0xsb","province":"CENTRAL","location":"KAMITI"},"type":"Feature","geometry":{"type":"Point","coordinates":[36.84009,-1.137387]}},{"properties":{"latitude":-0.978523,"facility type":4,"sub-location":"BATHI","district":"KIAMBU","hmis":192,"f_name":"BATHI DISP","agency":"MISS","division":"LARI","facility number":2,"spatial reference method":"DDP","longitude":36.6347,"id":"a6dbcfxyylei","province":"CENTRAL","location":"KIJABE"},"type":"Feature","geometry":{"type":"Point","coordinates":[36.6347,-0.978523]}},{"properties":{"latitude":-1.08108,"facility type":4,"sub-location":"BIBIRIONI","district":"KIAMBU","hmis":3731,"f_name":"BIBIRIONI DISP","agency":"MISS","division":"LIMURU","facility number":3,"spatial reference method":"1:50000 MAPS","longitude":36.6171,"id":"a6dbcfs34zt2","province":"CENTRAL","location":"LIMURU"},"type":"Feature","geometry":{"type":"Point","coordinates":[36.6171,-1.08108]}},{"properties":{"latitude":-1.21635,"facility type":4,"sub-location":"CHURA","district":"KIAMBU","hmis":null,"f_name":"CHURA DISP","agency":"MOH","division":"KIKUYU","facility number":4,"spatial reference method":"1:50000 MAPS","longitude":36.6896,"id":"a6dbcflaalvi","province":"CENTRAL","location":"KABETE"},"type":"Feature","geometry":{"type":"Point","coordinates":[36.6896,-1.21635]}},{"properties":{"latitude":-1.1328,"facility type":4,"sub-location":"CIANDA","district":"KIAMBU","hmis":193,"f_name":"CIANDA DISP","agency":"MOH","division":"KIAMBAA","facility number":5,"spatial reference method":"1:50000 MAPS","longitude":36.7613,"id":"a6dbcfoaqczi","province":"CENTRAL","location":"CIANDA"},"type":"Feature","geometry":{"type":"Point","coordinates":[36.7613,-1.1328]}},{"properties":{"latitude":-0.991187,"facility type":4,"sub-location":"GACHOIRE","district":"KIAMBU","hmis":null,"f_name":"GACHOIRE DISP","agency":"MOH","division":"LARI","facility number":6,"spatial reference method":"DDP","longitude":36.7044,"id":"a6dbcfl8iqbn","province":"CENTRAL","location":"NYANDUMA"},"type":"Feature","geometry":{"type":"Point","coordinates":[36.7044,-0.991187]}},{"properties":{"latitude":-1.182312,"facility type":4,"sub-location":"GATHANGA","district":"KIAMBU","hmis":931,"f_name":"GATHANGA DISP","agency":"MOH","division":"KIAMBAA","facility number":7,"spatial reference method":"1:50000 MAPS","longitude":36.791234,"id":"a6dbcg001eqm","province":"CENTRAL","location":"WAGUTHU"},"type":"Feature","geometry":{"type":"Point","coordinates":[36.791234,-1.182312]}},{"properties":{"latitude":-1.06802,"facility type":4,"sub-location":"GITIHA","district":"KIAMBU","hmis":null,"f_name":"GATHANGARI DISP","agency":"MOH","division":"GITHUNGURI","facility number":8,"spatial reference method":"1:50000 MAPS","longitude":36.7054,"id":"a6dbcfrixwzy","province":"CENTRAL","location":"GITHIGA"},"type":"Feature","geometry":{"type":"Point","coordinates":[36.7054,-1.06802]}},{"properties":{"latitude":-1.09883,"facility type":4,"sub-location":"RIUKI","district":"KIAMBU","hmis":null,"f_name":"GIATHIEKO DISP","agency":"MOH","division":"GITHUNGURI","facility number":9,"spatial reference method":"DDP","longitude":36.8279,"id":"a6dbcfwo50sm","province":"CENTRAL","location":"IKINU"},"type":"Feature","geometry":{"type":"Point","coordinates":[36.8279,-1.09883]}},{"properties":{"latitude":-1.27,"facility type":4,"sub-location":"GIKAMBURA","district":"KIAMBU","hmis":3638,"f_name":"GICHARANI DISP","agency":"MISS","division":"KIKUYU","facility number":10,"spatial reference method":"ILRI VILLAGES","longitude":36.65,"id":"a6dbcfqax56z","province":"CENTRAL","location":"KARAI"},"type":"Feature","geometry":{"type":"Point","coordinates":[36.65,-1.27]}},{"properties":{"latitude":-1.16126,"facility type":4,"sub-location":"NGECHA","district":"KIAMBU","hmis":198,"f_name":"GICHURU DISP","agency":"MOH","division":"LIMURU","facility number":11,"spatial reference method":"1:50000 MAPS","longitude":36.6689,"id":"a6dbcfm3k1qd","province":"CENTRAL","location":"NGECHA"},"type":"Feature","geometry":{"type":"Point","coordinates":[36.6689,-1.16126]}},{"properties":{"latitude":-1.083,"facility type":3,"sub-location":"MATUGUTA","district":"KIAMBU","hmis":2401,"f_name":"GITHIGA HEALTH CENTRE","agency":"MOH","division":"GITHUNGURI","facility number":12,"spatial reference method":"DDP","longitude":36.7462,"id":"a6dbcfpd295u","province":"CENTRAL","location":"GITHIGA"},"type":"Feature","geometry":{"type":"Point","coordinates":[36.7462,-1.083]}},{"properties":{"latitude":-1.05339,"facility type":3,"sub-location":"KANJAI","district":"KIAMBU","hmis":233,"f_name":"GITHUNGURI HEALTH CENTRE","agency":"MOH","division":"GITHUNGURI","facility number":13,"spatial reference method":"DDP","longitude":36.788,"id":"a6dbcfx5ab15","province":"CENTRAL","location":"GITHUNGURI"},"type":"Feature","geometry":{"type":"Point","coordinates":[36.788,-1.05339]}},{"properties":{"latitude":-1.0742,"facility type":3,"sub-location":"GITIHA","district":"KIAMBU","hmis":2398,"f_name":"GITIHA HEALTH CENTRE","agency":"MOH","division":"GITHUNGURI","facility number":14,"spatial reference method":"1:50000 MAPS","longitude":36.6896,"id":"a6dbcfmvskj3","province":"CENTRAL","location":"GITHIGA"},"type":"Feature","geometry":{"type":"Point","coordinates":[36.6896,-1.0742]}},{"properties":{"latitude":-1.196205,"facility type":4,"sub-location":"THIGIO(KIAMBU)","district":"KIAMBU","hmis":612,"f_name":"HOLY CROSS (THIGIO) DISP","agency":"MISS","division":"LIMURU","facility number":15,"spatial reference method":"SUBLOC CENTROID","longitude":36.56731,"id":"a6dbcfsbmsl9","province":"CENTRAL","location":"NDEIYA"},"type":"Feature","geometry":{"type":"Point","coordinates":[36.56731,-1.196205]}},{"properties":{"latitude":-1.14234,"facility type":4,"sub-location":"NDUMBERI","district":"KIAMBU","hmis":null,"f_name":"KAARIA DISP","agency":"MOH","division":"KIAMBAA","facility number":16,"spatial reference method":"1:50000 MAPS","longitude":36.801234,"id":"a6dbcfxr84f6","province":"CENTRAL","location":"NDUMBERI"},"type":"Feature","geometry":{"type":"Point","coordinates":[36.801234,-1.14234]}},{"properties":{"latitude":-1.05093,"facility type":3,"sub-location":"GITHUNGURI(KIAMBU)","district":"KIAMBU","hmis":2400,"f_name":"KAGAA HEALTH CENTRE","agency":"MOH","division":"GITHUNGURI","facility number":17,"spatial reference method":"DDP","longitude":36.7467,"id":"a6dbcfl25z8d","province":"CENTRAL","location":"GITHUNGURI"},"type":"Feature","geometry":{"type":"Point","coordinates":[36.7467,-1.05093]}},{"properties":{"latitude":-1.001209,"facility type":4,"sub-location":"KAGWE","district":"KIAMBU","hmis":207,"f_name":"KAGWE CATHOLIC MISSION DISP","agency":"MISS","division":"LARI","facility number":18,"spatial reference method":"ILRI MKT CENTRES","longitude":36.743433,"id":"a6dbcfwbtuxx","province":"CENTRAL","location":"GATAMAIYU"},"type":"Feature","geometry":{"type":"Point","coordinates":[36.743433,-1.001209]}},{"properties":{"latitude":-1.00448,"facility type":3,"sub-location":"KAGWE","district":"KIAMBU","hmis":2447,"f_name":"KAGWE HEALTH CENTRE","agency":"MOH","division":"LARI","facility number":19,"spatial reference method":"DDP","longitude":36.7392,"id":"a6dbcg0k5zug","province":"CENTRAL","location":"GATAMAIYU"},"type":"Feature","geometry":{"type":"Point","coordinates":[36.7392,-1.00448]}},{"properties":{"latitude":-0.870245,"facility type":4,"sub-location":"KINALE","district":"KIAMBU","hmis":208,"f_name":"KAMAE FOREST DISP","agency":"MOH","division":"LARI","facility number":20,"spatial reference method":"DDP","longitude":36.624,"id":"a6dbcfwqutf1","province":"CENTRAL","location":"KINALE"},"type":"Feature","geometry":{"type":"Point","coordinates":[36.624,-0.870245]}}],"is_temporal":false,"author":{"url":"","metadata":null,"contact_name":null,"contact_address":null,"source":null,"contact_phone":null},"source":"","pagination":{"sort":null,"start":0,"total":20,"limit":1000000},"state":"complete","tags":"","published":"2014-08-14T22:52:48-04:00","id":235691}