{"type":"FeatureCollection","url":"http://www.spc.noaa.gov/climo/reports/120414_rpts_filtered_torn.csv","data_type":"Data Feed","url_type":"csv","permissions":[{"permissions":{"download":true,"view":true},"group_id":"everyone"}],"classification":null,"title":"Tornado Reports - 4/14/2012","count":122,"stream_id":235769,"contributor":{"url":"http://geocommons.com/users/44733","name":"briedd"},"data_attributes":null,"calculation_params":null,"icon_link":null,"link":"http://geocommons.com/overlays/235769.json","extent":[-100.87,36.26,-92.49,42.13],"geometry_types":["point"],"unique_name":null,"name":"Tornado Reports - 4/14/2012","feature_count":122,"description":"NOAA Storm Reports, Tornado Reports from 4/14/2012","next_feature":null,"is_raster":false,"short_classification":"Y","stats":{"lon":{"max":-92.49,"mean":-97.8759016393442,"variance":2.14576157702208,"stdev":1.46484182662228,"min":-100.87,"median":-97.76},"time":{"max":"2355/01/01 00:00:00 -0500","mean":"1376/04/26 17:44:26 -0456","variance":7.87678840035619e+20,"stdev":28065616687.2495,"min":"38/03/03 23:59:54 -0456","median":"1954/01/01 00:00:00 -0500"},"lat":{"max":42.13,"mean":38.5746721311475,"variance":2.04835898252269,"stdev":1.43120892343595,"min":36.26,"median":38.28}},"features":[{"properties":{"lon":-99.42,"comments":"THE OBSERVER NOTED A COUPLE OF BRIEF TOUCHDOWNS OVER A FEW MINUTES. (DDC)","time":{"end_time":"1731/01/01 00:00:00 -0456","original":"1730","granularity":"year","time":"1730/01/01 00:00:00 -0456"},"county":"PAWNEE","f-scale":"UNK","id":"a6367pzaum5v","lat":38.3,"state":"KS","location":"7 N ROZEL"},"type":"Feature","geometry":{"type":"Point","coordinates":[-99.42,38.3]}},{"properties":{"lon":-99.71,"comments":"DAMAGE TO AN OLD SCHOOL HOUSE WAS REPORTED AT THIS LOCATION. DAMAGE TO OUTBUILDINGS WERE ALSO REPORTED ALONG 232 RD. (DDC)","time":{"end_time":"1834/01/01 00:00:00 -0456","original":"1833","granularity":"year","time":"1833/01/01 00:00:00 -0456"},"county":"HODGEMAN","f-scale":"UNK","id":"a6367pymlswe","lat":38.02,"state":"KS","location":"7 S HANSTON"},"type":"Feature","geometry":{"type":"Point","coordinates":[-99.71,38.02]}},{"properties":{"lon":-99.89,"comments":"PUBLIC REPORTED A TORNADO CROSSING HIGHWAY 283 ON THE HODGEMAN AND FORD COUNTY LINE. (DDC)","time":{"end_time":"1841/01/01 00:00:00 -0456","original":"1840","granularity":"year","time":"1840/01/01 00:00:00 -0456"},"county":"HODGEMAN","f-scale":"UNK","id":"a6367pu7qq72","lat":37.92,"state":"KS","location":"10 N WRIGHT"},"type":"Feature","geometry":{"type":"Point","coordinates":[-99.89,37.92]}},{"properties":{"lon":-99.77,"comments":"THE TORNADO WAS REPORTED AS A CONE TORNADO","time":{"end_time":"1859/01/01 00:00:00 -0456","original":"1858","granularity":"year","time":"1858/01/01 00:00:00 -0456"},"county":"CLARK","f-scale":"UNK","id":"a6367pukjx0h","lat":37.26,"state":"KS","location":"5 N ASHLAND"},"type":"Feature","geometry":{"type":"Point","coordinates":[-99.77,37.26]}},{"properties":{"lon":-99.89,"comments":"PUBLIC REPORTED A TORNADO CROSSING HIGHWAY 283 ON THE HODGEMAN AND FORD COUNTY LINE. (DDC)","time":{"end_time":"1910/01/01 00:00:00 -0500","original":"1909","granularity":"year","time":"1909/01/01 00:00:00 -0500"},"county":"HODGEMAN","f-scale":"UNK","id":"a6367ppops0z","lat":37.92,"state":"KS","location":"10 N WRIGHT"},"type":"Feature","geometry":{"type":"Point","coordinates":[-99.89,37.92]}},{"properties":{"lon":-98.47,"comments":"STORM CHASER REPORTED A WRAPPED TORNADO 1.5 MILES SOUTH OF TIPTON. EMERGENCY MANAGEMENT HAD A REPORT OF SOME TIN TAKEN FROM A BUILDING IN THE SAME GENERAL AREA. (GID)","time":{"end_time":"1915/01/01 00:00:00 -0500","original":"1914","granularity":"year","time":"1914/01/01 00:00:00 -0500"},"county":"MITCHELL","f-scale":"UNK","id":"a6367po456xu","lat":39.32,"state":"KS","location":"1 S TIPTON"},"type":"Feature","geometry":{"type":"Point","coordinates":[-98.47,39.32]}},{"properties":{"lon":-97.86,"comments":"BRIEF TORNADO REPORTED ON GROUND 5 MILES WEST OF BYRON. (GID)","time":{"end_time":"1916/01/01 00:00:00 -0500","original":"1915","granularity":"year","time":"1915/01/01 00:00:00 -0500"},"county":"NUCKOLLS","f-scale":"UNK","id":"a6367pxkcfm3","lat":40.01,"state":"NE","location":"5 W BYRON"},"type":"Feature","geometry":{"type":"Point","coordinates":[-97.86,40.01]}},{"properties":{"lon":-99.77,"comments":"THE TORNADO WAS OBSERVED FROM A RESIDENCE 3 MILES SOUTHEAST. (DDC)","time":{"end_time":"1924/01/01 00:00:00 -0500","original":"1923","granularity":"year","time":"1923/01/01 00:00:00 -0500"},"county":"HODGEMAN","f-scale":"UNK","id":"a6367ppcm961","lat":37.99,"state":"KS","location":"9 SE JETMORE"},"type":"Feature","geometry":{"type":"Point","coordinates":[-99.77,37.99]}},{"properties":{"lon":-99.7,"comments":"A WALL CLOUD WITH A FUNNEL APPEARING TO REACH TO NEAR THE GROUND WAS OBSERVED FROM A DISTANCE OF ABOUT 6 MILES FROM THE OBSERVATION POINT NORTHEAST OF THE POSSIBLE TORN (DDC)","time":{"end_time":"1929/01/01 00:00:00 -0500","original":"1928","granularity":"year","time":"1928/01/01 00:00:00 -0500"},"county":"CLARK","f-scale":"UNK","id":"a6367pzds0z8","lat":37.45,"state":"KS","location":"5 SE KINGSDOWN"},"type":"Feature","geometry":{"type":"Point","coordinates":[-99.7,37.45]}},{"properties":{"lon":-95.99,"comments":"AN EF0 TORNADO BRIEFLY TOUCHED DOWN ABOUT 6.25 MILES NORTHWEST OF CASTANA. (OAX)","time":{"end_time":"1929/01/01 00:00:00 -0500","original":"1928","granularity":"year","time":"1928/01/01 00:00:00 -0500"},"county":"MONONA","f-scale":"UNK","id":"a6367pvq5mfh","lat":42.13,"state":"IA","location":"6 NW CASTANA"},"type":"Feature","geometry":{"type":"Point","coordinates":[-95.99,42.13]}},{"properties":{"lon":-97.69,"comments":"CHASER REPORTED A BRIEF TOUCH DOWN OF A RAIN WRAPPED TORNADO. DERIS WAS ALSO KICKING UP IN THE FIELD","time":{"end_time":"1931/01/01 00:00:00 -0500","original":"1930","granularity":"year","time":"1930/01/01 00:00:00 -0500"},"county":"THAYER","f-scale":"UNK","id":"a6367poue8dj","lat":40.14,"state":"NE","location":"2 E DESHLER"},"type":"Feature","geometry":{"type":"Point","coordinates":[-97.69,40.14]}},{"properties":{"lon":-99.59,"comments":"(DDC)","time":{"end_time":"1951/01/01 00:00:00 -0500","original":"1950","granularity":"year","time":"1950/01/01 00:00:00 -0500"},"county":"HODGEMAN","f-scale":"UNK","id":"a6367pptkuqm","lat":38.15,"state":"KS","location":"2 E GRAY"},"type":"Feature","geometry":{"type":"Point","coordinates":[-99.59,38.15]}},{"properties":{"lon":-99.44,"comments":"(DDC)","time":{"end_time":"1955/01/01 00:00:00 -0500","original":"1954","granularity":"year","time":"1954/01/01 00:00:00 -0500"},"county":"PAWNEE","f-scale":"UNK","id":"a6367ptda8md","lat":38.2,"state":"KS","location":"2 W ROZEL"},"type":"Feature","geometry":{"type":"Point","coordinates":[-99.44,38.2]}},{"properties":{"lon":-99.56,"comments":"SHERIFF REPORTED TORNADO 2 TO 3 MILES WEST OF BURDETTE. (DDC)","time":{"end_time":"1959/01/01 00:00:00 -0500","original":"1958","granularity":"year","time":"1958/01/01 00:00:00 -0500"},"county":"PAWNEE","f-scale":"UNK","id":"a6367pobz8qw","lat":38.19,"state":"KS","location":"2 W BURDETT"},"type":"Feature","geometry":{"type":"Point","coordinates":[-99.56,38.19]}},{"properties":{"lon":-96.97,"comments":"AN EF1 TORNADO PRODUCED MAINLY SHED AND TREE DAMAGE TO A COUPLE OF FARMS NORTHWEST OF PLEASANT DALE. (OAX)","time":{"end_time":"1960/01/01 00:00:00 -0500","original":"1959","granularity":"year","time":"1959/01/01 00:00:00 -0500"},"county":"SEWARD","f-scale":"UNK","id":"a6367pzcckbp","lat":40.85,"state":"NE","location":"5 NNW PLEASANT DALE"},"type":"Feature","geometry":{"type":"Point","coordinates":[-96.97,40.85]}},{"properties":{"lon":-95.99,"comments":"AN EF0 TORNADO BRIEFLY TOUCHED DOWN ABOUT 6.25 MILES NORTHWEST OF CASTANA. (OAX)","time":{"end_time":"1960/01/01 00:00:00 -0500","original":"1959","granularity":"year","time":"1959/01/01 00:00:00 -0500"},"county":"MONONA","f-scale":"UNK","id":"a6367pp9fuot","lat":42.13,"state":"IA","location":"6 NW CASTANA"},"type":"Feature","geometry":{"type":"Point","coordinates":[-95.99,42.13]}},{"properties":{"lon":-99.2,"comments":"A TORNADO WAS OBSERVED. THE TORNADO DESTROYED NUMEROUS FARM IMPLEMENTS INCLUDING FLIPPING 4 GRAIN AUGERS THROUGH A GRAIN BIN. TWO COMPLETE PIVOT IRRIGATION SYSTEMS WERE (DDC)","time":{"end_time":"2026/01/01 00:00:00 -0500","original":"2025","granularity":"year","time":"2025/01/01 00:00:00 -0500"},"county":"EDWARDS","f-scale":"UNK","id":"a6367q1tg2dt","lat":37.81,"state":"KS","location":"4 E CENTERVIEW"},"type":"Feature","geometry":{"type":"Point","coordinates":[-99.2,37.81]}},{"properties":{"lon":-99.31,"comments":"(DDC)","time":{"end_time":"2026/01/01 00:00:00 -0500","original":"2025","granularity":"year","time":"2025/01/01 00:00:00 -0500"},"county":"PAWNEE","f-scale":"UNK","id":"a6367pq8seq5","lat":38.3,"state":"KS","location":"5 W ASH VALLEY"},"type":"Feature","geometry":{"type":"Point","coordinates":[-99.31,38.3]}},{"properties":{"lon":-99.18,"comments":"TORNADO TORE UP STORAGE BINS ON HIS NEIGHBORS FARM. (DDC)","time":{"end_time":"2031/01/01 00:00:00 -0500","original":"2030","granularity":"year","time":"2030/01/01 00:00:00 -0500"},"county":"EDWARDS","f-scale":"UNK","id":"a6367pz3gyd2","lat":37.8,"state":"KS","location":"S FELLSBURG"},"type":"Feature","geometry":{"type":"Point","coordinates":[-99.18,37.8]}},{"properties":{"lon":-99.4,"comments":"(DDC)","time":{"end_time":"2035/01/01 00:00:00 -0500","original":"2034","granularity":"year","time":"2034/01/01 00:00:00 -0500"},"county":"PAWNEE","f-scale":"UNK","id":"a6367q18lc78","lat":38.34,"state":"KS","location":"10 N ROZEL"},"type":"Feature","geometry":{"type":"Point","coordinates":[-99.4,38.34]}},{"properties":{"lon":-99.3,"comments":"(DDC)","time":{"end_time":"2044/01/01 00:00:00 -0500","original":"2043","granularity":"year","time":"2043/01/01 00:00:00 -0500"},"county":"PAWNEE","f-scale":"UNK","id":"a6367pvsfcr5","lat":38.29,"state":"KS","location":"5 W ASH VALLEY"},"type":"Feature","geometry":{"type":"Point","coordinates":[-99.3,38.29]}},{"properties":{"lon":-99.31,"comments":"BRIEF TORNADO TOUCHDOWN JUST SOUTH OF THE TOWN OF RUSH CENTER. (DDC)","time":{"end_time":"2047/01/01 00:00:00 -0500","original":"2046","granularity":"year","time":"2046/01/01 00:00:00 -0500"},"county":"RUSH","f-scale":"UNK","id":"a6367pvt4qfp","lat":38.45,"state":"KS","location":"1 S RUSH CENTER"},"type":"Feature","geometry":{"type":"Point","coordinates":[-99.31,38.45]}},{"properties":{"lon":-94.49,"comments":"RAIN-WRAPPED TORNADO. RETRANSMISSION OF REPORT FROM 352PM. (DMX)","time":{"end_time":"2052/01/01 00:00:00 -0500","original":"2051","granularity":"year","time":"2051/01/01 00:00:00 -0500"},"county":"ADAMS","f-scale":"UNK","id":"a6367pumlmkl","lat":41.15,"state":"IA","location":"9 NW CRESTON"},"type":"Feature","geometry":{"type":"Point","coordinates":[-94.49,41.15]}},{"properties":{"lon":-99.39,"comments":"BRIEF TOUCHDOWN (OUN)","time":{"end_time":"2060/01/01 00:00:00 -0500","original":"2059","granularity":"year","time":"2059/01/01 00:00:00 -0500"},"county":"WOODWARD","f-scale":"UNK","id":"a6367pstyo4r","lat":36.53,"state":"OK","location":"7 N WOODWARD"},"type":"Feature","geometry":{"type":"Point","coordinates":[-99.39,36.53]}},{"properties":{"lon":-99.14,"comments":"(DDC)","time":{"end_time":"2106/01/01 00:00:00 -0500","original":"2105","granularity":"year","time":"2105/01/01 00:00:00 -0500"},"county":"RUSH","f-scale":"UNK","id":"a6367q41xwvi","lat":38.47,"state":"KS","location":"2 E TIMKEN"},"type":"Feature","geometry":{"type":"Point","coordinates":[-99.14,38.47]}},{"properties":{"lon":-98.75,"comments":"(DDC)","time":{"end_time":"2126/01/01 00:00:00 -0500","original":"2125","granularity":"year","time":"2125/01/01 00:00:00 -0500"},"county":"STAFFORD","f-scale":"UNK","id":"a6367prnpsvl","lat":38.1,"state":"KS","location":"5 W HUDSON"},"type":"Feature","geometry":{"type":"Point","coordinates":[-98.75,38.1]}},{"properties":{"lon":-98.78,"comments":"(DDC)","time":{"end_time":"2126/01/01 00:00:00 -0500","original":"2125","granularity":"year","time":"2125/01/01 00:00:00 -0500"},"county":"STAFFORD","f-scale":"UNK","id":"a6367q3gwp4f","lat":38.17,"state":"KS","location":"1 SE SEWARD"},"type":"Feature","geometry":{"type":"Point","coordinates":[-98.78,38.17]}},{"properties":{"lon":-99.16,"comments":"BRIEF TOUCHDOWN REPORTED BY KWTV (OUN)","time":{"end_time":"2131/01/01 00:00:00 -0500","original":"2130","granularity":"year","time":"2130/01/01 00:00:00 -0500"},"county":"WOODS","f-scale":"UNK","id":"a6367prp6v0q","lat":36.81,"state":"OK","location":"4 NW FREEDOM"},"type":"Feature","geometry":{"type":"Point","coordinates":[-99.16,36.81]}},{"properties":{"lon":-98.7,"comments":"(DDC)","time":{"end_time":"2149/01/01 00:00:00 -0500","original":"2148","granularity":"year","time":"2148/01/01 00:00:00 -0500"},"county":"PRATT","f-scale":"UNK","id":"a6367q02zn0e","lat":37.5,"state":"KS","location":"1 W SAWYER"},"type":"Feature","geometry":{"type":"Point","coordinates":[-98.7,37.5]}},{"properties":{"lon":-98.54,"comments":"(ICT)","time":{"end_time":"2151/01/01 00:00:00 -0500","original":"2150","granularity":"year","time":"2150/01/01 00:00:00 -0500"},"county":"BARTON","f-scale":"UNK","id":"a6367q1ngcro","lat":38.28,"state":"KS","location":"6 SSE ELLINWOOD"},"type":"Feature","geometry":{"type":"Point","coordinates":[-98.54,38.28]}},{"properties":{"lon":-96.38,"comments":"NWS STORM SURVEY CONFIRMED AN EF0 TORNADO STARTING ON THE EAST SIDE OF STERLING...AND LIFTING AT 455 PM 2.75 MILES EAST OF STERLING. (OAX)","time":{"end_time":"2151/01/01 00:00:00 -0500","original":"2150","granularity":"year","time":"2150/01/01 00:00:00 -0500"},"county":"JOHNSON","f-scale":"UNK","id":"a6367prj0xbj","lat":40.46,"state":"NE","location":"E STERLING"},"type":"Feature","geometry":{"type":"Point","coordinates":[-96.38,40.46]}},{"properties":{"lon":-96.25,"comments":"NWS STORM SURVEY CONFIRMED AN EF2 TORNADO BEGINNING 5 MILES WSW OF COOK AND CONTINUING TO 1 MILE ENE OF COOK...LIFTING AT 505 PM. (OAX)","time":{"end_time":"2157/01/01 00:00:00 -0500","original":"2156","granularity":"year","time":"2156/01/01 00:00:00 -0500"},"county":"JOHNSON","f-scale":"UNK","id":"a6367pxgpz61","lat":40.48,"state":"NE","location":"5 WSW COOK"},"type":"Feature","geometry":{"type":"Point","coordinates":[-96.25,40.48]}},{"properties":{"lon":-98.39,"comments":"BRIEF TORNADO TOUCHDOWN (ICT)","time":{"end_time":"2203/01/01 00:00:00 -0500","original":"2202","granularity":"year","time":"2202/01/01 00:00:00 -0500"},"county":"KINGMAN","f-scale":"UNK","id":"a6367prq54zj","lat":37.72,"state":"KS","location":"4 W PENALOSA"},"type":"Feature","geometry":{"type":"Point","coordinates":[-98.39,37.72]}},{"properties":{"lon":-95.97,"comments":"NWS STORM SURVEY CONFIRMED AN EF0 TORNADO BEGINNING 3.18 MILES SW OF TALMAGE AND CONTINUING TO 1.7 MI SSE OF TALMAGE...LIFTING AT 516 PM. (OAX)","time":{"end_time":"2208/01/01 00:00:00 -0500","original":"2207","granularity":"year","time":"2207/01/01 00:00:00 -0500"},"county":"NEMAHA","f-scale":"UNK","id":"a6367pr1nhme","lat":40.52,"state":"NE","location":"3 ESE TALMAGE"},"type":"Feature","geometry":{"type":"Point","coordinates":[-95.97,40.52]}},{"properties":{"lon":-96.12,"comments":"(OAX)","time":{"end_time":"2214/01/01 00:00:00 -0500","original":"2213","granularity":"year","time":"2213/01/01 00:00:00 -0500"},"county":"JOHNSON","f-scale":"UNK","id":"a6367pq2km1z","lat":40.48,"state":"NE","location":"3 SE COOK"},"type":"Feature","geometry":{"type":"Point","coordinates":[-96.12,40.48]}},{"properties":{"lon":-99.53,"comments":"BRIEF TOUCHDOWN (OUN)","time":{"end_time":"2217/01/01 00:00:00 -0500","original":"2216","granularity":"year","time":"2216/01/01 00:00:00 -0500"},"county":"WOODWARD","f-scale":"UNK","id":"a6367q46qvgj","lat":36.26,"state":"OK","location":"11 S TANGIER"},"type":"Feature","geometry":{"type":"Point","coordinates":[-99.53,36.26]}},{"properties":{"lon":-95.9,"comments":"NWS STORM SURVEY CONFIRMED A TORNADO TOUCHING DOWN 3 MILES NW OF NEBRASKA CITY...AND CONTINUING TO 2.25 MILES NNW OF NEBRASKA CITY...LIFTING AT 525 PM. (OAX)","time":{"end_time":"2222/01/01 00:00:00 -0500","original":"2221","granularity":"year","time":"2221/01/01 00:00:00 -0500"},"county":"OTOE","f-scale":"UNK","id":"a6367por92il","lat":40.71,"state":"NE","location":"3 NW NEBRASKA CITY"},"type":"Feature","geometry":{"type":"Point","coordinates":[-95.9,40.71]}},{"properties":{"lon":-100.87,"comments":"THIN ROPE TORNADO ON THE GROUND. (LBF)","time":{"end_time":"2226/01/01 00:00:00 -0500","original":"2225","granularity":"year","time":"2225/01/01 00:00:00 -0500"},"county":"LINCOLN","f-scale":"UNK","id":"a6367pr8paet","lat":40.95,"state":"NE","location":"14 SSW NORTH PLATTE"},"type":"Feature","geometry":{"type":"Point","coordinates":[-100.87,40.95]}},{"properties":{"lon":-100.79,"comments":"TROOPER WATCHING TORNADO APPROXIMATELY 3 MILES SSW OF NORTH PLATTE. TORNADO APPROACHING STATE FARM ROAD. (LBF)","time":{"end_time":"2233/01/01 00:00:00 -0500","original":"2232","granularity":"year","time":"2232/01/01 00:00:00 -0500"},"county":"LINCOLN","f-scale":"UNK","id":"a6367pvp34xw","lat":41.09,"state":"NE","location":"3 SSW NORTH PLATTE"},"type":"Feature","geometry":{"type":"Point","coordinates":[-100.79,41.09]}},{"properties":{"lon":-98.08,"comments":"TORNADO ON GROUND (ICT)","time":{"end_time":"2236/01/01 00:00:00 -0500","original":"2235","granularity":"year","time":"2235/01/01 00:00:00 -0500"},"county":"RICE","f-scale":"UNK","id":"a6367pvuoil4","lat":38.46,"state":"KS","location":"6 SE GENESEO"},"type":"Feature","geometry":{"type":"Point","coordinates":[-98.08,38.46]}},{"properties":{"lon":-95.75,"comments":"75 PERCENT OF THE TOWN OF THURMAN WAS DESTROYED. THE TOWN HAS BEEN EVACUATED WITH AN EMERGENCY SHELTER IN A NEARBY TOWN. NO POWER IN THE TOWN. NO MAJOR INJURIES. (OAX)","time":{"end_time":"2236/01/01 00:00:00 -0500","original":"2235","granularity":"year","time":"2235/01/01 00:00:00 -0500"},"county":"FREMONT","f-scale":"UNK","id":"a6367pv2o4hz","lat":40.82,"state":"IA","location":"THURMAN"},"type":"Feature","geometry":{"type":"Point","coordinates":[-95.75,40.82]}},{"properties":{"lon":-98.12,"comments":"WEDGE TORNADO STILL ON GROUND. (ICT)","time":{"end_time":"2246/01/01 00:00:00 -0500","original":"2245","granularity":"year","time":"2245/01/01 00:00:00 -0500"},"county":"RICE","f-scale":"UNK","id":"a6367pybh1gj","lat":38.48,"state":"KS","location":"8 NW LITTLE RIVER"},"type":"Feature","geometry":{"type":"Point","coordinates":[-98.12,38.48]}},{"properties":{"lon":-100.77,"comments":"SPOTTER REPORTS TORNADO JUST SOUTH OF FLYING J TRUCK STOP IN NORTH PLATTE (LBF)","time":{"end_time":"2248/01/01 00:00:00 -0500","original":"2247","granularity":"year","time":"2247/01/01 00:00:00 -0500"},"county":"LINCOLN","f-scale":"UNK","id":"a6367pwl7vyp","lat":41.13,"state":"NE","location":"NORTH PLATTE"},"type":"Feature","geometry":{"type":"Point","coordinates":[-100.77,41.13]}},{"properties":{"lon":-97.94,"comments":"LARGE WEDGE TORNADO ON GROUND. (ICT)","time":{"end_time":"2302/01/01 00:00:00 -0500","original":"2301","granularity":"year","time":"2301/01/01 00:00:00 -0500"},"county":"ELLSWORTH","f-scale":"UNK","id":"a6367pw0m1a3","lat":38.55,"state":"KS","location":"6 W MARQUETTE"},"type":"Feature","geometry":{"type":"Point","coordinates":[-97.94,38.55]}},{"properties":{"lon":-97.87,"comments":"A LARGE TORNADO ABOUT ONE QUARTER MILE WIDE WAS NEAR K4 AND HIGHWAY 141. TORNADO WAS NOW ENTERING INTO SALINE COUNTY. (ICT)","time":{"end_time":"2310/01/01 00:00:00 -0500","original":"2309","granularity":"year","time":"2309/01/01 00:00:00 -0500"},"county":"MCPHERSON","f-scale":"UNK","id":"a6367poq5pa9","lat":38.58,"state":"KS","location":"3 NW MARQUETTE"},"type":"Feature","geometry":{"type":"Point","coordinates":[-97.87,38.58]}},{"properties":{"lon":-97.74,"comments":"A TORNADO ON THE GROUND JUST SOUTHWEST OF THE TOWN OF FALUN. ALSO SEEING DEBRI. (ICT)","time":{"end_time":"2310/01/01 00:00:00 -0500","original":"2309","granularity":"year","time":"2309/01/01 00:00:00 -0500"},"county":"SALINE","f-scale":"UNK","id":"a6367py3e7uk","lat":38.64,"state":"KS","location":"8 WSW ASSARIA"},"type":"Feature","geometry":{"type":"Point","coordinates":[-97.74,38.64]}},{"properties":{"lon":-99.62,"comments":"BRIEF TOUCHDOWN. (GID)","time":{"end_time":"2311/01/01 00:00:00 -0500","original":"2310","granularity":"year","time":"2310/01/01 00:00:00 -0500"},"county":"HARLAN","f-scale":"UNK","id":"a6367pzde11t","lat":40.26,"state":"NE","location":"1 NE OXFORD"},"type":"Feature","geometry":{"type":"Point","coordinates":[-99.62,40.26]}},{"properties":{"lon":-99.6,"comments":"ROPE TORNADO. SEVERAL REPORTS. EARLY REPORTS OF A GRAIN BIN HAVING BEEN DESTROYED. (GID)","time":{"end_time":"2317/01/01 00:00:00 -0500","original":"2316","granularity":"year","time":"2316/01/01 00:00:00 -0500"},"county":"HARLAN","f-scale":"UNK","id":"a6367q3bvj98","lat":40.31,"state":"NE","location":"4 NNE OXFORD"},"type":"Feature","geometry":{"type":"Point","coordinates":[-99.6,40.31]}},{"properties":{"lon":-97.71,"comments":"(ICT)","time":{"end_time":"2320/01/01 00:00:00 -0500","original":"2319","granularity":"year","time":"2319/01/01 00:00:00 -0500"},"county":"SALINE","f-scale":"UNK","id":"a6367q1z6ef3","lat":38.68,"state":"KS","location":"6 W ASSARIA"},"type":"Feature","geometry":{"type":"Point","coordinates":[-97.71,38.68]}},{"properties":{"lon":-97.71,"comments":"A TORNADO 1.5 MILES NORTHWEST OF FALUN AND MUIR ROAD. LARGE VISIBLE DEBRI DETECTED. (ICT)","time":{"end_time":"2326/01/01 00:00:00 -0500","original":"2325","granularity":"year","time":"2325/01/01 00:00:00 -0500"},"county":"SALINE","f-scale":"UNK","id":"a6367pqh7ykt","lat":38.71,"state":"KS","location":"6 WNW ASSARIA"},"type":"Feature","geometry":{"type":"Point","coordinates":[-97.71,38.71]}},{"properties":{"lon":-100.73,"comments":"LAW ENFORCEMENT REPORTED TORNADO NEAR JUNCTION OF HWY 23 AND HWY 83 6 MILES NORTH OF WELLFLEET. (LBF)","time":{"end_time":"2338/01/01 00:00:00 -0500","original":"2337","granularity":"year","time":"2337/01/01 00:00:00 -0500"},"county":"LINCOLN","f-scale":"UNK","id":"a6367pws8wtr","lat":40.84,"state":"NE","location":"6 N WELLFLEET"},"type":"Feature","geometry":{"type":"Point","coordinates":[-100.73,40.84]}},{"properties":{"lon":-97.67,"comments":"STRUCTURE DAMAGE TO FARMHOUSE. (ICT)","time":{"end_time":"2339/01/01 00:00:00 -0500","original":"2338","granularity":"year","time":"2338/01/01 00:00:00 -0500"},"county":"SALINE","f-scale":"UNK","id":"a6367pv9twtx","lat":38.75,"state":"KS","location":"1 NE SMOLAN"},"type":"Feature","geometry":{"type":"Point","coordinates":[-97.67,38.75]}},{"properties":{"lon":-99.05,"comments":"RELAYED BY WOODWARD COUNTY EM (OUN)","time":{"end_time":"2351/01/01 00:00:00 -0500","original":"2350","granularity":"year","time":"2350/01/01 00:00:00 -0500"},"county":"WOODWARD","f-scale":"UNK","id":"a6367pqw3amr","lat":36.38,"state":"OK","location":"5 S QUINLAN"},"type":"Feature","geometry":{"type":"Point","coordinates":[-99.05,36.38]}},{"properties":{"lon":-98.11,"comments":"TORNADO TOUCHED DOWN BRIEFLY WEST OF VARNER. (ICT)","time":{"end_time":"2356/01/01 00:00:00 -0500","original":"2355","granularity":"year","time":"2355/01/01 00:00:00 -0500"},"county":"KINGMAN","f-scale":"UNK","id":"a6367pptz3uj","lat":37.69,"state":"KS","location":"3 N KINGMAN"},"type":"Feature","geometry":{"type":"Point","coordinates":[-98.11,37.69]}},{"properties":{"lon":-97.51,"comments":"TORNADO ON THE GROUND AT NEW CAMBRIA (ICT)","time":{"end_time":"2356/01/01 00:00:00 -0500","original":"2355","granularity":"year","time":"2355/01/01 00:00:00 -0500"},"county":"SALINE","f-scale":"UNK","id":"a6367pzthhzn","lat":38.88,"state":"KS","location":"NEW CAMBRIA"},"type":"Feature","geometry":{"type":"Point","coordinates":[-97.51,38.88]}},{"properties":{"lon":-94.36,"comments":"NWS STORM SURVEY CONFIRMED STRONG EF2 TORNADO. THE TORNADO BEGAN ABOUT ONE AND A HALF MILES EAST OF CROMWELL AND TRACKED NORTHEASTWARD THROUGH THE FAR NORTHWEST PORTION (DMX)","time":{"end_time":"2001/01/01 00:00:00 -0500","original":"0000","granularity":"year","time":"2000/01/01 00:00:00 -0500"},"county":"UNION","f-scale":"UNK","id":"a6367q3hb0qp","lat":41.06,"state":"IA","location":"CRESTON"},"type":"Feature","geometry":{"type":"Point","coordinates":[-94.36,41.06]}},{"properties":{"lon":-97.51,"comments":"(ICT)","time":{"end_time":"2002/01/01 00:00:00 -0500","original":"0001","granularity":"year","time":"2001/01/01 00:00:00 -0500"},"county":"SALINE","f-scale":"UNK","id":"a6367prviys9","lat":38.94,"state":"KS","location":"4 N NEW CAMBRIA"},"type":"Feature","geometry":{"type":"Point","coordinates":[-97.51,38.94]}},{"properties":{"lon":-98.88,"comments":"(OUN)","time":{"end_time":"2009/01/01 00:00:00 -0500","original":"0008","granularity":"year","time":"2008/01/01 00:00:00 -0500"},"county":"MAJOR","f-scale":"UNK","id":"a6367q04fv9c","lat":36.43,"state":"OK","location":"11 S WAYNOKA"},"type":"Feature","geometry":{"type":"Point","coordinates":[-98.88,36.43]}},{"properties":{"lon":-97.41,"comments":"LARGE BOWL FUNNEL WITH SWIRLS ON THE GROUND REPORTED BY CHASER. (TOP)","time":{"end_time":"2009/01/01 00:00:00 -0500","original":"0008","granularity":"year","time":"2008/01/01 00:00:00 -0500"},"county":"OTTAWA","f-scale":"UNK","id":"a6367poaxkfo","lat":38.96,"state":"KS","location":"4 NW SOLOMON"},"type":"Feature","geometry":{"type":"Point","coordinates":[-97.41,38.96]}},{"properties":{"lon":-98.02,"comments":"BRIEF TORNADO TOUCHDOWN (ICT)","time":{"end_time":"2011/01/01 00:00:00 -0500","original":"0010","granularity":"year","time":"2010/01/01 00:00:00 -0500"},"county":"RENO","f-scale":"UNK","id":"a6367pp271um","lat":37.81,"state":"KS","location":"2 N PRETTY PRAIRIE"},"type":"Feature","geometry":{"type":"Point","coordinates":[-98.02,37.81]}},{"properties":{"lon":-98.83,"comments":"RELAYED BY WFO AMA (OUN)","time":{"end_time":"2013/01/01 00:00:00 -0500","original":"0012","granularity":"year","time":"2012/01/01 00:00:00 -0500"},"county":"WOODS","f-scale":"UNK","id":"a6367pqalqrc","lat":36.49,"state":"OK","location":"7 SSE WAYNOKA"},"type":"Feature","geometry":{"type":"Point","coordinates":[-98.83,36.49]}},{"properties":{"lon":-97.32,"comments":"REPORT RELAYED VIA WFO PLEASANT HILL (TOP)","time":{"end_time":"2016/01/01 00:00:00 -0500","original":"0015","granularity":"year","time":"2015/01/01 00:00:00 -0500"},"county":"DICKINSON","f-scale":"UNK","id":"a6367pzau4zc","lat":39.01,"state":"KS","location":"6 S MANCHESTER"},"type":"Feature","geometry":{"type":"Point","coordinates":[-97.32,39.01]}},{"properties":{"lon":-97.43,"comments":"EMERGENCY MANAGER REPORTS DAMAGE TO OUTBUILDINGS AND TANKS TO GAS TRANSFER STATION","time":{"end_time":"2017/01/01 00:00:00 -0500","original":"0016","granularity":"year","time":"2016/01/01 00:00:00 -0500"},"county":"OTTAWA","f-scale":"UNK","id":"a6367pub1v4t","lat":39.02,"state":"KS","location":"9 W TALMAGE"},"type":"Feature","geometry":{"type":"Point","coordinates":[-97.43,39.02]}},{"properties":{"lon":-97.26,"comments":"VIA KSN-TV SALINA (TOP)","time":{"end_time":"2032/01/01 00:00:00 -0500","original":"0031","granularity":"year","time":"2031/01/01 00:00:00 -0500"},"county":"DICKINSON","f-scale":"UNK","id":"a6367pxboktc","lat":39.12,"state":"KS","location":"4 ENE MANCHESTER"},"type":"Feature","geometry":{"type":"Point","coordinates":[-97.26,39.12]}},{"properties":{"lon":-97.17,"comments":"REPORT RELAYED VIA WFO PLEASANT HILL (TOP)","time":{"end_time":"2037/01/01 00:00:00 -0500","original":"0036","granularity":"year","time":"2036/01/01 00:00:00 -0500"},"county":"CLAY","f-scale":"UNK","id":"a6367pvmyg8l","lat":39.14,"state":"KS","location":"9 ENE MANCHESTER"},"type":"Feature","geometry":{"type":"Point","coordinates":[-97.17,39.14]}},{"properties":{"lon":-93.8,"comments":"TORNADO ON THE GROUND. LOOKING NORTHWEST FROM LAKESIDE CASINO NEAR OSCEOLA. (DMX)","time":{"end_time":"2038/01/01 00:00:00 -0500","original":"0037","granularity":"year","time":"2037/01/01 00:00:00 -0500"},"county":"CLARKE","f-scale":"UNK","id":"a6367pqv0die","lat":41.05,"state":"IA","location":"2 NW OSCEOLA"},"type":"Feature","geometry":{"type":"Point","coordinates":[-93.8,41.05]}},{"properties":{"lon":-99.82,"comments":"(LBF)","time":{"end_time":"2039/01/01 00:00:00 -0500","original":"0038","granularity":"year","time":"2038/01/01 00:00:00 -0500"},"county":"CUSTER","f-scale":"UNK","id":"a6367pvr56wy","lat":41.65,"state":"NE","location":"3 NE ANSELMO"},"type":"Feature","geometry":{"type":"Point","coordinates":[-99.82,41.65]}},{"properties":{"lon":-98.67,"comments":"(OUN)","time":{"end_time":"40/01/01 00:00:00 -0456","original":"0039","granularity":"year","time":"39/01/01 00:00:00 -0456"},"county":"WOODS","f-scale":"UNK","id":"a6367pzpdcbj","lat":36.61,"state":"OK","location":"5 S HOPETON"},"type":"Feature","geometry":{"type":"Point","coordinates":[-98.67,36.61]}},{"properties":{"lon":-98.56,"comments":"THIS TORNADO CONTINUED NORTHEAST AND LIFTED APPROXIMATELY 3 MILES WEST-NORTHWEST OF CHEROKEE. TOWARD THE END OF ITS LIFE CYCLE... A SECOND TORNADO DEVELOPED 2 MILES EAS (OUN)","time":{"end_time":"42/01/01 00:00:00 -0456","original":"0041","granularity":"year","time":"41/01/01 00:00:00 -0456"},"county":"WOODS","f-scale":"UNK","id":"a6367pu1dqoa","lat":36.66,"state":"OK","location":"DACOMA"},"type":"Feature","geometry":{"type":"Point","coordinates":[-98.56,36.66]}},{"properties":{"lon":-98.43,"comments":"THIS TORNADO OCCURRED SIMULTANEOUSLY WITH A TORNADO THAT WAS LOCATED TWO MILES WEST. THE TORNADO CONTINUED NORTHEAST AND LIFTED NEAR BYRON AND AMORITA. A CEMETARY WAS D (OUN)","time":{"end_time":"56/01/01 00:00:00 -0456","original":"0055","granularity":"year","time":"55/01/01 00:00:00 -0456"},"county":"ALFALFA","f-scale":"UNK","id":"a6367px0uckr","lat":36.75,"state":"OK","location":"4 W CHEROKEE"},"type":"Feature","geometry":{"type":"Point","coordinates":[-98.43,36.75]}},{"properties":{"lon":-93.67,"comments":"POSSIBLE TORNADO DAMAGE EAST OF NEW VIRGINA. CAMPERS AND FARM OUTBUILDINGS DAMAGED. SHEET METAL LYING AROUND. TIME ESTIMATED FROM RADAR. (DMX)","time":{"end_time":"56/01/01 00:00:00 -0456","original":"0055","granularity":"year","time":"55/01/01 00:00:00 -0456"},"county":"WARREN","f-scale":"UNK","id":"a6367poub0f5","lat":41.19,"state":"IA","location":"3 ENE NEW VIRGINIA"},"type":"Feature","geometry":{"type":"Point","coordinates":[-93.67,41.19]}},{"properties":{"lon":-97.46,"comments":"(ICT)","time":{"end_time":"2006/01/01 00:00:00 -0500","original":"0105","granularity":"year","time":"2005/01/01 00:00:00 -0500"},"county":"MCPHERSON","f-scale":"UNK","id":"a6367q3axjaq","lat":38.21,"state":"KS","location":"5 NNW HESSTON"},"type":"Feature","geometry":{"type":"Point","coordinates":[-97.46,38.21]}},{"properties":{"lon":-98.36,"comments":"(OUN)","time":{"end_time":"2012/01/01 00:00:00 -0500","original":"0111","granularity":"year","time":"2011/01/01 00:00:00 -0500"},"county":"ALFALFA","f-scale":"UNK","id":"a6367pvksy5d","lat":36.78,"state":"OK","location":"7 S DRIFTWOOD"},"type":"Feature","geometry":{"type":"Point","coordinates":[-98.36,36.78]}},{"properties":{"lon":-97.37,"comments":"STOVEPIPE TORNADO ON THE GROUND","time":{"end_time":"2019/01/01 00:00:00 -0500","original":"0118","granularity":"year","time":"2018/01/01 00:00:00 -0500"},"county":"MCPHERSON","f-scale":"UNK","id":"a6367pw9ekag","lat":38.27,"state":"KS","location":"2 NW GOESSEL"},"type":"Feature","geometry":{"type":"Point","coordinates":[-97.37,38.27]}},{"properties":{"lon":-97.43,"comments":"DAMAGE TO A GARAGE 1 NORTH AND 1/4 MILE NORTHWEST OF 27TH AND ARROWHEAD. (ICT)","time":{"end_time":"2022/01/01 00:00:00 -0500","original":"0121","granularity":"year","time":"2021/01/01 00:00:00 -0500"},"county":"MCPHERSON","f-scale":"UNK","id":"a6367q24ro4q","lat":38.21,"state":"KS","location":"5 N HESSTON"},"type":"Feature","geometry":{"type":"Point","coordinates":[-97.43,38.21]}},{"properties":{"lon":-98.22,"comments":"THIS TORNADO CONTINUED NORTHEAST AND CROSSED INTO KANSAS APPROXIMATELY 2 WEST OF MANCHESTER IN GRANT COUNTY AT 2039 CDT. (OUN)","time":{"end_time":"2025/01/01 00:00:00 -0500","original":"0124","granularity":"year","time":"2024/01/01 00:00:00 -0500"},"county":"ALFALFA","f-scale":"UNK","id":"a6367pxoexdy","lat":36.9,"state":"OK","location":"4 E BYRON"},"type":"Feature","geometry":{"type":"Point","coordinates":[-98.22,36.9]}},{"properties":{"lon":-99.33,"comments":"(DDC)","time":{"end_time":"2036/01/01 00:00:00 -0500","original":"0135","granularity":"year","time":"2035/01/01 00:00:00 -0500"},"county":"KIOWA","f-scale":"UNK","id":"a6367pylg582","lat":37.62,"state":"KS","location":"2 WNW GREENSBURG"},"type":"Feature","geometry":{"type":"Point","coordinates":[-99.33,37.62]}},{"properties":{"lon":-97.11,"comments":"LARGE TORNADO ON THE GROUND. (ICT)","time":{"end_time":"142/01/01 00:00:00 -0456","original":"0141","granularity":"year","time":"141/01/01 00:00:00 -0456"},"county":"MARION","f-scale":"UNK","id":"a6367pri9vmu","lat":38.4,"state":"KS","location":"1 N MARION LAKE"},"type":"Feature","geometry":{"type":"Point","coordinates":[-97.11,38.4]}},{"properties":{"lon":-98.03,"comments":"WEDGE TORNADO CROSSING THE KANSAS OKLAHOMA BORDER","time":{"end_time":"150/01/01 00:00:00 -0456","original":"0149","granularity":"year","time":"149/01/01 00:00:00 -0456"},"county":"HARPER","f-scale":"UNK","id":"a6367pz6ign5","lat":37.05,"state":"KS","location":"7 S ANTHONY"},"type":"Feature","geometry":{"type":"Point","coordinates":[-98.03,37.05]}},{"properties":{"lon":-99.14,"comments":"DAMAGE ALONG A TORNADO PATH WAS REPORTED. THE DAMAGE BEGAN AT ABOUT 180TH AVE AND PERSISTED NORTHEASTWARD TO NEAR P AND M ROADS LEADING TO THE STAFFORD COUNTY LINE. DAM (DDC)","time":{"end_time":"151/01/01 00:00:00 -0456","original":"0150","granularity":"year","time":"150/01/01 00:00:00 -0456"},"county":"EDWARDS","f-scale":"UNK","id":"a6367poio1m9","lat":37.8,"state":"KS","location":"2 E FELLSBURG"},"type":"Feature","geometry":{"type":"Point","coordinates":[-99.14,37.8]}},{"properties":{"lon":-97.9,"comments":"LARGE WEDGE TORNADO. APPROXIMATELY A 1/2 MILE WIDE. (ICT)","time":{"end_time":"201/01/01 00:00:00 -0456","original":"0200","granularity":"year","time":"200/01/01 00:00:00 -0456"},"county":"HARPER","f-scale":"UNK","id":"a6367q3vdb89","lat":37.1,"state":"KS","location":"2 NW BLUFF CITY"},"type":"Feature","geometry":{"type":"Point","coordinates":[-97.9,37.1]}},{"properties":{"lon":-96.9,"comments":"SPOTTERS WERE 3 MILES SOUTH OF ANTELOPE AND VIEWED THE TORNADO 5 TO 8 MILES TO THE NORTH. (ICT)","time":{"end_time":"201/01/01 00:00:00 -0456","original":"0200","granularity":"year","time":"200/01/01 00:00:00 -0456"},"county":"MARION","f-scale":"UNK","id":"a6367prlgt7c","lat":38.39,"state":"KS","location":"7 ENE MARION"},"type":"Feature","geometry":{"type":"Point","coordinates":[-96.9,38.39]}},{"properties":{"lon":-96.96,"comments":"ON THE GROUND. ILLUMINATED BY LIGHTNING. (ICT)","time":{"end_time":"201/01/01 00:00:00 -0456","original":"0200","granularity":"year","time":"200/01/01 00:00:00 -0456"},"county":"MARION","f-scale":"UNK","id":"a6367py6fonc","lat":38.51,"state":"KS","location":"1 N LINCOLNVILLE"},"type":"Feature","geometry":{"type":"Point","coordinates":[-96.96,38.51]}},{"properties":{"lon":-96.9,"comments":"BRIEF EF0 TORNADO TOUCHED DOWN. MINOR TREE DAMAGE REPORTED. (TOP)","time":{"end_time":"201/01/01 00:00:00 -0456","original":"0200","granularity":"year","time":"200/01/01 00:00:00 -0456"},"county":"MORRIS","f-scale":"UNK","id":"a6367pr6dmn1","lat":38.58,"state":"KS","location":"3 WNW BURDICK"},"type":"Feature","geometry":{"type":"Point","coordinates":[-96.9,38.58]}},{"properties":{"lon":-97.85,"comments":"WEDGE TORNADO. (ICT)","time":{"end_time":"211/01/01 00:00:00 -0456","original":"0210","granularity":"year","time":"210/01/01 00:00:00 -0456"},"county":"HARPER","f-scale":"UNK","id":"a6367pthr152","lat":37.18,"state":"KS","location":"1 S FREEPORT"},"type":"Feature","geometry":{"type":"Point","coordinates":[-97.85,37.18]}},{"properties":{"lon":-97.76,"comments":"STOVE PIPE TORNADO ON THE GROUND. (ICT)","time":{"end_time":"215/01/01 00:00:00 -0456","original":"0214","granularity":"year","time":"214/01/01 00:00:00 -0456"},"county":"SUMNER","f-scale":"UNK","id":"a6367poms6rr","lat":37.24,"state":"KS","location":"2 S ARGONIA"},"type":"Feature","geometry":{"type":"Point","coordinates":[-97.76,37.24]}},{"properties":{"lon":-97.76,"comments":"SPOTTER REPORTED SEEING POWER FLASHES (ICT)","time":{"end_time":"222/01/01 00:00:00 -0456","original":"0221","granularity":"year","time":"221/01/01 00:00:00 -0456"},"county":"SUMNER","f-scale":"UNK","id":"a6367q3r49k5","lat":37.25,"state":"KS","location":"1 S ARGONIA"},"type":"Feature","geometry":{"type":"Point","coordinates":[-97.76,37.25]}},{"properties":{"lon":-98.76,"comments":"SHERIFFS DEPUTY REPORTED A LARGE TORNADO JUST NORTH OF ST. JOHN. (DDC)","time":{"end_time":"222/01/01 00:00:00 -0456","original":"0221","granularity":"year","time":"221/01/01 00:00:00 -0456"},"county":"STAFFORD","f-scale":"UNK","id":"a6367purf91h","lat":38.02,"state":"KS","location":"1 N ST. JOHN"},"type":"Feature","geometry":{"type":"Point","coordinates":[-98.76,38.02]}},{"properties":{"lon":-92.49,"comments":"THE TORNADO WAS DETERMINED TO BE AN EF1 TORNADO WITH A BROAD AND INTENSE REAR FLANK DOWNDRAFT SOUTH OF THE TRACK. THANK YOU MAHASKA COUNTY EMERGENCY MANAGEMENT FOR THE (DMX)","time":{"end_time":"224/01/01 00:00:00 -0456","original":"0223","granularity":"year","time":"223/01/01 00:00:00 -0456"},"county":"MAHASKA","f-scale":"UNK","id":"a6367py8ldf2","lat":41.24,"state":"IA","location":"1 N OSKALOOSA AIRPORT"},"type":"Feature","geometry":{"type":"Point","coordinates":[-92.49,41.24]}},{"properties":{"lon":-97.74,"comments":"TRAINED SPOTTERS REPORTED VERY LARGE TORNADO (ICT)","time":{"end_time":"230/01/01 00:00:00 -0456","original":"0229","granularity":"year","time":"229/01/01 00:00:00 -0456"},"county":"SUMNER","f-scale":"UNK","id":"a6367puxft67","lat":37.29,"state":"KS","location":"2 NE ARGONIA"},"type":"Feature","geometry":{"type":"Point","coordinates":[-97.74,37.29]}},{"properties":{"lon":-97.66,"comments":"HOUSE DESTROYED WEST OF CONWAY SPRINGS. (ICT)","time":{"end_time":"232/01/01 00:00:00 -0456","original":"0231","granularity":"year","time":"231/01/01 00:00:00 -0456"},"county":"SUMNER","f-scale":"UNK","id":"a6367pxw3ii4","lat":37.39,"state":"KS","location":"1 W CONWAY SPRINGS"},"type":"Feature","geometry":{"type":"Point","coordinates":[-97.66,37.39]}},{"properties":{"lon":-98.57,"comments":"STORM CHASER REPORTED A LARGE WEDGE TORNADO TO THE EAST OF HIS POSITION. (DDC)","time":{"end_time":"236/01/01 00:00:00 -0456","original":"0235","granularity":"year","time":"235/01/01 00:00:00 -0456"},"county":"STAFFORD","f-scale":"UNK","id":"a6367q0pzd8w","lat":38.16,"state":"KS","location":"6 NE HUDSON"},"type":"Feature","geometry":{"type":"Point","coordinates":[-98.57,38.16]}},{"properties":{"lon":-97.64,"comments":"MULTI VORTEX TORNADO SOUTH OF CONWAY SPRINGS. (ICT)","time":{"end_time":"239/01/01 00:00:00 -0456","original":"0238","granularity":"year","time":"238/01/01 00:00:00 -0456"},"county":"SUMNER","f-scale":"UNK","id":"a6367q06kail","lat":37.36,"state":"KS","location":"2 S CONWAY SPRINGS"},"type":"Feature","geometry":{"type":"Point","coordinates":[-97.64,37.36]}},{"properties":{"lon":-97.55,"comments":"STOVE PIPE TORNADO. (ICT)","time":{"end_time":"243/01/01 00:00:00 -0456","original":"0242","granularity":"year","time":"242/01/01 00:00:00 -0456"},"county":"SUMNER","f-scale":"UNK","id":"a6367pyo5hsl","lat":37.29,"state":"KS","location":"2 N MAYFIELD"},"type":"Feature","geometry":{"type":"Point","coordinates":[-97.55,37.29]}},{"properties":{"lon":-97.53,"comments":"1/4 TO 1/2 MILE WIDE TORNADO. (ICT)","time":{"end_time":"249/01/01 00:00:00 -0456","original":"0248","granularity":"year","time":"248/01/01 00:00:00 -0456"},"county":"SUMNER","f-scale":"UNK","id":"a6367pxxy0k3","lat":37.39,"state":"KS","location":"6 E CONWAY SPRINGS"},"type":"Feature","geometry":{"type":"Point","coordinates":[-97.53,37.39]}},{"properties":{"lon":-98.38,"comments":"(ICT)","time":{"end_time":"253/01/01 00:00:00 -0456","original":"0252","granularity":"year","time":"252/01/01 00:00:00 -0456"},"county":"RICE","f-scale":"UNK","id":"a6367q0t92ar","lat":38.25,"state":"KS","location":"3 SE RAYMOND"},"type":"Feature","geometry":{"type":"Point","coordinates":[-98.38,38.25]}},{"properties":{"lon":-98.26,"comments":"(ICT)","time":{"end_time":"303/01/01 00:00:00 -0456","original":"0302","granularity":"year","time":"302/01/01 00:00:00 -0456"},"county":"RICE","f-scale":"UNK","id":"a6367q3ga4do","lat":38.35,"state":"KS","location":"3 W LYONS"},"type":"Feature","geometry":{"type":"Point","coordinates":[-98.26,38.35]}},{"properties":{"lon":-97.35,"comments":"DELAYED REPORT OF POWER LINES DOWN NEAR SOUTH BROOK AND BROADWAY (ICT)","time":{"end_time":"322/01/01 00:00:00 -0456","original":"0321","granularity":"year","time":"321/01/01 00:00:00 -0456"},"county":"SEDGWICK","f-scale":"UNK","id":"a6367q22exre","lat":37.57,"state":"KS","location":"HAYSVILLE"},"type":"Feature","geometry":{"type":"Point","coordinates":[-97.35,37.57]}},{"properties":{"lon":-97.31,"comments":"POWER FLASHES CROSSING INTERSTATE 35","time":{"end_time":"327/01/01 00:00:00 -0456","original":"0326","granularity":"year","time":"326/01/01 00:00:00 -0456"},"county":"SEDGWICK","f-scale":"UNK","id":"a6367q0iu48q","lat":37.6,"state":"KS","location":"SOUTH WICHITA"},"type":"Feature","geometry":{"type":"Point","coordinates":[-97.31,37.6]}},{"properties":{"lon":-97.35,"comments":"DAMAGE AT 63RD AND HYDRALIC. (ICT)","time":{"end_time":"336/01/01 00:00:00 -0456","original":"0335","granularity":"year","time":"335/01/01 00:00:00 -0456"},"county":"SEDGWICK","f-scale":"UNK","id":"a6367pr2quie","lat":37.57,"state":"KS","location":"HAYSVILLE"},"type":"Feature","geometry":{"type":"Point","coordinates":[-97.35,37.57]}},{"properties":{"lon":-97.26,"comments":"ON THE GROUND. 71ST STREET SOUTH AND 134 EAST. (ICT)","time":{"end_time":"338/01/01 00:00:00 -0456","original":"0337","granularity":"year","time":"337/01/01 00:00:00 -0456"},"county":"SEDGWICK","f-scale":"UNK","id":"a6367q0qy5fd","lat":37.55,"state":"KS","location":"DERBY"},"type":"Feature","geometry":{"type":"Point","coordinates":[-97.26,37.55]}},{"properties":{"lon":-97.26,"comments":"ON THE GROUND NEAR","time":{"end_time":"342/01/01 00:00:00 -0456","original":"0341","granularity":"year","time":"341/01/01 00:00:00 -0456"},"county":"SEDGWICK","f-scale":"UNK","id":"a6367q3sxkv2","lat":37.68,"state":"KS","location":"EAST WICHITA"},"type":"Feature","geometry":{"type":"Point","coordinates":[-97.26,37.68]}},{"properties":{"lon":-97.7,"comments":"POWER FLASHES NOTED. (ICT)","time":{"end_time":"345/01/01 00:00:00 -0456","original":"0344","granularity":"year","time":"344/01/01 00:00:00 -0456"},"county":"MCPHERSON","f-scale":"UNK","id":"a6367pxjffs2","lat":38.59,"state":"KS","location":"2 NW LINDSBORG"},"type":"Feature","geometry":{"type":"Point","coordinates":[-97.7,38.59]}},{"properties":{"lon":-97.0,"comments":"TORNADO CROSSED SANTA FE ROAD. (ICT)","time":{"end_time":"350/01/01 00:00:00 -0456","original":"0349","granularity":"year","time":"349/01/01 00:00:00 -0456"},"county":"BUTLER","f-scale":"UNK","id":"a6367psu8ni9","lat":37.71,"state":"KS","location":"2 NW AUGUSTA"},"type":"Feature","geometry":{"type":"Point","coordinates":[-97.0,37.71]}},{"properties":{"lon":-97.61,"comments":"ILLUMINATED BY LIGHTNING. (ICT)","time":{"end_time":"356/01/01 00:00:00 -0456","original":"0355","granularity":"year","time":"355/01/01 00:00:00 -0456"},"county":"SALINE","f-scale":"UNK","id":"a6367ppa3wot","lat":38.63,"state":"KS","location":"5 NE LINDSBORG"},"type":"Feature","geometry":{"type":"Point","coordinates":[-97.61,38.63]}},{"properties":{"lon":-97.62,"comments":"POWER FLASHES PARSONS ROAD AND I-135. (ICT)","time":{"end_time":"360/01/01 00:00:00 -0456","original":"0359","granularity":"year","time":"359/01/01 00:00:00 -0456"},"county":"SALINE","f-scale":"UNK","id":"a6367pvbwj4i","lat":38.8,"state":"KS","location":"1 S SALINA"},"type":"Feature","geometry":{"type":"Point","coordinates":[-97.62,38.8]}},{"properties":{"lon":-97.02,"comments":"ROPE TORNADO. (ICT)","time":{"end_time":"402/01/01 00:00:00 -0456","original":"0401","granularity":"year","time":"401/01/01 00:00:00 -0456"},"county":"BUTLER","f-scale":"UNK","id":"a6367pyolcka","lat":37.79,"state":"KS","location":"5 E BENTON"},"type":"Feature","geometry":{"type":"Point","coordinates":[-97.02,37.79]}},{"properties":{"lon":-96.86,"comments":"POWER OUTAGES ON THE WEST SIDE OF EL DORADO (ICT)","time":{"end_time":"407/01/01 00:00:00 -0456","original":"0406","granularity":"year","time":"406/01/01 00:00:00 -0456"},"county":"BUTLER","f-scale":"UNK","id":"a6367pv6lw2q","lat":37.82,"state":"KS","location":"EL DORADO"},"type":"Feature","geometry":{"type":"Point","coordinates":[-96.86,37.82]}},{"properties":{"lon":-96.82,"comments":"POWER FLASHES NORTHEAST OF EL DORADO. (ICT)","time":{"end_time":"415/01/01 00:00:00 -0456","original":"0414","granularity":"year","time":"414/01/01 00:00:00 -0456"},"county":"BUTLER","f-scale":"UNK","id":"a6367poqnrch","lat":37.85,"state":"KS","location":"3 NE EL DORADO"},"type":"Feature","geometry":{"type":"Point","coordinates":[-96.82,37.85]}},{"properties":{"lon":-96.79,"comments":"LARGE WEDGE TORNADO ROUGHLY 9 MILES NNE OF EL DORADO (ICT)","time":{"end_time":"419/01/01 00:00:00 -0456","original":"0418","granularity":"year","time":"418/01/01 00:00:00 -0456"},"county":"BUTLER","f-scale":"UNK","id":"a6367ps3llr8","lat":37.94,"state":"KS","location":"9 NNE EL DORADO"},"type":"Feature","geometry":{"type":"Point","coordinates":[-96.79,37.94]}},{"properties":{"lon":-98.13,"comments":"DAMAGE TO A HOUSE NEAR KANOPOLIS...TIME ESTIMATED (ICT)","time":{"end_time":"419/01/01 00:00:00 -0456","original":"0418","granularity":"year","time":"418/01/01 00:00:00 -0456"},"county":"ELLSWORTH","f-scale":"UNK","id":"a6367pvb428x","lat":38.65,"state":"KS","location":"5 W KANOPOLIS STATE PAR"},"type":"Feature","geometry":{"type":"Point","coordinates":[-98.13,38.65]}},{"properties":{"lon":-96.23,"comments":"NWS STORM SURVEY CONFIRMED AN EF1 TORNADO STARTING 1 MILE NORTHEAST OF SOUTH BEND...AND LIFTING AT 1121 PM 2 MILES NORTH-NORTHWEST OF SOUTH BEND IN CASS COUNTY ACROSS T (OAX)","time":{"end_time":"419/01/01 00:00:00 -0456","original":"0418","granularity":"year","time":"418/01/01 00:00:00 -0456"},"county":"SARPY","f-scale":"UNK","id":"a6367psj429q","lat":41.01,"state":"NE","location":"1 NE SOUTH BEND"},"type":"Feature","geometry":{"type":"Point","coordinates":[-96.23,41.01]}},{"properties":{"lon":-97.49,"comments":"(ICT)","time":{"end_time":"423/01/01 00:00:00 -0456","original":"0422","granularity":"year","time":"422/01/01 00:00:00 -0456"},"county":"SALINE","f-scale":"UNK","id":"a6367pp8b7i4","lat":38.89,"state":"KS","location":"1 ENE NEW CAMBRIA"},"type":"Feature","geometry":{"type":"Point","coordinates":[-97.49,38.89]}},{"properties":{"lon":-98.12,"comments":"TORNADO ILLUMINATED BY LIGHTNING. (ICT)","time":{"end_time":"426/01/01 00:00:00 -0456","original":"0425","granularity":"year","time":"425/01/01 00:00:00 -0456"},"county":"ELLSWORTH","f-scale":"UNK","id":"a6367pqmjf4v","lat":38.65,"state":"KS","location":"8 SE ELLSWORTH"},"type":"Feature","geometry":{"type":"Point","coordinates":[-98.12,38.65]}},{"properties":{"lon":-96.97,"comments":"AN EF1 TORNADO PRODUCED MAINLY SHED AND TREE DAMAGE TO A COUPLE OF FARMS NORTHWEST OF PLEASANT DALE. (OAX)","time":{"end_time":"427/01/01 00:00:00 -0456","original":"0426","granularity":"year","time":"426/01/01 00:00:00 -0456"},"county":"SEWARD","f-scale":"UNK","id":"a6367pyd36ln","lat":40.85,"state":"NE","location":"5 NNW PLEASANT DALE"},"type":"Feature","geometry":{"type":"Point","coordinates":[-96.97,40.85]}},{"properties":{"lon":-96.53,"comments":"ON THE GROUND. (ICT)","time":{"end_time":"435/01/01 00:00:00 -0456","original":"0434","granularity":"year","time":"434/01/01 00:00:00 -0456"},"county":"BUTLER","f-scale":"UNK","id":"a6367pp016yk","lat":37.96,"state":"KS","location":"8 SE CASSODAY"},"type":"Feature","geometry":{"type":"Point","coordinates":[-96.53,37.96]}},{"properties":{"lon":-96.55,"comments":"LARGE WEDGE TORNADO (ICT)","time":{"end_time":"440/01/01 00:00:00 -0456","original":"0439","granularity":"year","time":"439/01/01 00:00:00 -0456"},"county":"BUTLER","f-scale":"UNK","id":"a6367pvs237v","lat":38.07,"state":"KS","location":"5 ENE CASSODAY"},"type":"Feature","geometry":{"type":"Point","coordinates":[-96.55,38.07]}},{"properties":{"lon":-96.22,"comments":"STORM CHASERS REPORTED A BRIEF TORNADO IN OPEN FIELD. (TOP)","time":{"end_time":"507/01/01 00:00:00 -0456","original":"0506","granularity":"year","time":"506/01/01 00:00:00 -0456"},"county":"LYON","f-scale":"UNK","id":"a6367pzu2d10","lat":38.22,"state":"KS","location":"4 SW OLPE"},"type":"Feature","geometry":{"type":"Point","coordinates":[-96.22,38.22]}},{"properties":{"lon":-99.39,"comments":"*** 2 FATAL *** NUMEROUS REPORTS OF MAJOR STRUCTURAL DAMAGE ON WESTERN AND NORTHERN PART OF WOODWARD. SEVERAL INJURIES WITH AT LEAST TWO DEATHS. (OUN)","time":{"end_time":"519/01/01 00:00:00 -0456","original":"0518","granularity":"year","time":"518/01/01 00:00:00 -0456"},"county":"WOODWARD","f-scale":"UNK","id":"a6367pxz6zwa","lat":36.43,"state":"OK","location":"WOODWARD"},"type":"Feature","geometry":{"type":"Point","coordinates":[-99.39,36.43]}},{"properties":{"lon":-96.23,"comments":"NWS STORM SURVEY CONFIRMED AN EF1 TORNADO STARTING 1 MILE NORTHEAST OF SOUTH BEND...AND LIFTING AT 1121 PM 2 MILES NORTH-NORTHWEST OF SOUTH BEND IN CASS COUNTY ACROSS T (OAX)","time":{"end_time":"519/01/01 00:00:00 -0456","original":"0518","granularity":"year","time":"518/01/01 00:00:00 -0456"},"county":"SARPY","f-scale":"UNK","id":"a6367ptyfefu","lat":41.01,"state":"NE","location":"1 NE SOUTH BEND"},"type":"Feature","geometry":{"type":"Point","coordinates":[-96.23,41.01]}},{"properties":{"lon":-96.26,"comments":"NWS STORM SURVEY CONFIRMED AN EF1 TORNADO STARTING 1 MILE NORTHEAST OF SOUTH BEND...AND LIFTING AT 1212 AM 2 MILES NORTH-NORTHEAST OF SOUTH BEND IN CASS COUNTY ACROSS T (OAX)","time":{"end_time":"519/01/01 00:00:00 -0456","original":"0518","granularity":"year","time":"518/01/01 00:00:00 -0456"},"county":"CASS","f-scale":"UNK","id":"a6367q45m4g9","lat":41.01,"state":"NE","location":"1 NW SOUTH BEND"},"type":"Feature","geometry":{"type":"Point","coordinates":[-96.26,41.01]}},{"properties":{"lon":-96.05,"comments":"NWS STORM SURVEY FOUND TORNADO DAMAGE THAT BEGAN 4.8 MILES SOUTHWEST OF SKIATOOK AND ENDED JUST NORTHEAST OF THE SKIATOOK MUNICIPAL AIRPORT. RATING WAS EF-1 BASED ON TR (TSA)","time":{"end_time":"1050/01/01 00:00:00 -0456","original":"1049","granularity":"year","time":"1049/01/01 00:00:00 -0456"},"county":"OSAGE","f-scale":"UNK","id":"a6367pxj65fq","lat":36.33,"state":"OK","location":"4 SW SKIATOOK"},"type":"Feature","geometry":{"type":"Point","coordinates":[-96.05,36.33]}}],"is_temporal":true,"author":{"url":"http://www.spc.noaa.gov/climo/reports/120414_rpts_filtered_torn.csv","metadata":"","contact_name":"","contact_address":"","source":"NOAA","contact_phone":""},"source":"http://www.spc.noaa.gov/climo/reports/120414_rpts_filtered_torn.csv","pagination":{"sort":null,"start":0,"total":122,"limit":1000000},"state":"complete","tags":"noaa,tornado","published":"2012-04-14T16:00:00Z","id":235769}