{"type":"FeatureCollection","data_type":"Dataset","url_type":null,"permissions":[{"permissions":{"download":true,"view":true},"group_id":"everyone"}],"classification":null,"title":"Trevino Morales Locations","count":14,"stream_id":235958,"contributor":{"url":"http://geocommons.com/users/38246","name":"Ekuznetsova"},"data_attributes":null,"calculation_params":null,"icon_link":null,"link":"http://geocommons.com/overlays/235958.json","extent":[-100.134,19.4329,-96.7703,32.8104],"geometry_types":["point"],"unique_name":null,"name":"Trevino Morales Locations","feature_count":14,"description":"","next_feature":null,"is_raster":false,"short_classification":"Y","stats":{"latitude":{"max":32.810362,"mean":26.8580324285714,"variance":7.57396488669672,"stdev":2.7520837354079,"min":19.432924,"median":27.448676},"type id":{"max":14,"mean":7.0,"variance":18.7272727272727,"stdev":4.32750190378615,"min":1,"median":7},"longitude":{"max":-96.770325,"mean":-98.9942144166667,"variance":0.739339069838446,"stdev":0.859848283035121,"min":-99.562889,"median":-99.490669}},"features":[{"properties":{"city":"Dallas","latitude":32.810362,"country":"United States","type id":1,"level of accuracy":"City","longitude":-96.770325,"id":"a664si1tf3sd","address":null,"state":"Texas"},"type":"Feature","geometry":{"type":"Point","coordinates":[-96.770325,32.810362]}},{"properties":{"city":"Nuevo Laredo","latitude":27.480862,"country":"Mexico","type id":2,"level of accuracy":"City","longitude":-99.510727,"id":"a664shu343m3","address":null,"state":"Tamaulipas"},"type":"Feature","geometry":{"type":"Point","coordinates":[-99.510727,27.480862]}},{"properties":{"city":"Mexico City","latitude":19.432924,"country":"Mexico","type id":3,"level of accuracy":"City","longitude":-99.133759,"id":"a664si51ofhu","address":null,"state":"Federal District"},"type":"Feature","geometry":{"type":"Point","coordinates":[-99.133759,19.432924]}},{"properties":{"city":"Nuevo Laredo","latitude":27.468833,"country":"Mexico","type id":4,"level of accuracy":"Street","longitude":-99.490669,"id":"a664shzb98j8","address":"Calle Veracruz 825","state":"Tamaulipas"},"type":"Feature","geometry":{"type":"Point","coordinates":[-99.490669,27.468833]}},{"properties":{"city":"Nuevo Laredo","latitude":27.491494,"country":"Mexico","type id":5,"level of accuracy":"Street","longitude":-99.539126,"id":"a664shwc06xx","address":"Calle Mina No. 6111","state":"Tamaulipas"},"type":"Feature","geometry":{"type":"Point","coordinates":[-99.539126,27.491494]}},{"properties":{"city":"Nuevo Laredo","latitude":27.468317,"country":"Mexico","type id":6,"level of accuracy":"Street","longitude":-99.537249,"id":"a664si3ly4nz","address":"Calle Nayarit 3404","state":"Tamaulipas"},"type":"Feature","geometry":{"type":"Point","coordinates":[-99.537249,27.468317]}},{"properties":{"city":"Nuevo Laredo","latitude":27.455655,"country":"Mexico","type id":7,"level of accuracy":"Street","longitude":-99.504011,"id":"a664shyob6v6","address":"Calle 15 de Septiembre y Leandro Valle","state":"Tamaulipas"},"type":"Feature","geometry":{"type":"Point","coordinates":[-99.504011,27.455655]}},{"properties":{"city":"Nuevo Laredo","latitude":27.448676,"country":"Mexico","type id":8,"level of accuracy":"Street","longitude":-99.51563,"id":"a664si4o6lae","address":"Avenida Tecnologico 17","state":"Tamaulipas"},"type":"Feature","geometry":{"type":"Point","coordinates":[-99.51563,27.448676]}},{"properties":{"city":"Nuevo Laredo","latitude":27.382085,"country":"Mexico","type id":9,"level of accuracy":"Street","longitude":-99.562889,"id":"a664shupqhfs","address":"Amapola 3003","state":"Tamaulipas"},"type":"Feature","geometry":{"type":"Point","coordinates":[-99.562889,27.382085]}},{"properties":{"city":"Anahuac","latitude":27.232958,"country":"Mexico","type id":10,"level of accuracy":"City","longitude":-100.133686,"id":"a664shrpu33h","address":"Rancho Soledad","state":"Nuevo Leon"},"type":"Feature","geometry":{"type":"Point","coordinates":[-100.133686,27.232958]}},{"properties":{"city":"Anahuac","latitude":27.232958,"country":"Mexico","type id":11,"level of accuracy":"City","longitude":-99.133686,"id":"a664shue76u4","address":"Rancho RancheriasAnahuac","state":"Nuevo Leon"},"type":"Feature","geometry":{"type":"Point","coordinates":[-99.133686,27.232958]}},{"properties":{"city":"Reynosa","latitude":26.074362,"country":"Mexico","type id":12,"level of accuracy":"City","longitude":-98.298798,"id":"a664shvypljh","address":null,"state":"Tamaulipas"},"type":"Feature","geometry":{"type":"Point","coordinates":[-98.298798,26.074362]}},{"properties":{"city":"Comales","latitude":26.18317,"country":"Mexico","type id":13,"level of accuracy":"City","longitude":-98.920727,"id":"a664shtuinux","address":"Rancho Los Martinez","state":"Tamaulipas"},"type":"Feature","geometry":{"type":"Point","coordinates":[-98.920727,26.18317]}},{"properties":{"city":"San Fernando","latitude":24.849798,"country":"Mexico","type id":14,"level of accuracy":"City","longitude":-98.146663,"id":"a664shznsvrh","address":null,"state":"Tamaulipas"},"type":"Feature","geometry":{"type":"Point","coordinates":[-98.146663,24.849798]}}],"is_temporal":false,"author":{"url":"","metadata":"","contact_name":"","contact_address":"","source":"","contact_phone":""},"source":"","pagination":{"sort":null,"start":0,"total":14,"limit":1000000},"state":"complete","tags":"","published":"2014-08-14T23:30:31-04:00","id":235958}