{"type":"FeatureCollection","data_type":"Dataset","url_type":null,"permissions":[{"permissions":{"download":true,"view":true},"group_id":"everyone"}],"classification":null,"title":"Sex Offenders 63143","count":122,"stream_id":236537,"contributor":{"url":"http://geocommons.com/users/43866","name":"Npan"},"data_attributes":null,"calculation_params":null,"icon_link":null,"link":"http://geocommons.com/overlays/236537.json","extent":[-90.7057,38.5519,-90.2045,38.638],"geometry_types":["point"],"unique_name":null,"name":"Sex Offenders 63143","feature_count":122,"description":"Sex Offenders within 2 miles of Maplewood, MO city hall.","next_feature":null,"is_raster":false,"short_classification":"Y","stats":{},"features":[{"properties":{"city":"MAPELWOOD","name":"JOHN PAUL GAGE","zip":"63143","county":"ST. LOUIS","geo_score":0.881,"type":"W","id":"a62cewhv6seb","geo_precision":"range","address":"2718 SUTTON BLVD"},"type":"Feature","geometry":{"type":"Point","coordinates":[-90.31974,38.61242]}},{"properties":{"city":"SAINT LOUIS","name":"GARY JOSEPH STRILER","zip":"63143","county":"ST. LOUIS CITY","geo_score":0.756,"type":"H","id":"a62cewm71eun","geo_precision":"range","address":"2350 MCCAUSLAND AVE APT 3"},"type":"Feature","geometry":{"type":"Point","coordinates":[-90.309153,38.615596]}},{"properties":{"city":"WEBSTER GROVES","name":"JOSEPH ANTHONY FRISCH","zip":"63119","county":"ST. LOUIS","geo_score":0.539,"type":"H","id":"a62cewp9yyjb","geo_precision":"street","address":"7866 1/2 BIG BEND BLVD APT 4"},"type":"Feature","geometry":{"type":"Point","coordinates":[-90.326228,38.600547]}},{"properties":{"city":"ST LOUIS","name":"WILLIAM EDWARD ROGERS","zip":"63139","county":"ST. LOUIS CITY","geo_score":0.873,"type":"H","id":"a62cewqa1s28","geo_precision":"range","address":"6935 W PARK AVE"},"type":"Feature","geometry":{"type":"Point","coordinates":[-90.305405,38.62845]}},{"properties":{"city":"ST LOUIS","name":"THOMAS MARVIN HILL","zip":"63117","county":"ST. LOUIS CITY","geo_score":0.824,"type":"H","id":"a62cewnhpgug","geo_precision":"range","address":"1017 KUHS PL"},"type":"Feature","geometry":{"type":"Point","coordinates":[-90.306879,38.632757]}},{"properties":{"city":"RICHMOND HEIGHTS","name":"ROCKIE LUKE FORTUNE","zip":"63117","county":"ST. LOUIS","geo_score":0.902,"type":"H","id":"a62cews2mdeh","geo_precision":"range","address":"7059 MITCHELL AVE"},"type":"Feature","geometry":{"type":"Point","coordinates":[-90.310566,38.62316]}},{"properties":{"city":"MAPLEWOOD","name":"THOMAS MICHAEL BISSO","zip":"63143","county":"ST. LOUIS","geo_score":0.902,"type":"H","id":"a62cewjrhwwx","geo_precision":"range","address":"2508 VALLEY AVE"},"type":"Feature","geometry":{"type":"Point","coordinates":[-90.327644,38.616557]}},{"properties":{"city":"ST LOUIS","name":"JOHN EDWARD DELMAIN","zip":"63139","county":"ST. LOUIS CITY","geo_score":0.873,"type":"W","id":"a62cewuo9f48","geo_precision":"range","address":"2001 SCHAEFFER PL"},"type":"Feature","geometry":{"type":"Point","coordinates":[-90.300257,38.620711]}},{"properties":{"city":"ST LOUIS","name":"DANIEL MICHAEL BRISCOE","zip":"63109","county":"ST. LOUIS CITY","geo_score":0.873,"type":"H","id":"a62cews5jg81","geo_precision":"range","address":"7068 LANSDOWNE AVE"},"type":"Feature","geometry":{"type":"Point","coordinates":[-90.315946,38.591984]}},{"properties":{"city":"ST LOUIS","name":"ROY LEE BOMBACK","zip":"63143","county":"ST. LOUIS","geo_score":0.767,"type":"W","id":"a62cewmhka3b","geo_precision":"range","address":"7229 MANCHESTER"},"type":"Feature","geometry":{"type":"Point","coordinates":[-90.314945,38.613919]}},{"properties":{"city":"ST LOUIS","name":"PAUL ALAN LONGHAUSER","zip":"63139","county":"ST. LOUIS CITY","geo_score":0.873,"type":"H","id":"a62cewri9xnu","geo_precision":"range","address":"6612 VILLA AVE"},"type":"Feature","geometry":{"type":"Point","coordinates":[-90.30016,38.625668]}},{"properties":{"city":"ST LOUIS","name":"GREGORY SCOTT JOHNSON","zip":"63143","county":"ST. LOUIS","geo_score":0.621,"type":"W","id":"a62cewmy2rpp","geo_precision":"street","address":"7805 MANCHESTER AVE"},"type":"Feature","geometry":{"type":"Point","coordinates":[-90.31195,38.615311]}},{"properties":{"city":"ST LOUIS","name":"PAUL GREGORY COX","zip":"63143","county":"ST. LOUIS CITY","geo_score":0.816,"type":"W","id":"a62cewtnzrht","geo_precision":"range","address":"7213 MANCHESTER RD"},"type":"Feature","geometry":{"type":"Point","coordinates":[-90.31436,38.614059]}},{"properties":{"city":"ST LOUIS","name":"RANDY LEE STANG","zip":"63117","county":"ST. LOUIS CITY","geo_score":0.751,"type":"W","id":"a62cewldqi8v","geo_precision":"range","address":"7121 NASHVILLE"},"type":"Feature","geometry":{"type":"Point","coordinates":[-90.309221,38.62798]}},{"properties":{"city":"MAPLEWOOD","name":"JOSEPH   MEYER","zip":"63143","county":"ST. LOUIS","geo_score":0.793,"type":"H","id":"a62cewmnipz4","geo_precision":"range","address":"7538 FLORA"},"type":"Feature","geometry":{"type":"Point","coordinates":[-90.324726,38.608921]}},{"properties":{"city":"ST LOUIS","name":"JOSEPH   MEYER","zip":"63139","county":"ST. LOUIS","geo_score":0.806,"type":"W","id":"a62cewpkixiy","geo_precision":"range","address":"6504 MANCHESTER"},"type":"Feature","geometry":{"type":"Point","coordinates":[-90.297534,38.620146]}},{"properties":{"city":"MAPLEWOOD","name":"PHILIP ANDRE IVIE","zip":"63143","county":"ST. LOUIS","geo_score":0.585,"type":"H","id":"a62cewrurbla","geo_precision":"zip","address":"7125 SOUTH ST APT 201"},"type":"Feature","geometry":{"type":"Point","coordinates":[-90.32456,38.612552]}},{"properties":{"city":"ST LOUIS","name":"JOHN D BEARD","zip":"63143","county":"ST. LOUIS","geo_score":0.816,"type":"W","id":"a62cewgm0px2","geo_precision":"range","address":"7428 HAZEL AVE"},"type":"Feature","geometry":{"type":"Point","coordinates":[-90.323179,38.61127]}},{"properties":{"city":"MAPLEWOOD","name":"JOHN D BEARD","zip":"63143","county":"ST. LOUIS","geo_score":0.902,"type":"H","id":"a62cewqt56ct","geo_precision":"range","address":"7428 HAZEL AVE"},"type":"Feature","geometry":{"type":"Point","coordinates":[-90.323179,38.61127]}},{"properties":{"city":"ST LOUIS","name":"ALFRED LAMONT BROWN","zip":"63144","county":"ST. LOUIS","geo_score":0.816,"type":"W","id":"a62cewpfua5l","geo_precision":"range","address":"8100 MANCHESTER RD"},"type":"Feature","geometry":{"type":"Point","coordinates":[-90.337829,38.611774]}},{"properties":{"city":"MAPLEWOOD","name":"CEDRIC ELTON CONLEY","zip":"63143","county":"ST. LOUIS","geo_score":0.812,"type":"H","id":"a62cewvciwzx","geo_precision":"range","address":"7514 SUSSEX AVE APT 1"},"type":"Feature","geometry":{"type":"Point","coordinates":[-90.323258,38.603631]}},{"properties":{"city":"BRENTWOOD","name":"ROY LEE CORBIN","zip":"63144","county":"ST. LOUIS","geo_score":0.902,"type":"W","id":"a62cewn35xq5","geo_precision":"range","address":"8590 EAGER RD"},"type":"Feature","geometry":{"type":"Point","coordinates":[-90.341338,38.629235]}},{"properties":{"city":"ST LOUIS","name":"DOUGLAS EDWARD BAUER","zip":"63139","county":"ST. LOUIS CITY","geo_score":0.873,"type":"W","id":"a62cewga7e3d","geo_precision":"range","address":"6504 MANCHESTER AVE"},"type":"Feature","geometry":{"type":"Point","coordinates":[-90.297534,38.620146]}},{"properties":{"city":"ST LOUIS","name":"JAMES EDWARD COLE","zip":"63139","county":"ST. LOUIS CITY","geo_score":0.806,"type":"W","id":"a62cewsx91uw","geo_precision":"range","address":"6504 MANCHESTER RD"},"type":"Feature","geometry":{"type":"Point","coordinates":[-90.297534,38.620146]}},{"properties":{"city":"ST LOUIS","name":"MICHAEL CHARLES ERMATINGER","zip":"63117","county":"ST. LOUIS","geo_score":0.824,"type":"H","id":"a62cewqmubve","geo_precision":"range","address":"7392 ARLINGTON DR"},"type":"Feature","geometry":{"type":"Point","coordinates":[-90.317046,38.625426]}},{"properties":{"city":"ST LOUIS","name":"LESTER   MASON","zip":"63139","county":"ST. LOUIS CITY","geo_score":0.873,"type":"W","id":"a62cewruwopw","geo_precision":"range","address":"6504 MANCHESTER AVE"},"type":"Feature","geometry":{"type":"Point","coordinates":[-90.297534,38.620146]}},{"properties":{"city":"ST LOUIS","name":"ERIC SCOTT CROOK","zip":"63139","county":"ST. LOUIS CITY","geo_score":0.873,"type":"H","id":"a62cewl7bq14","geo_precision":"range","address":"1306 LOUISVILLE AVE"},"type":"Feature","geometry":{"type":"Point","coordinates":[-90.297676,38.627454]}},{"properties":{"city":"ST LOUIS","name":"ERIC SCOTT CROOK","zip":"63144","county":"ST. LOUIS","geo_score":0.751,"type":"W","id":"a62cewqhtdgf","geo_precision":"range","address":"2511 S HANLEY"},"type":"Feature","geometry":{"type":"Point","coordinates":[-90.334427,38.616524]}},{"properties":{"city":"ST LOUIS","name":"JACKIE DEWAYNE ONEILL","zip":"63139","county":"ST. LOUIS CITY","geo_score":0.873,"type":"W","id":"a62cewkpzc9k","geo_precision":"range","address":"6750 MANCHESTER AVE"},"type":"Feature","geometry":{"type":"Point","coordinates":[-90.304655,38.617869]}},{"properties":{"city":"RICHMOND HEIGHTS","name":"JUAN MANUEL MADRID","zip":"63117","county":"ST. LOUIS","geo_score":0.902,"type":"W","id":"a62cewos0n8d","geo_precision":"range","address":"1021 BLENDON PLACE"},"type":"Feature","geometry":{"type":"Point","coordinates":[-90.308001,38.632797]}},{"properties":{"city":"RICHMOND HEIGHTS","name":"JUAN MANUEL MADRID","zip":"63117","county":"ST. LOUIS","geo_score":0.902,"type":"H","id":"a62cewij2zu0","geo_precision":"range","address":"1021 BLENDON PLACE"},"type":"Feature","geometry":{"type":"Point","coordinates":[-90.308001,38.632797]}},{"properties":{"city":"ST LOUIS","name":"JOSEPH EDWARD WENTZ","zip":"63139","county":"ST. LOUIS CITY","geo_score":0.873,"type":"W","id":"a62cewjwgn99","geo_precision":"range","address":"6504 MANCHESTER AVE"},"type":"Feature","geometry":{"type":"Point","coordinates":[-90.297534,38.620146]}},{"properties":{"city":"MAPLEWOOD","name":"LOUIS JOSEPH FRICK","zip":"63143","county":"ST. LOUIS","geo_score":0.902,"type":"H","id":"a62cewpmr6cc","geo_precision":"range","address":"7440 LYNDOVER PL"},"type":"Feature","geometry":{"type":"Point","coordinates":[-90.320758,38.615854]}},{"properties":{"city":"ST LOUIS","name":"WILLIAM ANTHONY SMITH","zip":"63117","county":"ST. LOUIS","geo_score":0.737,"type":"H","id":"a62cewlo8a4n","geo_precision":"range","address":"7714 LOVELLA"},"type":"Feature","geometry":{"type":"Point","coordinates":[-90.325361,38.628583]}},{"properties":{"city":"SAINT LOUIS","name":"JACK LEWIS SUDA","zip":"63139","county":"ST. LOUIS CITY","geo_score":0.902,"type":"H","id":"a62cewrxwuyn","geo_precision":"range","address":"1515 SANFORD AVENUE"},"type":"Feature","geometry":{"type":"Point","coordinates":[-90.297643,38.623891]}},{"properties":{"city":"ST LOUIS","name":"MICHAEL FRANCIS MOSQUEDA","zip":"63139","county":"ST. LOUIS CITY","geo_score":0.873,"type":"H","id":"a62cewtfz3h6","geo_precision":"range","address":"6518 HANCOCK AVE"},"type":"Feature","geometry":{"type":"Point","coordinates":[-90.300342,38.600513]}},{"properties":{"city":"ST LOUIS","name":"MICHAEL FRANCIS MOSQUEDA","zip":"63139","county":"ST. LOUIS CITY","geo_score":0.785,"type":"W","id":"a62ceww3wank","geo_precision":"range","address":"6518 HANCOCK"},"type":"Feature","geometry":{"type":"Point","coordinates":[-90.300342,38.600513]}},{"properties":{"city":"MAPLEWOOD","name":"STEVEN JOSEPH MEYER","zip":"63043","county":"ST. LOUIS","geo_score":0.545,"type":"W","id":"a62cewkpc6cp","geo_precision":"street","address":"3149 BARTOLD"},"type":"Feature","geometry":{"type":"Point","coordinates":[-90.70575,38.55188]}},{"properties":{"city":"RICHMOND HEIGHTS","name":"ROBERT CHARLES LESAGE","zip":"63117","county":"ST. LOUIS","geo_score":0.815,"type":"H","id":"a62cewkgcoqt","geo_precision":"range","address":"1064 E LINDEN ST"},"type":"Feature","geometry":{"type":"Point","coordinates":[-90.340261,38.635473]}},{"properties":{"city":"RICHMOND HIGHTS","name":"DAVID DANIEL BREED","zip":"63117","county":"ST. LOUIS","geo_score":0.896,"type":"W","id":"a62cewueot0r","geo_precision":"range","address":"6420 CLAYTON RD"},"type":"Feature","geometry":{"type":"Point","coordinates":[-90.310142,38.633957]}},{"properties":{"city":"ST LOUIS","name":"JAMES EDWARD BAERMAN","zip":"63144","county":"ST. LOUIS","geo_score":0.816,"type":"W","id":"a62cewu1tt35","geo_precision":"range","address":"141 HANLEY INDUSTRIAL CT"},"type":"Feature","geometry":{"type":"Point","coordinates":[-90.335731,38.61894]}},{"properties":{"city":"ST LOUIS","name":"CHARLES ANTHONY GARCIA","zip":"63139","county":"ST. LOUIS CITY","geo_score":0.873,"type":"H","id":"a62cewus6ohw","geo_precision":"range","address":"6736 WISE AVE"},"type":"Feature","geometry":{"type":"Point","coordinates":[-90.301397,38.628963]}},{"properties":{"city":"ST LOUIS","name":"GREGORY BERNARD CURRY","zip":"63139","county":"ST. LOUIS","geo_score":0.873,"type":"W","id":"a62cewlif1dc","geo_precision":"range","address":"6504 MANCHESTER AVE"},"type":"Feature","geometry":{"type":"Point","coordinates":[-90.297534,38.620146]}},{"properties":{"city":"WEBSTER GROVES","name":"WILLIAM LOUIS SEMSAR","zip":"63119","county":"ST. LOUIS","geo_score":0.695,"type":"H","id":"a62cewndur2x","geo_precision":"range","address":"429 TUXEDO"},"type":"Feature","geometry":{"type":"Point","coordinates":[-90.347688,38.602244]}},{"properties":{"city":"WEBSTER GROVES","name":"WILLIAM LOUIS SEMSAR","zip":"63119","county":"ST. LOUIS","geo_score":0.695,"type":"W","id":"a62cewlcn497","geo_precision":"range","address":"429 TUXEDO"},"type":"Feature","geometry":{"type":"Point","coordinates":[-90.347688,38.602244]}},{"properties":{"city":"ST LOUIS","name":"KEVIN LEE HENSON","zip":"63139","county":"ST. LOUIS CITY","geo_score":0.702,"type":"H","id":"a62cewpe8t4l","geo_precision":"range","address":"6537 SOUTHWEST AVE"},"type":"Feature","geometry":{"type":"Point","coordinates":[-90.299265,38.612346]}},{"properties":{"city":"BRENTWOOD","name":"CASEY MICHAEL MCDUFFIE","zip":"63074","county":"ST. LOUIS","geo_score":0.61,"type":"W","id":"a62cewsf8puv","geo_precision":"street","address":"8519 MANCHESTER RD"},"type":"Feature","geometry":{"type":"Point","coordinates":[-90.479542,38.596104]}},{"properties":{"city":"MAPLEWOOD","name":"JERRY WAYNE BOHANNON","zip":"63143","county":"ST. LOUIS","geo_score":0.796,"type":"H","id":"a62cewuyg93k","geo_precision":"range","address":"2040 YALE AVE APT 7"},"type":"Feature","geometry":{"type":"Point","coordinates":[-90.311352,38.620841]}},{"properties":{"city":"SAINT LOUIS","name":"STEVEN ROBERT PRATER","zip":"63139","county":"ST. LOUIS CITY","geo_score":0.902,"type":"H","id":"a62cewrorx4w","geo_precision":"range","address":"6453 MARQUETTE AVE"},"type":"Feature","geometry":{"type":"Point","coordinates":[-90.299133,38.599996]}},{"properties":{"city":"ST LOUIS","name":"WILLIAM EDGAR HENDERSON","zip":"63143","county":"ST. LOUIS CITY","geo_score":0.747,"type":"H","id":"a62cewmmc2sc","geo_precision":"range","address":"2356 MCCAUSLAND AVE APT 3"},"type":"Feature","geometry":{"type":"Point","coordinates":[-90.309155,38.615559]}},{"properties":{"city":"ST LOUIS","name":"KENT MICHAEL ROEDNER","zip":"63143","county":"ST. LOUIS","geo_score":0.816,"type":"W","id":"a62cewvrmak8","geo_precision":"range","address":"7805 MANCHESTER RD"},"type":"Feature","geometry":{"type":"Point","coordinates":[-90.328649,38.613299]}},{"properties":{"city":"MAPLEWOOD","name":"STEVEN MARTIN WICK","zip":"63143","county":"ST. LOUIS","geo_score":0.902,"type":"H","id":"a62cewots2ij","geo_precision":"range","address":"3360 OXFORD BLVD"},"type":"Feature","geometry":{"type":"Point","coordinates":[-90.316021,38.606017]}},{"properties":{"city":"MAPLEWOOD","name":"ANTHONY JERMAINE JOHNSON","zip":"63143","county":"ST. LOUIS","geo_score":0.902,"type":"H","id":"a62cewk9fxfb","geo_precision":"range","address":"2026 BELLEVUE AVE"},"type":"Feature","geometry":{"type":"Point","coordinates":[-90.313237,38.62133]}},{"properties":{"city":"ST LOUIS","name":"SEAN TIMOTHY MILLER","zip":"63143","county":"ST. LOUIS","geo_score":0.816,"type":"W","id":"a62cewupei5l","geo_precision":"range","address":"7434 MANCHESTER RD"},"type":"Feature","geometry":{"type":"Point","coordinates":[-90.321317,38.612304]}},{"properties":{"city":"WEBSTER GROVES","name":"WILLIAM MARSHALL SIGNAIGO","zip":"63119","county":"ST. LOUIS","geo_score":0.734,"type":"H","id":"a62cewkp6eht","geo_precision":"range","address":"7968 BIG BEND BLVD APT C"},"type":"Feature","geometry":{"type":"Point","coordinates":[-90.336619,38.592827]}},{"properties":{"city":"RICHMOND HEIGHTS","name":"NICHOLAS JAMES AMBROSE","zip":"63117","county":"ST. LOUIS","geo_score":0.902,"type":"H","id":"a62cewjtekj3","geo_precision":"range","address":"7201 ARLINGTON DR"},"type":"Feature","geometry":{"type":"Point","coordinates":[-90.311377,38.622997]}},{"properties":{"city":"RICHMOND HEIGHTS","name":"NICHOLAS JAMES AMBROSE","zip":"63117","county":"ST. LOUIS","geo_score":0.902,"type":"W","id":"a62cewrf72v0","geo_precision":"range","address":"7201 ARLINGTON DR"},"type":"Feature","geometry":{"type":"Point","coordinates":[-90.311377,38.622997]}},{"properties":{"city":"RICHMOND HGTS","name":"DANNY LEE MARCH","zip":"63117","county":"ST. LOUIS","geo_score":0.883,"type":"H","id":"a62cewrb521x","geo_precision":"range","address":"7721 SNOWDEN AVE"},"type":"Feature","geometry":{"type":"Point","coordinates":[-90.326641,38.626682]}},{"properties":{"city":"SHREWSBURY","name":"CYNTHIA MARY GIOIA","zip":"63119","county":"ST. LOUIS","geo_score":0.902,"type":"H","id":"a62cewptta48","geo_precision":"range","address":"7541 MURDOCH AVE"},"type":"Feature","geometry":{"type":"Point","coordinates":[-90.329427,38.591281]}},{"properties":{"city":"WEBSTER GROVES","name":"DIANE ELAINE STELLA","zip":"63119","county":"ST. LOUIS","geo_score":0.812,"type":"W","id":"a62cewrund9u","geo_precision":"range","address":"7915 BIG BEND BLVD"},"type":"Feature","geometry":{"type":"Point","coordinates":[-90.334349,38.594822]}},{"properties":{"city":"ST LOUIS","name":"KENNETH LEE KITCHEN","zip":"63139","county":"ST. LOUIS CITY","geo_score":0.873,"type":"W","id":"a62cewm9k3td","geo_precision":"range","address":"6504 MANCHESTER AVE"},"type":"Feature","geometry":{"type":"Point","coordinates":[-90.297534,38.620146]}},{"properties":{"city":"ST LOUIS","name":"CHRISTOPHER MICHAEL FLETCHER","zip":"63109","county":"ST. LOUIS CITY","geo_score":0.707,"type":"H","id":"a62cewthz1iy","geo_precision":"range","address":"6543 FYLER AVE APT W"},"type":"Feature","geometry":{"type":"Point","coordinates":[-90.300261,38.602804]}},{"properties":{"city":"ST LOUIS","name":"JOEL CRAIG HUMMEL","zip":"63143","county":"ST. LOUIS CITY","geo_score":0.747,"type":"H","id":"a62cewocyutp","geo_precision":"range","address":"2358 MCCAUSLAND AVE APT 4"},"type":"Feature","geometry":{"type":"Point","coordinates":[-90.309157,38.615541]}},{"properties":{"city":"ST LOUIS","name":"WILLIAM BABAUTA ROSARIO","zip":"63143","county":"ST. LOUIS","geo_score":0.726,"type":"H","id":"a62cewih03jk","geo_precision":"range","address":"7508 SUSSEX AVE APT 6"},"type":"Feature","geometry":{"type":"Point","coordinates":[-90.323244,38.603577]}},{"properties":{"city":"ST LOUIS","name":"CHRISTOPHER GEORGE CRETS","zip":"63139","county":"ST. LOUIS CITY","geo_score":0.873,"type":"W","id":"a62cewqfvq2k","geo_precision":"range","address":"6504 MANCHESTER AVE"},"type":"Feature","geometry":{"type":"Point","coordinates":[-90.297534,38.620146]}},{"properties":{"city":"MAPLEWOOD","name":"TRAVIS LEE BRELSFORD","zip":"63143","county":"ST. LOUIS","geo_score":0.902,"type":"W","id":"a62cewhyn9ow","geo_precision":"range","address":"2930 S BIG BEND BLVD"},"type":"Feature","geometry":{"type":"Point","coordinates":[-90.323661,38.609792]}},{"properties":{"city":"ST LOUIS","name":"KENNETH EUGENE MERSEAL","zip":"63117","county":"ST. LOUIS","geo_score":0.507,"type":"W","id":"a62cewslsh0m","geo_precision":"zip","address":"25 THE BLVD"},"type":"Feature","geometry":{"type":"Point","coordinates":[-90.31956,38.628663]}},{"properties":{"city":"SAINT LOUIS","name":"RONALD LIMAS RITUALO","zip":"63139","county":"ST. LOUIS CITY","geo_score":0.902,"type":"H","id":"a62cewst3frb","geo_precision":"range","address":"1205 LOUISVILLE AVE"},"type":"Feature","geometry":{"type":"Point","coordinates":[-90.297354,38.628985]}},{"properties":{"city":"MAPLEWOOD","name":"BENNY LEE HIGGINS","zip":"63143","county":"ST. LOUIS","geo_score":0.642,"type":"W","id":"a62cewoib8al","geo_precision":"street","address":"1605 S HANLEY"},"type":"Feature","geometry":{"type":"Point","coordinates":[-90.333554,38.612807]}},{"properties":{"city":"MAPLEWOOD","name":"JAMES MARION CALDWELL","zip":"63143","county":"ST. LOUIS","geo_score":0.774,"type":"H","id":"a62cewuitl5w","geo_precision":"range","address":"3704 GREENWOOD DR APT 30"},"type":"Feature","geometry":{"type":"Point","coordinates":[-90.323561,38.604387]}},{"properties":{"city":"BRENTWOOD","name":"DAVID   CRUSOE","zip":"63144","county":"ST. LOUIS","geo_score":0.805,"type":"W","id":"a62cewkn1v34","geo_precision":"range","address":"1595 S HANLEY RD"},"type":"Feature","geometry":{"type":"Point","coordinates":[-90.335063,38.625375]}},{"properties":{"city":"RICHMOND HEIGHTS","name":"TIMOTHY JOSEPH BECKER","zip":"63117","county":"ST. LOUIS","geo_score":0.824,"type":"H","id":"a62cewj39ena","geo_precision":"range","address":"7076 MITCHELL AVE APT C"},"type":"Feature","geometry":{"type":"Point","coordinates":[-90.310794,38.62319]}},{"properties":{"city":"RICHMOND HEIGHTS","name":"SHANE PATRICK OLSEN","zip":"63117","county":"ST. LOUIS","geo_score":0.902,"type":"H","id":"a62ceww4giqn","geo_precision":"range","address":"1427 CLAYTONIA TER"},"type":"Feature","geometry":{"type":"Point","coordinates":[-90.323358,38.627217]}},{"properties":{"city":"ST LOUIS","name":"BRIAN JAMES GUESS","zip":"63139","county":"ST. LOUIS CITY","geo_score":0.873,"type":"H","id":"a62cewqhwc38","geo_precision":"range","address":"6626 WISE AVE"},"type":"Feature","geometry":{"type":"Point","coordinates":[-90.299214,38.629052]}},{"properties":{"city":"MAPLEWOOD","name":"DAVID MATTHEW GREENE","zip":"63143","county":"ST. LOUIS","geo_score":0.815,"type":"H","id":"a62cewveu9si","geo_precision":"range","address":"7514 SUSSEX APT 3"},"type":"Feature","geometry":{"type":"Point","coordinates":[-90.323258,38.603631]}},{"properties":{"city":"ST LOUIS","name":"ROY LEE TAYLOR","zip":"63136","county":"ST. LOUIS CITY","geo_score":0.805,"type":"W","id":"a62cewgzo5ep","geo_precision":"range","address":"7821 MANCHESTER RD"},"type":"Feature","geometry":{"type":"Point","coordinates":[-90.329212,38.613399]}},{"properties":{"city":"ST LOUIS","name":"KHARI RICHARD SPRUIEL","zip":"63139","county":"ST. LOUIS CITY","geo_score":0.776,"type":"H","id":"a62cews4x6du","geo_precision":"range","address":"6649 GARNER"},"type":"Feature","geometry":{"type":"Point","coordinates":[-90.301347,38.619699]}},{"properties":{"city":"ST LOUIS","name":"JOHNNIE   WILLIAMS","zip":"63143","county":"ST. LOUIS CITY","geo_score":0.816,"type":"H","id":"a62cewnebr71","geo_precision":"range","address":"7204 EMILIE ST"},"type":"Feature","geometry":{"type":"Point","coordinates":[-90.312297,38.610525]}},{"properties":{"city":"ST LOUIS","name":"JERMAINE MICHAEL DODSON","zip":"63117","county":"ST. LOUIS","geo_score":0.741,"type":"W","id":"a62cewmgsuph","geo_precision":"range","address":"1200 S BRENTWOOD"},"type":"Feature","geometry":{"type":"Point","coordinates":[-90.346166,38.632296]}},{"properties":{"city":"MAPELWOOD","name":"RONALD LEE ATKINS","zip":"63143","county":"ST. LOUIS","geo_score":0.881,"type":"H","id":"a62cewrj2ill","geo_precision":"range","address":"7215 ZEPHYR PL"},"type":"Feature","geometry":{"type":"Point","coordinates":[-90.314285,38.616317]}},{"properties":{"city":"ST LOUIS","name":"BRIAN ALLAN ANDERSON","zip":"63109","county":"ST. LOUIS CITY","geo_score":0.795,"type":"H","id":"a62cewolc2wa","geo_precision":"range","address":"3958 JAMIESON AVE 1ST FL NORTH"},"type":"Feature","geometry":{"type":"Point","coordinates":[-90.309067,38.594986]}},{"properties":{"city":"BRENTWOOD","name":"THEODORE R BARRETT","zip":"63144","county":"ST. LOUIS","geo_score":0.844,"type":"H","id":"a62cewrs4p27","geo_precision":"range","address":"1423 BOBOLINK"},"type":"Feature","geometry":{"type":"Point","coordinates":[-90.348324,38.628892]}},{"properties":{"city":"ST LOUIS","name":"ORAL LAVAUGHN WADDELL","zip":"63143","county":"ST. LOUIS CITY","geo_score":0.747,"type":"H","id":"a62cewha8l3m","geo_precision":"range","address":"2354 MCCAUSLAND AVE APT 1"},"type":"Feature","geometry":{"type":"Point","coordinates":[-90.309154,38.615578]}},{"properties":{"city":"ST LOUIS","name":"STEPHEN KEITH HEALD","zip":"63144","county":"ST. LOUIS","geo_score":0.816,"type":"W","id":"a62cewq20xku","geo_precision":"range","address":"8920 MANCHESTER RD"},"type":"Feature","geometry":{"type":"Point","coordinates":[-90.351514,38.612603]}},{"properties":{"city":"ST LOUIS","name":"MARC DANIEL LAZAR","zip":"63117","county":"ST. LOUIS","geo_score":0.824,"type":"W","id":"a62cewqklpnz","geo_precision":"range","address":"7610 DALE AVE"},"type":"Feature","geometry":{"type":"Point","coordinates":[-90.323834,38.62768]}},{"properties":{"city":"CLAYTON","name":"ANTONIO JAMAR PEEBLES","zip":"63105","county":"ST. LOUIS","geo_score":0.805,"type":"W","id":"a62cewg6wvnt","geo_precision":"range","address":"8056 CLAYTON RD"},"type":"Feature","geometry":{"type":"Point","coordinates":[-90.344437,38.637977]}},{"properties":{"city":"ST LOUIS","name":"DONNIE SCOTT SOMMERS","zip":"63139","county":"ST. LOUIS CITY","geo_score":0.785,"type":"H","id":"a62cewvk4pe1","geo_precision":"range","address":"6565 ARSENAL AVE"},"type":"Feature","geometry":{"type":"Point","coordinates":[-90.300439,38.608129]}},{"properties":{"city":"ST LOUIS","name":"UBALDO   CIMINIERI","zip":"63109","county":"ST. LOUIS CITY","geo_score":0.776,"type":"H","id":"a62cewjizhfb","geo_precision":"range","address":"6427 WINONA"},"type":"Feature","geometry":{"type":"Point","coordinates":[-90.298395,38.592932]}},{"properties":{"city":"SHREWSBURY","name":"MARTIN SCOTT MCCOLLOUGH","zip":"63119","county":"ST. LOUIS","geo_score":0.902,"type":"H","id":"a62cewgjmvom","geo_precision":"range","address":"4704 WILSHUSEN AVE"},"type":"Feature","geometry":{"type":"Point","coordinates":[-90.332685,38.591443]}},{"properties":{"city":"BRENTWOOD","name":"JACK MICHAEL CANCILA","zip":"63144","county":"ST. LOUIS","geo_score":0.902,"type":"H","id":"a62cewp4a3fy","geo_precision":"range","address":"8915 S SWAN CIR"},"type":"Feature","geometry":{"type":"Point","coordinates":[-90.350227,38.624229]}},{"properties":{"city":"BRENTWOOD","name":"JACK MICHAEL CANCILA","zip":"63144","county":"ST. LOUIS","geo_score":0.819,"type":"W","id":"a62cewl80kp3","geo_precision":"range","address":"8300 EAGER"},"type":"Feature","geometry":{"type":"Point","coordinates":[-90.337123,38.629258]}},{"properties":{"city":"SAINT LOUIS","name":"DAMIEN JOSEPH WILLS","zip":"63143","county":"ST. LOUIS","geo_score":0.382,"type":"H","id":"a62cewgjsc2z","geo_precision":"street","address":"7230 SOUTHWEST AVE APT 8"},"type":"Feature","geometry":{"type":"Point","coordinates":[-90.204498,38.605214]}},{"properties":{"city":"MAPLEWOOD","name":"DENNIS VERNON LANE","zip":"63143","county":"ST. LOUIS","geo_score":0.902,"type":"H","id":"a62cewhsmfbu","geo_precision":"range","address":"3536 COMMONWEALTH AVE"},"type":"Feature","geometry":{"type":"Point","coordinates":[-90.318807,38.603046]}},{"properties":{"city":"MAPLEWOOD","name":"JASON ALLEN LESIEWICZ","zip":"63143","county":"ST. LOUIS","geo_score":0.714,"type":"W","id":"a62cewpm1n6g","geo_precision":"street","address":"7192 MANCHESTER AVE"},"type":"Feature","geometry":{"type":"Point","coordinates":[-90.31195,38.615311]}},{"properties":{"city":"BRENTWOOD","name":"WILLIAM LANE TORRANCE","zip":"63117","county":"ST. LOUIS","geo_score":0.734,"type":"W","id":"a62cewuj9xby","geo_precision":"range","address":"1200 S BRENTWOOD"},"type":"Feature","geometry":{"type":"Point","coordinates":[-90.346166,38.632296]}},{"properties":{"city":"ST LOUIS","name":"DAVID MARTIN ALEXANDER","zip":"63117","county":"ST. LOUIS","geo_score":0.507,"type":"W","id":"a62cewfuf27j","geo_precision":"zip","address":"23 THE BOULEVARD"},"type":"Feature","geometry":{"type":"Point","coordinates":[-90.31956,38.628663]}},{"properties":{"city":"RICHMOND HEIGHTS","name":"CARLTON AUSTIN MILLER","zip":"63117","county":"ST. LOUIS","geo_score":0.798,"type":"H","id":"a62cewvdd83p","geo_precision":"range","address":"1002 BLENDON PL APT 1N"},"type":"Feature","geometry":{"type":"Point","coordinates":[-90.307968,38.633019]}},{"properties":{"city":"RICHMOND HEIGHTS","name":"CARLTON AUSTIN MILLER","zip":"63117","county":"ST. LOUIS","geo_score":0.798,"type":"W","id":"a62cewq10nky","geo_precision":"range","address":"1002 BLENDON PL APT 1N"},"type":"Feature","geometry":{"type":"Point","coordinates":[-90.307968,38.633019]}},{"properties":{"city":"ST LOUIS","name":"DONTE LORENZO WALKER","zip":"63117","county":"ST. LOUIS","geo_score":0.824,"type":"W","id":"a62cewkszm55","geo_precision":"range","address":"1200 S BRENTWOOD BLVD"},"type":"Feature","geometry":{"type":"Point","coordinates":[-90.346166,38.632296]}},{"properties":{"city":"ST LOUIS","name":"DAVID GARARD JONES","zip":"63143","county":"ST. LOUIS","geo_score":0.816,"type":"H","id":"a62cewvumatq","geo_precision":"range","address":"7161 LYNDOVER PL"},"type":"Feature","geometry":{"type":"Point","coordinates":[-90.313281,38.615209]}},{"properties":{"city":"BRENTWOOD","name":"BILLY EUGENE OBPTANDE","zip":"63144","county":"ST. LOUIS","geo_score":0.902,"type":"W","id":"a62cewqwxr30","geo_precision":"range","address":"8100 MANCHESTER RD"},"type":"Feature","geometry":{"type":"Point","coordinates":[-90.337829,38.611774]}},{"properties":{"city":"MAPLEWOOD","name":"BILLY EUGENE OBPTANDE","zip":"63143","county":"ST. LOUIS","geo_score":0.798,"type":"H","id":"a62cewse2xf2","geo_precision":"range","address":"3704 GREENWOOD APT 27"},"type":"Feature","geometry":{"type":"Point","coordinates":[-90.323561,38.604387]}},{"properties":{"city":"WEBSTER GROVES","name":"DAVID ALLEN CAPRI","zip":"63119","county":"ST. LOUIS","geo_score":0.812,"type":"W","id":"a62cewreup6v","geo_precision":"range","address":"2 S OLD ORCHARD AVE"},"type":"Feature","geometry":{"type":"Point","coordinates":[-90.338702,38.591498]}},{"properties":{"city":"ST LOUIS","name":"DAVID DWAYNE JONES","zip":"63143","county":"ST. LOUIS","geo_score":0.816,"type":"H","id":"a62cews7jti5","geo_precision":"range","address":"2032 BREDELL AVE"},"type":"Feature","geometry":{"type":"Point","coordinates":[-90.325885,38.622292]}},{"properties":{"city":"MAPLEWOOD","name":"BRYAN ANDREW LAUNIUS","zip":"63143","county":"ST. FRANCOIS","geo_score":0.829,"type":"W","id":"a62cewttoovf","geo_precision":"range","address":"3616 S BIG BEND RD"},"type":"Feature","geometry":{"type":"Point","coordinates":[-90.325591,38.602016]}},{"properties":{"city":"RICHMOND HEIGHTS","name":"JEAN PAUL STPIERRE","zip":"63117","county":"ST. LOUIS","geo_score":0.902,"type":"H","id":"a62cewrdrlxf","geo_precision":"range","address":"7705 WEST RANKEN AVENUE"},"type":"Feature","geometry":{"type":"Point","coordinates":[-90.325979,38.624854]}},{"properties":{"city":"WEBSTER GROVES","name":"LOUIS JOHN HULL","zip":"63119","county":"ST. LOUIS","geo_score":0.812,"type":"H","id":"a62cewn23nfj","geo_precision":"range","address":"544 SUMMIT AVE"},"type":"Feature","geometry":{"type":"Point","coordinates":[-90.338447,38.600027]}},{"properties":{"city":"WEBSTER GROVES","name":"ROBERT DAVID THOMAS","zip":"63119","county":"ST. LOUIS","geo_score":0.812,"type":"H","id":"a62cewmj6uuo","geo_precision":"range","address":"747 N FOREST AVE"},"type":"Feature","geometry":{"type":"Point","coordinates":[-90.338582,38.606092]}},{"properties":{"city":"ST LOUIS","name":"STEVEN CHARLES ROGERS","zip":"63139","county":"ST. LOUIS CITY","geo_score":0.763,"type":"H","id":"a62cewvb8rgb","geo_precision":"range","address":"6508 ODELL AVENUE"},"type":"Feature","geometry":{"type":"Point","coordinates":[-90.297052,38.609527]}},{"properties":{"city":"SAINT LOUIS","name":"STEVEN CHARLES ROGERS","zip":"63139","county":"ST. LOUIS CITY","geo_score":0.793,"type":"W","id":"a62cewocrbwk","geo_precision":"range","address":"6508 ODELL AVENUE"},"type":"Feature","geometry":{"type":"Point","coordinates":[-90.297052,38.609527]}},{"properties":{"city":"ST LOUIS","name":"RIXEY DENE CORVEY","zip":"63117","county":"ST. LOUIS","geo_score":0.824,"type":"H","id":"a62cewggzq0o","geo_precision":"range","address":"7344 BRUNO AVE"},"type":"Feature","geometry":{"type":"Point","coordinates":[-90.317848,38.61938]}},{"properties":{"city":"MAPLEWOOD","name":"SHANNON JAY WALKER","zip":"63143","county":"ST. LOUIS","geo_score":0.902,"type":"H","id":"a62cewsnghxt","geo_precision":"range","address":"7858 CUTLASS WALK"},"type":"Feature","geometry":{"type":"Point","coordinates":[-90.330945,38.617116]}},{"properties":{"city":"MAPLEWOOD","name":"SHANNON JAY WALKER","zip":"63143","county":"ST. LOUIS","geo_score":0.902,"type":"W","id":"a62cewvmxqdr","geo_precision":"range","address":"7858 CUTLASS WALK"},"type":"Feature","geometry":{"type":"Point","coordinates":[-90.330945,38.617116]}},{"properties":{"city":"ST LOUIS","name":"LELAND EUGENE ELLIS","zip":"63143","county":"ST. LOUIS CITY","geo_score":0.816,"type":"W","id":"a62cewolh70x","geo_precision":"range","address":"7229 MANCHESTER RD"},"type":"Feature","geometry":{"type":"Point","coordinates":[-90.314945,38.613919]}},{"properties":{"city":"RICHMOND HEIGHTS","name":"JOHN PAUL HESS","zip":"63117","county":"ST. LOUIS","geo_score":0.772,"type":"H","id":"a62cewty58gz","geo_precision":"range","address":"1152 TERRACE DRIVE"},"type":"Feature","geometry":{"type":"Point","coordinates":[-90.339652,38.63358]}},{"properties":{"city":"MAPLEWOOD","name":"THOMAS BERNARD TINTERA","zip":"63143","county":"ST. LOUIS","geo_score":0.777,"type":"H","id":"a62cewtvlh57","geo_precision":"range","address":"7389 MAPLE AVE APT 203"},"type":"Feature","geometry":{"type":"Point","coordinates":[-90.319741,38.610205]}},{"properties":{"city":"ST LOUIS","name":"WALTER WILLIAM THORNGREN","zip":"63139","county":"ST. LOUIS CITY","geo_score":0.805,"type":"H","id":"a62cewlkoua8","geo_precision":"range","address":"7032 THOLOZAN AVE"},"type":"Feature","geometry":{"type":"Point","coordinates":[-90.312951,38.597764]}},{"properties":{"city":"ST LOUIS","name":"WALTER WILLIAM THORNGREN","zip":"63109","county":"ST. LOUIS CITY","geo_score":0.873,"type":"W","id":"a62cewl4mi82","geo_precision":"range","address":"7032 THOLOZAN AVE"},"type":"Feature","geometry":{"type":"Point","coordinates":[-90.312951,38.597764]}},{"properties":{"city":"ST LOUIS","name":"JESSE ROBERT SHARP","zip":"63109","county":"ST. LOUIS CITY","geo_score":0.815,"type":"W","id":"a62cewj0dgzb","geo_precision":"range","address":"6607 CHIPPEWA"},"type":"Feature","geometry":{"type":"Point","coordinates":[-90.304462,38.591186]}},{"properties":{"city":"MAPLEWOOD","name":"ROBERT ALLEN NELSON","zip":"63143","county":"ST. LOUIS","geo_score":0.902,"type":"H","id":"a62cewpfvsox","geo_precision":"range","address":"3548 MANHATTAN AVE"},"type":"Feature","geometry":{"type":"Point","coordinates":[-90.3189,38.602016]}},{"properties":{"city":"MAPLEWOOD","name":"ROBERT ALLEN NELSON","zip":"63143","county":"ST. LOUIS","geo_score":0.902,"type":"W","id":"a62cewgonldl","geo_precision":"range","address":"3548 MANHATTAN AVE"},"type":"Feature","geometry":{"type":"Point","coordinates":[-90.3189,38.602016]}},{"properties":{"city":"MAPLEWOOD","name":"NATHANIEL PAUL VEY","zip":"63143","county":"ST. LOUIS","geo_score":0.582,"type":"W","id":"a62cewtzf60y","geo_precision":"street","address":"14 SUNNEN DR STE 144"},"type":"Feature","geometry":{"type":"Point","coordinates":[-90.330689,38.607164]}}],"is_temporal":false,"author":{"url":"http://www.mshp.dps.mo.gov/MSHPWeb/PatrolDivisions/CRID/SOR/SORPage.html","metadata":"","contact_name":"Nick Panneri","contact_address":"","source":"Misssouri State Highway Patrol","contact_phone":""},"source":"http://www.mshp.dps.mo.gov/MSHPWeb/PatrolDivisions/CRID/SOR/SORPage.html","pagination":{"sort":null,"start":0,"total":122,"limit":1000000},"state":"complete","tags":"louis,maplewood,missouri,mo,offenders,saint,sex","published":"2012-04-19T16:00:00Z","id":236537}