{"type":"FeatureCollection","data_type":"Dataset","url_type":null,"permissions":[{"permissions":{"download":true,"view":true},"group_id":"everyone"}],"classification":null,"title":"Licensed_Daycare_63143_63117","count":9,"stream_id":236543,"contributor":{"url":"http://geocommons.com/users/43866","name":"Npan"},"data_attributes":null,"calculation_params":null,"icon_link":null,"link":"http://geocommons.com/overlays/236543.json","extent":[-90.3554,38.6089,-90.3058,38.6397],"geometry_types":["point"],"unique_name":null,"name":"Licensed_Daycare_63143_63117","feature_count":9,"description":"Licensed Daycares in Maplewood, MO (63143) and Richmond Heights, MO (63117)","next_feature":null,"is_raster":false,"short_classification":"Y","stats":{},"features":[{"properties":{"city":"ST LOUIS","name":"BABY STEPS ACADEMY II LLC","zip":"63143","ages":"24 MONTHS - 12 YEARS","geo_score":0.816,"country":"USA","street":"6831 MANCHESTER AVE","id":"a62cewkzawd9","geo_precision":"range"},"type":"Feature","geometry":{"type":"Point","coordinates":[-90.305758,38.61754]}},{"properties":{"city":"ST LOUIS","name":"HOME AWAY FROM HOME CHILD CARE","zip":"63143","ages":"6 WEEKS - 6 YEARS","geo_score":0.816,"country":"USA","street":"7523 FLORA AVE","id":"a62cewl64h2u","geo_precision":"range"},"type":"Feature","geometry":{"type":"Point","coordinates":[-90.324324,38.60893]}},{"properties":{"city":"ST LOUIS","name":"MAPLEWOOD RICHMOND HEIGHTS EARLY CHILDHOOD CENTER","zip":"63143","ages":"36 MONTHS - 12 YEARS","geo_score":0.816,"country":"USA","street":"2801 OAKLAND AVE","id":"a62cewuw45y4","geo_precision":"range"},"type":"Feature","geometry":{"type":"Point","coordinates":[-90.326158,38.611722]}},{"properties":{"city":"ST LOUIS","name":"MOORE, GLENDA","zip":"63143","ages":"24 MONTHS - 6 YEARS","geo_score":0.816,"country":"USA","street":"2320 BELLEVUE AVE","id":"a62cewsowe34","geo_precision":"range"},"type":"Feature","geometry":{"type":"Point","coordinates":[-90.313533,38.617841]}},{"properties":{"city":"ST LOUIS","name":"THE HEART OF A CHILD","zip":"63143","ages":"BIRTH - 6 YEARS","geo_score":0.816,"country":"USA","street":"7793 ALICIA CT","id":"a62cewqrhplr","geo_precision":"range"},"type":"Feature","geometry":{"type":"Point","coordinates":[-90.329782,38.620533]}},{"properties":{"city":"RICHMOND HEIGHTS","name":"LIFE CHANGING CHRISTIAN FELLOWSHIP CHILD CARE CENTER","zip":"63117","ages":null,"geo_score":0.849,"country":"USA","street":"7339 LINDBERGH","id":"a62cewvs99on","geo_precision":"range"},"type":"Feature","geometry":{"type":"Point","coordinates":[-90.318013,38.626203]}},{"properties":{"city":"ST LOUIS","name":"CLAYTON CHILD CENTER","zip":"63117","ages":"24 MONTHS - 12 YEARS","geo_score":0.824,"country":"USA","street":"1414 BELLEVUE AVE","id":"a62cewgyfo89","geo_precision":"range"},"type":"Feature","geometry":{"type":"Point","coordinates":[-90.312758,38.627148]}},{"properties":{"city":"ST LOUIS","name":"ETHICAL SOCIETY NURSERY SCHOOL","zip":"63117","ages":null,"geo_score":0.824,"country":"USA","street":"9001 CLAYTON RD","id":"a62cewubumxa","geo_precision":"range"},"type":"Feature","geometry":{"type":"Point","coordinates":[-90.355404,38.63967]}},{"properties":{"city":"ST LOUIS","name":"MAPLEWOOD RICHMOND HEIGHTS ELEMENTARY SCHOOL","zip":"63117","ages":"7 YEARS - 12 YEARS","geo_score":0.824,"country":"USA","street":"1800 PRINCETON PL","id":"a62cewluxuhz","geo_precision":"range"},"type":"Feature","geometry":{"type":"Point","coordinates":[-90.315154,38.622738]}}],"is_temporal":false,"author":{"url":"https://webapp01.dhss.mo.gov/childcaresearch/SearchEngine.aspx?LID=002209283","metadata":"","contact_name":"Nick Panneri","contact_address":"","source":"Missouri Department of Health and Senior Services","contact_phone":""},"source":"https://webapp01.dhss.mo.gov/childcaresearch/SearchEngine.aspx?LID=002209283","pagination":{"sort":null,"start":0,"total":9,"limit":1000000},"state":"complete","tags":"daycare,heights,licensed,louis,maplewood,mo,richmond,saint","published":"2014-08-15T00:29:44-04:00","id":236543}