{"type":"FeatureCollection","data_type":"Dataset","url_type":null,"permissions":[{"permissions":{"download":true,"view":true},"group_id":"everyone"}],"classification":null,"title":"Golf_Courses_","count":29,"stream_id":237150,"contributor":{"url":"http://geocommons.com/users/44933","name":"gregdillard910"},"data_attributes":null,"calculation_params":null,"icon_link":null,"link":"http://geocommons.com/overlays/237150.json","extent":[-112.59,33.2187,-111.676,33.8322],"geometry_types":["point"],"unique_name":null,"name":"Golf_Courses_","feature_count":29,"description":"","next_feature":null,"is_raster":false,"short_classification":"Y","stats":{},"features":[{"properties":{"city":"Paradise Valley","zip":"85253","geo_score":0.93,"course name":"Camelback Indian Bend","id":"a62k82i7daml","geo_precision":"range","address":"7847 N Mockingbird Lane","state":"Arizona"},"type":"Feature","geometry":{"type":"Point","coordinates":[-111.934731,33.552339]}},{"properties":{"city":"Scottsdale","zip":"85251","geo_score":1.0,"course name":"Continental Exec","id":"a62k82opf9pk","geo_precision":"range","address":"7920 E Osborn Rd","state":"Arizona"},"type":"Feature","geometry":{"type":"Point","coordinates":[-111.914566,33.487011]}},{"properties":{"city":"Scottsdale","zip":"85257","geo_score":0.912,"course name":"Coronado 9","id":"a62k82csojop","geo_precision":"range","address":"2829 N Miller Rd","state":"Arizona"},"type":"Feature","geometry":{"type":"Point","coordinates":[-111.917544,33.478752]}},{"properties":{"city":"Fountain Hills","zip":"85268","geo_score":1.0,"course name":"Desert Canyon Golf Club","id":"a62k82jyigqb","geo_precision":"range","address":"10440 N Indian Wells Dr","state":"Arizona"},"type":"Feature","geometry":{"type":"Point","coordinates":[-111.71703,33.581503]}},{"properties":{"city":"Cave Creek","zip":"85331","geo_score":0.439,"course name":"Dove Valley","id":"a62k82dev8pp","geo_precision":"street","address":"33750 N Dove Lakes Dr","state":"Arizona"},"type":"Feature","geometry":{"type":"Point","coordinates":[-112.590437,33.397118]}},{"properties":{"city":"Fountain Hills","zip":"85268","geo_score":0.61,"course name":"Eagle Mountain","id":"a62k82neqhuv","geo_precision":"street","address":"14915 E Eagle Mountain Pkwy","state":"Arizona"},"type":"Feature","geometry":{"type":"Point","coordinates":[-111.708713,33.584161]}},{"properties":{"city":"Scottsdale","zip":"85254","geo_score":1.0,"course name":"Kierland Golf Club","id":"a62k829jiyat","geo_precision":"range","address":"15636 N Clubgate Dr","state":"Arizona"},"type":"Feature","geometry":{"type":"Point","coordinates":[-111.937674,33.626923]}},{"properties":{"city":"Scottsdale","zip":"85262","geo_score":0.683,"course name":"Legend Trail Golf Club","id":"a62k82mlysx1","geo_precision":"zip","address":"9462 E Legendary Ln","state":"Arizona"},"type":"Feature","geometry":{"type":"Point","coordinates":[-111.915298,33.407445]}},{"properties":{"city":"Scottsdale","zip":"85258","geo_score":1.0,"course name":"McCormick Ranch Golf Club","id":"a62k82fus992","geo_precision":"range","address":"7505 E McCormick Pkwy","state":"Arizona"},"type":"Feature","geometry":{"type":"Point","coordinates":[-111.91881,33.549751]}},{"properties":{"city":"Scottsdale","zip":"85255","geo_score":0.918,"course name":"McDowell Mountain","id":"a62k82hop60e","geo_precision":"range","address":"10690 E Sheena Dr","state":"Arizona"},"type":"Feature","geometry":{"type":"Point","coordinates":[-111.851204,33.616559]}},{"properties":{"city":"Scottsdale","zip":"85254","geo_score":0.916,"course name":"Orange Tree","id":"a62k829l09nv","geo_precision":"range","address":"10601 N 56th St","state":"Arizona"},"type":"Feature","geometry":{"type":"Point","coordinates":[-111.960562,33.582657]}},{"properties":{"city":"Phoenix","zip":"85008","geo_score":1.0,"course name":"Papago","id":"a62k82e3ryrk","geo_precision":"range","address":"5595 E Moreland St","state":"Arizona"},"type":"Feature","geometry":{"type":"Point","coordinates":[-111.961032,33.462284]}},{"properties":{"city":"Phoenix","zip":"85050","geo_score":1.0,"course name":"Paradise Valley Golf","id":"a62k82dvq2co","geo_precision":"range","address":"3505 E Union Hills Dr","state":"Arizona"},"type":"Feature","geometry":{"type":"Point","coordinates":[-112.008109,33.655164]}},{"properties":{"city":"Cave Creek","zip":"85331","geo_score":0.978,"course name":"Rancho Manana","id":"a62k82bvbglw","geo_precision":"range","address":"5734 E Rancho Manana Blvd","state":"Arizona"},"type":"Feature","geometry":{"type":"Point","coordinates":[-111.958408,33.832175]}},{"properties":{"city":"Scottsdale","zip":"85250","geo_score":1.0,"course name":"Silverado Golf Club","id":"a62k82fdpe4b","geo_precision":"range","address":"7605 E Indian Bend Rd","state":"Arizona"},"type":"Feature","geometry":{"type":"Point","coordinates":[-111.915137,33.538558]}},{"properties":{"city":"Scottsdale","zip":"85260","geo_score":1.0,"course name":"Starfire Golf Club","id":"a62k82mey1qk","geo_precision":"range","address":"11500 N Hayden Rd","state":"Arizona"},"type":"Feature","geometry":{"type":"Point","coordinates":[-111.908658,33.590281]}},{"properties":{"city":"Fountain Hills","zip":"85268","geo_score":0.973,"course name":"SunRidge","id":"a62k82baxxnd","geo_precision":"range","address":"13100 N Sunridge Dr","state":"Arizona"},"type":"Feature","geometry":{"type":"Point","coordinates":[-111.757691,33.606625]}},{"properties":{"city":"Scottsdale","zip":"85256","geo_score":0.805,"course name":"Talking Stick","id":"a62k82itz7vt","geo_precision":"street","address":"9998 E Indian Bend Rd","state":"Arizona"},"type":"Feature","geometry":{"type":"Point","coordinates":[-111.847253,33.538542]}},{"properties":{"city":"Carefree","zip":"85377","geo_score":0.805,"course name":"The Boulders","id":"a62k82c4cfum","geo_precision":"street","address":"34831 N Tom Darlington Drive","state":"Arizona"},"type":"Feature","geometry":{"type":"Point","coordinates":[-111.927239,33.805989]}},{"properties":{"city":"Scottsdale","zip":"85251","geo_score":1.0,"course name":"The Phoenician","id":"a62k82bv3l3v","geo_precision":"range","address":"6000 E Camelback Rd","state":"Arizona"},"type":"Feature","geometry":{"type":"Point","coordinates":[-111.951457,33.50194]}},{"properties":{"city":"Rio Verde","zip":"85263","geo_score":0.61,"course name":"Tonto Verde","id":"a62k82coiooc","geo_precision":"street","address":"18402 E El Circulo Dr","state":"Arizona"},"type":"Feature","geometry":{"type":"Point","coordinates":[-111.67702,33.733373]}},{"properties":{"city":"Scottsdale","zip":"85255","geo_score":0.918,"course name":"TPC Scottsdale","id":"a62k82b6qaas","geo_precision":"range","address":"17020 N Hayden Rd","state":"Arizona"},"type":"Feature","geometry":{"type":"Point","coordinates":[-111.902571,33.640133]}},{"properties":{"city":"Scottsdale","zip":"85262","geo_score":1.0,"course name":"Troon North","id":"a62k82h1hnp7","geo_precision":"range","address":"10320 E Dynamite Blvd","state":"Arizona"},"type":"Feature","geometry":{"type":"Point","coordinates":[-111.857507,33.745121]}},{"properties":{"city":"Rio Verde","zip":"85263","geo_score":0.614,"course name":"Vista Verde","id":"a62k82glx6a2","geo_precision":"street","address":"17405 E. Desert Vista Trail","state":"Arizona"},"type":"Feature","geometry":{"type":"Point","coordinates":[-111.676106,33.739903]}},{"properties":{"city":"Phoenix","zip":"85054","geo_score":0.37,"course name":"Wildfire","id":"a62k82krqjmp","geo_precision":"street","address":"5350 E Marriott Dr","state":"Arizona"},"type":"Feature","geometry":{"type":"Point","coordinates":[-112.10941,33.772241]}},{"properties":{"city":"Tempe","zip":"85281","geo_score":1.0,"course name":"ASU Karsten","id":"a62k82lzv1ub","geo_precision":"range","address":"1125 E Rio Salado Pkwy","state":"Arizona"},"type":"Feature","geometry":{"type":"Point","coordinates":[-111.922142,33.429298]}},{"properties":{"city":"Chandler","zip":"85249","geo_score":0.878,"course name":"Bear Creak Championship Course","id":"a62k82j3bqkp","geo_precision":"range","address":"500 E Riggs Rd","state":"Arizona"},"type":"Feature","geometry":{"type":"Point","coordinates":[-111.833468,33.218685]}},{"properties":{"city":"Tempe","zip":"85281","geo_score":1.0,"course name":"Rio Salado","id":"a62k82m7gm3a","geo_precision":"range","address":"1490 E Weber Dr","state":"Arizona"},"type":"Feature","geometry":{"type":"Point","coordinates":[-111.916817,33.44404]}},{"properties":{"city":"Tempe","zip":"85281","geo_score":0.878,"course name":"Rolling Hills","id":"a62k82ac6wr7","geo_precision":"range","address":"1415 N Mill Ave","state":"Arizona"},"type":"Feature","geometry":{"type":"Point","coordinates":[-111.949967,33.446066]}}],"is_temporal":false,"author":{"url":"","metadata":null,"contact_name":null,"contact_address":null,"source":null,"contact_phone":null},"source":"","pagination":{"sort":null,"start":0,"total":29,"limit":1000000},"state":"complete","tags":"","published":"2014-08-15T01:22:10-04:00","id":237150}