{"type":"FeatureCollection","data_type":"Dataset","url_type":null,"permissions":[{"permissions":{"download":true,"view":true},"group_id":"everyone"}],"classification":null,"title":"Head Start Transportation Area  Addresses ","count":31,"stream_id":237830,"contributor":{"url":"http://geocommons.com/users/45024","name":"GenevaHeadStart"},"data_attributes":null,"calculation_params":null,"icon_link":null,"link":"http://geocommons.com/overlays/237830.json","extent":[-77.9263,42.8043,-77.1822,43.2157],"geometry_types":["point"],"unique_name":null,"name":"Head Start Transportation Area  Addresses ","feature_count":31,"description":"","next_feature":null,"is_raster":false,"short_classification":"Y","stats":{},"features":[{"properties":{"city":"canandaigua","zip":"14424","geo_score":0.911,"street address":"143 Telyea Street","id":"a65kxpyc832t","geo_precision":"range","state":"ny"},"type":"Feature","geometry":{"type":"Point","coordinates":[-77.286317,42.883282]}},{"properties":{"city":"canandaigua","zip":"14424","geo_score":0.911,"street address":"275 Jefferson Avenue","id":"a65kxpqzlq13","geo_precision":"range","state":"ny"},"type":"Feature","geometry":{"type":"Point","coordinates":[-77.272467,42.886634]}},{"properties":{"city":"canandaigua","zip":"14424","geo_score":0.786,"street address":"346 West Ave","id":"a65kxq51qdh2","geo_precision":"range","state":"ny"},"type":"Feature","geometry":{"type":"Point","coordinates":[-77.296063,42.883853]}},{"properties":{"city":"canandaigua","zip":"14424","geo_score":0.911,"street address":"2515 Andrews Road","id":"a65kxppy5iao","geo_precision":"range","state":"ny"},"type":"Feature","geometry":{"type":"Point","coordinates":[-77.252064,42.910094]}},{"properties":{"city":"canandaigua","zip":"14424","geo_score":0.911,"street address":"65 Lisk Avenue","id":"a65kxq4ofw5o","geo_precision":"range","state":"ny"},"type":"Feature","geometry":{"type":"Point","coordinates":[-77.269125,42.894979]}},{"properties":{"city":"canandaigua","zip":"14424","geo_score":0.911,"street address":"348 Jefferson Avenue","id":"a65kxpzntb95","geo_precision":"range","state":"ny"},"type":"Feature","geometry":{"type":"Point","coordinates":[-77.272049,42.886109]}},{"properties":{"city":"canandaigua","zip":"14424","geo_score":0.911,"street address":"4018 County Road 18","id":"a65kxprph5hd","geo_precision":"range","state":"ny"},"type":"Feature","geometry":{"type":"Point","coordinates":[-77.21718,42.837695]}},{"properties":{"city":"canandaigua","zip":"14424","geo_score":0.911,"street address":"81 Pleasant Street","id":"a65kxpvc0dkg","geo_precision":"range","state":"ny"},"type":"Feature","geometry":{"type":"Point","coordinates":[-77.278015,42.887766]}},{"properties":{"city":"canandaigua","zip":"14424","geo_score":0.716,"street address":"35254 East Lake Road","id":"a65kxq004u8d","geo_precision":"street","state":"ny"},"type":"Feature","geometry":{"type":"Point","coordinates":[-77.260557,42.804262]}},{"properties":{"city":"canandaigua","zip":"14424","geo_score":0.911,"street address":"275 Jefferson Avenue","id":"a65kxq1f49gf","geo_precision":"range","state":"ny"},"type":"Feature","geometry":{"type":"Point","coordinates":[-77.272467,42.886634]}},{"properties":{"city":"canandaigua","zip":"14424","geo_score":0.622,"street address":"5034 North Road","id":"a65kxpwvs5bx","geo_precision":"range","state":"ny"},"type":"Feature","geometry":{"type":"Point","coordinates":[-77.286244,42.908137]}},{"properties":{"city":"canandaigua","zip":"14424","geo_score":0.911,"street address":"308 Camelot Court","id":"a65kxprtvi23","geo_precision":"range","state":"ny"},"type":"Feature","geometry":{"type":"Point","coordinates":[-77.293977,42.899507]}},{"properties":{"city":"canandaigua","zip":"14424","geo_score":0.911,"street address":"275 Jefferson Ave","id":"a65kxpqm0my2","geo_precision":"range","state":"ny"},"type":"Feature","geometry":{"type":"Point","coordinates":[-77.272467,42.886634]}},{"properties":{"city":"canandaigua","zip":"14424","geo_score":0.889,"street address":"129 Saltonstal Street","id":"a65kxppr0wog","geo_precision":"range","state":"ny"},"type":"Feature","geometry":{"type":"Point","coordinates":[-77.27207,42.884226]}},{"properties":{"city":"canandaigua","zip":"14424","geo_score":0.889,"street address":"79 Saltonstal Street","id":"a65kxpvc2bhk","geo_precision":"range","state":"ny"},"type":"Feature","geometry":{"type":"Point","coordinates":[-77.274988,42.884917]}},{"properties":{"city":"canandaigua","zip":"14424","geo_score":0.911,"street address":"43 Chapin Street","id":"a65kxpxnx647","geo_precision":"range","state":"ny"},"type":"Feature","geometry":{"type":"Point","coordinates":[-77.282674,42.886091]}},{"properties":{"city":"canandaigua","zip":"14424","geo_score":0.911,"street address":"53 Clark Street","id":"a65kxpuutwgz","geo_precision":"range","state":"ny"},"type":"Feature","geometry":{"type":"Point","coordinates":[-77.280253,42.882119]}},{"properties":{"city":"canandaigua","zip":"14424","geo_score":0.594,"street address":"3536 Hicox Road","id":"a65kxq2iwh0q","geo_precision":"zip","state":"ny"},"type":"Feature","geometry":{"type":"Point","coordinates":[-77.401099,42.835343]}},{"properties":{"city":"canandaigua","zip":"14424","geo_score":0.594,"street address":"2890 Conifer Drive","id":"a65kxpto814e","geo_precision":"zip","state":"ny"},"type":"Feature","geometry":{"type":"Point","coordinates":[-77.401099,42.835343]}},{"properties":{"city":"canandaigua","zip":"14424","geo_score":0.911,"street address":"80 Phoenix Street","id":"a65kxpp5bygb","geo_precision":"range","state":"ny"},"type":"Feature","geometry":{"type":"Point","coordinates":[-77.2764,42.887382]}},{"properties":{"city":"canandaigua","zip":"14425","geo_score":0.863,"street address":"6210 Maple Grove","id":"a65kxq0qw8co","geo_precision":"range","state":"ny"},"type":"Feature","geometry":{"type":"Point","coordinates":[-77.365673,42.978246]}},{"properties":{"city":"canandaigua","zip":"14424","geo_score":0.911,"street address":"3660 Middle Cheshire Road","id":"a65kxpy4jckw","geo_precision":"range","state":"ny"},"type":"Feature","geometry":{"type":"Point","coordinates":[-77.299981,42.850361]}},{"properties":{"city":"canandaigua","zip":"14424","geo_score":0.5,"street address":"1227 Lyman Way","id":"a65kxq087uuz","geo_precision":"street","state":"ny"},"type":"Feature","geometry":{"type":"Point","coordinates":[-77.926254,43.215728]}},{"properties":{"city":"canandaigua","zip":"14469","geo_score":0.909,"street address":"14 Elm Street","id":"a65kxpp9yyub","geo_precision":"range","state":"ny"},"type":"Feature","geometry":{"type":"Point","coordinates":[-77.420166,42.904026]}},{"properties":{"city":"canandaigua","zip":"14469","geo_score":0.909,"street address":"14 Elm Street","id":"a65kxpy00otd","geo_precision":"range","state":"ny"},"type":"Feature","geometry":{"type":"Point","coordinates":[-77.420166,42.904026]}},{"properties":{"city":"canandaigua","zip":"14425","geo_score":0.5,"street address":"1263 Lyman Way","id":"a65kxq2rl8e3","geo_precision":"street","state":"ny"},"type":"Feature","geometry":{"type":"Point","coordinates":[-77.926254,43.215728]}},{"properties":{"city":"canandaigua","zip":"14424","geo_score":0.889,"street address":"170 Saltonstal Street","id":"a65kxq51u56f","geo_precision":"range","state":"ny"},"type":"Feature","geometry":{"type":"Point","coordinates":[-77.270565,42.884821]}},{"properties":{"city":"canandaigua","zip":"14424","geo_score":0.889,"street address":"170 Saltonstal Street","id":"a65kxq3108ls","geo_precision":"range","state":"ny"},"type":"Feature","geometry":{"type":"Point","coordinates":[-77.270565,42.884821]}},{"properties":{"city":"canandaigua","zip":"14424","geo_score":0.911,"street address":"2931 County Road 47","id":"a65kxq1t0fm5","geo_precision":"range","state":"ny"},"type":"Feature","geometry":{"type":"Point","coordinates":[-77.182205,42.889779]}},{"properties":{"city":"canandaigua","zip":"14424","geo_score":0.594,"street address":"2890 Conifer Drive","id":"a65kxpqu5ls7","geo_precision":"zip","state":"ny"},"type":"Feature","geometry":{"type":"Point","coordinates":[-77.401099,42.835343]}},{"properties":{"city":"canandaigua","zip":"14424","geo_score":0.911,"street address":"5001 Butler Road","id":"a65kxpzq0alm","geo_precision":"range","state":"ny"},"type":"Feature","geometry":{"type":"Point","coordinates":[-77.288849,42.852425]}}],"is_temporal":false,"author":{"url":"","metadata":"","contact_name":"","contact_address":"","source":"","contact_phone":""},"source":"","pagination":{"sort":null,"start":0,"total":31,"limit":1000000},"state":"complete","tags":"","published":"2014-08-15T02:38:19-04:00","id":237830}