{"type":"FeatureCollection","data_type":"Dataset","url_type":null,"permissions":[{"permissions":{"download":true,"view":true},"group_id":"everyone"}],"classification":null,"title":"Kinagrannis_shows_with_venues","count":129,"stream_id":238029,"contributor":{"url":"http://geocommons.com/users/42461","name":"ahurd"},"data_attributes":null,"calculation_params":null,"icon_link":null,"link":"http://geocommons.com/overlays/238029.json","extent":[-156.007,20.6975,-71.0598,47.6359],"geometry_types":["point"],"unique_name":null,"name":"Kinagrannis_shows_with_venues","feature_count":129,"description":"","next_feature":null,"is_raster":false,"short_classification":"Y","stats":{"date":{"max":"2012/04/21 00:00:00 -0400","mean":"2011/05/23 10:49:46 -0400","variance":429018985510116.0,"stdev":20712773.4866704,"min":"2010/01/13 00:00:00 -0500","median":"2011/04/29 00:00:00 -0400"}},"features":[{"properties":{"city":"West Hollywood","date":{"end_time":"2010/01/14 00:00:00 -0500","original":"1/13/2010","granularity":"day","time":"2010/01/13 00:00:00 -0500"},"geo_score":1.0,"country":"United States","zip code":"90069","id":"a624nmq6thmt","geo_precision":"zip","state":"CA"},"type":"Feature","geometry":{"type":"Point","coordinates":[-118.298662,33.786594]}},{"properties":{"city":"Santa Monica","date":{"end_time":"2010/02/28 00:00:00 -0500","original":"2/27/2010","granularity":"day","time":"2010/02/27 00:00:00 -0500"},"geo_score":1.0,"country":"United States","zip code":"90401","id":"a624nn27337p","geo_precision":"zip","state":"CA"},"type":"Feature","geometry":{"type":"Point","coordinates":[-118.298662,33.786594]}},{"properties":{"city":"San Francisco","date":{"end_time":"2010/05/25 00:00:00 -0400","original":"5/24/2010","granularity":"day","time":"2010/05/24 00:00:00 -0400"},"geo_score":1.0,"country":"United States","zip code":"94114","id":"a624nmo5s1ic","geo_precision":"zip","state":"CA"},"type":"Feature","geometry":{"type":"Point","coordinates":[-122.439332,37.758279]}},{"properties":{"city":"Los Angeles","date":{"end_time":"2010/05/26 00:00:00 -0400","original":"5/25/2010","granularity":"day","time":"2010/05/25 00:00:00 -0400"},"geo_score":0.871,"country":"United States","zip code":"90028","id":"a624nmv8jmtf","geo_precision":"zip","state":"CA"},"type":"Feature","geometry":{"type":"Point","coordinates":[-118.326743,34.098343]}},{"properties":{"city":"Decatur","date":{"end_time":"2010/06/04 00:00:00 -0400","original":"6/3/2010","granularity":"day","time":"2010/06/03 00:00:00 -0400"},"geo_score":1.0,"country":"United States","zip code":"30030","id":"a624nmx8ete6","geo_precision":"zip","state":"GA"},"type":"Feature","geometry":{"type":"Point","coordinates":[-84.291723,33.772554]}},{"properties":{"city":"Nashville","date":{"end_time":"2010/06/05 00:00:00 -0400","original":"6/4/2010","granularity":"day","time":"2010/06/04 00:00:00 -0400"},"geo_score":1.0,"country":"United States","zip code":"37210","id":"a624nmx912yv","geo_precision":"zip","state":"TN"},"type":"Feature","geometry":{"type":"Point","coordinates":[-86.729947,36.137475]}},{"properties":{"city":"Lexington","date":{"end_time":"2010/06/06 00:00:00 -0400","original":"6/5/2010","granularity":"day","time":"2010/06/05 00:00:00 -0400"},"geo_score":1.0,"country":"United States","zip code":"40507","id":"a624nn1bmhfi","geo_precision":"zip","state":"KY"},"type":"Feature","geometry":{"type":"Point","coordinates":[-84.495969,38.045571]}},{"properties":{"city":"Toronto","date":{"end_time":"2010/06/08 00:00:00 -0400","original":"6/7/2010","granularity":"day","time":"2010/06/07 00:00:00 -0400"},"geo_score":0.633,"country":"Canada","zip code":null,"id":"a624nmpwos4w","geo_precision":"city","state":null},"type":"Feature","geometry":{"type":"Point","coordinates":[-86.768002,33.594533]}},{"properties":{"city":"Ann Arbor","date":{"end_time":"2010/06/10 00:00:00 -0400","original":"6/9/2010","granularity":"day","time":"2010/06/09 00:00:00 -0400"},"geo_score":1.0,"country":"United States","zip code":"48104","id":"a624nn1i40cl","geo_precision":"zip","state":"MI"},"type":"Feature","geometry":{"type":"Point","coordinates":[-83.727826,42.270903]}},{"properties":{"city":"Chicago","date":{"end_time":"2010/06/11 00:00:00 -0400","original":"6/10/2010","granularity":"day","time":"2010/06/10 00:00:00 -0400"},"geo_score":1.0,"country":"United States","zip code":"60618","id":"a624nmnatlde","geo_precision":"zip","state":"IL"},"type":"Feature","geometry":{"type":"Point","coordinates":[-87.68732,41.811929]}},{"properties":{"city":"Columbus","date":{"end_time":"2010/06/12 00:00:00 -0400","original":"6/11/2010","granularity":"day","time":"2010/06/11 00:00:00 -0400"},"geo_score":1.0,"country":"United States","zip code":"43201","id":"a624nmx3e650","geo_precision":"zip","state":"OH"},"type":"Feature","geometry":{"type":"Point","coordinates":[-83.011389,39.969036]}},{"properties":{"city":"Pittsburgh","date":{"end_time":"2010/06/13 00:00:00 -0400","original":"6/12/2010","granularity":"day","time":"2010/06/12 00:00:00 -0400"},"geo_score":0.857,"country":"United States","zip code":"15224","id":"a624nmp5vgln","geo_precision":"zip","state":"PA"},"type":"Feature","geometry":{"type":"Point","coordinates":[-79.950885,40.460902]}},{"properties":{"city":"Vienna","date":{"end_time":"2010/06/16 00:00:00 -0400","original":"6/15/2010","granularity":"day","time":"2010/06/15 00:00:00 -0400"},"geo_score":0.87,"country":"United States","zip code":"22180","id":"a624nmluaypi","geo_precision":"zip","state":"VA"},"type":"Feature","geometry":{"type":"Point","coordinates":[-77.249426,38.921778]}},{"properties":{"city":"Philadelphia","date":{"end_time":"2010/06/17 00:00:00 -0400","original":"6/16/2010","granularity":"day","time":"2010/06/16 00:00:00 -0400"},"geo_score":1.0,"country":"United States","zip code":"19106","id":"a624nmr3653f","geo_precision":"zip","state":"PA"},"type":"Feature","geometry":{"type":"Point","coordinates":[-75.150071,39.950004]}},{"properties":{"city":"New York","date":{"end_time":"2010/06/19 00:00:00 -0400","original":"6/18/2010","granularity":"day","time":"2010/06/18 00:00:00 -0400"},"geo_score":1.0,"country":"United States","zip code":"10011","id":"a624nmnfs8pp","geo_precision":"zip","state":"NY"},"type":"Feature","geometry":{"type":"Point","coordinates":[-73.999769,40.740916]}},{"properties":{"city":"Boston","date":{"end_time":"2010/06/20 00:00:00 -0400","original":"6/19/2010","granularity":"day","time":"2010/06/19 00:00:00 -0400"},"geo_score":1.0,"country":"United States","zip code":"02115","id":"a624nmr9mdf2","geo_precision":"zip","state":"MA"},"type":"Feature","geometry":{"type":"Point","coordinates":[-71.096848,42.342043]}},{"properties":{"city":"Fall River","date":{"end_time":"2010/06/21 00:00:00 -0400","original":"6/20/2010","granularity":"day","time":"2010/06/20 00:00:00 -0400"},"geo_score":1.0,"country":"United States","zip code":"02721","id":"a624nmzd5vwf","geo_precision":"zip","state":"MA"},"type":"Feature","geometry":{"type":"Point","coordinates":[-71.153648,41.678895]}},{"properties":{"city":"Maryland Heights","date":{"end_time":"2010/07/17 00:00:00 -0400","original":"7/16/2010","granularity":"day","time":"2010/07/16 00:00:00 -0400"},"geo_score":1.0,"country":"United States","zip code":"63043","id":"a624nmrnl426","geo_precision":"zip","state":"MO"},"type":"Feature","geometry":{"type":"Point","coordinates":[-90.447418,38.723951]}},{"properties":{"city":"Lake Forest","date":{"end_time":"2010/07/26 00:00:00 -0400","original":"7/25/2010","granularity":"day","time":"2010/07/25 00:00:00 -0400"},"geo_score":0.886,"country":"United States","zip code":"92630","id":"a624nmlxzu6b","geo_precision":"zip","state":"CA"},"type":"Feature","geometry":{"type":"Point","coordinates":[-117.683662,33.646966]}},{"properties":{"city":"Portland","date":{"end_time":"2010/09/18 00:00:00 -0400","original":"9/17/2010","granularity":"day","time":"2010/09/17 00:00:00 -0400"},"geo_score":1.0,"country":"United States","zip code":"97202","id":"a624nmn665th","geo_precision":"zip","state":"OR"},"type":"Feature","geometry":{"type":"Point","coordinates":[-122.637331,45.48169]}},{"properties":{"city":"Seattle","date":{"end_time":"2010/09/19 00:00:00 -0400","original":"9/18/2010","granularity":"day","time":"2010/09/18 00:00:00 -0400"},"geo_score":0.889,"country":"United States","zip code":"98109","id":"a624nn0kzwhc","geo_precision":"zip","state":"WA"},"type":"Feature","geometry":{"type":"Point","coordinates":[-122.366239,47.635931]}},{"properties":{"city":"Vancouver","date":{"end_time":"2010/09/20 00:00:00 -0400","original":"9/19/2010","granularity":"day","time":"2010/09/19 00:00:00 -0400"},"geo_score":0.714,"country":"Canada","zip code":null,"id":"a624nmxpic7d","geo_precision":"city","state":null},"type":"Feature","geometry":{"type":"Point","coordinates":[-122.661486,45.638728]}},{"properties":{"city":"Eugene","date":{"end_time":"2010/09/22 00:00:00 -0400","original":"9/21/2010","granularity":"day","time":"2010/09/21 00:00:00 -0400"},"geo_score":0.881,"country":"United States","zip code":"97401","id":"a624nmmskhfj","geo_precision":"zip","state":"OR"},"type":"Feature","geometry":{"type":"Point","coordinates":[-123.16509,44.113457]}},{"properties":{"city":"San Francisco","date":{"end_time":"2010/09/24 00:00:00 -0400","original":"9/23/2010","granularity":"day","time":"2010/09/23 00:00:00 -0400"},"geo_score":1.0,"country":"United States","zip code":"94109","id":"a624nmvcue0t","geo_precision":"zip","state":"CA"},"type":"Feature","geometry":{"type":"Point","coordinates":[-122.420782,37.795219]}},{"properties":{"city":"Santa Barbara","date":{"end_time":"2010/09/25 00:00:00 -0400","original":"9/24/2010","granularity":"day","time":"2010/09/24 00:00:00 -0400"},"geo_score":0.888,"country":"United States","zip code":"93101","id":"a624nmm49n4f","geo_precision":"zip","state":"CA"},"type":"Feature","geometry":{"type":"Point","coordinates":[-119.990975,34.5861]}},{"properties":{"city":"Anaheim","date":{"end_time":"2010/09/26 00:00:00 -0400","original":"9/25/2010","granularity":"day","time":"2010/09/25 00:00:00 -0400"},"geo_score":1.0,"country":"United States","zip code":"92805","id":"a624nmtm2xlj","geo_precision":"zip","state":"CA"},"type":"Feature","geometry":{"type":"Point","coordinates":[-117.769442,33.640302]}},{"properties":{"city":"San Diego","date":{"end_time":"2010/09/27 00:00:00 -0400","original":"9/26/2010","granularity":"day","time":"2010/09/26 00:00:00 -0400"},"geo_score":1.0,"country":"United States","zip code":"92101","id":"a624nmnostsf","geo_precision":"zip","state":"CA"},"type":"Feature","geometry":{"type":"Point","coordinates":[-117.174366,32.7211]}},{"properties":{"city":"Scottsdale","date":{"end_time":"2010/09/28 00:00:00 -0400","original":"9/27/2010","granularity":"day","time":"2010/09/27 00:00:00 -0400"},"geo_score":1.0,"country":"United States","zip code":"85251","id":"a624nmpcf2na","geo_precision":"zip","state":"AZ"},"type":"Feature","geometry":{"type":"Point","coordinates":[-111.792658,33.420061]}},{"properties":{"city":"Dallas","date":{"end_time":"2010/10/02 00:00:00 -0400","original":"10/1/2010","granularity":"day","time":"2010/10/01 00:00:00 -0400"},"geo_score":1.0,"country":"United States","zip code":"75202","id":"a624nmue22w5","geo_precision":"zip","state":"TX"},"type":"Feature","geometry":{"type":"Point","coordinates":[-96.777626,32.767268]}},{"properties":{"city":"Austin","date":{"end_time":"2010/10/03 00:00:00 -0400","original":"10/2/2010","granularity":"day","time":"2010/10/02 00:00:00 -0400"},"geo_score":1.0,"country":"United States","zip code":"78701","id":"a624nmqef07e","geo_precision":"zip","state":"TX"},"type":"Feature","geometry":{"type":"Point","coordinates":[-97.741382,30.268335]}},{"properties":{"city":"Houston","date":{"end_time":"2010/10/04 00:00:00 -0400","original":"10/3/2010","granularity":"day","time":"2010/10/03 00:00:00 -0400"},"geo_score":0.878,"country":"United States","zip code":"77002","id":"a624nn0ye53u","geo_precision":"zip","state":"TX"},"type":"Feature","geometry":{"type":"Point","coordinates":[-95.302435,29.91189]}},{"properties":{"city":"Jacksonville","date":{"end_time":"2010/10/07 00:00:00 -0400","original":"10/6/2010","granularity":"day","time":"2010/10/06 00:00:00 -0400"},"geo_score":0.881,"country":"United States","zip code":"32207","id":"a624nmvhwucg","geo_precision":"zip","state":"FL"},"type":"Feature","geometry":{"type":"Point","coordinates":[-81.609537,30.296351]}},{"properties":{"city":"Gainesville","date":{"end_time":"2010/10/08 00:00:00 -0400","original":"10/7/2010","granularity":"day","time":"2010/10/07 00:00:00 -0400"},"geo_score":0.896,"country":"United States","zip code":"32601","id":"a624nmusfqmq","geo_precision":"zip","state":"FL"},"type":"Feature","geometry":{"type":"Point","coordinates":[-82.186211,29.646635]}},{"properties":{"city":"Orlando","date":{"end_time":"2010/10/09 00:00:00 -0400","original":"10/8/2010","granularity":"day","time":"2010/10/08 00:00:00 -0400"},"geo_score":1.0,"country":"United States","zip code":"32801","id":"a624nmocx4c1","geo_precision":"zip","state":"FL"},"type":"Feature","geometry":{"type":"Point","coordinates":[-81.373291,28.545179]}},{"properties":{"city":"Denver","date":{"end_time":"2010/11/04 00:00:00 -0400","original":"11/3/2010","granularity":"day","time":"2010/11/03 00:00:00 -0400"},"geo_score":1.0,"country":"United States","zip code":"80230","id":"a624nmrzevbh","geo_precision":"zip","state":"CO"},"type":"Feature","geometry":{"type":"Point","coordinates":[-104.895093,39.721848]}},{"properties":{"city":"Lawrence","date":{"end_time":"2010/11/06 00:00:00 -0400","original":"11/5/2010","granularity":"day","time":"2010/11/05 00:00:00 -0400"},"geo_score":0.89,"country":"United States","zip code":"66044","id":"a624nmrtn60e","geo_precision":"zip","state":"KS"},"type":"Feature","geometry":{"type":"Point","coordinates":[-95.269695,38.85556]}},{"properties":{"city":"St. Louis","date":{"end_time":"2010/11/07 00:00:00 -0400","original":"11/6/2010","granularity":"day","time":"2010/11/06 00:00:00 -0400"},"geo_score":0.957,"country":"United States","zip code":"63104","id":"a624nmvmokem","geo_precision":"zip","state":"MO"},"type":"Feature","geometry":{"type":"Point","coordinates":[-90.214461,38.611401]}},{"properties":{"city":"Cedar Falls","date":{"end_time":"2010/11/08 00:00:00 -0500","original":"11/7/2010","granularity":"day","time":"2010/11/07 00:00:00 -0400"},"geo_score":0.857,"country":"United States","zip code":"50613","id":"a624nmuqcrla","geo_precision":"zip","state":"IA"},"type":"Feature","geometry":{"type":"Point","coordinates":[-92.455743,42.554706]}},{"properties":{"city":"Omaha","date":{"end_time":"2010/11/10 00:00:00 -0500","original":"11/9/2010","granularity":"day","time":"2010/11/09 00:00:00 -0500"},"geo_score":1.0,"country":"United States","zip code":"68104","id":"a624nmskr1ew","geo_precision":"zip","state":"NE"},"type":"Feature","geometry":{"type":"Point","coordinates":[-95.99895,41.295396]}},{"properties":{"city":"Minneapolis","date":{"end_time":"2010/11/12 00:00:00 -0500","original":"11/11/2010","granularity":"day","time":"2010/11/11 00:00:00 -0500"},"geo_score":1.0,"country":"United States","zip code":"55403","id":"a624nmyg9az7","geo_precision":"zip","state":"MN"},"type":"Feature","geometry":{"type":"Point","coordinates":[-93.287275,44.972615]}},{"properties":{"city":"Madison","date":{"end_time":"2010/11/13 00:00:00 -0500","original":"11/12/2010","granularity":"day","time":"2010/11/12 00:00:00 -0500"},"geo_score":1.0,"country":"United States","zip code":"53703","id":"a624nmst4jgc","geo_precision":"zip","state":"WI"},"type":"Feature","geometry":{"type":"Point","coordinates":[-89.352764,43.053085]}},{"properties":{"city":"Champaign","date":{"end_time":"2010/11/14 00:00:00 -0500","original":"11/13/2010","granularity":"day","time":"2010/11/13 00:00:00 -0500"},"geo_score":0.879,"country":"United States","zip code":"61820","id":"a624nmysme7p","geo_precision":"zip","state":"IL"},"type":"Feature","geometry":{"type":"Point","coordinates":[-88.235605,40.142532]}},{"properties":{"city":"La Jolla","date":{"end_time":"2010/11/18 00:00:00 -0500","original":"11/17/2010","granularity":"day","time":"2010/11/17 00:00:00 -0500"},"geo_score":1.0,"country":"United States","zip code":"92093","id":"a624nmzpeeqa","geo_precision":"zip","state":"CA"},"type":"Feature","geometry":{"type":"Point","coordinates":[-116.846046,33.016928]}},{"properties":{"city":"Los Angeles","date":{"end_time":"2010/12/11 00:00:00 -0500","original":"12/10/2010","granularity":"day","time":"2010/12/10 00:00:00 -0500"},"geo_score":1.0,"country":"United States","zip code":"90036","id":"a624nmyhs2kd","geo_precision":"zip","state":"CA"},"type":"Feature","geometry":{"type":"Point","coordinates":[-118.298662,33.786594]}},{"properties":{"city":"Bristol","date":{"end_time":"2011/02/03 00:00:00 -0500","original":"2/2/2011","granularity":"day","time":"2011/02/02 00:00:00 -0500"},"geo_score":0.619,"country":"England","zip code":null,"id":"a624nmqcg8b9","geo_precision":"city","state":null},"type":"Feature","geometry":{"type":"Point","coordinates":[-89.011192,39.896982]}},{"properties":{"city":"Denver","date":{"end_time":"2011/02/06 00:00:00 -0500","original":"2/5/2011","granularity":"day","time":"2011/02/05 00:00:00 -0500"},"geo_score":0.857,"country":"United States","zip code":null,"id":"a624nmv57st9","geo_precision":"city","state":"CO"},"type":"Feature","geometry":{"type":"Point","coordinates":[-104.984703,39.739154]}},{"properties":{"city":"Austin","date":{"end_time":"2011/03/19 00:00:00 -0400","original":"3/18/2011","granularity":"day","time":"2011/03/18 00:00:00 -0400"},"geo_score":0.857,"country":"United States","zip code":null,"id":"a624nmnaxfo0","geo_precision":"city","state":"TX"},"type":"Feature","geometry":{"type":"Point","coordinates":[-97.743061,30.267153]}},{"properties":{"city":"Austin","date":{"end_time":"2011/03/20 00:00:00 -0400","original":"3/19/2011","granularity":"day","time":"2011/03/19 00:00:00 -0400"},"geo_score":0.857,"country":"United States","zip code":null,"id":"a624nmuum9cj","geo_precision":"city","state":"TX"},"type":"Feature","geometry":{"type":"Point","coordinates":[-97.743061,30.267153]}},{"properties":{"city":"Chicago","date":{"end_time":"2011/04/03 00:00:00 -0400","original":"4/2/2011","granularity":"day","time":"2011/04/02 00:00:00 -0400"},"geo_score":0.857,"country":"United States","zip code":null,"id":"a624nmvo1dds","geo_precision":"city","state":"IL"},"type":"Feature","geometry":{"type":"Point","coordinates":[-87.650052,41.850033]}},{"properties":{"city":"Ann Arbor","date":{"end_time":"2011/04/06 00:00:00 -0400","original":"4/5/2011","granularity":"day","time":"2011/04/05 00:00:00 -0400"},"geo_score":0.75,"country":"United States","zip code":null,"id":"a624nmyt6z8m","geo_precision":"city","state":"MI"},"type":"Feature","geometry":{"type":"Point","coordinates":[-86.176715,42.96502]}},{"properties":{"city":"Toronto","date":{"end_time":"2011/04/07 00:00:00 -0400","original":"4/6/2011","granularity":"day","time":"2011/04/06 00:00:00 -0400"},"geo_score":0.633,"country":"Canada","zip code":null,"id":"a624nmql7h8u","geo_precision":"city","state":null},"type":"Feature","geometry":{"type":"Point","coordinates":[-86.768002,33.594533]}},{"properties":{"city":"New York","date":{"end_time":"2011/04/09 00:00:00 -0400","original":"4/8/2011","granularity":"day","time":"2011/04/08 00:00:00 -0400"},"geo_score":0.857,"country":"United States","zip code":null,"id":"a624nmnsk8h8","geo_precision":"city","state":"NY"},"type":"Feature","geometry":{"type":"Point","coordinates":[-74.005973,40.714269]}},{"properties":{"city":"New York","date":{"end_time":"2011/04/10 00:00:00 -0400","original":"4/9/2011","granularity":"day","time":"2011/04/09 00:00:00 -0400"},"geo_score":0.857,"country":"United States","zip code":null,"id":"a624nmxq0a2e","geo_precision":"city","state":"NY"},"type":"Feature","geometry":{"type":"Point","coordinates":[-74.005973,40.714269]}},{"properties":{"city":"Northampton","date":{"end_time":"2011/04/12 00:00:00 -0400","original":"4/11/2011","granularity":"day","time":"2011/04/11 00:00:00 -0400"},"geo_score":0.857,"country":"United States","zip code":null,"id":"a624nmqgmfnh","geo_precision":"city","state":"MA"},"type":"Feature","geometry":{"type":"Point","coordinates":[-72.76927,42.415154]}},{"properties":{"city":"Montreal","date":{"end_time":"2011/04/13 00:00:00 -0400","original":"4/12/2011","granularity":"day","time":"2011/04/12 00:00:00 -0400"},"geo_score":0.714,"country":"Canada","zip code":null,"id":"a624nmol1coe","geo_precision":"city","state":null},"type":"Feature","geometry":{"type":"Point","coordinates":[-94.348548,35.117596]}},{"properties":{"city":"South Burlington","date":{"end_time":"2011/04/14 00:00:00 -0400","original":"4/13/2011","granularity":"day","time":"2011/04/13 00:00:00 -0400"},"geo_score":0.743,"country":"United States","zip code":null,"id":"a624nmqukkqy","geo_precision":"city","state":"VT"},"type":"Feature","geometry":{"type":"Point","coordinates":[-72.575941,44.21006]}},{"properties":{"city":"Boston","date":{"end_time":"2011/04/16 00:00:00 -0400","original":"4/15/2011","granularity":"day","time":"2011/04/15 00:00:00 -0400"},"geo_score":0.857,"country":"United States","zip code":null,"id":"a624nmqj3j8x","geo_precision":"city","state":"MA"},"type":"Feature","geometry":{"type":"Point","coordinates":[-71.059773,42.358431]}},{"properties":{"city":"Philadelphia","date":{"end_time":"2011/04/17 00:00:00 -0400","original":"4/16/2011","granularity":"day","time":"2011/04/16 00:00:00 -0400"},"geo_score":0.857,"country":"United States","zip code":null,"id":"a624nmrczxgv","geo_precision":"city","state":"PA"},"type":"Feature","geometry":{"type":"Point","coordinates":[-75.163789,39.952335]}},{"properties":{"city":"Vienna","date":{"end_time":"2011/04/18 00:00:00 -0400","original":"4/17/2011","granularity":"day","time":"2011/04/17 00:00:00 -0400"},"geo_score":0.738,"country":"United States","zip code":null,"id":"a624nmthbjhf","geo_precision":"city","state":"VA"},"type":"Feature","geometry":{"type":"Point","coordinates":[-78.397506,38.718729]}},{"properties":{"city":"Ashland","date":{"end_time":"2011/04/21 00:00:00 -0400","original":"4/20/2011","granularity":"day","time":"2011/04/20 00:00:00 -0400"},"geo_score":0.857,"country":"United States","zip code":null,"id":"a624nmpqjb9m","geo_precision":"city","state":"VA"},"type":"Feature","geometry":{"type":"Point","coordinates":[-77.480128,37.754912]}},{"properties":{"city":"Carrboro","date":{"end_time":"2011/04/23 00:00:00 -0400","original":"4/22/2011","granularity":"day","time":"2011/04/22 00:00:00 -0400"},"geo_score":0.857,"country":"United States","zip code":null,"id":"a624nms0juho","geo_precision":"city","state":"NC"},"type":"Feature","geometry":{"type":"Point","coordinates":[-79.090077,35.905477]}},{"properties":{"city":"Atlanta","date":{"end_time":"2011/04/24 00:00:00 -0400","original":"4/23/2011","granularity":"day","time":"2011/04/23 00:00:00 -0400"},"geo_score":0.857,"country":"United States","zip code":null,"id":"a624nmul3vmg","geo_precision":"city","state":"GA"},"type":"Feature","geometry":{"type":"Point","coordinates":[-84.387982,33.748995]}},{"properties":{"city":"New Orleans","date":{"end_time":"2011/04/26 00:00:00 -0400","original":"4/25/2011","granularity":"day","time":"2011/04/25 00:00:00 -0400"},"geo_score":0.857,"country":"United States","zip code":null,"id":"a624nn0o4lib","geo_precision":"city","state":"LA"},"type":"Feature","geometry":{"type":"Point","coordinates":[-89.930956,30.068812]}},{"properties":{"city":"Houston","date":{"end_time":"2011/04/29 00:00:00 -0400","original":"4/28/2011","granularity":"day","time":"2011/04/28 00:00:00 -0400"},"geo_score":0.816,"country":"United States","zip code":null,"id":"a624nmona9wm","geo_precision":"city","state":"TX"},"type":"Feature","geometry":{"type":"Point","coordinates":[-96.919704,29.845783]}},{"properties":{"city":"Austin","date":{"end_time":"2011/04/30 00:00:00 -0400","original":"4/29/2011","granularity":"day","time":"2011/04/29 00:00:00 -0400"},"geo_score":0.857,"country":"United States","zip code":null,"id":"a624nmtrg1o8","geo_precision":"city","state":"TX"},"type":"Feature","geometry":{"type":"Point","coordinates":[-97.743061,30.267153]}},{"properties":{"city":"Dallas","date":{"end_time":"2011/05/01 00:00:00 -0400","original":"4/30/2011","granularity":"day","time":"2011/04/30 00:00:00 -0400"},"geo_score":0.857,"country":"United States","zip code":null,"id":"a624nmz03m57","geo_precision":"city","state":"TX"},"type":"Feature","geometry":{"type":"Point","coordinates":[-96.806667,32.783056]}},{"properties":{"city":"San Francisco","date":{"end_time":"2011/05/11 00:00:00 -0400","original":"5/10/2011","granularity":"day","time":"2011/05/10 00:00:00 -0400"},"geo_score":0.857,"country":"United States","zip code":null,"id":"a624nmyiwuo7","geo_precision":"city","state":"CA"},"type":"Feature","geometry":{"type":"Point","coordinates":[-122.419416,37.77493]}},{"properties":{"city":"San Francisco","date":{"end_time":"2011/05/12 00:00:00 -0400","original":"5/11/2011","granularity":"day","time":"2011/05/11 00:00:00 -0400"},"geo_score":0.857,"country":"United States","zip code":null,"id":"a624nmq4ufy2","geo_precision":"city","state":"CA"},"type":"Feature","geometry":{"type":"Point","coordinates":[-122.419416,37.77493]}},{"properties":{"city":"Eugene","date":{"end_time":"2011/05/13 00:00:00 -0400","original":"5/12/2011","granularity":"day","time":"2011/05/12 00:00:00 -0400"},"geo_score":0.857,"country":"United States","zip code":null,"id":"a624nmt345g3","geo_precision":"city","state":"OR"},"type":"Feature","geometry":{"type":"Point","coordinates":[-123.086754,44.052069]}},{"properties":{"city":"Portland","date":{"end_time":"2011/05/14 00:00:00 -0400","original":"5/13/2011","granularity":"day","time":"2011/05/13 00:00:00 -0400"},"geo_score":1.0,"country":"United States","zip code":"97202","id":"a624nmq2e9k4","geo_precision":"zip","state":"OR"},"type":"Feature","geometry":{"type":"Point","coordinates":[-122.637331,45.48169]}},{"properties":{"city":"Seattle","date":{"end_time":"2011/05/15 00:00:00 -0400","original":"5/14/2011","granularity":"day","time":"2011/05/14 00:00:00 -0400"},"geo_score":0.889,"country":"United States","zip code":"98109","id":"a624nmnj8oy3","geo_precision":"zip","state":"WA"},"type":"Feature","geometry":{"type":"Point","coordinates":[-122.366239,47.635931]}},{"properties":{"city":"Vancouver","date":{"end_time":"2011/05/16 00:00:00 -0400","original":"5/15/2011","granularity":"day","time":"2011/05/15 00:00:00 -0400"},"geo_score":0.714,"country":"Canada","zip code":null,"id":"a624nmwdocb0","geo_precision":"city","state":null},"type":"Feature","geometry":{"type":"Point","coordinates":[-122.661486,45.638728]}},{"properties":{"city":"San Diego","date":{"end_time":"2011/05/20 00:00:00 -0400","original":"5/19/2011","granularity":"day","time":"2011/05/19 00:00:00 -0400"},"geo_score":0.857,"country":"United States","zip code":null,"id":"a624nmt7kkzj","geo_precision":"city","state":"CA"},"type":"Feature","geometry":{"type":"Point","coordinates":[-117.157255,32.715329]}},{"properties":{"city":"Los Angeles","date":{"end_time":"2011/05/21 00:00:00 -0400","original":"5/20/2011","granularity":"day","time":"2011/05/20 00:00:00 -0400"},"geo_score":0.857,"country":"United States","zip code":null,"id":"a624nmxxm4sw","geo_precision":"city","state":"CA"},"type":"Feature","geometry":{"type":"Point","coordinates":[-118.243685,34.052234]}},{"properties":{"city":"Lake Forest","date":{"end_time":"2011/07/25 00:00:00 -0400","original":"7/24/2011","granularity":"day","time":"2011/07/24 00:00:00 -0400"},"geo_score":0.771,"country":"United States","zip code":null,"id":"a624nmzo01is","geo_precision":"city","state":"VA"},"type":"Feature","geometry":{"type":"Point","coordinates":[-76.469675,37.974297]}},{"properties":{"city":"New York","date":{"end_time":"2011/07/27 00:00:00 -0400","original":"7/26/2011","granularity":"day","time":"2011/07/26 00:00:00 -0400"},"geo_score":0.857,"country":"United States","zip code":null,"id":"a624nn0ljorn","geo_precision":"city","state":"NY"},"type":"Feature","geometry":{"type":"Point","coordinates":[-74.005973,40.714269]}},{"properties":{"city":"Los Angeles","date":{"end_time":"2011/07/29 00:00:00 -0400","original":"7/28/2011","granularity":"day","time":"2011/07/28 00:00:00 -0400"},"geo_score":0.857,"country":"United States","zip code":null,"id":"a624nmxh7pz0","geo_precision":"city","state":"CA"},"type":"Feature","geometry":{"type":"Point","coordinates":[-118.243685,34.052234]}},{"properties":{"city":"Hua Hin","date":{"end_time":"2011/08/28 00:00:00 -0400","original":"8/27/2011","granularity":"day","time":"2011/08/27 00:00:00 -0400"},"geo_score":0.619,"country":"Thailand","zip code":null,"id":"a624nmqpwd6a","geo_precision":"city","state":null},"type":"Feature","geometry":{"type":"Point","coordinates":[-156.006944,20.6975]}},{"properties":{"city":"Dublin","date":{"end_time":"2011/10/02 00:00:00 -0400","original":"10/1/2011","granularity":"day","time":"2011/10/01 00:00:00 -0400"},"geo_score":0.714,"country":"Ireland","zip code":null,"id":"a624nmmfveup","geo_precision":"city","state":null},"type":"Feature","geometry":{"type":"Point","coordinates":[-86.159128,32.032094]}},{"properties":{"city":"London","date":{"end_time":"2011/10/05 00:00:00 -0400","original":"10/4/2011","granularity":"day","time":"2011/10/04 00:00:00 -0400"},"geo_score":0.714,"country":"England","zip code":null,"id":"a624nmvviigm","geo_precision":"city","state":null},"type":"Feature","geometry":{"type":"Point","coordinates":[-86.050237,32.273198]}},{"properties":{"city":"London","date":{"end_time":"2011/10/06 00:00:00 -0400","original":"10/5/2011","granularity":"day","time":"2011/10/05 00:00:00 -0400"},"geo_score":0.714,"country":"England","zip code":null,"id":"a624nmvdsqjk","geo_precision":"city","state":null},"type":"Feature","geometry":{"type":"Point","coordinates":[-86.050237,32.273198]}},{"properties":{"city":"Paris","date":{"end_time":"2011/10/07 00:00:00 -0400","original":"10/6/2011","granularity":"day","time":"2011/10/06 00:00:00 -0400"},"geo_score":0.629,"country":"France","zip code":null,"id":"a624nmyup9ko","geo_precision":"city","state":null},"type":"Feature","geometry":{"type":"Point","coordinates":[-92.933507,34.46259]}},{"properties":{"city":"Amsterdam","date":{"end_time":"2011/10/09 00:00:00 -0400","original":"10/8/2011","granularity":"day","time":"2011/10/08 00:00:00 -0400"},"geo_score":0.714,"country":"Holland","zip code":null,"id":"a624nmsz3bqv","geo_precision":"city","state":null},"type":"Feature","geometry":{"type":"Point","coordinates":[-84.435742,30.727416]}},{"properties":{"city":"Zurich","date":{"end_time":"2011/10/12 00:00:00 -0400","original":"10/11/2011","granularity":"day","time":"2011/10/11 00:00:00 -0400"},"geo_score":0.714,"country":"Switzerland","zip code":null,"id":"a624nmze7tgq","geo_precision":"city","state":null},"type":"Feature","geometry":{"type":"Point","coordinates":[-99.438161,39.234454]}},{"properties":{"city":"Colgne","date":{"end_time":"2011/10/13 00:00:00 -0400","original":"10/12/2011","granularity":"day","time":"2011/10/12 00:00:00 -0400"},"geo_score":0.667,"country":"Germany","zip code":null,"id":"a624nmozcxq0","geo_precision":"city","state":null},"type":"Feature","geometry":{"type":"Point","coordinates":[-86.901516,33.94131]}},{"properties":{"city":"Berlin","date":{"end_time":"2011/10/15 00:00:00 -0400","original":"10/14/2011","granularity":"day","time":"2011/10/14 00:00:00 -0400"},"geo_score":0.714,"country":"Germany","zip code":null,"id":"a624nmzdnjqg","geo_precision":"city","state":null},"type":"Feature","geometry":{"type":"Point","coordinates":[-86.74222,34.181486]}},{"properties":{"city":"Copenhagen","date":{"end_time":"2011/10/16 00:00:00 -0400","original":"10/15/2011","granularity":"day","time":"2011/10/15 00:00:00 -0400"},"geo_score":0.714,"country":"Denmark","zip code":null,"id":"a624nmvjbsz5","geo_precision":"city","state":null},"type":"Feature","geometry":{"type":"Point","coordinates":[-92.039023,32.02377]}},{"properties":{"city":"Brussels","date":{"end_time":"2011/10/19 00:00:00 -0400","original":"10/18/2011","granularity":"day","time":"2011/10/18 00:00:00 -0400"},"geo_score":0.619,"country":"Belgium","zip code":null,"id":"a624nmn038ho","geo_precision":"city","state":null},"type":"Feature","geometry":{"type":"Point","coordinates":[-91.070378,29.959924]}},{"properties":{"city":"London","date":{"end_time":"2011/10/22 00:00:00 -0400","original":"10/21/2011","granularity":"day","time":"2011/10/21 00:00:00 -0400"},"geo_score":0.714,"country":"England","zip code":null,"id":"a624nmogouz9","geo_precision":"city","state":null},"type":"Feature","geometry":{"type":"Point","coordinates":[-86.050237,32.273198]}},{"properties":{"city":"Los Angeles","date":{"end_time":"2011/11/03 00:00:00 -0400","original":"11/2/2011","granularity":"day","time":"2011/11/02 00:00:00 -0400"},"geo_score":1.0,"country":"United States","zip code":"90048","id":"a624nmq8uyf0","geo_precision":"zip","state":"CA"},"type":"Feature","geometry":{"type":"Point","coordinates":[-118.298662,33.786594]}},{"properties":{"city":"Dublin","date":{"end_time":"2012/02/02 00:00:00 -0500","original":"2/1/2012","granularity":"day","time":"2012/02/01 00:00:00 -0500"},"geo_score":0.714,"country":"Ireland","zip code":null,"id":"a624nn16dg27","geo_precision":"city","state":null},"type":"Feature","geometry":{"type":"Point","coordinates":[-86.159128,32.032094]}},{"properties":{"city":"Glasgow","date":{"end_time":"2012/02/03 00:00:00 -0500","original":"2/2/2012","granularity":"day","time":"2012/02/02 00:00:00 -0500"},"geo_score":0.714,"country":"Scotland","zip code":null,"id":"a624nmu77ric","geo_precision":"city","state":null},"type":"Feature","geometry":{"type":"Point","coordinates":[-75.745212,39.604834]}},{"properties":{"city":"Manchester","date":{"end_time":"2012/02/04 00:00:00 -0500","original":"2/3/2012","granularity":"day","time":"2012/02/03 00:00:00 -0500"},"geo_score":0.714,"country":"England","zip code":null,"id":"a624nmz50gjx","geo_precision":"city","state":null},"type":"Feature","geometry":{"type":"Point","coordinates":[-71.454789,42.99564]}},{"properties":{"city":"Norwich","date":{"end_time":"2012/02/06 00:00:00 -0500","original":"2/5/2012","granularity":"day","time":"2012/02/05 00:00:00 -0500"},"geo_score":0.714,"country":"England","zip code":null,"id":"a624nmx4c4qy","geo_precision":"city","state":null},"type":"Feature","geometry":{"type":"Point","coordinates":[-95.256651,40.742495]}},{"properties":{"city":"Birmingham","date":{"end_time":"2012/02/07 00:00:00 -0500","original":"2/6/2012","granularity":"day","time":"2012/02/06 00:00:00 -0500"},"geo_score":0.714,"country":"England","zip code":null,"id":"a624nmsmot0x","geo_precision":"city","state":null},"type":"Feature","geometry":{"type":"Point","coordinates":[-86.80249,33.520661]}},{"properties":{"city":"Bristol","date":{"end_time":"2012/02/08 00:00:00 -0500","original":"2/7/2012","granularity":"day","time":"2012/02/07 00:00:00 -0500"},"geo_score":0.619,"country":"England","zip code":null,"id":"a624nmsqq9an","geo_precision":"city","state":null},"type":"Feature","geometry":{"type":"Point","coordinates":[-89.011192,39.896982]}},{"properties":{"city":"London","date":{"end_time":"2012/02/10 00:00:00 -0500","original":"2/9/2012","granularity":"day","time":"2012/02/09 00:00:00 -0500"},"geo_score":0.714,"country":"England","zip code":null,"id":"a624nmpfyf3a","geo_precision":"city","state":null},"type":"Feature","geometry":{"type":"Point","coordinates":[-86.050237,32.273198]}},{"properties":{"city":"Amsterdam","date":{"end_time":"2012/02/12 00:00:00 -0500","original":"2/11/2012","granularity":"day","time":"2012/02/11 00:00:00 -0500"},"geo_score":0.714,"country":"Holland","zip code":null,"id":"a624nmvffudx","geo_precision":"city","state":null},"type":"Feature","geometry":{"type":"Point","coordinates":[-84.435742,30.727416]}},{"properties":{"city":"Brussels","date":{"end_time":"2012/02/14 00:00:00 -0500","original":"2/13/2012","granularity":"day","time":"2012/02/13 00:00:00 -0500"},"geo_score":0.619,"country":"Beligum","zip code":null,"id":"a624nmxsfpaq","geo_precision":"city","state":null},"type":"Feature","geometry":{"type":"Point","coordinates":[-91.070378,29.959924]}},{"properties":{"city":"Cologne","date":{"end_time":"2012/02/15 00:00:00 -0500","original":"2/14/2012","granularity":"day","time":"2012/02/14 00:00:00 -0500"},"geo_score":0.673,"country":"Germany","zip code":null,"id":"a624nmqxj13x","geo_precision":"city","state":null},"type":"Feature","geometry":{"type":"Point","coordinates":[-86.901516,33.94131]}},{"properties":{"city":"Paris","date":{"end_time":"2012/02/16 00:00:00 -0500","original":"2/15/2012","granularity":"day","time":"2012/02/15 00:00:00 -0500"},"geo_score":0.629,"country":"France","zip code":null,"id":"a624nmq2ib63","geo_precision":"city","state":null},"type":"Feature","geometry":{"type":"Point","coordinates":[-92.933507,34.46259]}},{"properties":{"city":"Lausanne","date":{"end_time":"2012/02/18 00:00:00 -0500","original":"2/17/2012","granularity":"day","time":"2012/02/17 00:00:00 -0500"},"geo_score":0.643,"country":"Switzerland","zip code":null,"id":"a624nmvf54qg","geo_precision":"city","state":null},"type":"Feature","geometry":{"type":"Point","coordinates":[-105.627501,39.765821]}},{"properties":{"city":"Munich","date":{"end_time":"2012/02/29 00:00:00 -0500","original":"2/28/2012","granularity":"day","time":"2012/02/28 00:00:00 -0500"},"geo_score":0.667,"country":"Germany","zip code":null,"id":"a624nmtayjvn","geo_precision":"city","state":null},"type":"Feature","geometry":{"type":"Point","coordinates":[-78.324458,39.973417]}},{"properties":{"city":"Berlin","date":{"end_time":"2012/02/21 00:00:00 -0500","original":"2/20/2012","granularity":"day","time":"2012/02/20 00:00:00 -0500"},"geo_score":0.714,"country":"Germany","zip code":null,"id":"a624nmufmz7a","geo_precision":"city","state":null},"type":"Feature","geometry":{"type":"Point","coordinates":[-86.74222,34.181486]}},{"properties":{"city":"Hamburg","date":{"end_time":"2012/02/22 00:00:00 -0500","original":"2/21/2012","granularity":"day","time":"2012/02/21 00:00:00 -0500"},"geo_score":0.714,"country":"Germany","zip code":null,"id":"a624nmzto571","geo_precision":"city","state":null},"type":"Feature","geometry":{"type":"Point","coordinates":[-87.286386,32.527911]}},{"properties":{"city":"Copenhagen","date":{"end_time":"2012/02/23 00:00:00 -0500","original":"2/22/2012","granularity":"day","time":"2012/02/22 00:00:00 -0500"},"geo_score":0.714,"country":"Demark","zip code":null,"id":"a624nmzuz3ie","geo_precision":"city","state":null},"type":"Feature","geometry":{"type":"Point","coordinates":[-92.039023,32.02377]}},{"properties":{"city":"Barcelona","date":{"end_time":"2012/02/25 00:00:00 -0500","original":"2/24/2012","granularity":"day","time":"2012/02/24 00:00:00 -0500"},"geo_score":0.651,"country":"Spain","zip code":null,"id":"a624nmujd7xw","geo_precision":"city","state":null},"type":"Feature","geometry":{"type":"Point","coordinates":[-123.900031,40.107922]}},{"properties":{"city":"Madrid","date":{"end_time":"2012/02/26 00:00:00 -0500","original":"2/25/2012","granularity":"day","time":"2012/02/25 00:00:00 -0500"},"geo_score":0.714,"country":"Spain","zip code":null,"id":"a624nmmj1pjy","geo_precision":"city","state":null},"type":"Feature","geometry":{"type":"Point","coordinates":[-106.642257,37.126953]}},{"properties":{"city":"Hong Kong","date":{"end_time":"2012/03/12 00:00:00 -0400","original":"3/11/2012","granularity":"day","time":"2012/03/11 00:00:00 -0500"},"geo_score":0.643,"country":"China","zip code":null,"id":"a624nn1brolj","geo_precision":"city","state":null},"type":"Feature","geometry":{"type":"Point","coordinates":[-76.229666,38.344567]}},{"properties":{"city":"Petaling Jaya","date":{"end_time":"2012/03/14 00:00:00 -0400","original":"3/13/2012","granularity":"day","time":"2012/03/13 00:00:00 -0400"},"geo_score":0.595,"country":"Malaysia","zip code":null,"id":"a624nmyp4nao","geo_precision":"city","state":null},"type":"Feature","geometry":{"type":"Point","coordinates":[-89.701192,36.482562]}},{"properties":{"city":"Manila","date":{"end_time":"2012/03/16 00:00:00 -0400","original":"3/15/2012","granularity":"day","time":"2012/03/15 00:00:00 -0400"},"geo_score":0.653,"country":"Philippines","zip code":null,"id":"a624nmw3d241","geo_precision":"city","state":null},"type":"Feature","geometry":{"type":"Point","coordinates":[-87.63388,31.279615]}},{"properties":{"city":"Jakarta","date":{"end_time":"2012/03/19 00:00:00 -0400","original":"3/18/2012","granularity":"day","time":"2012/03/18 00:00:00 -0400"},"geo_score":0.0,"country":"Indonesia","zip code":null,"id":"a624nmtskzgb","geo_precision":"unmatched","state":null},"type":"Feature","geometry":null},{"properties":{"city":"Singapore","date":{"end_time":"2012/03/20 00:00:00 -0400","original":"3/19/2012","granularity":"day","time":"2012/03/19 00:00:00 -0400"},"geo_score":0.0,"country":"Singapore","zip code":null,"id":"a624nmpuyyrk","geo_precision":"unmatched","state":null},"type":"Feature","geometry":null},{"properties":{"city":"Sydney","date":{"end_time":"2012/03/24 00:00:00 -0400","original":"3/23/2012","granularity":"day","time":"2012/03/23 00:00:00 -0400"},"geo_score":0.69,"country":"Australia","zip code":null,"id":"a624nmwhr21j","geo_precision":"city","state":null},"type":"Feature","geometry":{"type":"Point","coordinates":[-88.234451,31.067957]}},{"properties":{"city":"Sydney","date":{"end_time":"2012/03/25 00:00:00 -0400","original":"3/24/2012","granularity":"day","time":"2012/03/24 00:00:00 -0400"},"geo_score":0.69,"country":"Australia","zip code":null,"id":"a624nmwu2x61","geo_precision":"city","state":null},"type":"Feature","geometry":{"type":"Point","coordinates":[-88.234451,31.067957]}},{"properties":{"city":"Sydney","date":{"end_time":"2012/03/26 00:00:00 -0400","original":"3/25/2012","granularity":"day","time":"2012/03/25 00:00:00 -0400"},"geo_score":0.69,"country":"Australia","zip code":null,"id":"a624nn237qnj","geo_precision":"city","state":null},"type":"Feature","geometry":{"type":"Point","coordinates":[-88.234451,31.067957]}},{"properties":{"city":"Brisbane","date":{"end_time":"2012/03/29 00:00:00 -0400","original":"3/28/2012","granularity":"day","time":"2012/03/28 00:00:00 -0400"},"geo_score":0.679,"country":"Australia","zip code":null,"id":"a624nmt4fwdv","geo_precision":"city","state":null},"type":"Feature","geometry":{"type":"Point","coordinates":[-81.306221,31.917155]}},{"properties":{"city":"Melbourne","date":{"end_time":"2012/03/30 00:00:00 -0400","original":"3/29/2012","granularity":"day","time":"2012/03/29 00:00:00 -0400"},"geo_score":0.714,"country":"Australia","zip code":null,"id":"a624nmyb8h8d","geo_precision":"city","state":null},"type":"Feature","geometry":{"type":"Point","coordinates":[-80.608109,28.083627]}},{"properties":{"city":"Melbourne","date":{"end_time":"2012/03/31 00:00:00 -0400","original":"3/30/2012","granularity":"day","time":"2012/03/30 00:00:00 -0400"},"geo_score":0.714,"country":"Australia","zip code":null,"id":"a624nmx1hbh9","geo_precision":"city","state":null},"type":"Feature","geometry":{"type":"Point","coordinates":[-80.608109,28.083627]}},{"properties":{"city":"Los Angeles","date":{"end_time":"2012/04/08 00:00:00 -0400","original":"4/7/2012","granularity":"day","time":"2012/04/07 00:00:00 -0400"},"geo_score":0.857,"country":"United States","zip code":null,"id":"a624nmx9x4yf","geo_precision":"city","state":"CA"},"type":"Feature","geometry":{"type":"Point","coordinates":[-118.243685,34.052234]}},{"properties":{"city":"La Jolla","date":{"end_time":"2012/04/10 00:00:00 -0400","original":"4/9/2012","granularity":"day","time":"2012/04/09 00:00:00 -0400"},"geo_score":1.0,"country":"United States","zip code":"92093","id":"a624nmorpl5r","geo_precision":"zip","state":"CA"},"type":"Feature","geometry":{"type":"Point","coordinates":[-116.846046,33.016928]}},{"properties":{"city":"Scottsdale","date":{"end_time":"2012/04/10 00:00:00 -0400","original":"4/9/2012","granularity":"day","time":"2012/04/09 00:00:00 -0400"},"geo_score":1.0,"country":"United States","zip code":"85251","id":"a624nmoozph4","geo_precision":"zip","state":"AZ"},"type":"Feature","geometry":{"type":"Point","coordinates":[-111.792658,33.420061]}},{"properties":{"city":"Austin","date":{"end_time":"2012/04/11 00:00:00 -0400","original":"4/10/2012","granularity":"day","time":"2012/04/10 00:00:00 -0400"},"geo_score":1.0,"country":"United States","zip code":"78701","id":"a624nmt7dg9g","geo_precision":"zip","state":"TX"},"type":"Feature","geometry":{"type":"Point","coordinates":[-97.741382,30.268335]}},{"properties":{"city":"Houston","date":{"end_time":"2012/04/15 00:00:00 -0400","original":"4/14/2012","granularity":"day","time":"2012/04/14 00:00:00 -0400"},"geo_score":0.816,"country":"United States","zip code":null,"id":"a624nmnjgyei","geo_precision":"city","state":"TX"},"type":"Feature","geometry":{"type":"Point","coordinates":[-96.919704,29.845783]}},{"properties":{"city":"Dallas","date":{"end_time":"2012/04/16 00:00:00 -0400","original":"4/15/2012","granularity":"day","time":"2012/04/15 00:00:00 -0400"},"geo_score":1.0,"country":"United States","zip code":"75208","id":"a624nn10zeol","geo_precision":"zip","state":"TX"},"type":"Feature","geometry":{"type":"Point","coordinates":[-96.82303,32.736344]}},{"properties":{"city":"Atlanta","date":{"end_time":"2012/04/18 00:00:00 -0400","original":"4/17/2012","granularity":"day","time":"2012/04/17 00:00:00 -0400"},"geo_score":1.0,"country":"United States","zip code":"30307","id":"a624nmvl3xse","geo_precision":"zip","state":"GA"},"type":"Feature","geometry":{"type":"Point","coordinates":[-84.357375,33.762855]}},{"properties":{"city":"Carrboro","date":{"end_time":"2012/04/19 00:00:00 -0400","original":"4/18/2012","granularity":"day","time":"2012/04/18 00:00:00 -0400"},"geo_score":0.857,"country":"United States","zip code":null,"id":"a624nmy6luxq","geo_precision":"city","state":"NC"},"type":"Feature","geometry":{"type":"Point","coordinates":[-79.090077,35.905477]}},{"properties":{"city":"Baltimore","date":{"end_time":"2012/04/21 00:00:00 -0400","original":"4/20/2012","granularity":"day","time":"2012/04/20 00:00:00 -0400"},"geo_score":1.0,"country":"United States","zip code":"21202","id":"a624nmyvvsgi","geo_precision":"zip","state":"MD"},"type":"Feature","geometry":{"type":"Point","coordinates":[-76.608438,39.295907]}},{"properties":{"city":"Philadelphia","date":{"end_time":"2012/04/22 00:00:00 -0400","original":"4/21/2012","granularity":"day","time":"2012/04/21 00:00:00 -0400"},"geo_score":1.0,"country":"United States","zip code":"19147","id":"a624nn2bni91","geo_precision":"zip","state":"PA"},"type":"Feature","geometry":{"type":"Point","coordinates":[-75.155973,39.936212]}}],"is_temporal":true,"author":{"url":"","metadata":null,"contact_name":null,"contact_address":null,"source":null,"contact_phone":null},"source":"","pagination":{"sort":null,"start":0,"total":129,"limit":1000000},"state":"complete","tags":"","published":"2014-08-15T02:57:18-04:00","id":238029}