{"type":"FeatureCollection","data_type":"Dataset","url_type":null,"permissions":[{"permissions":{"download":true,"view":true},"group_id":"everyone"}],"classification":null,"title":"Kinagrannis_shows","count":119,"stream_id":238034,"contributor":{"url":"http://geocommons.com/users/42461","name":"ahurd"},"data_attributes":null,"calculation_params":null,"icon_link":null,"link":"http://geocommons.com/overlays/238034.json","extent":[-123.119,-37.814,153.028,55.8652],"geometry_types":["point"],"unique_name":null,"name":"Kinagrannis_shows","feature_count":119,"description":"","next_feature":null,"is_raster":false,"short_classification":"Y","stats":{"date":{"max":"2012/03/30 00:00:00 -0400","mean":"2011/04/26 00:14:37 -0400","variance":392234121242786.0,"stdev":19804901.4449147,"min":"2010/01/13 00:00:00 -0500","median":"2011/04/20 00:00:00 -0400"}},"features":[{"properties":{"city":"West Hollywood","date":{"end_time":"2010/01/14 00:00:00 -0500","original":"1/13/2010","granularity":"day","time":"2010/01/13 00:00:00 -0500"},"geo_score":0.956,"country":"United States","id":"a7t45w5k8uji","geo_precision":"zip","state":"CA"},"type":"Feature","geometry":{"type":"Point","coordinates":[-118.3267434,34.0983425]}},{"properties":{"city":"Santa Monica","date":{"end_time":"2010/02/28 00:00:00 -0500","original":"2/27/2010","granularity":"day","time":"2010/02/27 00:00:00 -0500"},"geo_score":0.921,"country":"United States","id":"a7t45w3bddsz","geo_precision":"zip","state":"CA"},"type":"Feature","geometry":{"type":"Point","coordinates":[-89.9667395,30.4335266]}},{"properties":{"city":"San Francisco","date":{"end_time":"2010/05/25 00:00:00 -0400","original":"5/24/2010","granularity":"day","time":"2010/05/24 00:00:00 -0400"},"geo_score":1.0,"country":"United States","id":"a7t45w8epp95","geo_precision":"zip","state":"CA"},"type":"Feature","geometry":{"type":"Point","coordinates":[-122.4194155,37.7749295]}},{"properties":{"city":"Los Angeles","date":{"end_time":"2010/05/26 00:00:00 -0400","original":"5/25/2010","granularity":"day","time":"2010/05/25 00:00:00 -0400"},"geo_score":0.946,"country":"United States","id":"a7t45w4ewoxm","geo_precision":"zip","state":"CA"},"type":"Feature","geometry":{"type":"Point","coordinates":[-118.2009079,34.3666648]}},{"properties":{"city":"Decatur","date":{"end_time":"2010/06/04 00:00:00 -0400","original":"6/3/2010","granularity":"day","time":"2010/06/03 00:00:00 -0400"},"geo_score":1.0,"country":"United States","id":"a7t45wb55axc","geo_precision":"zip","state":"GA"},"type":"Feature","geometry":{"type":"Point","coordinates":[-88.9548001,39.8403147]}},{"properties":{"city":"Nashville","date":{"end_time":"2010/06/05 00:00:00 -0400","original":"6/4/2010","granularity":"day","time":"2010/06/04 00:00:00 -0400"},"geo_score":1.0,"country":"United States","id":"a7t45w6d79zy","geo_precision":"zip","state":"TN"},"type":"Feature","geometry":{"type":"Point","coordinates":[-86.7844432,36.1658899]}},{"properties":{"city":"Lexington","date":{"end_time":"2010/06/06 00:00:00 -0400","original":"6/5/2010","granularity":"day","time":"2010/06/05 00:00:00 -0400"},"geo_score":0.938,"country":"United States","id":"a7t45w3x8nl9","geo_precision":"zip","state":"KY"},"type":"Feature","geometry":{"type":"Point","coordinates":[-84.4585485,38.0497996]}},{"properties":{"city":"Toronto","date":{"end_time":"2010/06/08 00:00:00 -0400","original":"6/7/2010","granularity":"day","time":"2010/06/07 00:00:00 -0400"},"geo_score":1.0,"country":"Canada","id":"a7t45vzbi7yf","geo_precision":"zip","state":null},"type":"Feature","geometry":{"type":"Point","coordinates":[-79.416304194,43.700113788]}},{"properties":{"city":"Ann Arbor","date":{"end_time":"2010/06/10 00:00:00 -0400","original":"6/9/2010","granularity":"day","time":"2010/06/09 00:00:00 -0400"},"geo_score":1.0,"country":"United States","id":"a7t45wb2qrjl","geo_precision":"zip","state":"MI"},"type":"Feature","geometry":{"type":"Point","coordinates":[-83.7408828735352,42.277562797398]}},{"properties":{"city":"Chicago","date":{"end_time":"2010/06/11 00:00:00 -0400","original":"6/10/2010","granularity":"day","time":"2010/06/10 00:00:00 -0400"},"geo_score":1.0,"country":"United States","id":"a7t45w0mee61","geo_precision":"zip","state":"IL"},"type":"Feature","geometry":{"type":"Point","coordinates":[-87.6500523,41.850033]}},{"properties":{"city":"Columbus","date":{"end_time":"2010/06/12 00:00:00 -0400","original":"6/11/2010","granularity":"day","time":"2010/06/11 00:00:00 -0400"},"geo_score":1.0,"country":"United States","id":"a7t45w1ebqvy","geo_precision":"zip","state":"OH"},"type":"Feature","geometry":{"type":"Point","coordinates":[-82.9987942,39.9611755]}},{"properties":{"city":"Pittsburgh","date":{"end_time":"2010/06/13 00:00:00 -0400","original":"6/12/2010","granularity":"day","time":"2010/06/12 00:00:00 -0400"},"geo_score":1.0,"country":"United States","id":"a7t45w904xtp","geo_precision":"zip","state":"PA"},"type":"Feature","geometry":{"type":"Point","coordinates":[-79.9958864,40.4406248]}},{"properties":{"city":"Vienna","date":{"end_time":"2010/06/16 00:00:00 -0400","original":"6/15/2010","granularity":"day","time":"2010/06/15 00:00:00 -0400"},"geo_score":1.0,"country":"United States","id":"a7t45w2q87iz","geo_precision":"zip","state":"VA"},"type":"Feature","geometry":{"type":"Point","coordinates":[-77.2652604,38.9012225]}},{"properties":{"city":"Philadelphia","date":{"end_time":"2010/06/17 00:00:00 -0400","original":"6/16/2010","granularity":"day","time":"2010/06/16 00:00:00 -0400"},"geo_score":0.952,"country":"United States","id":"a7t45w0mq4z7","geo_precision":"zip","state":"PA"},"type":"Feature","geometry":{"type":"Point","coordinates":[-74.9998916,40.1253879]}},{"properties":{"city":"New York","date":{"end_time":"2010/06/19 00:00:00 -0400","original":"6/18/2010","granularity":"day","time":"2010/06/18 00:00:00 -0400"},"geo_score":1.0,"country":"United States","id":"a7t45wc52o1y","geo_precision":"zip","state":"NY"},"type":"Feature","geometry":{"type":"Point","coordinates":[-75.4998978,43.0003472]}},{"properties":{"city":"Boston","date":{"end_time":"2010/06/20 00:00:00 -0400","original":"6/19/2010","granularity":"day","time":"2010/06/19 00:00:00 -0400"},"geo_score":1.0,"country":"United States","id":"a7t45wcm6588","geo_precision":"zip","state":"MA"},"type":"Feature","geometry":{"type":"Point","coordinates":[-71.0597732,42.3584308]}},{"properties":{"city":"Fall River","date":{"end_time":"2010/06/21 00:00:00 -0400","original":"6/20/2010","granularity":"day","time":"2010/06/20 00:00:00 -0400"},"geo_score":1.0,"country":"United States","id":"a7t45w4h5vb3","geo_precision":"zip","state":"MA"},"type":"Feature","geometry":{"type":"Point","coordinates":[-71.1550451,41.7014912]}},{"properties":{"city":"Maryland Heights","date":{"end_time":"2010/07/17 00:00:00 -0400","original":"7/16/2010","granularity":"day","time":"2010/07/16 00:00:00 -0400"},"geo_score":0.933,"country":"United States","id":"a7t45wbaiz6r","geo_precision":"zip","state":"MO"},"type":"Feature","geometry":{"type":"Point","coordinates":[-76.749969,39.000388]}},{"properties":{"city":"Lake Forest","date":{"end_time":"2010/07/26 00:00:00 -0400","original":"7/25/2010","granularity":"day","time":"2010/07/25 00:00:00 -0400"},"geo_score":1.0,"country":"United States","id":"a7t45vzjyic6","geo_precision":"zip","state":"CA"},"type":"Feature","geometry":{"type":"Point","coordinates":[-117.689218,33.6469661]}},{"properties":{"city":"Portland","date":{"end_time":"2010/09/18 00:00:00 -0400","original":"9/17/2010","granularity":"day","time":"2010/09/17 00:00:00 -0400"},"geo_score":1.0,"country":"United States","id":"a7t45vzroxko","geo_precision":"zip","state":"OR"},"type":"Feature","geometry":{"type":"Point","coordinates":[-122.6762071,45.5234515]}},{"properties":{"city":"Seattle","date":{"end_time":"2010/09/19 00:00:00 -0400","original":"9/18/2010","granularity":"day","time":"2010/09/18 00:00:00 -0400"},"geo_score":1.0,"country":"United States","id":"a7t45wa8fk4k","geo_precision":"zip","state":"WA"},"type":"Feature","geometry":{"type":"Point","coordinates":[-122.3320708,47.6062095]}},{"properties":{"city":"Vancouver","date":{"end_time":"2010/09/20 00:00:00 -0400","original":"9/19/2010","granularity":"day","time":"2010/09/19 00:00:00 -0400"},"geo_score":1.0,"country":"Canada","id":"a7t45w9o8a9u","geo_precision":"zip","state":null},"type":"Feature","geometry":{"type":"Point","coordinates":[-123.119340403,49.249657393]}},{"properties":{"city":"Eugene","date":{"end_time":"2010/09/22 00:00:00 -0400","original":"9/21/2010","granularity":"day","time":"2010/09/21 00:00:00 -0400"},"geo_score":1.0,"country":"United States","id":"a7t45w163161","geo_precision":"zip","state":"OR"},"type":"Feature","geometry":{"type":"Point","coordinates":[-123.0867536,44.0520691]}},{"properties":{"city":"San Francisco","date":{"end_time":"2010/09/24 00:00:00 -0400","original":"9/23/2010","granularity":"day","time":"2010/09/23 00:00:00 -0400"},"geo_score":1.0,"country":"United States","id":"a7t45w9nlo29","geo_precision":"zip","state":"CA"},"type":"Feature","geometry":{"type":"Point","coordinates":[-122.4194155,37.7749295]}},{"properties":{"city":"Santa Barbara","date":{"end_time":"2010/09/25 00:00:00 -0400","original":"9/24/2010","granularity":"day","time":"2010/09/24 00:00:00 -0400"},"geo_score":0.952,"country":"United States","id":"a7t45vy254v7","geo_precision":"zip","state":"CA"},"type":"Feature","geometry":{"type":"Point","coordinates":[-120.0343114,34.7333174]}},{"properties":{"city":"Anaheim","date":{"end_time":"2010/09/26 00:00:00 -0400","original":"9/25/2010","granularity":"day","time":"2010/09/25 00:00:00 -0400"},"geo_score":1.0,"country":"United States","id":"a7t45w7fgo5f","geo_precision":"zip","state":"CA"},"type":"Feature","geometry":{"type":"Point","coordinates":[-117.9145036,33.8352932]}},{"properties":{"city":"San Diego","date":{"end_time":"2010/09/27 00:00:00 -0400","original":"9/26/2010","granularity":"day","time":"2010/09/26 00:00:00 -0400"},"geo_score":1.0,"country":"United States","id":"a7t45w22ltsy","geo_precision":"zip","state":"CA"},"type":"Feature","geometry":{"type":"Point","coordinates":[-117.1572551,32.7153292]}},{"properties":{"city":"Scottsdale","date":{"end_time":"2010/09/28 00:00:00 -0400","original":"9/27/2010","granularity":"day","time":"2010/09/27 00:00:00 -0400"},"geo_score":1.0,"country":"United States","id":"a7t45wav36qh","geo_precision":"zip","state":"AZ"},"type":"Feature","geometry":{"type":"Point","coordinates":[-111.8990327,33.5092103]}},{"properties":{"city":"Dallas","date":{"end_time":"2010/10/02 00:00:00 -0400","original":"10/1/2010","granularity":"day","time":"2010/10/01 00:00:00 -0400"},"geo_score":1.0,"country":"United States","id":"a7t45w7oydiy","geo_precision":"zip","state":"TX"},"type":"Feature","geometry":{"type":"Point","coordinates":[-96.8066667,32.7830556]}},{"properties":{"city":"Austin","date":{"end_time":"2010/10/03 00:00:00 -0400","original":"10/2/2010","granularity":"day","time":"2010/10/02 00:00:00 -0400"},"geo_score":1.0,"country":"United States","id":"a7t45w9juht9","geo_precision":"zip","state":"TX"},"type":"Feature","geometry":{"type":"Point","coordinates":[-97.7430608,30.267153]}},{"properties":{"city":"Houston","date":{"end_time":"2010/10/04 00:00:00 -0400","original":"10/3/2010","granularity":"day","time":"2010/10/03 00:00:00 -0400"},"geo_score":1.0,"country":"United States","id":"a7t45wadj300","geo_precision":"zip","state":"TX"},"type":"Feature","geometry":{"type":"Point","coordinates":[-95.3632715,29.7632836]}},{"properties":{"city":"Jacksonville","date":{"end_time":"2010/10/07 00:00:00 -0400","original":"10/6/2010","granularity":"day","time":"2010/10/06 00:00:00 -0400"},"geo_score":1.0,"country":"United States","id":"a7t45wa3cn3h","geo_precision":"zip","state":"FL"},"type":"Feature","geometry":{"type":"Point","coordinates":[-81.655651,30.3321838]}},{"properties":{"city":"Gainesville","date":{"end_time":"2010/10/08 00:00:00 -0400","original":"10/7/2010","granularity":"day","time":"2010/10/07 00:00:00 -0400"},"geo_score":1.0,"country":"United States","id":"a7t45w3ivtfq","geo_precision":"zip","state":"FL"},"type":"Feature","geometry":{"type":"Point","coordinates":[-82.3248262,29.6516344]}},{"properties":{"city":"Orlando","date":{"end_time":"2010/10/09 00:00:00 -0400","original":"10/8/2010","granularity":"day","time":"2010/10/08 00:00:00 -0400"},"geo_score":1.0,"country":"United States","id":"a7t45w9gq22x","geo_precision":"zip","state":"FL"},"type":"Feature","geometry":{"type":"Point","coordinates":[-81.3792365,28.5383355]}},{"properties":{"city":"Denver","date":{"end_time":"2010/11/04 00:00:00 -0400","original":"11/3/2010","granularity":"day","time":"2010/11/03 00:00:00 -0400"},"geo_score":1.0,"country":"United States","id":"a7t45w91q855","geo_precision":"zip","state":"CO"},"type":"Feature","geometry":{"type":"Point","coordinates":[-104.9847034,39.7391536]}},{"properties":{"city":"Lawrence","date":{"end_time":"2010/11/06 00:00:00 -0400","original":"11/5/2010","granularity":"day","time":"2010/11/05 00:00:00 -0400"},"geo_score":1.0,"country":"United States","id":"a7t45w2i1uw5","geo_precision":"zip","state":"KS"},"type":"Feature","geometry":{"type":"Point","coordinates":[-95.2352501,38.9716689]}},{"properties":{"city":"St. Louis","date":{"end_time":"2010/11/07 00:00:00 -0400","original":"11/6/2010","granularity":"day","time":"2010/11/06 00:00:00 -0400"},"geo_score":0.918,"country":"United States","id":"a7t45wb0jf94","geo_precision":"zip","state":"MO"},"type":"Feature","geometry":{"type":"Point","coordinates":[-81.4403898,41.1595005]}},{"properties":{"city":"Cedar Falls","date":{"end_time":"2010/11/08 00:00:00 -0500","original":"11/7/2010","granularity":"day","time":"2010/11/07 00:00:00 -0400"},"geo_score":1.0,"country":"United States","id":"a7t45vy4dpks","geo_precision":"zip","state":"IA"},"type":"Feature","geometry":{"type":"Point","coordinates":[-92.4454654,42.5277622]}},{"properties":{"city":"Omaha","date":{"end_time":"2010/11/10 00:00:00 -0500","original":"11/9/2010","granularity":"day","time":"2010/11/09 00:00:00 -0500"},"geo_score":1.0,"country":"United States","id":"a7t45w1gxctr","geo_precision":"zip","state":"NE"},"type":"Feature","geometry":{"type":"Point","coordinates":[-95.937792,41.2586096]}},{"properties":{"city":"Minneapolis","date":{"end_time":"2010/11/12 00:00:00 -0500","original":"11/11/2010","granularity":"day","time":"2010/11/11 00:00:00 -0500"},"geo_score":1.0,"country":"United States","id":"a7t45vz76ouc","geo_precision":"zip","state":"MN"},"type":"Feature","geometry":{"type":"Point","coordinates":[-93.2638361,44.9799654]}},{"properties":{"city":"Madison","date":{"end_time":"2010/11/13 00:00:00 -0500","original":"11/12/2010","granularity":"day","time":"2010/11/12 00:00:00 -0500"},"geo_score":1.0,"country":"United States","id":"a7t45wcg2wcd","geo_precision":"zip","state":"WI"},"type":"Feature","geometry":{"type":"Point","coordinates":[-89.4012302,43.0730517]}},{"properties":{"city":"Champaign","date":{"end_time":"2010/11/14 00:00:00 -0500","original":"11/13/2010","granularity":"day","time":"2010/11/13 00:00:00 -0500"},"geo_score":1.0,"country":"United States","id":"a7t45w9mc8wv","geo_precision":"zip","state":"IL"},"type":"Feature","geometry":{"type":"Point","coordinates":[-88.2433829,40.1164205]}},{"properties":{"city":"La Jolla","date":{"end_time":"2010/11/18 00:00:00 -0500","original":"11/17/2010","granularity":"day","time":"2010/11/17 00:00:00 -0500"},"geo_score":0.898,"country":"United States","id":"a7t45w5afl2n","geo_precision":"zip","state":"CA"},"type":"Feature","geometry":{"type":"Point","coordinates":[-103.1935127,32.1131814]}},{"properties":{"city":"Los Angeles","date":{"end_time":"2010/12/11 00:00:00 -0500","original":"12/10/2010","granularity":"day","time":"2010/12/10 00:00:00 -0500"},"geo_score":0.946,"country":"United States","id":"a7t45w58j5lk","geo_precision":"zip","state":"CA"},"type":"Feature","geometry":{"type":"Point","coordinates":[-118.2009079,34.3666648]}},{"properties":{"city":"Bristol","date":{"end_time":"2011/02/03 00:00:00 -0500","original":"2/2/2011","granularity":"day","time":"2011/02/02 00:00:00 -0500"},"geo_score":0.791,"country":"England","id":"a7t45wdj0jsi","geo_precision":"zip","state":null},"type":"Feature","geometry":{"type":"Point","coordinates":[-71.1661579,41.8334345]}},{"properties":{"city":"Denver","date":{"end_time":"2011/02/06 00:00:00 -0500","original":"2/5/2011","granularity":"day","time":"2011/02/05 00:00:00 -0500"},"geo_score":1.0,"country":"United States","id":"a7t45vzzbrak","geo_precision":"zip","state":"CO"},"type":"Feature","geometry":{"type":"Point","coordinates":[-104.9847034,39.7391536]}},{"properties":{"city":"Austin","date":{"end_time":"2011/03/19 00:00:00 -0400","original":"3/18/2011","granularity":"day","time":"2011/03/18 00:00:00 -0400"},"geo_score":1.0,"country":"United States","id":"a7t45w66s9xe","geo_precision":"zip","state":"TX"},"type":"Feature","geometry":{"type":"Point","coordinates":[-97.7430608,30.267153]}},{"properties":{"city":"Austin","date":{"end_time":"2011/03/20 00:00:00 -0400","original":"3/19/2011","granularity":"day","time":"2011/03/19 00:00:00 -0400"},"geo_score":1.0,"country":"United States","id":"a7t45vzdiqhw","geo_precision":"zip","state":"TX"},"type":"Feature","geometry":{"type":"Point","coordinates":[-97.7430608,30.267153]}},{"properties":{"city":"Chicago","date":{"end_time":"2011/04/03 00:00:00 -0400","original":"4/2/2011","granularity":"day","time":"2011/04/02 00:00:00 -0400"},"geo_score":1.0,"country":"United States","id":"a7t45wan0xmt","geo_precision":"zip","state":"IL"},"type":"Feature","geometry":{"type":"Point","coordinates":[-87.6500523,41.850033]}},{"properties":{"city":"Ann Arbor","date":{"end_time":"2011/04/06 00:00:00 -0400","original":"4/5/2011","granularity":"day","time":"2011/04/05 00:00:00 -0400"},"geo_score":1.0,"country":"United States","id":"a7t45w9k9fqb","geo_precision":"zip","state":"MI"},"type":"Feature","geometry":{"type":"Point","coordinates":[-83.7408828735352,42.277562797398]}},{"properties":{"city":"Toronto","date":{"end_time":"2011/04/07 00:00:00 -0400","original":"4/6/2011","granularity":"day","time":"2011/04/06 00:00:00 -0400"},"geo_score":0.918,"country":"United States","id":"a7t45w4wgvp0","geo_precision":"zip","state":null},"type":"Feature","geometry":{"type":"Point","coordinates":[-96.370824,33.9939861]}},{"properties":{"city":"New York","date":{"end_time":"2011/04/09 00:00:00 -0400","original":"4/8/2011","granularity":"day","time":"2011/04/08 00:00:00 -0400"},"geo_score":1.0,"country":"United States","id":"a7t45vzk7odo","geo_precision":"zip","state":"NY"},"type":"Feature","geometry":{"type":"Point","coordinates":[-75.4998978,43.0003472]}},{"properties":{"city":"New York","date":{"end_time":"2011/04/10 00:00:00 -0400","original":"4/9/2011","granularity":"day","time":"2011/04/09 00:00:00 -0400"},"geo_score":1.0,"country":"United States","id":"a7t45vxwx51i","geo_precision":"zip","state":"NY"},"type":"Feature","geometry":{"type":"Point","coordinates":[-75.4998978,43.0003472]}},{"properties":{"city":"Northampton","date":{"end_time":"2011/04/12 00:00:00 -0400","original":"4/11/2011","granularity":"day","time":"2011/04/11 00:00:00 -0400"},"geo_score":0.95,"country":"United States","id":"a7t45wa22b02","geo_precision":"zip","state":"MA"},"type":"Feature","geometry":{"type":"Point","coordinates":[-75.2499025,40.875373]}},{"properties":{"city":"Montreal","date":{"end_time":"2011/04/13 00:00:00 -0400","original":"4/12/2011","granularity":"day","time":"2011/04/12 00:00:00 -0400"},"geo_score":1.0,"country":"Canada","id":"a7t45w3itw6f","geo_precision":"zip","state":null},"type":"Feature","geometry":{"type":"Point","coordinates":[-73.587809,45.5088375]}},{"properties":{"city":"South Burlington","date":{"end_time":"2011/04/14 00:00:00 -0400","original":"4/13/2011","granularity":"day","time":"2011/04/13 00:00:00 -0400"},"geo_score":0.902,"country":"United States","id":"a7t45wd11u2o","geo_precision":"zip","state":"VT"},"type":"Feature","geometry":{"type":"Point","coordinates":[-74.6412678,39.8834489]}},{"properties":{"city":"Boston","date":{"end_time":"2011/04/16 00:00:00 -0400","original":"4/15/2011","granularity":"day","time":"2011/04/15 00:00:00 -0400"},"geo_score":1.0,"country":"United States","id":"a7t45w61yeur","geo_precision":"zip","state":"MA"},"type":"Feature","geometry":{"type":"Point","coordinates":[-71.0597732,42.3584308]}},{"properties":{"city":"Philadelphia","date":{"end_time":"2011/04/17 00:00:00 -0400","original":"4/16/2011","granularity":"day","time":"2011/04/16 00:00:00 -0400"},"geo_score":0.952,"country":"United States","id":"a7t45wbnv48a","geo_precision":"zip","state":"PA"},"type":"Feature","geometry":{"type":"Point","coordinates":[-74.9998916,40.1253879]}},{"properties":{"city":"Vienna","date":{"end_time":"2011/04/18 00:00:00 -0400","original":"4/17/2011","granularity":"day","time":"2011/04/17 00:00:00 -0400"},"geo_score":1.0,"country":"United States","id":"a7t45wc15xwa","geo_precision":"zip","state":"VA"},"type":"Feature","geometry":{"type":"Point","coordinates":[-77.2652604,38.9012225]}},{"properties":{"city":"Ashland","date":{"end_time":"2011/04/21 00:00:00 -0400","original":"4/20/2011","granularity":"day","time":"2011/04/20 00:00:00 -0400"},"geo_score":0.934,"country":"United States","id":"a7t45wcvzgrg","geo_precision":"zip","state":"VA"},"type":"Feature","geometry":{"type":"Point","coordinates":[-82.2665488,40.8167238]}},{"properties":{"city":"Carrboro","date":{"end_time":"2011/04/23 00:00:00 -0400","original":"4/22/2011","granularity":"day","time":"2011/04/22 00:00:00 -0400"},"geo_score":1.0,"country":"United States","id":"a7t45w9g070v","geo_precision":"zip","state":"NC"},"type":"Feature","geometry":{"type":"Point","coordinates":[-79.0752895,35.9101438]}},{"properties":{"city":"Atlanta","date":{"end_time":"2011/04/24 00:00:00 -0400","original":"4/23/2011","granularity":"day","time":"2011/04/23 00:00:00 -0400"},"geo_score":1.0,"country":"United States","id":"a7t45vyzt1t1","geo_precision":"zip","state":"GA"},"type":"Feature","geometry":{"type":"Point","coordinates":[-84.3879824,33.7489954]}},{"properties":{"city":"New Orleans","date":{"end_time":"2011/04/26 00:00:00 -0400","original":"4/25/2011","granularity":"day","time":"2011/04/25 00:00:00 -0400"},"geo_score":0.901,"country":"United States","id":"a7t45wb5mu8j","geo_precision":"zip","state":"LA"},"type":"Feature","geometry":{"type":"Point","coordinates":[-89.950068,30.0335344]}},{"properties":{"city":"Houston","date":{"end_time":"2011/04/29 00:00:00 -0400","original":"4/28/2011","granularity":"day","time":"2011/04/28 00:00:00 -0400"},"geo_score":1.0,"country":"United States","id":"a7t45wdovdc5","geo_precision":"zip","state":"TX"},"type":"Feature","geometry":{"type":"Point","coordinates":[-95.3632715,29.7632836]}},{"properties":{"city":"Austin","date":{"end_time":"2011/04/30 00:00:00 -0400","original":"4/29/2011","granularity":"day","time":"2011/04/29 00:00:00 -0400"},"geo_score":1.0,"country":"United States","id":"a7t45w3bqnq7","geo_precision":"zip","state":"TX"},"type":"Feature","geometry":{"type":"Point","coordinates":[-97.7430608,30.267153]}},{"properties":{"city":"Dallas","date":{"end_time":"2011/05/01 00:00:00 -0400","original":"4/30/2011","granularity":"day","time":"2011/04/30 00:00:00 -0400"},"geo_score":1.0,"country":"United States","id":"a7t45w4bmujg","geo_precision":"zip","state":"TX"},"type":"Feature","geometry":{"type":"Point","coordinates":[-96.8066667,32.7830556]}},{"properties":{"city":"San Francisco","date":{"end_time":"2011/05/11 00:00:00 -0400","original":"5/10/2011","granularity":"day","time":"2011/05/10 00:00:00 -0400"},"geo_score":1.0,"country":"United States","id":"a7t45wavibsr","geo_precision":"zip","state":"CA"},"type":"Feature","geometry":{"type":"Point","coordinates":[-122.4194155,37.7749295]}},{"properties":{"city":"San Francisco","date":{"end_time":"2011/05/12 00:00:00 -0400","original":"5/11/2011","granularity":"day","time":"2011/05/11 00:00:00 -0400"},"geo_score":1.0,"country":"United States","id":"a7t45w1kygrd","geo_precision":"zip","state":"CA"},"type":"Feature","geometry":{"type":"Point","coordinates":[-122.4194155,37.7749295]}},{"properties":{"city":"Eugene","date":{"end_time":"2011/05/13 00:00:00 -0400","original":"5/12/2011","granularity":"day","time":"2011/05/12 00:00:00 -0400"},"geo_score":1.0,"country":"United States","id":"a7t45wdrgwhi","geo_precision":"zip","state":"OR"},"type":"Feature","geometry":{"type":"Point","coordinates":[-123.0867536,44.0520691]}},{"properties":{"city":"Portland","date":{"end_time":"2011/05/14 00:00:00 -0400","original":"5/13/2011","granularity":"day","time":"2011/05/13 00:00:00 -0400"},"geo_score":1.0,"country":"United States","id":"a7t45w6ey0sl","geo_precision":"zip","state":"OR"},"type":"Feature","geometry":{"type":"Point","coordinates":[-122.6762071,45.5234515]}},{"properties":{"city":"Seattle","date":{"end_time":"2011/05/15 00:00:00 -0400","original":"5/14/2011","granularity":"day","time":"2011/05/14 00:00:00 -0400"},"geo_score":1.0,"country":"United States","id":"a7t45vzij24s","geo_precision":"zip","state":"WA"},"type":"Feature","geometry":{"type":"Point","coordinates":[-122.3320708,47.6062095]}},{"properties":{"city":"Vancouver","date":{"end_time":"2011/05/16 00:00:00 -0400","original":"5/15/2011","granularity":"day","time":"2011/05/15 00:00:00 -0400"},"geo_score":1.0,"country":"Canada","id":"a7t45wbcx8mm","geo_precision":"zip","state":null},"type":"Feature","geometry":{"type":"Point","coordinates":[-123.119340403,49.249657393]}},{"properties":{"city":"San Diego","date":{"end_time":"2011/05/20 00:00:00 -0400","original":"5/19/2011","granularity":"day","time":"2011/05/19 00:00:00 -0400"},"geo_score":1.0,"country":"United States","id":"a7t45w1wjysv","geo_precision":"zip","state":"CA"},"type":"Feature","geometry":{"type":"Point","coordinates":[-117.1572551,32.7153292]}},{"properties":{"city":"Los Angeles","date":{"end_time":"2011/05/21 00:00:00 -0400","original":"5/20/2011","granularity":"day","time":"2011/05/20 00:00:00 -0400"},"geo_score":0.946,"country":"United States","id":"a7t45w7rrtwz","geo_precision":"zip","state":"CA"},"type":"Feature","geometry":{"type":"Point","coordinates":[-118.2009079,34.3666648]}},{"properties":{"city":"Lake Forest","date":{"end_time":"2011/07/25 00:00:00 -0400","original":"7/24/2011","granularity":"day","time":"2011/07/24 00:00:00 -0400"},"geo_score":1.0,"country":"United States","id":"a7t45w7numv2","geo_precision":"zip","state":"VA"},"type":"Feature","geometry":{"type":"Point","coordinates":[-117.689218,33.6469661]}},{"properties":{"city":"New York","date":{"end_time":"2011/07/27 00:00:00 -0400","original":"7/26/2011","granularity":"day","time":"2011/07/26 00:00:00 -0400"},"geo_score":1.0,"country":"United States","id":"a7t45vxtvk5a","geo_precision":"zip","state":"NY"},"type":"Feature","geometry":{"type":"Point","coordinates":[-75.4998978,43.0003472]}},{"properties":{"city":"Los Angeles","date":{"end_time":"2011/07/29 00:00:00 -0400","original":"7/28/2011","granularity":"day","time":"2011/07/28 00:00:00 -0400"},"geo_score":0.946,"country":"United States","id":"a7t45waprcop","geo_precision":"zip","state":"CA"},"type":"Feature","geometry":{"type":"Point","coordinates":[-118.2009079,34.3666648]}},{"properties":{"city":"Hua Hin","date":{"end_time":"2011/08/28 00:00:00 -0400","original":"8/27/2011","granularity":"day","time":"2011/08/27 00:00:00 -0400"},"geo_score":1.0,"country":"Thailand","id":"a7t45w2vd31c","geo_precision":"zip","state":null},"type":"Feature","geometry":{"type":"Point","coordinates":[99.9587631225586,12.570648483963]}},{"properties":{"city":"Dublin","date":{"end_time":"2011/10/02 00:00:00 -0400","original":"10/1/2011","granularity":"day","time":"2011/10/01 00:00:00 -0400"},"geo_score":1.0,"country":"Ireland","id":"a7t45vyiays5","geo_precision":"zip","state":null},"type":"Feature","geometry":{"type":"Point","coordinates":[-6.2488889,53.3330556]}},{"properties":{"city":"London","date":{"end_time":"2011/10/05 00:00:00 -0400","original":"10/4/2011","granularity":"day","time":"2011/10/04 00:00:00 -0400"},"geo_score":0.857,"country":"England","id":"a7t45w5kcjom","geo_precision":"zip","state":null},"type":"Feature","geometry":{"type":"Point","coordinates":[-0.125532746315002,51.5084152563931]}},{"properties":{"city":"London","date":{"end_time":"2011/10/06 00:00:00 -0400","original":"10/5/2011","granularity":"day","time":"2011/10/05 00:00:00 -0400"},"geo_score":0.857,"country":"England","id":"a7t45w2oqhlz","geo_precision":"zip","state":null},"type":"Feature","geometry":{"type":"Point","coordinates":[-0.125532746315002,51.5084152563931]}},{"properties":{"city":"Paris","date":{"end_time":"2011/10/07 00:00:00 -0400","original":"10/6/2011","granularity":"day","time":"2011/10/06 00:00:00 -0400"},"geo_score":1.0,"country":"France","id":"a7t45w4vk55c","geo_precision":"zip","state":null},"type":"Feature","geometry":{"type":"Point","coordinates":[2.3488,48.85341]}},{"properties":{"city":"Amsterdam","date":{"end_time":"2011/10/09 00:00:00 -0400","original":"10/8/2011","granularity":"day","time":"2011/10/08 00:00:00 -0400"},"geo_score":0.857,"country":"Holland","id":"a7t45vyd8iwo","geo_precision":"zip","state":null},"type":"Feature","geometry":{"type":"Point","coordinates":[4.89990234375,52.3730839945403]}},{"properties":{"city":"Zurich","date":{"end_time":"2011/10/12 00:00:00 -0400","original":"10/11/2011","granularity":"day","time":"2011/10/11 00:00:00 -0400"},"geo_score":1.0,"country":"Switzerland","id":"a7t45w8yz7lg","geo_precision":"zip","state":null},"type":"Feature","geometry":{"type":"Point","coordinates":[8.55,47.3666667]}},{"properties":{"city":"Colgne","date":{"end_time":"2011/10/13 00:00:00 -0400","original":"10/12/2011","granularity":"day","time":"2011/10/12 00:00:00 -0400"},"geo_score":0.905,"country":"Germany","id":"a7t45w1xvd3x","geo_precision":"zip","state":null},"type":"Feature","geometry":{"type":"Point","coordinates":[6.95,50.9333333]}},{"properties":{"city":"Berlin","date":{"end_time":"2011/10/15 00:00:00 -0400","original":"10/14/2011","granularity":"day","time":"2011/10/14 00:00:00 -0400"},"geo_score":1.0,"country":"Germany","id":"a7t45w2ebgj0","geo_precision":"zip","state":null},"type":"Feature","geometry":{"type":"Point","coordinates":[13.4,52.5166667]}},{"properties":{"city":"Copenhagen","date":{"end_time":"2011/10/16 00:00:00 -0400","original":"10/15/2011","granularity":"day","time":"2011/10/15 00:00:00 -0400"},"geo_score":1.0,"country":"Denmark","id":"a7t45w60xe44","geo_precision":"zip","state":null},"type":"Feature","geometry":{"type":"Point","coordinates":[12.5709342956543,55.6776812020993]}},{"properties":{"city":"Brussels","date":{"end_time":"2011/10/19 00:00:00 -0400","original":"10/18/2011","granularity":"day","time":"2011/10/18 00:00:00 -0400"},"geo_score":0.857,"country":"Beligum","id":"a7t45w56w71o","geo_precision":"zip","state":null},"type":"Feature","geometry":{"type":"Point","coordinates":[4.35277462005615,50.8465974826927]}},{"properties":{"city":"London","date":{"end_time":"2011/10/22 00:00:00 -0400","original":"10/21/2011","granularity":"day","time":"2011/10/21 00:00:00 -0400"},"geo_score":0.857,"country":"England","id":"a7t45w9tye3y","geo_precision":"zip","state":null},"type":"Feature","geometry":{"type":"Point","coordinates":[-0.125532746315002,51.5084152563931]}},{"properties":{"city":"Los Angeles","date":{"end_time":"2011/11/03 00:00:00 -0400","original":"11/2/2011","granularity":"day","time":"2011/11/02 00:00:00 -0400"},"geo_score":0.946,"country":"United States","id":"a7t45wbvqbt1","geo_precision":"zip","state":"CA"},"type":"Feature","geometry":{"type":"Point","coordinates":[-118.2009079,34.3666648]}},{"properties":{"city":"Dublin","date":{"end_time":"2012/02/02 00:00:00 -0500","original":"2/1/2012","granularity":"day","time":"2012/02/01 00:00:00 -0500"},"geo_score":1.0,"country":"Ireland","id":"a7t45w6jgmp6","geo_precision":"zip","state":null},"type":"Feature","geometry":{"type":"Point","coordinates":[-6.2488889,53.3330556]}},{"properties":{"city":"Glasgow","date":{"end_time":"2012/02/03 00:00:00 -0500","original":"2/2/2012","granularity":"day","time":"2012/02/02 00:00:00 -0500"},"geo_score":0.857,"country":"Scotland","id":"a7t45w2u7v6j","geo_precision":"zip","state":null},"type":"Feature","geometry":{"type":"Point","coordinates":[-4.25763130187988,55.8651497187961]}},{"properties":{"city":"Manchester","date":{"end_time":"2012/02/04 00:00:00 -0500","original":"2/3/2012","granularity":"day","time":"2012/02/03 00:00:00 -0500"},"geo_score":0.857,"country":"England","id":"a7t45w1fp2qn","geo_precision":"zip","state":null},"type":"Feature","geometry":{"type":"Point","coordinates":[-2.23743438720703,53.4809464283615]}},{"properties":{"city":"Norwich","date":{"end_time":"2012/02/06 00:00:00 -0500","original":"2/5/2012","granularity":"day","time":"2012/02/05 00:00:00 -0500"},"geo_score":0.857,"country":"England","id":"a7t45wdjw9tw","geo_precision":"zip","state":null},"type":"Feature","geometry":{"type":"Point","coordinates":[1.29833936691284,52.6278273182018]}},{"properties":{"city":"Birmingham","date":{"end_time":"2012/02/07 00:00:00 -0500","original":"2/6/2012","granularity":"day","time":"2012/02/06 00:00:00 -0500"},"geo_score":0.857,"country":"England","id":"a7t45w7pnwdx","geo_precision":"zip","state":null},"type":"Feature","geometry":{"type":"Point","coordinates":[-1.9166667,52.4666667]}},{"properties":{"city":"Bristol","date":{"end_time":"2012/02/08 00:00:00 -0500","original":"2/7/2012","granularity":"day","time":"2012/02/07 00:00:00 -0500"},"geo_score":0.791,"country":"England","id":"a7t45vykuspv","geo_precision":"zip","state":null},"type":"Feature","geometry":{"type":"Point","coordinates":[-71.1661579,41.8334345]}},{"properties":{"city":"London","date":{"end_time":"2012/02/10 00:00:00 -0500","original":"2/9/2012","granularity":"day","time":"2012/02/09 00:00:00 -0500"},"geo_score":0.857,"country":"England","id":"a7t45w9zivyv","geo_precision":"zip","state":null},"type":"Feature","geometry":{"type":"Point","coordinates":[-0.125532746315002,51.5084152563931]}},{"properties":{"city":"Amsterdam","date":{"end_time":"2012/02/12 00:00:00 -0500","original":"2/11/2012","granularity":"day","time":"2012/02/11 00:00:00 -0500"},"geo_score":0.857,"country":"Holland","id":"a7t45vxru4iy","geo_precision":"zip","state":null},"type":"Feature","geometry":{"type":"Point","coordinates":[4.89990234375,52.3730839945403]}},{"properties":{"city":"Brussels","date":{"end_time":"2012/02/14 00:00:00 -0500","original":"2/13/2012","granularity":"day","time":"2012/02/13 00:00:00 -0500"},"geo_score":0.857,"country":"Beligum","id":"a7t45w0sqk0n","geo_precision":"zip","state":null},"type":"Feature","geometry":{"type":"Point","coordinates":[4.35277462005615,50.8465974826927]}},{"properties":{"city":"Cologne","date":{"end_time":"2012/02/15 00:00:00 -0500","original":"2/14/2012","granularity":"day","time":"2012/02/14 00:00:00 -0500"},"geo_score":0.898,"country":"Germany","id":"a7t45wb65fvf","geo_precision":"zip","state":null},"type":"Feature","geometry":{"type":"Point","coordinates":[6.95,50.9333333]}},{"properties":{"city":"Paris","date":{"end_time":"2012/02/16 00:00:00 -0500","original":"2/15/2012","granularity":"day","time":"2012/02/15 00:00:00 -0500"},"geo_score":1.0,"country":"France","id":"a7t45vzyl226","geo_precision":"zip","state":null},"type":"Feature","geometry":{"type":"Point","coordinates":[2.3488,48.85341]}},{"properties":{"city":"Lausanne","date":{"end_time":"2012/02/18 00:00:00 -0500","original":"2/17/2012","granularity":"day","time":"2012/02/17 00:00:00 -0500"},"geo_score":1.0,"country":"Switzerland","id":"a7t45w362iba","geo_precision":"zip","state":null},"type":"Feature","geometry":{"type":"Point","coordinates":[6.6328239440918,46.5159963488544]}},{"properties":{"city":"Munich","date":{"end_time":"2012/02/29 00:00:00 -0500","original":"2/28/2012","granularity":"day","time":"2012/02/28 00:00:00 -0500"},"geo_score":0.976,"country":"Germany","id":"a7t45w7i2xvr","geo_precision":"zip","state":null},"type":"Feature","geometry":{"type":"Point","coordinates":[9.3666667,49.75]}},{"properties":{"city":"Berlin","date":{"end_time":"2012/02/21 00:00:00 -0500","original":"2/20/2012","granularity":"day","time":"2012/02/20 00:00:00 -0500"},"geo_score":1.0,"country":"Germany","id":"a7t45vy5le4v","geo_precision":"zip","state":null},"type":"Feature","geometry":{"type":"Point","coordinates":[13.4,52.5166667]}},{"properties":{"city":"Hamburg","date":{"end_time":"2012/02/22 00:00:00 -0500","original":"2/21/2012","granularity":"day","time":"2012/02/21 00:00:00 -0500"},"geo_score":1.0,"country":"Germany","id":"a7t45w0xbeea","geo_precision":"zip","state":null},"type":"Feature","geometry":{"type":"Point","coordinates":[10.0,53.55]}},{"properties":{"city":"Copenhagen","date":{"end_time":"2012/02/23 00:00:00 -0500","original":"2/22/2012","granularity":"day","time":"2012/02/22 00:00:00 -0500"},"geo_score":0.857,"country":"Demark","id":"a7t45w6l6iui","geo_precision":"zip","state":null},"type":"Feature","geometry":{"type":"Point","coordinates":[12.5709342956543,55.6776812020993]}},{"properties":{"city":"Barcelona","date":{"end_time":"2012/02/25 00:00:00 -0500","original":"2/24/2012","granularity":"day","time":"2012/02/24 00:00:00 -0500"},"geo_score":1.0,"country":"Spain","id":"a7t45w50bhzj","geo_precision":"zip","state":null},"type":"Feature","geometry":{"type":"Point","coordinates":[2.12803760957452,41.3994235991885]}},{"properties":{"city":"Madrid","date":{"end_time":"2012/02/26 00:00:00 -0500","original":"2/25/2012","granularity":"day","time":"2012/02/25 00:00:00 -0500"},"geo_score":1.0,"country":"Spain","id":"a7t45wd16dl9","geo_precision":"zip","state":null},"type":"Feature","geometry":{"type":"Point","coordinates":[-3.68274615575072,40.4893538421231]}},{"properties":{"city":"Hong Kong","date":{"end_time":"2012/03/12 00:00:00 -0400","original":"3/11/2012","granularity":"day","time":"2012/03/11 00:00:00 -0500"},"geo_score":0.911,"country":"China","id":"a7t45wa736zh","geo_precision":"zip","state":null},"type":"Feature","geometry":{"type":"Point","coordinates":[117.7891667,39.2488889]}},{"properties":{"city":"Kuala Lumpur","date":{"end_time":"2012/03/14 00:00:00 -0400","original":"3/13/2012","granularity":"day","time":"2012/03/13 00:00:00 -0400"},"geo_score":1.0,"country":"Malaysia","id":"a7t45w3mfl4w","geo_precision":"zip","state":null},"type":"Feature","geometry":{"type":"Point","coordinates":[101.7,3.1666667]}},{"properties":{"city":"Manila","date":{"end_time":"2012/03/16 00:00:00 -0400","original":"3/15/2012","granularity":"day","time":"2012/03/15 00:00:00 -0400"},"geo_score":1.0,"country":"Philippines","id":"a7t45w1poqk4","geo_precision":"zip","state":null},"type":"Feature","geometry":{"type":"Point","coordinates":[120.9822222,14.6041667]}},{"properties":{"city":"Jakarta","date":{"end_time":"2012/03/19 00:00:00 -0400","original":"3/18/2012","granularity":"day","time":"2012/03/18 00:00:00 -0400"},"geo_score":1.0,"country":"Indonesia","id":"a7t45vxcnsqz","geo_precision":"zip","state":null},"type":"Feature","geometry":{"type":"Point","coordinates":[106.8294444,-6.1744444]}},{"properties":{"city":"Singapore","date":{"end_time":"2012/03/20 00:00:00 -0400","original":"3/19/2012","granularity":"day","time":"2012/03/19 00:00:00 -0400"},"geo_score":1.0,"country":"Singapore","id":"a7t45w10w3x6","geo_precision":"zip","state":null},"type":"Feature","geometry":{"type":"Point","coordinates":[103.8558333,1.2930556]}},{"properties":{"city":"Sydney","date":{"end_time":"2012/03/24 00:00:00 -0400","original":"3/23/2012","granularity":"day","time":"2012/03/23 00:00:00 -0400"},"geo_score":1.0,"country":"Australia","id":"a7t45w6ikpj1","geo_precision":"zip","state":null},"type":"Feature","geometry":{"type":"Point","coordinates":[151.207323074341,-33.8678499639382]}},{"properties":{"city":"Sydney","date":{"end_time":"2012/03/25 00:00:00 -0400","original":"3/24/2012","granularity":"day","time":"2012/03/24 00:00:00 -0400"},"geo_score":1.0,"country":"Australia","id":"a7t45w7c9ug1","geo_precision":"zip","state":null},"type":"Feature","geometry":{"type":"Point","coordinates":[151.207323074341,-33.8678499639382]}},{"properties":{"city":"Sydney","date":{"end_time":"2012/03/26 00:00:00 -0400","original":"3/25/2012","granularity":"day","time":"2012/03/25 00:00:00 -0400"},"geo_score":1.0,"country":"Australia","id":"a7t45wavxsk0","geo_precision":"zip","state":null},"type":"Feature","geometry":{"type":"Point","coordinates":[151.207323074341,-33.8678499639382]}},{"properties":{"city":"Brisbane","date":{"end_time":"2012/03/29 00:00:00 -0400","original":"3/28/2012","granularity":"day","time":"2012/03/28 00:00:00 -0400"},"geo_score":1.0,"country":"Australia","id":"a7t45w521rfa","geo_precision":"zip","state":null},"type":"Feature","geometry":{"type":"Point","coordinates":[153.028092384338,-27.4679357321901]}},{"properties":{"city":"Melbourne","date":{"end_time":"2012/03/30 00:00:00 -0400","original":"3/29/2012","granularity":"day","time":"2012/03/29 00:00:00 -0400"},"geo_score":1.0,"country":"Australia","id":"a7t45wcvb4fj","geo_precision":"zip","state":null},"type":"Feature","geometry":{"type":"Point","coordinates":[144.963322877884,-37.8139965641595]}},{"properties":{"city":"Melbourne","date":{"end_time":"2012/03/31 00:00:00 -0400","original":"3/30/2012","granularity":"day","time":"2012/03/30 00:00:00 -0400"},"geo_score":1.0,"country":"Australia","id":"a7t45wbops30","geo_precision":"zip","state":null},"type":"Feature","geometry":{"type":"Point","coordinates":[144.963322877884,-37.8139965641595]}}],"is_temporal":true,"author":{"url":"","metadata":null,"contact_name":null,"contact_address":null,"source":null,"contact_phone":null},"source":"","pagination":{"sort":null,"start":0,"total":119,"limit":1000000},"state":"complete","tags":"","published":"2014-08-15T02:57:31-04:00","id":238034}