{"type":"FeatureCollection","data_type":"Dataset","url_type":null,"permissions":[{"permissions":{"download":true,"view":true},"group_id":"everyone"}],"classification":null,"title":"FFK School Locations - Northeast Region","count":45,"stream_id":239076,"contributor":{"url":"http://geocommons.com/users/45183","name":"eck74"},"data_attributes":null,"calculation_params":null,"icon_link":null,"link":"http://geocommons.com/overlays/239076.json","extent":[-98.0481,34.8217,-96.4765,36.8758],"geometry_types":["point"],"unique_name":null,"name":"FFK School Locations - Northeast Region","feature_count":45,"description":"","next_feature":null,"is_raster":false,"short_classification":"Y","stats":{"november":{"max":84,"mean":13.0444444444444,"variance":230.952525252525,"stdev":15.1971222687891,"min":0,"median":10},"no.":{"max":6583,"mean":6275.17777777778,"variance":22494.2404040404,"stdev":149.980800118016,"min":6037,"median":6242},"january":{"max":88,"mean":12.2,"variance":214.118181818182,"stdev":14.6327776521815,"min":0,"median":10},"october":{"max":126,"mean":12.8222222222222,"variance":391.013131313131,"stdev":19.774051970022,"min":0,"median":10},"april":{"max":110,"mean":11.4222222222222,"variance":276.840404040404,"stdev":16.6385216903547,"min":0,"median":8},"february":{"max":63,"mean":12.2444444444444,"variance":167.961616161616,"stdev":12.9600006235191,"min":0,"median":8},"average":{"max":87.75,"mean":12.3682222222222,"variance":180.709946767677,"stdev":13.44283998148,"min":0.75,"median":9.25},"march":{"max":64,"mean":13.9555555555556,"variance":158.270707070707,"stdev":12.5805686306584,"min":0,"median":12},"december":{"max":85,"mean":11.9333333333333,"variance":220.381818181818,"stdev":14.8452624827525,"min":0,"median":9},"september":{"max":82,"mean":11.3111111111111,"variance":182.537373737374,"stdev":13.5106392793744,"min":0,"median":8}},"features":[{"properties":{"november":6,"city":"Covington","name":"F4K - Covington-Douglas, Covin","no.":6144,"january":20,"geo_score":0.429,"october":6,"delivery date":"Thursday, 4th","zip code":"73730","april":10,"february":8,"average":9.13,"march":5,"id":"a69tnp2l764o","geo_precision":"street","december":6,"address":"400 E. Main","september":12,"fbc county code":"GARFIELD","state":"OK"},"type":"Feature","geometry":{"type":"Point","coordinates":[-97.583861,36.305852]}},{"properties":{"november":50,"city":"Enid","name":"F4K - Monroe, Enid","no.":6037,"january":40,"geo_score":0.528,"october":50,"delivery date":"Thursday, 4th","zip code":"73701-2113","april":0,"february":50,"average":35.0,"march":50,"id":"a69tnp1wk1u1","geo_precision":"street","december":40,"address":"400 W. Cottonwood","september":0,"fbc county code":"GARFIELD","state":"OK"},"type":"Feature","geometry":{"type":"Point","coordinates":[-97.872681,36.499635]}},{"properties":{"november":14,"city":"Enid","name":"F4K - Glenwood, Enid","no.":6145,"january":4,"geo_score":1.0,"october":10,"delivery date":"Thursday, 4th","zip code":"73703-3782","april":8,"february":8,"average":7.0,"march":4,"id":"a69tnowylgez","geo_precision":"range","december":0,"address":"824 N Oakwood Rd","september":8,"fbc county code":"GARFIELD","state":"OK"},"type":"Feature","geometry":{"type":"Point","coordinates":[-97.925872,36.404711]}},{"properties":{"november":0,"city":"Enid","name":"F4K - Hayes, Enid","no.":6146,"january":0,"geo_score":1.0,"october":6,"delivery date":"Thursday, 4th","zip code":"73703-7654","april":0,"february":0,"average":3.0,"march":8,"id":"a69tnou9pu4r","geo_precision":"range","december":10,"address":"2102 Beverly Drive","september":0,"fbc county code":"GARFIELD","state":"OK"},"type":"Feature","geometry":{"type":"Point","coordinates":[-97.904293,36.380482]}},{"properties":{"november":0,"city":"Enid","name":"F4K - Eisenhower, Enid","no.":6147,"january":0,"geo_score":1.0,"october":6,"delivery date":"Thursday, 4th","zip code":"73703-8527","april":0,"february":0,"average":0.75,"march":0,"id":"a69tnoqqap0q","geo_precision":"range","december":0,"address":"1301 W Fox Drive","september":0,"fbc county code":"GARFIELD","state":"OK"},"type":"Feature","geometry":{"type":"Point","coordinates":[-97.893168,36.347333]}},{"properties":{"november":4,"city":"Enid","name":"F4K -  Hoover, Enid","no.":6148,"january":4,"geo_score":0.625,"october":4,"delivery date":"Thursday, 4th","zip code":"73703-5143","april":8,"february":4,"average":5.5,"march":8,"id":"a69tnopf0a4j","geo_precision":"street","december":8,"address":"2800 W. Maine","september":4,"fbc county code":"GARFIELD","state":"OK"},"type":"Feature","geometry":{"type":"Point","coordinates":[-97.879848,36.395468]}},{"properties":{"november":4,"city":"Enid","name":"F4K - Chisholm, Enid","no.":6223,"january":3,"geo_score":0.694,"october":0,"delivery date":"Thursday, 4th","zip code":"73701-6621","april":6,"february":6,"average":4.75,"march":5,"id":"a69tnp3x5a4l","geo_precision":"street","december":6,"address":"300 Colorado","september":8,"fbc county code":"GARFIELD","state":"OK"},"type":"Feature","geometry":{"type":"Point","coordinates":[-98.048144,36.663841]}},{"properties":{"november":18,"city":"Enid","name":"F4K -  Adams, Enid","no.":6241,"january":18,"geo_score":0.873,"october":18,"delivery date":"Thursday, 4th","zip code":"73701-4656","april":0,"february":18,"average":10.75,"march":14,"id":"a69tnos1a3gn","geo_precision":"range","december":0,"address":"2200 E Randolph","september":0,"fbc county code":"GARFIELD","state":"OK"},"type":"Feature","geometry":{"type":"Point","coordinates":[-97.845756,36.39796]}},{"properties":{"november":40,"city":"Enid","name":"F4K - Coolidge, Enid","no.":6242,"january":27,"geo_score":0.82,"october":4,"delivery date":"Thursday, 4th","zip code":"73701-2800","april":28,"february":36,"average":26.88,"march":32,"id":"a69tnotjvcq4","geo_precision":"range","december":32,"address":"1515 E Ash","september":16,"fbc county code":"GARFIELD","state":"OK"},"type":"Feature","geometry":{"type":"Point","coordinates":[-97.855731,36.407112]}},{"properties":{"november":84,"city":"Enid","name":"F4K -  Garfield, Enid","no.":6243,"january":88,"geo_score":0.531,"october":126,"delivery date":"Thursday, 4th","zip code":"73701","april":110,"february":63,"average":87.75,"march":64,"id":"a69tnp3slp5f","geo_precision":"street","december":85,"address":"900 E. Broadway","september":82,"fbc county code":"GARFIELD","state":"OK"},"type":"Feature","geometry":{"type":"Point","coordinates":[-97.793365,36.669413]}},{"properties":{"november":13,"city":"Enid","name":"F4K -  McKinley, Enid","no.":6244,"january":14,"geo_score":0.927,"october":16,"delivery date":"Thursday, 4th","zip code":"73703-5621","april":6,"february":11,"average":11.25,"march":14,"id":"a69tnor8nzrv","geo_precision":"range","december":16,"address":"1701 W Broadway","september":0,"fbc county code":"GARFIELD","state":"OK"},"type":"Feature","geometry":{"type":"Point","coordinates":[-97.899006,36.396758]}},{"properties":{"november":12,"city":"Enid","name":"F4K - Taft, Enid","no.":6359,"january":17,"geo_score":0.941,"october":16,"delivery date":"Thursday, 4th","zip code":"73703-6925","april":7,"february":11,"average":12.38,"march":17,"id":"a69tnp0fwbvu","geo_precision":"range","december":12,"address":"1002 Sequoyah","september":7,"fbc county code":"GARFIELD","state":"OK"},"type":"Feature","geometry":{"type":"Point","coordinates":[-97.890268,36.389831]}},{"properties":{"november":0,"city":"Enid","name":"F4K - Pioneer-Pleasant Vale","no.":6583,"january":0,"geo_score":0.946,"october":0,"delivery date":"Thursday, 4th","zip code":"73701","april":16,"february":0,"average":4.5,"march":20,"id":"a69tnp3bip16","geo_precision":"range","december":0,"address":"6020 E Willow Rd","september":0,"fbc county code":"GARFIELD","state":"OK"},"type":"Feature","geometry":{"type":"Point","coordinates":[-97.790159,36.419512]}},{"properties":{"november":0,"city":"Maysville","name":"F4K - Maysville Elem, Maysvill","no.":6517,"january":0,"geo_score":0.603,"october":0,"delivery date":"Thursday, 2nd","zip code":"73057","april":5,"february":5,"average":3.38,"march":7,"id":"a69tnosnq83l","geo_precision":"street","december":10,"address":"600 First Street","september":0,"fbc county code":"GARFIELD","state":"OK"},"type":"Feature","geometry":{"type":"Point","coordinates":[-97.409692,34.82167]}},{"properties":{"november":4,"city":"Waukomis","name":"F4K - Waukomis, Waukomis","no.":6106,"january":12,"geo_score":0.824,"october":12,"delivery date":"Friday, 4th","zip code":"73773","april":2,"february":7,"average":11.63,"march":20,"id":"a69tnot4nppd","geo_precision":"range","december":16,"address":"301 S 3rd St","september":20,"fbc county code":"GARFIELD","state":"OK"},"type":"Feature","geometry":{"type":"Point","coordinates":[-97.9002,36.277733]}},{"properties":{"november":16,"city":"Medford","name":"F4K - Medford Elem, Medford","no.":6491,"january":28,"geo_score":0.808,"october":20,"delivery date":"Tuesday, 4th","zip code":"73759","april":6,"february":4,"average":12.5,"march":4,"id":"a69tnotzw3m8","geo_precision":"range","december":6,"address":"301 N Main St","september":16,"fbc county code":"GRANT","state":"OK"},"type":"Feature","geometry":{"type":"Point","coordinates":[-97.734969,36.809111]}},{"properties":{"november":1,"city":"Pond Creek","name":"F4K - Pond Creek-Hunter, Pond","no.":6484,"january":2,"geo_score":0.61,"october":0,"delivery date":"Tuesday, 4th","zip code":"73766","april":0,"february":2,"average":1.25,"march":0,"id":"a69tnp3rqs74","geo_precision":"street","december":1,"address":"200 E. Broadway","september":4,"fbc county code":"GRANT","state":"OK"},"type":"Feature","geometry":{"type":"Point","coordinates":[-97.79802,36.669389]}},{"properties":{"november":9,"city":"Blackwell","name":"F4K - Huston ECC, Blackwell","no.":6124,"january":10,"geo_score":0.92,"october":8,"delivery date":"Thursday, 2nd","zip code":"74631-4814","april":14,"february":10,"average":9.5,"march":11,"id":"a69tnp54ad85","geo_precision":"range","december":9,"address":"304 Vinnedge","september":5,"fbc county code":"KAY","state":"OK"},"type":"Feature","geometry":{"type":"Point","coordinates":[-97.28653,36.786249]}},{"properties":{"november":0,"city":"Blackwell","name":"F4K - Blackwell, Blackwell","no.":6125,"january":0,"geo_score":0.607,"october":20,"delivery date":"Thursday, 2nd","zip code":"74631-5412","april":20,"february":26,"average":15.25,"march":16,"id":"a69tnp1n86n8","geo_precision":"street","december":20,"address":"2105 W. Furguson","september":20,"fbc county code":"KAY","state":"OK"},"type":"Feature","geometry":{"type":"Point","coordinates":[-97.28365,36.79734]}},{"properties":{"november":8,"city":"Kildare","name":"F4K -  Kildare, Kildare","no.":6336,"january":6,"geo_score":0.721,"october":14,"delivery date":"Thursday, 2nd","zip code":"74604-7019","april":10,"february":8,"average":8.0,"march":4,"id":"a69tnp1cfj7z","geo_precision":"street","december":4,"address":"1265 Church St.","september":10,"fbc county code":"KAY","state":"OK"},"type":"Feature","geometry":{"type":"Point","coordinates":[-97.0493,36.8076]}},{"properties":{"november":4,"city":"Newkirk","name":"F4K - Newkirk, Newkirk","no.":6335,"january":4,"geo_score":0.482,"october":0,"delivery date":"Thursday, 2nd","zip code":"74647-0091","april":0,"february":4,"average":2.75,"march":4,"id":"a69tnorq9j8u","geo_precision":"street","december":6,"address":"701 W. South St.","september":0,"fbc county code":"KAY","state":"OK"},"type":"Feature","geometry":{"type":"Point","coordinates":[-97.05502,36.87584]}},{"properties":{"november":6,"city":"Ponca City","name":"Food 4 Kids-Trout, Ponca City","no.":6121,"january":4,"geo_score":0.61,"october":0,"delivery date":"Thursday, 2nd","zip code":"74604","april":5,"february":4,"average":6.25,"march":6,"id":"a69tnoqgvd9q","geo_precision":"street","december":7,"address":"2109 E. Prospect","september":18,"fbc county code":"KAY","state":"OK"},"type":"Feature","geometry":{"type":"Point","coordinates":[-97.039255,36.683586]}},{"properties":{"november":20,"city":"Ponca City","name":"F4K - Liberty, Ponca City","no.":6122,"january":12,"geo_score":0.468,"october":16,"delivery date":"Thursday, 2nd","zip code":"74601-2528","april":13,"february":22,"average":19.63,"march":30,"id":"a69tnp2yyj3r","geo_precision":"street","december":24,"address":"505 W. Liberty","september":20,"fbc county code":"KAY","state":"OK"},"type":"Feature","geometry":{"type":"Point","coordinates":[-97.086295,36.716943]}},{"properties":{"november":20,"city":"Ponca City","name":"F4K - Garfield, Ponca City","no.":6123,"january":12,"geo_score":0.5,"october":10,"delivery date":"Thursday, 2nd","zip code":"74601-6409","april":16,"february":20,"average":17.25,"march":18,"id":"a69tnp49ueyx","geo_precision":"street","december":20,"address":"600  S. 8th Street","september":22,"fbc county code":"KAY","state":"OK"},"type":"Feature","geometry":{"type":"Point","coordinates":[-97.074722,36.703486]}},{"properties":{"november":16,"city":"Ponca City","name":"F4K - McCord, Ponca City","no.":6181,"january":18,"geo_score":0.967,"october":18,"delivery date":"Thursday, 2nd","zip code":"74604-5965","april":14,"february":16,"average":16.75,"march":16,"id":"a69tnosc5h50","geo_precision":"range","december":16,"address":"977 South McCord Road","september":20,"fbc county code":"KAY","state":"OK"},"type":"Feature","geometry":{"type":"Point","coordinates":[-97.031494,36.665346]}},{"properties":{"november":18,"city":"Tonkawa","name":"F4K - Tonkawa, Tonkawa","no.":6338,"january":17,"geo_score":0.619,"october":18,"delivery date":"Thursday, 2nd","zip code":"74653-2503","april":20,"february":20,"average":20.75,"march":24,"id":"a69tnoxk4o3f","geo_precision":"street","december":26,"address":"501 N. Public","september":23,"fbc county code":"KAY","state":"OK"},"type":"Feature","geometry":{"type":"Point","coordinates":[-97.30075,36.678909]}},{"properties":{"november":0,"city":"Billings","name":"F4K - Billings Elem, Billings","no.":6253,"january":13,"geo_score":1.0,"october":0,"delivery date":"Thursday, 2nd","zip code":"74630","april":0,"february":20,"average":4.13,"march":0,"id":"a69tnp33kxfx","geo_precision":"range","december":0,"address":"113 N Central Street","september":0,"fbc county code":"NOBLE","state":"OK"},"type":"Feature","geometry":{"type":"Point","coordinates":[-97.44403,36.52898]}},{"properties":{"november":8,"city":"Morrison","name":"F4K - Morrison, Morrison","no.":6207,"january":24,"geo_score":0.676,"october":2,"delivery date":"Tuesday, 1st","zip code":"73061-0176","april":0,"february":0,"average":5.75,"march":12,"id":"a69tnp03kuqb","geo_precision":"range","december":0,"address":"400 2nd Street","september":0,"fbc county code":"NOBLE","state":"OK"},"type":"Feature","geometry":{"type":"Point","coordinates":[-97.006738,36.298323]}},{"properties":{"november":2,"city":"Perry","name":"F4K - Perry, Perry","no.":6050,"january":5,"geo_score":0.49,"october":0,"delivery date":"Thursday, 1st","zip code":"73077-3001","april":10,"february":5,"average":6.0,"march":4,"id":"a69tnp1gblnm","geo_precision":"street","december":7,"address":"1103 N. 15th St.","september":15,"fbc county code":"NOBLE","state":"OK"},"type":"Feature","geometry":{"type":"Point","coordinates":[-97.300737,36.283707]}},{"properties":{"november":10,"city":"Red Rock","name":"F4K - Frontier, Red Rock","no.":6228,"january":8,"geo_score":0.735,"october":6,"delivery date":"Thursday, 1st","zip code":"74651-0448","april":6,"february":12,"average":9.25,"march":8,"id":"a69tnop79qwr","geo_precision":"street","december":12,"address":"17750 Valley Road","september":12,"fbc county code":"NOBLE","state":"OK"},"type":"Feature","geometry":{"type":"Point","coordinates":[-97.068526,36.46367]}},{"properties":{"november":18,"city":"Cleveland","name":"F4K - Cleveland Int, Cleveland","no.":6154,"january":6,"geo_score":0.516,"october":10,"delivery date":"Tuesday, 4th","zip code":"74020-1026","april":10,"february":7,"average":9.38,"march":16,"id":"a69tnp1w7xnf","geo_precision":"street","december":0,"address":"705 N. Swan","september":8,"fbc county code":"PAWNEE","state":"OK"},"type":"Feature","geometry":{"type":"Point","coordinates":[-96.478888,36.318619]}},{"properties":{"november":30,"city":"Cleveland","name":"F4K - Cleveland Pri, Cleveland","no.":6478,"january":6,"geo_score":0.483,"october":16,"delivery date":"Tuesday, 4th","zip code":"74020","april":22,"february":7,"average":14.13,"march":18,"id":"a69tnopsw67g","geo_precision":"street","december":0,"address":"600 N. Gilbert","september":14,"fbc county code":"PAWNEE","state":"OK"},"type":"Feature","geometry":{"type":"Point","coordinates":[-96.476452,36.308883]}},{"properties":{"november":14,"city":"Cleveland","name":"F4K - Cleveland ECC, Cleveland","no.":6479,"january":4,"geo_score":0.483,"october":0,"delivery date":"Tuesday, 4th","zip code":"74020","april":1,"february":0,"average":4.63,"march":4,"id":"a69tnoucmih0","geo_precision":"street","december":0,"address":"600 N. Gilbert","september":14,"fbc county code":"PAWNEE","state":"OK"},"type":"Feature","geometry":{"type":"Point","coordinates":[-96.476452,36.308883]}},{"properties":{"november":0,"city":"Jennings","name":"F4K - Jennings, Jennings","no.":6578,"january":0,"geo_score":0.68,"october":0,"delivery date":"Monday, 1st","zip code":"74038","april":18,"february":0,"average":5.75,"march":28,"id":"a69tnp24jc05","geo_precision":"street","december":0,"address":"600 N Oak St","september":0,"fbc county code":"PAWNEE","state":"OK"},"type":"Feature","geometry":{"type":"Point","coordinates":[-96.568477,36.183324]}},{"properties":{"november":14,"city":"Pawnee","name":"F4K - Pawnee, Pawnee","no.":6119,"january":4,"geo_score":0.935,"october":14,"delivery date":"Thursday, 1st","zip code":"74058-3018","april":5,"february":2,"average":8.0,"march":7,"id":"a69tnp1fdbna","geo_precision":"range","december":0,"address":"602 Forest Street","september":18,"fbc county code":"PAWNEE","state":"OK"},"type":"Feature","geometry":{"type":"Point","coordinates":[-96.804028,36.335594]}},{"properties":{"november":10,"city":"Cushing","name":"F4K -  Deep Rock, Cushing","no.":6339,"january":12,"geo_score":0.915,"october":12,"delivery date":"Thursday, 1st","zip code":"74023-5987","april":12,"february":15,"average":9.13,"march":0,"id":"a69tnotdfhdk","geo_precision":"range","december":6,"address":"2601 North Linwood Ave.","september":6,"fbc county code":"PAYNE","state":"OK"},"type":"Feature","geometry":{"type":"Point","coordinates":[-96.749821,36.003002]}},{"properties":{"november":9,"city":"Cushing","name":"F4K - Harmony, Cushing","no.":6340,"january":8,"geo_score":0.489,"october":10,"delivery date":"Thursday, 1st","zip code":"74023-5534","april":8,"february":4,"average":8.38,"march":10,"id":"a69tnoq92vi4","geo_precision":"street","december":10,"address":"1601 S. Harmony Rd.","september":8,"fbc county code":"PAYNE","state":"OK"},"type":"Feature","geometry":{"type":"Point","coordinates":[-96.732005,35.977696]}},{"properties":{"november":11,"city":"Cushing","name":"F4K -  Harrison, Cushing","no.":6341,"january":12,"geo_score":0.494,"october":9,"delivery date":"Thursday, 1st","zip code":"74023-4322","april":7,"february":10,"average":11.25,"march":12,"id":"a69tnowhqmkq","geo_precision":"street","december":11,"address":"610 S. Noble St.","september":18,"fbc county code":"PAYNE","state":"OK"},"type":"Feature","geometry":{"type":"Point","coordinates":[-96.770162,35.978923]}},{"properties":{"november":0,"city":"Cushing","name":"F4K -  Sunnyside, Cushing","no.":6342,"january":11,"geo_score":0.494,"october":31,"delivery date":"Thursday, 1st","zip code":"74023-5887","april":14,"february":16,"average":15.25,"march":16,"id":"a69tnotqjrb3","geo_precision":"street","december":15,"address":"1919 S. Kings Hwy","september":19,"fbc county code":"PAYNE","state":"OK"},"type":"Feature","geometry":{"type":"Point","coordinates":[-96.785136,35.978525]}},{"properties":{"november":8,"city":"Cushing","name":"F4K - Wilson, Cushing","no.":6343,"january":4,"geo_score":0.5,"october":5,"delivery date":"Thursday, 1st","zip code":"74023-4103","april":4,"february":2,"average":5.13,"march":8,"id":"a69tnox41ag7","geo_precision":"street","december":2,"address":"1140 E. Cherry","september":8,"fbc county code":"PAYNE","state":"OK"},"type":"Feature","geometry":{"type":"Point","coordinates":[-96.743158,35.979397]}},{"properties":{"november":21,"city":"Cushing","name":"F4K - Oak Grove Pub, Cushing","no.":6513,"january":22,"geo_score":0.817,"october":14,"delivery date":"Thursday, 1st","zip code":"74023","april":20,"february":18,"average":17.0,"march":20,"id":"a69tnouqbnzc","geo_precision":"range","december":21,"address":"8409 E 9th Street","september":0,"fbc county code":"PAYNE","state":"OK"},"type":"Feature","geometry":{"type":"Point","coordinates":[-96.642337,35.971225]}},{"properties":{"november":28,"city":"Perkins","name":"F4K - Perkins, Perkins","no.":6208,"january":22,"geo_score":0.503,"october":14,"delivery date":"Tuesday, 1st","zip code":"74059-0549","april":16,"february":20,"average":18.0,"march":20,"id":"a69tnot0dc3r","geo_precision":"street","december":16,"address":"1008 E. Kirk","september":8,"fbc county code":"PAYNE","state":"OK"},"type":"Feature","geometry":{"type":"Point","coordinates":[-97.031098,35.978181]}},{"properties":{"november":5,"city":"Perkins","name":"F4K - Perkins-Tryon Interm","no.":6533,"january":12,"geo_score":0.749,"october":0,"delivery date":"Tuesday, 1st","zip code":"74059","april":4,"february":4,"average":4.63,"march":3,"id":"a69tnosqu3jg","geo_precision":"range","december":9,"address":"103 SW 2nd","september":0,"fbc county code":"PAYNE","state":"OK"},"type":"Feature","geometry":{"type":"Point","coordinates":[-97.036278,35.974024]}},{"properties":{"november":16,"city":"Ripley","name":"F4K - Ripley, Ripley","no.":6229,"january":16,"geo_score":1.0,"october":18,"delivery date":"Thursday, 1st","zip code":"74062","april":17,"february":18,"average":18.5,"march":21,"id":"a69tnoznndfr","geo_precision":"range","december":16,"address":"6001 Berry Ave","september":26,"fbc county code":"PAYNE","state":"OK"},"type":"Feature","geometry":{"type":"Point","coordinates":[-96.903751,36.014986]}},{"properties":{"november":16,"city":"Yale","name":"F4K - Yale, Yale","no.":6344,"january":0,"geo_score":0.708,"october":18,"delivery date":"Monday, 1st","zip code":"74085-2527","april":16,"february":28,"average":18.75,"march":20,"id":"a69tnoqv5xlt","geo_precision":"street","december":32,"address":"800 North C Street","september":20,"fbc county code":"PAYNE","state":"OK"},"type":"Feature","geometry":{"type":"Point","coordinates":[-96.696491,36.118072]}}],"is_temporal":false,"author":{"url":"","metadata":"","contact_name":"","contact_address":"","source":"","contact_phone":""},"source":"","pagination":{"sort":null,"start":0,"total":45,"limit":1000000},"state":"complete","tags":"","published":"2014-08-15T04:14:18-04:00","id":239076}