{"type":"FeatureCollection","data_type":"Dataset","url_type":null,"permissions":[{"permissions":{"download":true,"view":true},"group_id":"everyone"}],"classification":null,"title":"FFK School Locations - Central Region","count":219,"stream_id":239073,"contributor":{"url":"http://geocommons.com/users/45183","name":"eck74"},"data_attributes":null,"calculation_params":null,"icon_link":null,"link":"http://geocommons.com/overlays/239073.json","extent":[-98.6033,34.7827,-97.1591,36.1096],"geometry_types":["point"],"unique_name":null,"name":"FFK School Locations - Central Region","feature_count":219,"description":"","next_feature":null,"is_raster":false,"short_classification":"Y","stats":{"november":{"max":230,"mean":16.3059360730594,"variance":552.323404968371,"stdev":23.5015617559423,"min":0,"median":10},"january":{"max":108,"mean":11.6301369863014,"variance":271.142390348121,"stdev":16.4664018640419,"min":0,"median":5},"october":{"max":67,"mean":10.5753424657534,"variance":175.915169033556,"stdev":13.263301588728,"min":0,"median":6},"april":{"max":130,"mean":15.310502283105,"variance":403.829751581417,"stdev":20.0955157082723,"min":0,"median":8},"february":{"max":242,"mean":19.0547945205479,"variance":736.345607641071,"stdev":27.1356888182532,"min":0,"median":12},"average":{"max":92.75,"mean":13.9132420091324,"variance":168.929021092539,"stdev":12.9972697553193,"min":0.0,"median":10.0},"march":{"max":102,"mean":15.2785388127854,"variance":294.211051066147,"stdev":17.1525814694508,"min":0,"median":10},"december":{"max":120,"mean":11.5616438356164,"variance":315.770265175317,"stdev":17.7699258629663,"min":0,"median":4},"september":{"max":280,"mean":11.5753424657534,"variance":527.034435088602,"stdev":22.9572305622564,"min":0,"median":6}},"features":[{"properties":{"november":14,"city":"Anadarko","name":"F4K - Sunset, Anadarko","no.":"6458","january":10,"geo_score":0.558,"october":8,"delivery date":"Thursday, 3rd","zip code":"73005","april":14,"february":12,"average":15.25,"march":12,"id":"a629r23gdo3f","geo_precision":"street","december":20,"address":"508 South w 7th Street","september":32,"fbc county code":"CADDO","state":"OK"},"type":"Feature","geometry":{"type":"Point","coordinates":[-98.23375,35.070583]}},{"properties":{"november":0,"city":"Anadarko","name":"F4K - Mission, Anadarko","no.":"6459","january":0,"geo_score":0.941,"october":0,"delivery date":"Thursday, 3rd","zip code":"73005","april":7,"february":0,"average":2.38,"march":0,"id":"a629r2335pta","geo_precision":"range","december":0,"address":"1200 S Mission","september":12,"fbc county code":"CADDO","state":"OK"},"type":"Feature","geometry":{"type":"Point","coordinates":[-98.251421,35.06473]}},{"properties":{"november":14,"city":"Anadarko","name":"F4K - East Elem, Anadarko","no.":"6477","january":18,"geo_score":0.794,"october":8,"delivery date":"Thursday, 3rd","zip code":"73005","april":20,"february":20,"average":17.0,"march":24,"id":"a629r23ukfie","geo_precision":"range","december":12,"address":"107 SE 5th St","september":20,"fbc county code":"CADDO","state":"OK"},"type":"Feature","geometry":{"type":"Point","coordinates":[-98.237136,35.074806]}},{"properties":{"november":48,"city":"Apache","name":"F4K - Apache, Apache","no.":"6099","january":0,"geo_score":0.93,"october":12,"delivery date":"Monday, 4th","zip code":"73006","april":0,"february":0,"average":13.5,"march":32,"id":"a629r1xsql0n","geo_precision":"range","december":0,"address":"522 Floyd Ave","september":16,"fbc county code":"CADDO","state":"OK"},"type":"Feature","geometry":{"type":"Point","coordinates":[-98.360277,34.893091]}},{"properties":{"november":18,"city":"Carnegie","name":"F4K - Carnegie, Carnegie","no.":"6460","january":12,"geo_score":0.482,"october":12,"delivery date":"Thursday, 3rd","zip code":"73015","april":28,"february":26,"average":18.5,"march":18,"id":"a629r2cxd6xb","geo_precision":"street","december":18,"address":"315 S. Carnegie St.","september":16,"fbc county code":"CADDO","state":"OK"},"type":"Feature","geometry":{"type":"Point","coordinates":[-98.603315,35.103833]}},{"properties":{"november":12,"city":"Cyril","name":"F4K - Cyril, Cyril","no.":"6455","january":12,"geo_score":0.62,"october":0,"delivery date":"Monday, 4th","zip code":"73029","april":0,"february":12,"average":5.25,"march":0,"id":"a629r2dsp2zv","geo_precision":"street","december":0,"address":"100 Windle Ave","september":6,"fbc county code":"CADDO","state":"OK"},"type":"Feature","geometry":{"type":"Point","coordinates":[-98.200859,34.898526]}},{"properties":{"november":0,"city":"Gracemont","name":"F4K - Gracemont, Gracemont","no.":"6584","january":0,"geo_score":0.812,"october":0,"delivery date":"Thursday, 3rd","zip code":"73042","april":50,"february":0,"average":6.25,"march":0,"id":"a629r2dz2m6s","geo_precision":"street","december":0,"address":"439 Gracemont St","september":0,"fbc county code":"CADDO","state":"OK"},"type":"Feature","geometry":{"type":"Point","coordinates":[-98.255731,35.189434]}},{"properties":{"november":0,"city":"Hinton","name":"F4K - Hinton Elem, Hinton","no.":"6577","january":0,"geo_score":0.919,"october":0,"delivery date":"Tuesday, 1st","zip code":"73047","april":20,"february":0,"average":6.75,"march":34,"id":"a629r28zhpzu","geo_precision":"range","december":0,"address":"400 S Broadway Ave","september":0,"fbc county code":"CADDO","state":"OK"},"type":"Feature","geometry":{"type":"Point","coordinates":[-98.355555,35.46834]}},{"properties":{"november":20,"city":"Hydro","name":"F4K - Hydro-Eakly, Hydro","no.":"6136","january":18,"geo_score":0.78,"october":20,"delivery date":"Friday, 2nd","zip code":"73048-8636","april":33,"february":18,"average":18.13,"march":18,"id":"a629r28lyn0f","geo_precision":"range","december":18,"address":"529 E 6th Street","september":0,"fbc county code":"CADDO","state":"OK"},"type":"Feature","geometry":{"type":"Point","coordinates":[-98.571473,35.550551]}},{"properties":{"november":0,"city":"Lookeba","name":"F4K - Lookeba-Sickles, Lookeba","no.":"6555","january":0,"geo_score":0.447,"october":0,"delivery date":"Tuesday, 1st","zip code":"73053","april":10,"february":14,"average":4.75,"march":14,"id":"a629r2cg2ue1","geo_precision":"street","december":0,"address":"10108 CR 1150","september":0,"fbc county code":"CADDO","state":"OK"},"type":"Feature","geometry":{"type":"Point","coordinates":[-97.773963,35.271454]}},{"properties":{"november":5,"city":"El Reno","name":"F4K - Webster, El Reno","no.":"6100","january":0,"geo_score":0.727,"october":7,"delivery date":"Monday, 1st","zip code":"73036","april":3,"february":4,"average":4.88,"march":5,"id":"a629r2ajkvos","geo_precision":"range","december":10,"address":"100 North L","september":5,"fbc county code":"CANADIAN","state":"OK"},"type":"Feature","geometry":{"type":"Point","coordinates":[-97.941524,35.533238]}},{"properties":{"november":12,"city":"El Reno","name":"F4K - Lincoln, El Reno","no.":"6115","january":0,"geo_score":0.805,"october":8,"delivery date":"Monday, 1st","zip code":"73036","april":14,"february":14,"average":11.0,"march":12,"id":"a629r21yir9l","geo_precision":"range","december":20,"address":"500 S Keith","september":8,"fbc county code":"CANADIAN","state":"OK"},"type":"Feature","geometry":{"type":"Point","coordinates":[-97.964057,35.529574]}},{"properties":{"november":6,"city":"El Reno","name":"F4K - Rose Witcher, El Reno","no.":"6199","january":0,"geo_score":0.464,"october":7,"delivery date":"Monday, 1st","zip code":"73036-4848","april":24,"february":14,"average":9.38,"march":16,"id":"a629r28r4tff","geo_precision":"street","december":4,"address":"901 S. Williams","september":4,"fbc county code":"CANADIAN","state":"OK"},"type":"Feature","geometry":{"type":"Point","coordinates":[-97.948211,35.532278]}},{"properties":{"november":28,"city":"El Reno","name":"F4K -  Darlington, El Reno","no.":"6200","january":0,"geo_score":0.819,"october":40,"delivery date":"Monday, 1st","zip code":"73036-8916","april":16,"february":20,"average":22.5,"march":16,"id":"a629r2bjeibv","geo_precision":"range","december":60,"address":"4408 N HWY 81","september":0,"fbc county code":"CANADIAN","state":"OK"},"type":"Feature","geometry":{"type":"Point","coordinates":[-97.959476,35.573909]}},{"properties":{"november":0,"city":"El Reno","name":"F4K - Hillcrest, El Reno","no.":"6210","january":5,"geo_score":0.476,"october":0,"delivery date":"Monday, 1st","zip code":"73036-5431","april":8,"february":6,"average":4.13,"march":9,"id":"a629r2blnmpp","geo_precision":"street","december":1,"address":"1302 S. Miles","september":4,"fbc county code":"CANADIAN","state":"OK"},"type":"Feature","geometry":{"type":"Point","coordinates":[-97.959127,35.532733]}},{"properties":{"november":0,"city":"El Reno","name":"F4K - Banner Elementary, Banne","no.":"6540","january":0,"geo_score":0.707,"october":0,"delivery date":"Monday, 1st","zip code":"73036","april":6,"february":12,"average":7.13,"march":15,"id":"a629r1zqz5de","geo_precision":"street","december":24,"address":"2455 N Banner Road","september":0,"fbc county code":"CANADIAN","state":"OK"},"type":"Feature","geometry":{"type":"Point","coordinates":[-97.851791,35.58027]}},{"properties":{"november":10,"city":"Moore","name":"F4K - Santa Fe Elem, Moore","no.":"6534","january":8,"geo_score":0.748,"october":0,"delivery date":"Thursday, 3rd","zip code":"73160","april":8,"february":8,"average":5.88,"march":13,"id":"a629r247mscm","geo_precision":"street","december":0,"address":"501 N Santa Fe","september":0,"fbc county code":"CANADIAN","state":"OK"},"type":"Feature","geometry":{"type":"Point","coordinates":[-97.484012,35.341474]}},{"properties":{"november":12,"city":"Yukon","name":"F4K - Mustang Trails, Mustang","no.":"6055","january":0,"geo_score":0.841,"october":10,"delivery date":"Monday, 1st","zip code":"73099","april":23,"february":18,"average":14.0,"march":15,"id":"a629r1xw3de1","geo_precision":"range","december":22,"address":"12025 SW 15th St","september":12,"fbc county code":"CANADIAN","state":"OK"},"type":"Feature","geometry":{"type":"Point","coordinates":[-97.736765,35.449954]}},{"properties":{"november":10,"city":"Yukon","name":"F4K - Mustang Creek, Mustang","no.":"6113","january":0,"geo_score":0.841,"october":16,"delivery date":"Monday, 1st","zip code":"73099","april":12,"february":14,"average":12.38,"march":9,"id":"a629r2akrhq3","geo_precision":"range","december":26,"address":"10821 SW 15th St","september":12,"fbc county code":"CANADIAN","state":"OK"},"type":"Feature","geometry":{"type":"Point","coordinates":[-97.711502,35.449694]}},{"properties":{"november":8,"city":"Mustang","name":"F4K - Lakehoma, Mustang","no.":"6198","january":0,"geo_score":0.859,"october":0,"delivery date":"Monday, 1st","zip code":"73064-1110","april":6,"february":0,"average":3.38,"march":1,"id":"a629r25cx3c5","geo_precision":"range","december":12,"address":"224 S Clearspring Road","september":0,"fbc county code":"CANADIAN","state":"OK"},"type":"Feature","geometry":{"type":"Point","coordinates":[-97.760015,35.390637]}},{"properties":{"november":14,"city":"Mustang","name":"F4K - Centennial, Mustang","no.":"6232","january":0,"geo_score":1.0,"october":10,"delivery date":"Monday, 1st","zip code":"73064","april":0,"february":0,"average":10.25,"march":0,"id":"a629r27qwiin","geo_precision":"range","december":44,"address":"700 S Czech Hall Rd","september":14,"fbc county code":"CANADIAN","state":"OK"},"type":"Feature","geometry":{"type":"Point","coordinates":[-97.742347,35.389215]}},{"properties":{"november":10,"city":"Mustang","name":"F4K - Mustang, Mustang","no.":"6233","january":2,"geo_score":1.0,"october":0,"delivery date":"Monday, 1st","zip code":"73064","april":13,"february":17,"average":10.25,"march":18,"id":"a629r2939u85","geo_precision":"range","december":15,"address":"400 S Mustang Rd","september":7,"fbc county code":"CANADIAN","state":"OK"},"type":"Feature","geometry":{"type":"Point","coordinates":[-97.724563,35.388469]}},{"properties":{"november":0,"city":"Union City","name":"F4K - Union City, Union City","no.":"6576","january":0,"geo_score":0.753,"october":0,"delivery date":"Monday, 1st","zip code":"73090","april":42,"february":0,"average":7.5,"march":18,"id":"a629r26d11sa","geo_precision":"street","december":0,"address":"105 W Division","september":0,"fbc county code":"CANADIAN","state":"OK"},"type":"Feature","geometry":{"type":"Point","coordinates":[-97.943699,35.39175]}},{"properties":{"november":0,"city":"Yukon","name":"F4K - Stone Ridge, Piedmont","no.":"6442","january":0,"geo_score":0.485,"october":4,"delivery date":"Monday, 1st","zip code":"73099","april":4,"february":6,"average":4.13,"march":4,"id":"a629r25p12k5","geo_precision":"street","december":12,"address":"10000 W. Memorial","september":3,"fbc county code":"CANADIAN","state":"OK"},"type":"Feature","geometry":{"type":"Point","coordinates":[-97.674017,35.611713]}},{"properties":{"november":0,"city":"Yukon","name":"F4K - Ranchwood Elem, Yukon","no.":"6487","january":0,"geo_score":0.856,"october":12,"delivery date":"Monday, 1st","zip code":"73099","april":4,"february":2,"average":7.63,"march":10,"id":"a629r27c6k5g","geo_precision":"range","december":16,"address":"607 Annawood Rd","september":17,"fbc county code":"CANADIAN","state":"OK"},"type":"Feature","geometry":{"type":"Point","coordinates":[-97.735925,35.513686]}},{"properties":{"november":16,"city":"Yukon","name":"F4K - Shedeck Elem, Yukon","no.":"6500","january":0,"geo_score":0.508,"october":20,"delivery date":"Monday, 1st","zip code":"73099","april":42,"february":14,"average":17.25,"march":0,"id":"a629r1z2r9gi","geo_precision":"street","december":46,"address":"2100 S. Holly","september":0,"fbc county code":"CANADIAN","state":"OK"},"type":"Feature","geometry":{"type":"Point","coordinates":[-97.805002,35.576327]}},{"properties":{"november":2,"city":"Yukon","name":"F4K - Lakeview Elem, Yukon","no.":"6516","january":0,"geo_score":0.768,"october":0,"delivery date":"Monday, 1st","zip code":"73099","april":0,"february":0,"average":0.25,"march":0,"id":"a629r2a7iarm","geo_precision":"range","december":0,"address":"872 S Yukon Parkway","september":0,"fbc county code":"CANADIAN","state":"OK"},"type":"Feature","geometry":{"type":"Point","coordinates":[-97.756537,35.500664]}},{"properties":{"november":18,"city":"Yukon","name":"F4K - Skyview Elementary","no.":"6519","january":0,"geo_score":0.768,"october":2,"delivery date":"Monday, 1st","zip code":"73099","april":0,"february":0,"average":2.5,"march":0,"id":"a629r2705wzp","geo_precision":"range","december":0,"address":"650 S Yukon Parkway","september":0,"fbc county code":"CANADIAN","state":"OK"},"type":"Feature","geometry":{"type":"Point","coordinates":[-97.753725,35.500211]}},{"properties":{"november":26,"city":"Yukon","name":"F4K - Central Elem, Yukon","no.":"6520","january":0,"geo_score":0.72,"october":28,"delivery date":"Monday, 1st","zip code":"73099","april":26,"february":28,"average":24.0,"march":28,"id":"a629r28bcqsg","geo_precision":"range","december":56,"address":"300 S 9th","september":0,"fbc county code":"CANADIAN","state":"OK"},"type":"Feature","geometry":{"type":"Point","coordinates":[-97.756869,35.504737]}},{"properties":{"november":30,"city":"Yukon","name":"F4K - Myers Elem, Yukon","no.":"6521","january":0,"geo_score":0.817,"october":24,"delivery date":"Monday, 1st","zip code":"73099","april":0,"february":42,"average":22.13,"march":17,"id":"a629r20gkwml","geo_precision":"range","december":64,"address":"1200 S 1st St","september":0,"fbc county code":"CANADIAN","state":"OK"},"type":"Feature","geometry":{"type":"Point","coordinates":[-97.744752,35.495236]}},{"properties":{"november":6,"city":"Yukon","name":"F4K - Independence Elem, Yukon","no.":"6523","january":0,"geo_score":0.847,"october":6,"delivery date":"Monday, 1st","zip code":"73099","april":10,"february":6,"average":6.25,"march":8,"id":"a629r207xma8","geo_precision":"range","december":14,"address":"500 E Vandament","september":0,"fbc county code":"CANADIAN","state":"OK"},"type":"Feature","geometry":{"type":"Point","coordinates":[-97.736077,35.493381]}},{"properties":{"november":6,"city":"Yukon","name":"F4K - Surrey Hills Elem, Yukon","no.":"6527","january":0,"geo_score":0.825,"october":2,"delivery date":"Monday, 1st","zip code":"73099","april":4,"february":0,"average":2.75,"march":4,"id":"a629r1y3y0in","geo_precision":"range","december":6,"address":"10700 N Hastings Blvd","september":0,"fbc county code":"CANADIAN","state":"OK"},"type":"Feature","geometry":{"type":"Point","coordinates":[-97.721854,35.575845]}},{"properties":{"november":4,"city":"Lexington","name":"F4K - Lexington El, Lexington","no.":"6404","january":0,"geo_score":0.826,"october":8,"delivery date":"Monday, 1st","zip code":"73051-9023","april":9,"february":0,"average":5.63,"march":6,"id":"a629r212m8bt","geo_precision":"range","december":18,"address":"420 NE 4th St","september":0,"fbc county code":"CLEVELAND","state":"OK"},"type":"Feature","geometry":{"type":"Point","coordinates":[-97.329372,35.018569]}},{"properties":{"november":6,"city":"Lexington","name":"F4K - Lexington Int, Lexington","no.":"6510","january":0,"geo_score":0.826,"october":7,"delivery date":"Monday, 1st","zip code":"73051-9023","april":4,"february":4,"average":5.13,"march":4,"id":"a629r1xy5o4q","geo_precision":"range","december":16,"address":"420 NE 4th St","september":0,"fbc county code":"CLEVELAND","state":"OK"},"type":"Feature","geometry":{"type":"Point","coordinates":[-97.329372,35.018569]}},{"properties":{"november":26,"city":"Moore","name":"F4K - Houchin, Moore","no.":"6135","january":36,"geo_score":0.571,"october":19,"delivery date":"Thursday, 3rd","zip code":"73160-1063","april":34,"february":26,"average":28.0,"march":40,"id":"a629r1zi42ht","geo_precision":"street","december":29,"address":"3200 N. Webster","september":14,"fbc county code":"CLEVELAND","state":"OK"},"type":"Feature","geometry":{"type":"Point","coordinates":[-97.507823,35.367011]}},{"properties":{"november":22,"city":"Moore","name":"F4K - Southgate-Rippetoe, Moor","no.":"6170","january":40,"geo_score":1.0,"october":30,"delivery date":"Thursday, 3rd","zip code":"73160-2131","april":6,"february":34,"average":25.75,"march":12,"id":"a629r25hisr1","geo_precision":"range","december":46,"address":"500 N Norman Ave","september":16,"fbc county code":"CLEVELAND","state":"OK"},"type":"Feature","geometry":{"type":"Point","coordinates":[-97.505091,35.341211]}},{"properties":{"november":9,"city":"Moore","name":"F4K - Apple Creek, Moore","no.":"6171","january":0,"geo_score":0.625,"october":4,"delivery date":"Thursday, 4th","zip code":"73160-7058","april":0,"february":3,"average":2.5,"march":0,"id":"a629r2cc28rp","geo_precision":"street","december":0,"address":"1101 S.E. 14th St.","september":4,"fbc county code":"CLEVELAND","state":"OK"},"type":"Feature","geometry":{"type":"Point","coordinates":[-97.505558,35.350152]}},{"properties":{"november":34,"city":"Moore","name":"F4K -  Central, Moore","no.":"6201","january":16,"geo_score":0.916,"october":12,"delivery date":"Thursday, 4th","zip code":"73160-5119","april":11,"february":44,"average":16.63,"march":0,"id":"a629r22tsaoy","geo_precision":"range","december":0,"address":"123 NW 2nd Street","september":16,"fbc county code":"CLEVELAND","state":"OK"},"type":"Feature","geometry":{"type":"Point","coordinates":[-97.487012,35.340459]}},{"properties":{"november":4,"city":"Moore","name":"F4K - Plaza Towers, Moore","no.":"6203","january":4,"geo_score":0.927,"october":4,"delivery date":"Thursday, 3rd","zip code":"73160-2651","april":0,"february":0,"average":3.88,"march":0,"id":"a629r2bqz954","geo_precision":"range","december":0,"address":"852 SW 11th Street","september":19,"fbc county code":"CLEVELAND","state":"OK"},"type":"Feature","geometry":{"type":"Point","coordinates":[-97.504443,35.326619]}},{"properties":{"november":24,"city":"Moore","name":"F4K -  Winding Creek, Moore","no.":"6204","january":4,"geo_score":0.854,"october":30,"delivery date":"Thursday, 4th","zip code":"73160-6833","april":0,"february":30,"average":12.75,"march":0,"id":"a629r1ztre8u","geo_precision":"range","december":0,"address":"1401 NE 12th Ave","september":14,"fbc county code":"CLEVELAND","state":"OK"},"type":"Feature","geometry":{"type":"Point","coordinates":[-97.46601,35.34867]}},{"properties":{"november":13,"city":"Moore","name":"F4K - Kelley, Moore","no.":"6211","january":13,"geo_score":0.614,"october":12,"delivery date":"Thursday, 3rd","zip code":"73160-1515","april":24,"february":21,"average":15.75,"march":8,"id":"a629r2c17tns","geo_precision":"street","december":13,"address":"1900 N. Janeway Ave.","september":22,"fbc county code":"CLEVELAND","state":"OK"},"type":"Feature","geometry":{"type":"Point","coordinates":[-97.498666,35.326539]}},{"properties":{"november":6,"city":"Moore","name":"F4K -  Broadmoore, Moore","no.":"6212","january":8,"geo_score":0.947,"october":0,"delivery date":"Thursday, 4th","zip code":"73160-7521","april":0,"february":5,"average":2.88,"march":0,"id":"a629r27nagfc","geo_precision":"range","december":0,"address":"3401 S Broadway","september":4,"fbc county code":"CLEVELAND","state":"OK"},"type":"Feature","geometry":{"type":"Point","coordinates":[-97.469902,35.306325]}},{"properties":{"november":0,"city":"Moore","name":"F4K - Fisher Elem, Moore","no.":"6512","january":6,"geo_score":0.911,"october":8,"delivery date":"Thursday, 2nd","zip code":"73170","april":0,"february":1,"average":2.38,"march":0,"id":"a629r29dyct0","geo_precision":"range","december":4,"address":"11800 Southwood Drive","september":0,"fbc county code":"CLEVELAND","state":"OK"},"type":"Feature","geometry":{"type":"Point","coordinates":[-97.559152,35.351206]}},{"properties":{"november":28,"city":"Noble","name":"F4K - Hubbard, Noble","no.":"6126","january":0,"geo_score":0.495,"october":36,"delivery date":"Monday, 1st","zip code":"73068-8432","april":32,"february":30,"average":29.75,"march":28,"id":"a629r20itit0","geo_precision":"street","december":60,"address":"1104 Marguire Road","september":24,"fbc county code":"CLEVELAND","state":"OK"},"type":"Feature","geometry":{"type":"Point","coordinates":[-97.499012,35.643343]}},{"properties":{"november":20,"city":"Noble","name":"F4K - K. Daily, Noble","no.":"6180","january":0,"geo_score":0.829,"october":22,"delivery date":"Monday, 1st","zip code":"73068","april":38,"february":36,"average":26.75,"march":32,"id":"a629r28azuww","geo_precision":"range","december":42,"address":"500 N 5TH ST","september":24,"fbc county code":"CLEVELAND","state":"OK"},"type":"Feature","geometry":{"type":"Point","coordinates":[-97.391951,35.144715]}},{"properties":{"november":6,"city":"Noble","name":"F4K - Pioneer, Noble","no.":"6449","january":0,"geo_score":0.829,"october":12,"delivery date":"Monday, 1st","zip code":"73068","april":13,"february":12,"average":12.25,"march":10,"id":"a629r2ag9zwc","geo_precision":"range","december":31,"address":"112 N 8th St","september":14,"fbc county code":"CLEVELAND","state":"OK"},"type":"Feature","geometry":{"type":"Point","coordinates":[-97.388514,35.139449]}},{"properties":{"november":12,"city":"Norman","name":"F4K - Washington, Norman","no.":"6054","january":4,"geo_score":0.619,"october":2,"delivery date":"Monday, 2nd","zip code":"73072","april":4,"february":10,"average":8.25,"march":16,"id":"a629r2bzw0rq","geo_precision":"street","december":10,"address":"600 48th Ave S.E.","september":8,"fbc county code":"CLEVELAND","state":"OK"},"type":"Feature","geometry":{"type":"Point","coordinates":[-97.511826,35.218374]}},{"properties":{"november":44,"city":"Norman","name":"F4K - Wilson, Norman","no.":"6066","january":28,"geo_score":0.913,"october":18,"delivery date":"Monday, 2nd","zip code":"73069-7866","april":18,"february":26,"average":22.0,"march":26,"id":"a629r29xexos","geo_precision":"range","december":0,"address":"800 N Peters Ave","september":16,"fbc county code":"CLEVELAND","state":"OK"},"type":"Feature","geometry":{"type":"Point","coordinates":[-97.444413,35.227695]}},{"properties":{"november":0,"city":"Norman","name":"F4K - Little Axe, Norman","no.":"6068","january":0,"geo_score":0.883,"october":30,"delivery date":"Monday, 1st","zip code":"73026-9010","april":12,"february":42,"average":17.5,"march":16,"id":"a629r23a84kr","geo_precision":"range","december":10,"address":"2000 NE 168th Avenue","september":30,"fbc county code":"CLEVELAND","state":"OK"},"type":"Feature","geometry":{"type":"Point","coordinates":[-97.194337,35.241851]}},{"properties":{"november":22,"city":"Norman","name":"F4K - Kennedy, Norman","no.":"6071","january":30,"geo_score":0.935,"october":24,"delivery date":"Monday, 2nd","zip code":"73071-2531","april":22,"february":25,"average":24.5,"march":27,"id":"a629r21r4082","geo_precision":"range","december":24,"address":"621 Sunrise","september":22,"fbc county code":"CLEVELAND","state":"OK"},"type":"Feature","geometry":{"type":"Point","coordinates":[-97.41968,35.21238]}},{"properties":{"november":7,"city":"Norman","name":"F4K - Jefferson, Norman","no.":"6072","january":8,"geo_score":0.683,"october":6,"delivery date":"Monday, 2nd","zip code":"73071-6012","april":6,"february":9,"average":7.13,"march":9,"id":"a629r2415fjw","geo_precision":"zip","december":6,"address":"250 N Cochrel St","september":6,"fbc county code":"CLEVELAND","state":"OK"},"type":"Feature","geometry":{"type":"Point","coordinates":[-97.300313,35.254049]}},{"properties":{"november":7,"city":"Norman","name":"F4K - Monroe, Norman","no.":"6073","january":4,"geo_score":0.571,"october":6,"delivery date":"Monday, 4th","zip code":"73072-5855","april":7,"february":4,"average":5.25,"march":4,"id":"a629r1zbfz9u","geo_precision":"street","december":4,"address":"1601 S. McGee","september":6,"fbc county code":"CLEVELAND","state":"OK"},"type":"Feature","geometry":{"type":"Point","coordinates":[-97.467784,35.203906]}},{"properties":{"november":0,"city":"Norman","name":"F4K - Roosevelt, Norman","no.":"6074","january":0,"geo_score":1.0,"october":0,"delivery date":"Monday, 4th","zip code":"73072","april":0,"february":0,"average":0.0,"march":0,"id":"a629r2blw37u","geo_precision":"range","december":0,"address":"4250 W Tecumseh Road","september":0,"fbc county code":"CLEVELAND","state":"OK"},"type":"Feature","geometry":{"type":"Point","coordinates":[-97.504168,35.261877]}},{"properties":{"november":14,"city":"Norman","name":"F4K - Lincoln, Norman","no.":"6075","january":16,"geo_score":0.894,"october":14,"delivery date":"Monday, 2nd","zip code":"73071-5013","april":16,"february":18,"average":15.5,"march":16,"id":"a629r21xswkh","geo_precision":"range","december":18,"address":"915 Classen","september":12,"fbc county code":"CLEVELAND","state":"OK"},"type":"Feature","geometry":{"type":"Point","coordinates":[-97.436388,35.215224]}},{"properties":{"november":6,"city":"Norman","name":"F4K - Eisenhower, Norman","no.":"6082","january":6,"geo_score":0.941,"october":0,"delivery date":"Monday, 2nd","zip code":"73071-3622","april":0,"february":6,"average":4.5,"march":12,"id":"a629r29wuvm1","geo_precision":"range","december":6,"address":"1415 Fairlawn","september":0,"fbc county code":"CLEVELAND","state":"OK"},"type":"Feature","geometry":{"type":"Point","coordinates":[-97.419648,35.238892]}},{"properties":{"november":51,"city":"Norman","name":"F4K - Lakeview, Norman","no.":"6083","january":0,"geo_score":0.805,"october":6,"delivery date":"Monday, 2nd","zip code":"73021","april":6,"february":12,"average":13.88,"march":18,"id":"a629r21654kc","geo_precision":"range","december":0,"address":"3310 108th Ave NE","september":18,"fbc county code":"CLEVELAND","state":"OK"},"type":"Feature","geometry":{"type":"Point","coordinates":[-97.282833,35.259095]}},{"properties":{"november":19,"city":"Norman","name":"F4K - Madison, Norman","no.":"6084","january":0,"geo_score":1.0,"october":18,"delivery date":"Monday, 2nd","zip code":"73072-6548","april":11,"february":20,"average":15.13,"march":18,"id":"a629r26o354g","geo_precision":"range","december":18,"address":"500 James Dr","september":17,"fbc county code":"CLEVELAND","state":"OK"},"type":"Feature","geometry":{"type":"Point","coordinates":[-97.436845,35.198733]}},{"properties":{"november":0,"city":"Norman","name":"F4K - Dimensions, Norman","no.":"6104","january":4,"geo_score":0.633,"october":0,"delivery date":"Monday, 2nd","zip code":"73071-5300","april":0,"february":4,"average":2.0,"march":4,"id":"a629r2axslhs","geo_precision":"street","december":4,"address":"1120 E. Main St.","september":0,"fbc county code":"CLEVELAND","state":"OK"},"type":"Feature","geometry":{"type":"Point","coordinates":[-97.43775,35.223278]}},{"properties":{"november":49,"city":"Norman","name":"F4K - Adams, Norman","no.":"6172","january":40,"geo_score":0.913,"october":56,"delivery date":"Monday, 4th","zip code":"73069-7553","april":56,"february":40,"average":42.38,"march":46,"id":"a629r2266zpz","geo_precision":"range","december":23,"address":"817 Denison Dr","september":29,"fbc county code":"CLEVELAND","state":"OK"},"type":"Feature","geometry":{"type":"Point","coordinates":[-97.458074,35.227942]}},{"properties":{"november":10,"city":"Norman","name":"F4K -  McKinley, Norman","no.":"6187","january":9,"geo_score":0.492,"october":10,"delivery date":"Monday, 4th","zip code":"73069-4555","april":2,"february":11,"average":6.88,"march":6,"id":"a629r1z2hwoo","geo_precision":"street","december":0,"address":"728 S. Flood Ave.","september":7,"fbc county code":"CLEVELAND","state":"OK"},"type":"Feature","geometry":{"type":"Point","coordinates":[-97.453014,35.216767]}},{"properties":{"november":8,"city":"Norman","name":"F4K - Cleveland, Norman","no.":"6251","january":8,"geo_score":0.796,"october":8,"delivery date":"Monday, 4th","zip code":"73069-6840","april":8,"february":8,"average":8.0,"march":8,"id":"a629r24gpch3","geo_precision":"range","december":8,"address":"500 Sherry","september":8,"fbc county code":"CLEVELAND","state":"OK"},"type":"Feature","geometry":{"type":"Point","coordinates":[-97.467783,35.224337]}},{"properties":{"november":2,"city":"Norman","name":"F4K - Truman Primary, Norman","no.":"6425","january":4,"geo_score":0.878,"october":6,"delivery date":"Monday, 4th","zip code":"73072","april":2,"february":0,"average":2.0,"march":2,"id":"a629r23eahmt","geo_precision":"range","december":0,"address":"601 Meadow Ridge Road","september":0,"fbc county code":"CLEVELAND","state":"OK"},"type":"Feature","geometry":{"type":"Point","coordinates":[-97.50668,35.230293]}},{"properties":{"november":6,"city":"Norman","name":"F4K - Pass B Elem, Norman","no.":"6538","january":12,"geo_score":0.935,"october":6,"delivery date":"Monday, 4th","zip code":"73071","april":0,"february":24,"average":8.5,"march":20,"id":"a629r246x78n","geo_precision":"range","december":0,"address":"310 12th Ave NE","september":0,"fbc county code":"CLEVELAND","state":"OK"},"type":"Feature","geometry":{"type":"Point","coordinates":[-97.423619,35.219996]}},{"properties":{"november":0,"city":"Oklahoma City","name":"F4K - Fairview, Moore","no.":"6116","january":0,"geo_score":0.854,"october":2,"delivery date":"Thursday, 2nd","zip code":"73159-6319","april":0,"february":15,"average":5.13,"march":6,"id":"a629r27b9rbn","geo_precision":"range","december":16,"address":"2431 SW 89th","september":2,"fbc county code":"CLEVELAND","state":"OK"},"type":"Feature","geometry":{"type":"Point","coordinates":[-97.556151,35.377118]}},{"properties":{"november":0,"city":"Oklahoma City","name":"F4K -  Eastlake, Moore","no.":"6194","january":2,"geo_score":1.0,"october":0,"delivery date":"Thursday, 2nd","zip code":"73170-5103","april":0,"february":0,"average":0.5,"march":2,"id":"a629r2bffs4z","geo_precision":"range","december":0,"address":"1301 SW 134th Street","september":0,"fbc county code":"CLEVELAND","state":"OK"},"type":"Feature","geometry":{"type":"Point","coordinates":[-97.533907,35.334233]}},{"properties":{"november":0,"city":"Oklahoma City","name":"F4K -  Briarwood, Moore","no.":"6195","january":4,"geo_score":0.619,"october":4,"delivery date":"Thursday, 3rd","zip code":"73170-7280","april":0,"february":0,"average":1.25,"march":2,"id":"a629r2clh5j6","geo_precision":"street","december":0,"address":"14901 S. Hudson Ave.","september":0,"fbc county code":"CLEVELAND","state":"OK"},"type":"Feature","geometry":{"type":"Point","coordinates":[-97.519351,35.326619]}},{"properties":{"november":22,"city":"Oklahoma City","name":"F4K - Sky Ranch, Moore","no.":"6202","january":28,"geo_score":0.61,"october":22,"delivery date":"Thursday, 2nd","zip code":"73139-2732","april":22,"february":20,"average":21.75,"march":22,"id":"a629r2bflh28","geo_precision":"street","december":22,"address":"9501 S. Western","september":16,"fbc county code":"CLEVELAND","state":"OK"},"type":"Feature","geometry":{"type":"Point","coordinates":[-97.530182,35.405249]}},{"properties":{"november":9,"city":"Oklahoma City","name":"F4K - Wayland Bonds, Moore","no.":"6205","january":3,"geo_score":0.633,"october":7,"delivery date":"Thursday, 2nd","zip code":"73170-2014","april":7,"february":4,"average":6.38,"march":7,"id":"a629r24dkahu","geo_precision":"street","december":2,"address":"14025 S. May","september":12,"fbc county code":"CLEVELAND","state":"OK"},"type":"Feature","geometry":{"type":"Point","coordinates":[-97.565417,35.358625]}},{"properties":{"november":16,"city":"Oklahoma City","name":"F4K -  Kingsgate, Moore","no.":"6206","january":2,"geo_score":0.61,"october":20,"delivery date":"Thursday, 2nd","zip code":"73065","april":12,"february":14,"average":12.38,"march":9,"id":"a629r2dhfc7y","geo_precision":"street","december":18,"address":"1400 Kingsgate Road","september":8,"fbc county code":"CLEVELAND","state":"OK"},"type":"Feature","geometry":{"type":"Point","coordinates":[-97.765411,35.496286]}},{"properties":{"november":36,"city":"Oklahoma City","name":"F4K -  Northmoor, Moore","no.":"6209","january":14,"geo_score":0.764,"october":0,"delivery date":"Thursday, 4th","zip code":"73160-4501","april":16,"february":36,"average":15.0,"march":0,"id":"a629r22rvk5q","geo_precision":"range","december":0,"address":"211 NE 19th","september":18,"fbc county code":"CLEVELAND","state":"OK"},"type":"Feature","geometry":{"type":"Point","coordinates":[-97.492657,35.354648]}},{"properties":{"november":4,"city":"Oklahoma City","name":"F4K - Bryant, Moore","no.":"6250","january":5,"geo_score":0.483,"october":3,"delivery date":"Thursday, 4th","zip code":"73160-9105","april":0,"february":7,"average":3.13,"march":0,"id":"a629r28u1eui","geo_precision":"street","december":0,"address":"9400 s. Bryant Ave","september":6,"fbc county code":"CLEVELAND","state":"OK"},"type":"Feature","geometry":{"type":"Point","coordinates":[-97.459215,35.326606]}},{"properties":{"november":9,"city":"Oklahoma City","name":"F4K - Heritage Trails, OKC","no.":"6422","january":7,"geo_score":0.329,"october":6,"delivery date":"Thursday, 4th","zip code":"73150","april":8,"february":11,"average":5.88,"march":0,"id":"a629r264xlz3","geo_precision":"street","december":0,"address":"1801 S. Bryant","september":6,"fbc county code":"CLEVELAND","state":"OK"},"type":"Feature","geometry":{"type":"Point","coordinates":[-97.459205,35.452023]}},{"properties":{"november":0,"city":"Oklahoma City","name":"F4K - Earlywine Elem, Moore","no.":"6539","january":0,"geo_score":0.875,"october":0,"delivery date":"Thursday, 2nd","zip code":"73170","april":0,"february":0,"average":0.0,"march":0,"id":"a629r271dmns","geo_precision":"range","december":0,"address":"12800 S May","september":0,"fbc county code":"CLEVELAND","state":"OK"},"type":"Feature","geometry":{"type":"Point","coordinates":[-97.565329,35.34088]}},{"properties":{"november":57,"city":"Alex","name":"F4K -  Alex, Alex","no.":"6230","january":0,"geo_score":0.657,"october":0,"delivery date":"Monday, 4th","zip code":"73002-0188","april":0,"february":40,"average":28.38,"march":40,"id":"a629r25a3vy3","geo_precision":"street","december":40,"address":"209 S. 2nd Street","september":50,"fbc county code":"GRADY","state":"OK"},"type":"Feature","geometry":{"type":"Point","coordinates":[-97.777514,34.913872]}},{"properties":{"november":0,"city":"Blanchard","name":"F4K - Bridge Creek, Blanchard","no.":"6047","january":6,"geo_score":0.717,"october":0,"delivery date":"Wednesday, 3rd","zip code":"73010","april":7,"february":4,"average":3.25,"march":9,"id":"a629r1yqmben","geo_precision":"street","december":0,"address":"2209 E Sooner Rd","september":0,"fbc county code":"GRADY","state":"OK"},"type":"Feature","geometry":{"type":"Point","coordinates":[-97.732737,35.232804]}},{"properties":{"november":14,"city":"Blanchard","name":"F4K - Middleberg, Blanchard","no.":"6179","january":0,"geo_score":0.585,"october":12,"delivery date":"Monday, 4th","zip code":"73010-3515","april":0,"february":0,"average":4.25,"march":0,"id":"a629r21uj8u9","geo_precision":"range","december":0,"address":"2130 County Road 1317","september":8,"fbc county code":"GRADY","state":"OK"},"type":"Feature","geometry":{"type":"Point","coordinates":[-97.159094,35.491095]}},{"properties":{"november":38,"city":"Chickasha","name":"F4K - Lincoln, Chickasha","no.":"6224","january":21,"geo_score":0.785,"october":10,"delivery date":"Monday, 4th","zip code":"73018-3636","april":24,"february":34,"average":18.5,"march":19,"id":"a629r2bfx9kf","geo_precision":"range","december":2,"address":"103 W Dakota","september":0,"fbc county code":"GRADY","state":"OK"},"type":"Feature","geometry":{"type":"Point","coordinates":[-97.932545,35.045231]}},{"properties":{"november":37,"city":"Chickasha","name":"F4K - Southwest, Chickasha","no.":"6238","january":25,"geo_score":0.522,"october":24,"delivery date":"Monday, 4th","zip code":"73108","april":26,"february":21,"average":21.63,"march":24,"id":"a629r2b75wab","geo_precision":"street","december":0,"address":"900 W Choctaw","september":16,"fbc county code":"GRADY","state":"OK"},"type":"Feature","geometry":{"type":"Point","coordinates":[-97.264907,35.396764]}},{"properties":{"november":20,"city":"Chickasha","name":"F4K - Grand Ave, Chickasha","no.":"6239","january":48,"geo_score":0.87,"october":20,"delivery date":"Monday, 4th","zip code":"73018-5443","april":0,"february":0,"average":26.5,"march":40,"id":"a629r28h3fz7","geo_precision":"range","december":0,"address":"1415 Grand Ave","september":84,"fbc county code":"GRADY","state":"OK"},"type":"Feature","geometry":{"type":"Point","coordinates":[-97.95079,35.029556]}},{"properties":{"november":16,"city":"Chickasha","name":"F4K - Bill Wallace, Chickasha","no.":"6240","january":9,"geo_score":0.835,"october":0,"delivery date":"Monday, 4th","zip code":"73018-3254","april":6,"february":2,"average":5.88,"march":4,"id":"a629r2az9mhz","geo_precision":"range","december":10,"address":"1000 W Minnesota","september":0,"fbc county code":"GRADY","state":"OK"},"type":"Feature","geometry":{"type":"Point","coordinates":[-97.945669,35.04641]}},{"properties":{"november":0,"city":"Chickasha","name":"F4K - Friend Elem, Chickasha","no.":"6511","january":6,"geo_score":0.391,"october":10,"delivery date":"Monday, 4th","zip code":"73018","april":2,"february":0,"average":4.25,"march":0,"id":"a629r27k27ze","geo_precision":"street","december":6,"address":"1307 County Road 1350","september":10,"fbc county code":"GRADY","state":"OK"},"type":"Feature","geometry":{"type":"Point","coordinates":[-97.61339,34.855222]}},{"properties":{"november":44,"city":"Chickasha","name":"F4K - Pioneer Pub, Chickasha","no.":"6522","january":30,"geo_score":0.815,"october":34,"delivery date":"Monday, 4th","zip code":"73018","april":26,"february":22,"average":28.0,"march":22,"id":"a629r2ae6vt5","geo_precision":"range","december":20,"address":"3686 St Hwy 92","september":26,"fbc county code":"GRADY","state":"OK"},"type":"Feature","geometry":{"type":"Point","coordinates":[-97.976762,35.009887]}},{"properties":{"november":7,"city":"Pocasset","name":"F4K -  Amber-Pocasset Elem","no.":"6225","january":30,"geo_score":0.687,"october":0,"delivery date":"Monday, 4th","zip code":"73079","april":0,"february":30,"average":16.88,"march":30,"id":"a629r2dxn36x","geo_precision":"street","december":38,"address":"511 S Washington Street","september":0,"fbc county code":"GRADY","state":"OK"},"type":"Feature","geometry":{"type":"Point","coordinates":[-97.954355,35.19287]}},{"properties":{"november":6,"city":"Rush Springs","name":"F4K - Rush Springs, Rush Sprin","no.":"6448","january":6,"geo_score":0.585,"october":2,"delivery date":"Tuesday, 2nd","zip code":"73082","april":8,"february":13,"average":5.38,"march":4,"id":"a629r2as70uz","geo_precision":"street","december":0,"address":"601 W Blakely St","september":4,"fbc county code":"GRADY","state":"OK"},"type":"Feature","geometry":{"type":"Point","coordinates":[-97.96053,34.782731]}},{"properties":{"november":0,"city":"Verden","name":"F4K - Verden Elem, Verden","no.":"6574","january":0,"geo_score":1.0,"october":0,"delivery date":"Monday, 4th","zip code":"73092","april":2,"february":18,"average":4.25,"march":14,"id":"a629r2cuhn08","geo_precision":"range","december":0,"address":"196 Locust St","september":0,"fbc county code":"GRADY","state":"OK"},"type":"Feature","geometry":{"type":"Point","coordinates":[-98.084387,35.085061]}},{"properties":{"november":100,"city":"Hennessey","name":"F4K - Hennessey Upper Elem","no.":"6149","january":26,"geo_score":0.924,"october":0,"delivery date":"Friday, 4th","zip code":"73742-1250","april":0,"february":44,"average":36.25,"march":80,"id":"a629r230a6zb","geo_precision":"range","december":40,"address":"120 N Mitchell Road","september":0,"fbc county code":"KINGFISHER","state":"OK"},"type":"Feature","geometry":{"type":"Point","coordinates":[-97.89005,36.109571]}},{"properties":{"november":0,"city":"Hennessey","name":"F4K - Hennessey Lower Elem","no.":"6547","january":0,"geo_score":0.871,"october":0,"delivery date":"Friday, 4th","zip code":"73742","april":0,"february":0,"average":0.0,"march":0,"id":"a629r2dyniaf","geo_precision":"range","december":0,"address":"120 N Mitchell","september":0,"fbc county code":"KINGFISHER","state":"OK"},"type":"Feature","geometry":{"type":"Point","coordinates":[-97.89005,36.109571]}},{"properties":{"november":24,"city":"Kingfisher","name":"F4K - Gilmour, Kingfisher","no.":"6183","january":10,"geo_score":1.0,"october":0,"delivery date":"Friday, 4th","zip code":"73750-4314","april":10,"february":2,"average":7.75,"march":12,"id":"a629r1z9p381","geo_precision":"range","december":4,"address":"1400 S Oak Street","september":0,"fbc county code":"KINGFISHER","state":"OK"},"type":"Feature","geometry":{"type":"Point","coordinates":[-97.937153,35.845419]}},{"properties":{"november":10,"city":"Kingfisher","name":"F4K - Kingfisher Heritage Elem","no.":"6545","january":3,"geo_score":0.902,"october":0,"delivery date":"Friday, 4th","zip code":"73750","april":4,"february":6,"average":4.63,"march":6,"id":"a629r276e4yh","geo_precision":"range","december":8,"address":"600 South 9th St","september":0,"fbc county code":"KINGFISHER","state":"OK"},"type":"Feature","geometry":{"type":"Point","coordinates":[-97.936554,35.855792]}},{"properties":{"november":0,"city":"Okarche","name":"F4K - Okarche, Okarche","no.":"6586","january":0,"geo_score":0.709,"october":0,"delivery date":"Tuesday, 4th","zip code":"73762","april":10,"february":0,"average":2.25,"march":8,"id":"a629r1yw8jhz","geo_precision":"street","december":0,"address":"315 N 6th St","september":0,"fbc county code":"KINGFISHER","state":"OK"},"type":"Feature","geometry":{"type":"Point","coordinates":[-97.981096,35.726929]}},{"properties":{"november":12,"city":"Crescent","name":"F4K - Crescent, Crescent","no.":"6117","january":0,"geo_score":0.915,"october":12,"delivery date":"Monday, 2nd","zip code":"73028-9199","april":12,"february":4,"average":7.75,"march":10,"id":"a629r26zijfi","geo_precision":"range","december":6,"address":"106 N Magnolia St","september":6,"fbc county code":"LOGAN","state":"OK"},"type":"Feature","geometry":{"type":"Point","coordinates":[-97.590177,35.953109]}},{"properties":{"november":0,"city":"Guthrie","name":"F4K - Fogarty, Guthrie","no.":"6053","january":17,"geo_score":0.51,"october":0,"delivery date":"Tuesday, 3rd","zip code":"73044-1882","april":24,"february":11,"average":10.75,"march":20,"id":"a629r1xucz3u","geo_precision":"street","december":14,"address":"902 N. Wentz","september":0,"fbc county code":"LOGAN","state":"OK"},"type":"Feature","geometry":{"type":"Point","coordinates":[-97.424086,35.885326]}},{"properties":{"november":8,"city":"Guthrie","name":"F4K - Cotteral, Guthrie","no.":"6092","january":0,"geo_score":0.497,"october":0,"delivery date":"Tuesday, 3rd","zip code":"73044-2171","april":15,"february":10,"average":9.0,"march":10,"id":"a629r28eafn5","geo_precision":"street","december":8,"address":"2001 W. Noble Ave","september":21,"fbc county code":"LOGAN","state":"OK"},"type":"Feature","geometry":{"type":"Point","coordinates":[-97.426559,35.880128]}},{"properties":{"november":8,"city":"Guthrie","name":"F4K - Central, Guthrie","no.":"6102","january":14,"geo_score":0.649,"october":8,"delivery date":"Tuesday, 3rd","zip code":"73044-3310","april":10,"february":14,"average":10.0,"march":10,"id":"a629r21t3qhj","geo_precision":"street","december":8,"address":"321 E Noble","september":8,"fbc county code":"LOGAN","state":"OK"},"type":"Feature","geometry":{"type":"Point","coordinates":[-97.406228,35.879789]}},{"properties":{"november":18,"city":"Guthrie","name":"F4K - Guthrie Upper, Guthrie","no.":"6105","january":25,"geo_score":0.884,"october":17,"delivery date":"Tuesday, 3rd","zip code":"73044-3932","april":34,"february":35,"average":23.13,"march":15,"id":"a629r26ongup","geo_precision":"range","december":20,"address":"702 Crooks Dr","september":21,"fbc county code":"LOGAN","state":"OK"},"type":"Feature","geometry":{"type":"Point","coordinates":[-97.417452,35.892589]}},{"properties":{"november":0,"city":"Blanchard","name":"F4K - Blanchard Elem, Blanchar","no.":"6548","january":5,"geo_score":0.512,"october":0,"delivery date":"Tuesday, 2nd","zip code":"73010","april":12,"february":13,"average":6.5,"march":12,"id":"a629r2728d85","geo_precision":"street","december":10,"address":"1620 N Main","september":0,"fbc county code":"MCCLAIN","state":"OK"},"type":"Feature","geometry":{"type":"Point","coordinates":[-97.658341,35.150911]}},{"properties":{"november":0,"city":"Blanchard","name":"Blanchard Intermed, Blanchard","no.":"6568","january":0,"geo_score":0.839,"october":0,"delivery date":"Tuesday, 2nd","zip code":"73010","april":0,"february":8,"average":1.5,"march":4,"id":"a629r26admv3","geo_precision":"range","december":0,"address":"400 N Harrison","september":0,"fbc county code":"MCCLAIN","state":"OK"},"type":"Feature","geometry":{"type":"Point","coordinates":[-97.654631,35.139913]}},{"properties":{"november":12,"city":"Newcastle","name":"F4K - Newcastle, Newcastle","no.":"6169","january":0,"geo_score":0.854,"october":30,"delivery date":"Wednesday, 1st","zip code":"73065","april":26,"february":0,"average":24.75,"march":20,"id":"a629r27pfd89","geo_precision":"range","december":84,"address":"400 NW 10th","september":26,"fbc county code":"MCCLAIN","state":"OK"},"type":"Feature","geometry":{"type":"Point","coordinates":[-97.604413,35.255998]}},{"properties":{"november":0,"city":"Purcell","name":"F4K - Purcell, Purcell","no.":"6167","january":0,"geo_score":0.51,"october":0,"delivery date":"Monday, 1st","zip code":"73080-2029","april":4,"february":2,"average":3.0,"march":2,"id":"a629r2d3xo5o","geo_precision":"street","december":4,"address":"809 N. 9th","september":12,"fbc county code":"MCCLAIN","state":"OK"},"type":"Feature","geometry":{"type":"Point","coordinates":[-97.370934,35.020806]}},{"properties":{"november":4,"city":"Purcell","name":"F4K - Purcell Inter, Purcell","no.":"6168","january":0,"geo_score":0.51,"october":0,"delivery date":"Monday, 1st","zip code":"73080-2010","april":2,"february":0,"average":3.5,"march":6,"id":"a629r2b4kz4i","geo_precision":"street","december":12,"address":"919 1/2 N. 9th Street","september":4,"fbc county code":"MCCLAIN","state":"OK"},"type":"Feature","geometry":{"type":"Point","coordinates":[-97.370934,35.020806]}},{"properties":{"november":6,"city":"Purcell","name":"F4K - Purcell Middle, Purcell","no.":"6252","january":0,"geo_score":0.51,"october":4,"delivery date":"Monday, 1st","zip code":"73080-2041","april":4,"february":5,"average":7.0,"march":10,"id":"a629r2bwn5n0","geo_precision":"street","december":15,"address":"711 N. 9th","september":12,"fbc county code":"MCCLAIN","state":"OK"},"type":"Feature","geometry":{"type":"Point","coordinates":[-97.370934,35.020806]}},{"properties":{"november":0,"city":"Wayne","name":"F4K - Wayne, Wayne","no.":"6405","january":8,"geo_score":0.614,"october":0,"delivery date":"Monday, 1st","zip code":"73095-3186","april":0,"february":8,"average":4.0,"march":8,"id":"a629r24lqbi7","geo_precision":"street","december":0,"address":"212 S. Seifried","september":8,"fbc county code":"MCCLAIN","state":"OK"},"type":"Feature","geometry":{"type":"Point","coordinates":[-97.318407,34.91672]}},{"properties":{"november":14,"city":"Bethany","name":"F4K - Apollo, Bethany","no.":"6046","january":36,"geo_score":0.831,"october":6,"delivery date":"Tuesday, 2nd &amp; 4th","zip code":"73008-6155","april":20,"february":18,"average":15.5,"march":10,"id":"a629r2abgsdy","geo_precision":"range","december":4,"address":"1901 N Peniel","september":16,"fbc county code":"OKLAHOMA","state":"OK"},"type":"Feature","geometry":{"type":"Point","coordinates":[-97.627934,35.489674]}},{"properties":{"november":8,"city":"Bethany","name":"F4K - Overholser, Bethany","no.":"6196","january":0,"geo_score":0.772,"october":8,"delivery date":"Tuesday, 2nd &amp; 4th","zip code":"73008-3127","april":0,"february":8,"average":5.5,"march":8,"id":"a629r23dp67l","geo_precision":"range","december":12,"address":"7900 NW 36th","september":0,"fbc county code":"OKLAHOMA","state":"OK"},"type":"Feature","geometry":{"type":"Point","coordinates":[-97.651837,35.507807]}},{"properties":{"november":16,"city":"Bethany","name":"F4K - Western Oaks, Bethany","no.":"6397","january":23,"geo_score":0.772,"october":12,"delivery date":"Tuesday, 2nd &amp; 4th","zip code":"73008","april":48,"february":21,"average":19.75,"march":18,"id":"a629r28hpkn2","geo_precision":"range","december":14,"address":"7210 NW 23rd","september":6,"fbc county code":"OKLAHOMA","state":"OK"},"type":"Feature","geometry":{"type":"Point","coordinates":[-97.639049,35.493393]}},{"properties":{"november":20,"city":"Bethany","name":"F4K - Lake Park Elem, Bethany","no.":"6535","january":7,"geo_score":0.772,"october":6,"delivery date":"Thursday, 4th","zip code":"73008","april":0,"february":9,"average":5.25,"march":0,"id":"a629r228p0wf","geo_precision":"range","december":0,"address":"8221 NW 30th","september":0,"fbc county code":"OKLAHOMA","state":"OK"},"type":"Feature","geometry":{"type":"Point","coordinates":[-97.657878,35.500503]}},{"properties":{"november":0,"city":"Bethany","name":"F4K - Earl Harris Ele, Bethany","no.":"6573","january":0,"geo_score":0.846,"october":0,"delivery date":"Thursday, 4th","zip code":"73008","april":0,"february":16,"average":2.0,"march":0,"id":"a629r23nxlya","geo_precision":"range","december":0,"address":"6721 NW 42nd St","september":0,"fbc county code":"OKLAHOMA","state":"OK"},"type":"Feature","geometry":{"type":"Point","coordinates":[-97.630921,35.51508]}},{"properties":{"november":3,"city":"Choctaw","name":"F4K - Nicoma Park, Choctaw","no.":"6088","january":4,"geo_score":0.916,"october":4,"delivery date":"Wednesday, 2nd","zip code":"73020","april":2,"february":0,"average":2.63,"march":4,"id":"a629r2cvhw4u","geo_precision":"range","december":4,"address":"1200 Hickman Ave","september":0,"fbc county code":"OKLAHOMA","state":"OK"},"type":"Feature","geometry":{"type":"Point","coordinates":[-97.32665,35.479647]}},{"properties":{"november":10,"city":"Choctaw","name":"F4K - Indian Meridian, Choctaw","no.":"6114","january":7,"geo_score":0.474,"october":8,"delivery date":"Wednesday, 2nd","zip code":"73020-6523","april":0,"february":0,"average":5.13,"march":8,"id":"a629r2dvjdj3","geo_precision":"street","december":3,"address":"1865 S. Indian Meridian","september":5,"fbc county code":"OKLAHOMA","state":"OK"},"type":"Feature","geometry":{"type":"Point","coordinates":[-97.247428,35.464182]}},{"properties":{"november":8,"city":"Choctaw","name":"F4K - L.W. Westfall, Choctaw","no.":"6400","january":0,"geo_score":0.77,"october":6,"delivery date":"Wednesday, 2nd","zip code":"73020-8106","april":5,"february":3,"average":6.25,"march":1,"id":"a629r1zpkcpq","geo_precision":"range","december":19,"address":"13239 NE 10th","september":8,"fbc county code":"OKLAHOMA","state":"OK"},"type":"Feature","geometry":{"type":"Point","coordinates":[-97.296063,35.478657]}},{"properties":{"november":4,"city":"Choctaw","name":"F4K - Choctaw, Choctaw","no.":"6437","january":6,"geo_score":0.741,"october":2,"delivery date":"Wednesday, 2nd","zip code":"73020","april":4,"february":0,"average":2.75,"march":0,"id":"a629r2cj0pdy","geo_precision":"range","december":2,"address":"14663 NE 3rd St.","september":4,"fbc county code":"OKLAHOMA","state":"OK"},"type":"Feature","geometry":{"type":"Point","coordinates":[-97.271513,35.498864]}},{"properties":{"november":6,"city":"Del City","name":"F4K - Epperly Heights, Del Cit","no.":"6398","january":16,"geo_score":0.911,"october":10,"delivery date":"Wednesday, 4th","zip code":"73115-2326","april":8,"february":8,"average":9.25,"march":10,"id":"a629r234tvyb","geo_precision":"range","december":6,"address":"3805 Del Road","september":10,"fbc county code":"OKLAHOMA","state":"OK"},"type":"Feature","geometry":{"type":"Point","coordinates":[-97.448971,35.440709]}},{"properties":{"november":20,"city":"Del City","name":"F4K - Del City, Del City","no.":"6441","january":18,"geo_score":0.911,"october":16,"delivery date":"Monday, 2nd","zip code":"73115","april":23,"february":12,"average":16.63,"march":16,"id":"a629r230updr","geo_precision":"range","december":16,"address":"2400 Epperly Drive","september":12,"fbc county code":"OKLAHOMA","state":"OK"},"type":"Feature","geometry":{"type":"Point","coordinates":[-97.436976,35.440934]}},{"properties":{"november":20,"city":"Del City","name":"F4K - Townsend Elem, Del City","no.":"6497","january":14,"geo_score":0.911,"october":16,"delivery date":"Wednesday, 4th","zip code":"73115","april":12,"february":12,"average":10.25,"march":8,"id":"a629r2a1oyvx","geo_precision":"range","december":0,"address":"4000 Epperly Drive","september":0,"fbc county code":"OKLAHOMA","state":"OK"},"type":"Feature","geometry":{"type":"Point","coordinates":[-97.436897,35.426064]}},{"properties":{"november":42,"city":"Edmond","name":"F4K - Orvis Risner, Edmond","no.":"6235","january":36,"geo_score":0.505,"october":36,"delivery date":"Thursday, 1st","zip code":"73013","april":34,"february":26,"average":36.5,"march":44,"id":"a629r2c68f4j","geo_precision":"street","december":40,"address":"2801 S. Rankin","september":34,"fbc county code":"OKLAHOMA","state":"OK"},"type":"Feature","geometry":{"type":"Point","coordinates":[-97.473746,35.638306]}},{"properties":{"november":7,"city":"Edmond","name":"F4K - Centennial, Edmond","no.":"6248","january":6,"geo_score":0.861,"october":7,"delivery date":"Thursday, 1st","zip code":"73034-9173","april":5,"february":7,"average":5.88,"march":6,"id":"a629r22v8gh9","geo_precision":"range","december":9,"address":"4400 N Coltrane","september":0,"fbc county code":"OKLAHOMA","state":"OK"},"type":"Feature","geometry":{"type":"Point","coordinates":[-97.442974,35.706951]}},{"properties":{"november":8,"city":"Edmond","name":"F4K - Will Rogers, Edmond","no.":"6260","january":2,"geo_score":0.518,"october":4,"delivery date":"Thursday, 1st","zip code":"73034-5708","april":2,"february":4,"average":5.25,"march":10,"id":"a629r27a0bvb","geo_precision":"street","december":2,"address":"1215 E. 9thth","september":10,"fbc county code":"OKLAHOMA","state":"OK"},"type":"Feature","geometry":{"type":"Point","coordinates":[-97.479569,35.645559]}},{"properties":{"november":23,"city":"Edmond","name":"F4K - Sunset, Edmond","no.":"6412","january":24,"geo_score":0.643,"october":2,"delivery date":"Thursday, 1st","zip code":"73003","april":21,"february":16,"average":22.63,"march":36,"id":"a629r27jmqgs","geo_precision":"street","december":26,"address":"400 W. 8th St.","september":33,"fbc county code":"OKLAHOMA","state":"OK"},"type":"Feature","geometry":{"type":"Point","coordinates":[-97.482207,35.64694]}},{"properties":{"november":0,"city":"Edmond","name":"F4K - Angie Debo, Edmond","no.":"6436","january":2,"geo_score":0.88,"october":0,"delivery date":"Tuesday, 2nd","zip code":"73013","april":6,"february":5,"average":2.5,"march":3,"id":"a629r28d7hba","geo_precision":"range","december":2,"address":"16060 May Ave","september":2,"fbc county code":"OKLAHOMA","state":"OK"},"type":"Feature","geometry":{"type":"Point","coordinates":[-97.567149,35.63156]}},{"properties":{"november":25,"city":"Edmond","name":"F4K - Ida Freeman, Edmond","no.":"6438","january":23,"geo_score":1.0,"october":14,"delivery date":"Tuesday, 2nd","zip code":"73003","april":24,"february":24,"average":19.88,"march":21,"id":"a629r216djv8","geo_precision":"range","december":12,"address":"501 West Hurd St.","september":16,"fbc county code":"OKLAHOMA","state":"OK"},"type":"Feature","geometry":{"type":"Point","coordinates":[-97.490088,35.656756]}},{"properties":{"november":8,"city":"Edmond","name":"F4K - Northern Hills, Edmond","no.":"6443","january":12,"geo_score":0.5,"october":6,"delivery date":"Tuesday, 2nd","zip code":"73034","april":4,"february":8,"average":9.75,"march":16,"id":"a629r237qqby","geo_precision":"street","december":12,"address":"901 E. Wayne","september":12,"fbc county code":"OKLAHOMA","state":"OK"},"type":"Feature","geometry":{"type":"Point","coordinates":[-97.478313,35.660973]}},{"properties":{"november":0,"city":"Edmond","name":"F4K - West Field, Edmond","no.":"6444","january":0,"geo_score":0.484,"october":0,"delivery date":"Tuesday, 2nd","zip code":"73012","april":0,"february":4,"average":1.0,"march":4,"id":"a629r26381kb","geo_precision":"street","december":0,"address":"17601 N Penn","september":0,"fbc county code":"OKLAHOMA","state":"OK"},"type":"Feature","geometry":{"type":"Point","coordinates":[-97.961487,35.535895]}},{"properties":{"november":0,"city":"Edmond","name":"F4K - Washington Irving, Edmon","no.":"6565","january":0,"geo_score":0.823,"october":0,"delivery date":"Thursday, 1st","zip code":"73012","april":0,"february":2,"average":2.5,"march":18,"id":"a629r27skuf2","geo_precision":"range","december":0,"address":"18101 N Western","september":0,"fbc county code":"OKLAHOMA","state":"OK"},"type":"Feature","geometry":{"type":"Point","coordinates":[-97.531699,35.656456]}},{"properties":{"november":0,"city":"Edmond","name":"F4K - Charles Haskell, Edmond","no.":"6566","january":0,"geo_score":0.922,"october":0,"delivery date":"Thursday, 1st","zip code":"73013","april":20,"february":10,"average":8.13,"march":35,"id":"a629r1ymfwu5","geo_precision":"range","december":0,"address":"1701 NW 150th St","september":0,"fbc county code":"OKLAHOMA","state":"OK"},"type":"Feature","geometry":{"type":"Point","coordinates":[-97.505499,35.623671]}},{"properties":{"november":0,"city":"Edmond","name":"F4K - John Ross Elem, Edmond","no.":"6589","january":0,"geo_score":0.967,"october":0,"delivery date":"Thursday, 1st","zip code":"73003","april":0,"february":0,"average":0.0,"march":0,"id":"a629r20zykkk","geo_precision":"range","december":0,"address":"1901 N Thomas Dr","september":0,"fbc county code":"OKLAHOMA","state":"OK"},"type":"Feature","geometry":{"type":"Point","coordinates":[-97.483148,35.673565]}},{"properties":{"november":6,"city":"Harrah","name":"F4K - Virginia Smith, Harrah","no.":"6332","january":4,"geo_score":0.625,"october":5,"delivery date":"Wednesday, 2nd","zip code":"73045-9120","april":4,"february":5,"average":4.88,"march":6,"id":"a629r1z86jtg","geo_precision":"street","december":4,"address":"20227 N.E. 10th Street","september":5,"fbc county code":"OKLAHOMA","state":"OK"},"type":"Feature","geometry":{"type":"Point","coordinates":[-97.211576,35.478663]}},{"properties":{"november":14,"city":"Harrah","name":"F4K - Clara Reynolds, Harrah","no.":"6493","january":6,"geo_score":1.0,"october":10,"delivery date":"Wednesday, 2nd","zip code":"73045","april":16,"february":12,"average":12.0,"march":12,"id":"a629r22q2z56","geo_precision":"range","december":16,"address":"755 Harrison Street","september":10,"fbc county code":"OKLAHOMA","state":"OK"},"type":"Feature","geometry":{"type":"Point","coordinates":[-97.168066,35.475329]}},{"properties":{"november":8,"city":"Harrah","name":"F4K - Russell Babb Elem, Harra","no.":"6507","january":12,"geo_score":0.854,"october":8,"delivery date":"Wednesday, 2nd","zip code":"73045","april":0,"february":4,"average":6.5,"march":8,"id":"a629r2cqif92","geo_precision":"range","december":12,"address":"20901 NE 10th","september":0,"fbc county code":"OKLAHOMA","state":"OK"},"type":"Feature","geometry":{"type":"Point","coordinates":[-97.161717,35.478529]}},{"properties":{"november":63,"city":"Jones","name":"F4K - Jones Elementary, Jones","no.":"6503","january":60,"geo_score":0.79,"october":67,"delivery date":"Monday, 2nd","zip code":"73049","april":44,"february":50,"average":49.25,"march":50,"id":"a629r1xwc95m","geo_precision":"range","december":60,"address":"13145 Montana","september":0,"fbc county code":"OKLAHOMA","state":"OK"},"type":"Feature","geometry":{"type":"Point","coordinates":[-97.297233,35.558478]}},{"properties":{"november":0,"city":"Luther","name":"F4K - Luther Elem, Luther","no.":"6572","january":0,"geo_score":0.82,"october":0,"delivery date":"Tuesday, 2nd","zip code":"73054","april":9,"february":0,"average":4.38,"march":26,"id":"a629r1yd9mcz","geo_precision":"range","december":0,"address":"915 S Dogwood","september":0,"fbc county code":"OKLAHOMA","state":"OK"},"type":"Feature","geometry":{"type":"Point","coordinates":[-97.190884,35.659282]}},{"properties":{"november":8,"city":"Midwest City","name":"F4K - Steed, MWC","no.":"6034","january":0,"geo_score":1.0,"october":0,"delivery date":"Tuesday, 1st","zip code":"73110-7912","april":3,"february":0,"average":4.25,"march":3,"id":"a629r25pj4l1","geo_precision":"range","december":20,"address":"2118 Flannery Drive","september":0,"fbc county code":"OKLAHOMA","state":"OK"},"type":"Feature","geometry":{"type":"Point","coordinates":[-97.382367,35.458085]}},{"properties":{"november":2,"city":"Midwest City","name":"F4K - Cleveland Bailey","no.":"6218","january":2,"geo_score":0.878,"october":2,"delivery date":"Wednesday, 4th","zip code":"73110","april":2,"february":6,"average":2.88,"march":6,"id":"a629r2248o0r","geo_precision":"range","december":3,"address":"3301 Sunvalley Drive","september":0,"fbc county code":"OKLAHOMA","state":"OK"},"type":"Feature","geometry":{"type":"Point","coordinates":[-97.41393,35.47128]}},{"properties":{"november":13,"city":"Midwest City","name":"F4K -  Sooner-Rose, MWC","no.":"6357","january":15,"geo_score":0.625,"october":12,"delivery date":"Wednesday, 4th","zip code":"73110-2611","april":14,"february":19,"average":14.38,"march":14,"id":"a629r2ar07s9","geo_precision":"street","december":12,"address":"5601 S. E. 15th","september":16,"fbc county code":"OKLAHOMA","state":"OK"},"type":"Feature","geometry":{"type":"Point","coordinates":[-97.423682,35.449602]}},{"properties":{"november":14,"city":"Midwest City","name":"F4K - East Side, MWC","no.":"6399","january":24,"geo_score":0.625,"october":22,"delivery date":"Wednesday, 4th","zip code":"73110","april":0,"february":0,"average":10.5,"march":0,"id":"a629r1yhdxwm","geo_precision":"street","december":24,"address":"600 N. Key Boulevard","september":0,"fbc county code":"OKLAHOMA","state":"OK"},"type":"Feature","geometry":{"type":"Point","coordinates":[-97.391917,35.448722]}},{"properties":{"november":0,"city":"Midwest City","name":"F4K - Ridgecrest Elem, Midwest","no.":"6558","january":0,"geo_score":1.0,"october":0,"delivery date":"Wednesday, 4th","zip code":"73110","april":4,"february":12,"average":3.25,"march":10,"id":"a629r2boi7mv","geo_precision":"range","december":0,"address":"137 W Ridgewood Dr","september":0,"fbc county code":"OKLAHOMA","state":"OK"},"type":"Feature","geometry":{"type":"Point","coordinates":[-97.399164,35.470411]}},{"properties":{"november":0,"city":"Midwest City","name":"F4K - Country Estates, Midwest","no.":"6571","january":0,"geo_score":0.807,"october":0,"delivery date":"Wednesday, 4th","zip code":"73110","april":4,"february":22,"average":5.25,"march":16,"id":"a629r206ui4n","geo_precision":"street","december":0,"address":"1609 Felix Pl","september":0,"fbc county code":"OKLAHOMA","state":"OK"},"type":"Feature","geometry":{"type":"Point","coordinates":[-97.396673,35.451513]}},{"properties":{"november":10,"city":"Nicoma Park","name":"F4K - Nicoma Park Inter, Nicom","no.":"6101","january":11,"geo_score":0.486,"october":8,"delivery date":"Wednesday, 2nd","zip code":"73020-8216","april":12,"february":14,"average":10.88,"march":12,"id":"a629r1xmaj5f","geo_precision":"street","december":10,"address":"1318 N. Hickman","september":10,"fbc county code":"OKLAHOMA","state":"OK"},"type":"Feature","geometry":{"type":"Point","coordinates":[-97.326633,35.478578]}},{"properties":{"november":0,"city":"Oklahoma City","name":"F4K - General Account","no.":"6000","january":0,"geo_score":0.717,"october":0,"delivery date":null,"zip code":"73137","april":0,"february":0,"average":0.0,"march":0,"id":"a629r2a4u7mi","geo_precision":"range","december":0,"address":"3355 S Purdue","september":0,"fbc county code":"OKLAHOMA","state":"OK"},"type":"Feature","geometry":{"type":"Point","coordinates":[-97.613652,35.430158]}},{"properties":{"november":49,"city":"Oklahoma City","name":"F4K - Columbus, OKCPS","no.":"6001","january":28,"geo_score":0.945,"october":24,"delivery date":"Monday, 2nd","zip code":"73108-7618","april":11,"february":29,"average":26.38,"march":46,"id":"a629r2ds0ufu","geo_precision":"range","december":0,"address":"2402 S Pennsylvania","september":24,"fbc county code":"OKLAHOMA","state":"OK"},"type":"Feature","geometry":{"type":"Point","coordinates":[-97.547964,35.441405]}},{"properties":{"november":8,"city":"Oklahoma City","name":"F4K - Mark Twain, OKCPS","no.":"6002","january":20,"geo_score":0.916,"october":40,"delivery date":"Thursday, 2nd &amp; 4th","zip code":"73107-6955","april":0,"february":0,"average":18.25,"march":50,"id":"a629r1zehbir","geo_precision":"range","december":28,"address":"2451 W Main","september":0,"fbc county code":"OKLAHOMA","state":"OK"},"type":"Feature","geometry":{"type":"Point","coordinates":[-97.555321,35.468163]}},{"properties":{"november":52,"city":"Oklahoma City","name":"F4K - Westwood, OKCPS","no.":"6004","january":26,"geo_score":0.571,"october":26,"delivery date":"Wednesday, 2nd","zip code":"73108-3020","april":26,"february":82,"average":29.75,"march":0,"id":"a629r1ypu1je","geo_precision":"street","december":0,"address":"1701 W. Exchange Ave.","september":26,"fbc county code":"OKLAHOMA","state":"OK"},"type":"Feature","geometry":{"type":"Point","coordinates":[-97.530127,35.464265]}},{"properties":{"november":6,"city":"Oklahoma City","name":"F4K - Capitol Hill, OKCPS","no.":"6005","january":30,"geo_score":0.927,"october":28,"delivery date":"Monday, 4th","zip code":"73109-6234","april":0,"february":160,"average":34.25,"march":26,"id":"a629r1xvn9l3","geo_precision":"range","december":0,"address":"2717 S Robinson","september":24,"fbc county code":"OKLAHOMA","state":"OK"},"type":"Feature","geometry":{"type":"Point","coordinates":[-97.516114,35.43817]}},{"properties":{"november":30,"city":"Oklahoma City","name":"F4K - Crooked Oak, OKC","no.":"6006","january":30,"geo_score":0.927,"october":52,"delivery date":"Tuesday, 3rd","zip code":"73129","april":50,"february":36,"average":36.75,"march":60,"id":"a629r2cq3byd","geo_precision":"range","december":36,"address":"1901 SE 15th Street","september":0,"fbc county code":"OKLAHOMA","state":"OK"},"type":"Feature","geometry":{"type":"Point","coordinates":[-97.479076,35.449827]}},{"properties":{"november":230,"city":"Oklahoma City","name":"F4k - Rockwood, OKCPS","no.":"6007","january":108,"geo_score":0.854,"october":0,"delivery date":"Wednesday, 2nd","zip code":"73108-5236","april":108,"february":242,"average":92.75,"march":54,"id":"a629r27pk6m3","geo_precision":"range","december":0,"address":"3101 SW 24th","september":0,"fbc county code":"OKLAHOMA","state":"OK"},"type":"Feature","geometry":{"type":"Point","coordinates":[-97.570507,35.440946]}},{"properties":{"november":27,"city":"Oklahoma City","name":"F4K - Heronville, OKCPS","no.":"6008","january":16,"geo_score":0.854,"october":10,"delivery date":"Wednesday, 2nd","zip code":"73109-2310","april":32,"february":95,"average":22.75,"march":0,"id":"a629r27cinzl","geo_precision":"range","december":0,"address":"1240 SW 29th","september":2,"fbc county code":"OKLAHOMA","state":"OK"},"type":"Feature","geometry":{"type":"Point","coordinates":[-97.537683,35.435233]}},{"properties":{"november":0,"city":"Oklahoma City","name":"Food 4 Kids - Ordering Ticket","no.":"6010","january":0,"geo_score":0.357,"october":0,"delivery date":null,"zip code":"73137","april":0,"february":0,"average":0.0,"march":0,"id":"a629r2b17zvm","geo_precision":"street","december":0,"address":"3355 S. Purdue","september":0,"fbc county code":"OKLAHOMA","state":"OK"},"type":"Feature","geometry":{"type":"Point","coordinates":[-97.591048,35.473613]}},{"properties":{"november":0,"city":"Oklahoma City","name":"F4K - Britton Elem, OKCPS","no.":"6014","january":36,"geo_score":0.927,"october":0,"delivery date":"Thursday, 1st","zip code":"73114-4726","april":66,"february":68,"average":34.0,"march":102,"id":"a629r242q063","geo_precision":"range","december":0,"address":"1215 NW 95th ST","september":0,"fbc county code":"OKLAHOMA","state":"OK"},"type":"Feature","geometry":{"type":"Point","coordinates":[-97.533796,35.567502]}},{"properties":{"november":16,"city":"Oklahoma City","name":"F4K - Rancho Village, OKCPS","no.":"6015","january":12,"geo_score":1.0,"october":5,"delivery date":"Wednesday, 2nd","zip code":"73119-3807","april":0,"february":54,"average":15.0,"march":0,"id":"a629r2588o0m","geo_precision":"range","december":0,"address":"1401 Johnston Drive","september":33,"fbc county code":"OKLAHOMA","state":"OK"},"type":"Feature","geometry":{"type":"Point","coordinates":[-97.541788,35.426148]}},{"properties":{"november":34,"city":"Oklahoma City","name":"F4K - Van Buren, OKCPS","no.":"6016","january":25,"geo_score":0.927,"october":50,"delivery date":"Monday, 2nd","zip code":"73119-3316","april":32,"february":25,"average":23.75,"march":24,"id":"a629r2032mba","geo_precision":"range","december":0,"address":"2700 SW 40TH ST","september":0,"fbc county code":"OKLAHOMA","state":"OK"},"type":"Feature","geometry":{"type":"Point","coordinates":[-97.561394,35.424656]}},{"properties":{"november":26,"city":"Oklahoma City","name":"F4K - Telstar, OKCPS","no.":"6018","january":0,"geo_score":0.854,"october":26,"delivery date":"Tuesday, 1st","zip code":"73130-1401","april":20,"february":24,"average":22.5,"march":10,"id":"a629r1xm63wb","geo_precision":"range","december":50,"address":"9521 NE 16th","september":24,"fbc county code":"OKLAHOMA","state":"OK"},"type":"Feature","geometry":{"type":"Point","coordinates":[-97.360836,35.485811]}},{"properties":{"november":52,"city":"Oklahoma City","name":"F4K - Adams Elem, OKCPS","no.":"6019","january":64,"geo_score":0.854,"october":0,"delivery date":"Wednesday, 2nd","zip code":"73119-3004","april":76,"february":87,"average":34.88,"march":0,"id":"a629r21i1fwe","geo_precision":"range","december":0,"address":"3416 SW 37th","september":0,"fbc county code":"OKLAHOMA","state":"OK"},"type":"Feature","geometry":{"type":"Point","coordinates":[-97.576981,35.427465]}},{"properties":{"november":34,"city":"Oklahoma City","name":"F4K - Crutcho, OKC","no.":"6020","january":0,"geo_score":0.604,"october":24,"delivery date":"Wednesday, 4th","zip code":"73141-1407","april":54,"february":32,"average":22.25,"march":34,"id":"a629r222lmqq","geo_precision":"street","december":0,"address":"2401 N. Air Depot","september":0,"fbc county code":"OKLAHOMA","state":"OK"},"type":"Feature","geometry":{"type":"Point","coordinates":[-97.406326,35.489504]}},{"properties":{"november":118,"city":"Oklahoma City","name":"F4K - Eugene Field, OKCPS","no.":"6021","january":70,"geo_score":0.902,"october":0,"delivery date":"Thursday, 3rd","zip code":"73106-4414","april":130,"february":70,"average":52.75,"march":34,"id":"a629r24arnku","geo_precision":"range","december":0,"address":"1515 N Klein","september":0,"fbc county code":"OKLAHOMA","state":"OK"},"type":"Feature","geometry":{"type":"Point","coordinates":[-97.53195,35.483849]}},{"properties":{"november":12,"city":"Oklahoma City","name":"F4K - Positive Tomorrows, OKC","no.":"6022","january":24,"geo_score":0.357,"october":24,"delivery date":"Thursday, 2nd &amp; 4th","zip code":"73106-4225","april":24,"february":14,"average":19.75,"march":24,"id":"a629r1y84bcl","geo_precision":"street","december":12,"address":"1804 N. Braue","september":24,"fbc county code":"OKLAHOMA","state":"OK"},"type":"Feature","geometry":{"type":"Point","coordinates":[-97.560605,35.343984]}},{"properties":{"november":8,"city":"Oklahoma City","name":"F4K - Stanley Hupfield, OKCPS","no.":"6023","january":10,"geo_score":0.619,"october":8,"delivery date":"Thursday, 1st","zip code":"73114-5214","april":6,"february":10,"average":9.63,"march":12,"id":"a629r1xo1kbn","geo_precision":"street","december":13,"address":"1508 N.W. 106th","september":10,"fbc county code":"OKLAHOMA","state":"OK"},"type":"Feature","geometry":{"type":"Point","coordinates":[-97.505771,35.578295]}},{"properties":{"november":4,"city":"Oklahoma City","name":"F4K - Willow Brook, OKCPS","no.":"6026","january":0,"geo_score":0.789,"october":0,"delivery date":"Tuesday, 1st","zip code":"73110-7225","april":4,"february":0,"average":2.75,"march":2,"id":"a629r22zetyv","geo_precision":"range","december":4,"address":"8105 NE 10th","september":8,"fbc county code":"OKLAHOMA","state":"OK"},"type":"Feature","geometry":{"type":"Point","coordinates":[-97.386069,35.478575]}},{"properties":{"november":105,"city":"Oklahoma City","name":"F4K - Thelma R. Parks, OKCPS","no.":"6027","january":0,"geo_score":0.854,"october":0,"delivery date":"Tuesday, 3rd","zip code":"73111-4101","april":64,"february":66,"average":35.75,"march":51,"id":"a629r1yuvaee","geo_precision":"range","december":0,"address":"1501 NE 30th","september":0,"fbc county code":"OKLAHOMA","state":"OK"},"type":"Feature","geometry":{"type":"Point","coordinates":[-97.485557,35.500412]}},{"properties":{"november":36,"city":"Oklahoma City","name":"F4K - Putnam Heights, OKCPS","no.":"6028","january":36,"geo_score":0.854,"october":50,"delivery date":"Thursday, 2nd &amp; 4th","zip code":"73118-3262","april":38,"february":36,"average":42.25,"march":36,"id":"a629r26s5du8","geo_precision":"range","december":30,"address":"1601 NW 36th","september":76,"fbc county code":"OKLAHOMA","state":"OK"},"type":"Feature","geometry":{"type":"Point","coordinates":[-97.538857,35.507768]}},{"properties":{"november":28,"city":"Oklahoma City","name":"F4K - Stand Watie, OKCPS","no.":"6030","january":24,"geo_score":0.625,"october":0,"delivery date":"Monday, 4th","zip code":"73119-1851","april":26,"february":24,"average":14.25,"march":12,"id":"a629r1xvl6c0","geo_precision":"street","december":0,"address":"3517 S. Linn Ave.","september":0,"fbc county code":"OKLAHOMA","state":"OK"},"type":"Feature","geometry":{"type":"Point","coordinates":[-97.559056,35.434156]}},{"properties":{"november":0,"city":"Oklahoma City","name":"F4K - Greystone Upper, OKCPS","no.":"6032","january":34,"geo_score":0.911,"october":0,"delivery date":"Thursday, 1st","zip code":"73120","april":0,"february":0,"average":17.75,"march":74,"id":"a629r1zfjocc","geo_precision":"range","december":34,"address":"2401 NW 115th Terr","september":0,"fbc county code":"OKLAHOMA","state":"OK"},"type":"Feature","geometry":{"type":"Point","coordinates":[-97.55633,35.587443]}},{"properties":{"november":14,"city":"Oklahoma City","name":"F4K - North Highland, OKCPS","no.":"6041","january":30,"geo_score":0.607,"october":18,"delivery date":"Thursday, 1st","zip code":"73114-3325","april":32,"february":24,"average":20.75,"march":0,"id":"a629r25oie9w","geo_precision":"street","december":6,"address":"8400 N. Robinson","september":42,"fbc county code":"OKLAHOMA","state":"OK"},"type":"Feature","geometry":{"type":"Point","coordinates":[-97.515694,35.548701]}},{"properties":{"november":10,"city":"Oklahoma City","name":"F4K - Lee, OKCPS","no.":"6043","january":54,"geo_score":0.625,"october":30,"delivery date":"Monday, 4th","zip code":"73109","april":92,"february":62,"average":38.75,"march":62,"id":"a629r2c75bgi","geo_precision":"street","december":0,"address":"424 S.W. 29th","september":0,"fbc county code":"OKLAHOMA","state":"OK"},"type":"Feature","geometry":{"type":"Point","coordinates":[-97.513966,35.435223]}},{"properties":{"november":0,"city":"Oklahoma City","name":"F4K - Horace Mann, OKCPS","no.":"6044","january":0,"geo_score":0.854,"october":0,"delivery date":"Thursday, 4th","zip code":"73118","april":14,"february":8,"average":6.0,"march":26,"id":"a629r20hitn8","geo_precision":"range","december":0,"address":"1105 NW 45th","september":0,"fbc county code":"OKLAHOMA","state":"OK"},"type":"Feature","geometry":{"type":"Point","coordinates":[-97.529905,35.517801]}},{"properties":{"november":31,"city":"Oklahoma City","name":"F4K - Council Grove, OKC","no.":"6048","january":25,"geo_score":0.805,"october":14,"delivery date":"Tuesday, 2nd &amp; 4th","zip code":"73141-6001","april":42,"february":38,"average":26.13,"march":17,"id":"a629r20cau3b","geo_precision":"range","december":22,"address":"7721 Melrose Lane","september":20,"fbc county code":"OKLAHOMA","state":"OK"},"type":"Feature","geometry":{"type":"Point","coordinates":[-97.648737,35.471563]}},{"properties":{"november":18,"city":"Oklahoma City","name":"F4K - Greenvale, OKC","no.":"6049","january":28,"geo_score":1.0,"october":17,"delivery date":"Tuesday, 2nd &amp; 4th","zip code":"73127-5108","april":40,"february":48,"average":22.88,"march":12,"id":"a629r20z9o7f","geo_precision":"range","december":12,"address":"901 Greenvale Road","september":8,"fbc county code":"OKLAHOMA","state":"OK"},"type":"Feature","geometry":{"type":"Point","coordinates":[-97.644769,35.476456]}},{"properties":{"november":14,"city":"Oklahoma City","name":"F4K - Winds West, OKC","no.":"6051","january":0,"geo_score":0.854,"october":0,"delivery date":"Monday, 1st","zip code":"73179-3814","april":12,"february":0,"average":9.5,"march":10,"id":"a629r1xo3lsg","geo_precision":"range","december":30,"address":"8300 SW 37th","september":10,"fbc county code":"OKLAHOMA","state":"OK"},"type":"Feature","geometry":{"type":"Point","coordinates":[-97.659562,35.426165]}},{"properties":{"november":11,"city":"Oklahoma City","name":"F4K - John Glenn, OKC","no.":"6052","january":0,"geo_score":0.625,"october":2,"delivery date":"Monday, 4th","zip code":"73159-2221","april":0,"february":0,"average":1.63,"march":0,"id":"a629r24jehbz","geo_precision":"street","december":0,"address":"6500 S. Land","september":0,"fbc county code":"OKLAHOMA","state":"OK"},"type":"Feature","geometry":{"type":"Point","coordinates":[-97.571675,35.400608]}},{"properties":{"november":0,"city":"Oklahoma City","name":"F4K - Seeworth Academy, OKCPS","no.":"6059","january":0,"geo_score":0.74,"october":0,"delivery date":"Thursday, 1st","zip code":"73131","april":6,"february":0,"average":4.0,"march":26,"id":"a629r2cjtqkp","geo_precision":"street","december":0,"address":"12600 N Kelley","september":0,"fbc county code":"OKLAHOMA","state":"OK"},"type":"Feature","geometry":{"type":"Point","coordinates":[-97.495981,35.553673]}},{"properties":{"november":24,"city":"Oklahoma City","name":"F4K - Parmalee, OKCPS","no.":"6061","january":14,"geo_score":0.614,"october":14,"delivery date":"Monday, 4th","zip code":"73139-7407","april":14,"february":24,"average":15.0,"march":16,"id":"a629r28590yr","geo_precision":"street","december":0,"address":"6700 S. Hudson","september":14,"fbc county code":"OKLAHOMA","state":"OK"},"type":"Feature","geometry":{"type":"Point","coordinates":[-97.51948,35.401485]}},{"properties":{"november":56,"city":"Oklahoma City","name":"F4K - Pierce, OKCPS","no.":"6064","january":0,"geo_score":0.619,"october":14,"delivery date":"Monday, 2nd","zip code":"73108-4621","april":20,"february":26,"average":22.0,"march":32,"id":"a629r2c7pubr","geo_precision":"street","december":0,"address":"2701 S. Tulsa","september":28,"fbc county code":"OKLAHOMA","state":"OK"},"type":"Feature","geometry":{"type":"Point","coordinates":[-97.592283,35.441626]}},{"properties":{"november":48,"city":"Oklahoma City","name":"F4K - Coolidge, OKCPS","no.":"6085","january":41,"geo_score":0.732,"october":20,"delivery date":"Wednesday, 2nd","zip code":"73119-5253","april":52,"february":112,"average":40.13,"march":0,"id":"a629r2aa7v69","geo_precision":"street","december":0,"address":"5212 South Villa","september":48,"fbc county code":"OKLAHOMA","state":"OK"},"type":"Feature","geometry":{"type":"Point","coordinates":[-97.55832,35.420699]}},{"properties":{"november":48,"city":"Oklahoma City","name":"F4K -  Hillcrest, OKCPS","no.":"6096","january":0,"geo_score":0.614,"october":22,"delivery date":"Wednesday, 2nd","zip code":"73159-1605","april":12,"february":54,"average":18.88,"march":0,"id":"a629r20i5d3e","geo_precision":"street","december":0,"address":"6421 S. Miller","september":15,"fbc county code":"OKLAHOMA","state":"OK"},"type":"Feature","geometry":{"type":"Point","coordinates":[-97.561183,35.404869]}},{"properties":{"november":38,"city":"Oklahoma City","name":"F4K -  Sequoyah, OKCPS","no.":"6097","january":0,"geo_score":0.927,"october":0,"delivery date":"Thursday, 2nd &amp; 4th","zip code":"73112-7898","april":15,"february":0,"average":10.88,"march":12,"id":"a629r21x2ctl","geo_precision":"range","december":0,"address":"2400 NW 36th St.","september":22,"fbc county code":"OKLAHOMA","state":"OK"},"type":"Feature","geometry":{"type":"Point","coordinates":[-97.554353,35.507699]}},{"properties":{"november":14,"city":"Oklahoma City","name":"F4K - Hayes, OKC","no.":"6103","january":0,"geo_score":0.911,"october":0,"delivery date":"Wednesday, 2nd","zip code":"73149-1418","april":0,"february":55,"average":8.63,"march":0,"id":"a629r2518pxr","geo_precision":"range","december":0,"address":"6900 S Byers Ave","september":0,"fbc county code":"OKLAHOMA","state":"OK"},"type":"Feature","geometry":{"type":"Point","coordinates":[-97.503602,35.395908]}},{"properties":{"november":0,"city":"Oklahoma City","name":"F4K - Greystone Lower, OKCPS","no.":"6118","january":6,"geo_score":0.911,"october":0,"delivery date":"Thursday, 2nd &amp; 4th","zip code":"73120-7109","april":16,"february":10,"average":7.5,"march":0,"id":"a629r25hsfd8","geo_precision":"range","december":28,"address":"2525 NW 112th Street","september":0,"fbc county code":"OKLAHOMA","state":"OK"},"type":"Feature","geometry":{"type":"Point","coordinates":[-97.561165,35.583991]}},{"properties":{"november":0,"city":"Oklahoma City","name":"F4K - MLK Elem, OKCPS","no.":"6134","january":0,"geo_score":0.854,"october":38,"delivery date":"Tuesday, 1st","zip code":"73111-5819","april":40,"february":60,"average":67.25,"march":0,"id":"a629r1y2sb4b","geo_precision":"range","december":120,"address":"1201 NE 48th","september":280,"fbc county code":"OKLAHOMA","state":"OK"},"type":"Feature","geometry":{"type":"Point","coordinates":[-97.490204,35.520436]}},{"properties":{"november":16,"city":"Oklahoma City","name":"F4K - Coronado Heights, OKC","no.":"6175","january":16,"geo_score":0.92,"october":20,"delivery date":"Thursday, 2nd &amp; 4th","zip code":"73112-1625","april":0,"february":8,"average":12.13,"march":13,"id":"a629r20c943p","geo_precision":"range","december":8,"address":"5911 N Sapulpa","september":16,"fbc county code":"OKLAHOMA","state":"OK"},"type":"Feature","geometry":{"type":"Point","coordinates":[-97.588452,35.5303]}},{"properties":{"november":18,"city":"Oklahoma City","name":"F4K -  Nichols Hills, OKCPS","no.":"6197","january":24,"geo_score":0.491,"october":24,"delivery date":"Thursday, 3rd","zip code":"73116-5203","april":24,"february":20,"average":21.88,"march":40,"id":"a629r2bb174x","geo_precision":"street","december":0,"address":"1301 W. Wilshire","september":25,"fbc county code":"OKLAHOMA","state":"OK"},"type":"Feature","geometry":{"type":"Point","coordinates":[-97.570527,35.549602]}},{"properties":{"november":30,"city":"Oklahoma City","name":"F4K - Wheeler, OKCPS","no.":"6234","january":46,"geo_score":0.927,"october":30,"delivery date":"Tuesday, 3rd","zip code":"73129","april":104,"february":46,"average":40.75,"march":46,"id":"a629r21bt09f","geo_precision":"range","december":0,"address":"501 SE 25th Street","september":24,"fbc county code":"OKLAHOMA","state":"OK"},"type":"Feature","geometry":{"type":"Point","coordinates":[-97.50353,35.43943]}},{"properties":{"november":4,"city":"Oklahoma City","name":"F4K - Pleasant Hill, OKC","no.":"6236","january":4,"geo_score":0.854,"october":2,"delivery date":"Tuesday, 3rd","zip code":"73121-5400","april":6,"february":4,"average":5.25,"march":5,"id":"a629r20biozm","geo_precision":"range","december":9,"address":"4346 NE 36th Street","september":8,"fbc county code":"OKLAHOMA","state":"OK"},"type":"Feature","geometry":{"type":"Point","coordinates":[-97.441143,35.507801]}},{"properties":{"november":16,"city":"Oklahoma City","name":"F4K - Tinker, OKC","no.":"6237","january":0,"geo_score":1.0,"october":14,"delivery date":"Tuesday, 1st","zip code":"73135-4614","april":8,"february":0,"average":12.25,"march":20,"id":"a629r22ldlik","geo_precision":"range","december":20,"address":"4500 Tinker Road","september":20,"fbc county code":"OKLAHOMA","state":"OK"},"type":"Feature","geometry":{"type":"Point","coordinates":[-97.417678,35.417436]}},{"properties":{"november":0,"city":"Oklahoma City","name":"F4K -  Marcus Garvey, OKCPS","no.":"6259","january":0,"geo_score":0.927,"october":50,"delivery date":"Tuesday, 1st","zip code":"73111-3212","april":36,"february":0,"average":23.25,"march":0,"id":"a629r25bgw80","geo_precision":"range","december":100,"address":"1537 NE 24th Street","september":0,"fbc county code":"OKLAHOMA","state":"OK"},"type":"Feature","geometry":{"type":"Point","coordinates":[-97.484804,35.494977]}},{"properties":{"november":20,"city":"Oklahoma City","name":"F4K - Johnson, OKCPS","no.":"6351","january":6,"geo_score":0.911,"october":20,"delivery date":"Thursday, 3rd","zip code":"73120-1147","april":0,"february":0,"average":10.75,"march":20,"id":"a629r28dg6pt","geo_precision":"range","december":0,"address":"1810 Sheffield Road","september":20,"fbc county code":"OKLAHOMA","state":"OK"},"type":"Feature","geometry":{"type":"Point","coordinates":[-97.5522,35.56361]}},{"properties":{"november":12,"city":"Oklahoma City","name":"F4K - Rollingwood, OKC","no.":"6352","january":18,"geo_score":0.752,"october":19,"delivery date":"Thursday, 1st","zip code":"73122-7420","april":0,"february":8,"average":11.75,"march":9,"id":"a629r24dtl6n","geo_precision":"street","december":2,"address":"6301 N Ann Arbor","september":26,"fbc county code":"OKLAHOMA","state":"OK"},"type":"Feature","geometry":{"type":"Point","coordinates":[-97.608579,35.509449]}},{"properties":{"november":16,"city":"Oklahoma City","name":"F4K - Highland Park, OKC","no.":"6354","january":18,"geo_score":0.912,"october":14,"delivery date":"Wednesday, 4th","zip code":"73135","april":12,"february":26,"average":16.75,"march":20,"id":"a629r22gwbrf","geo_precision":"range","december":18,"address":"5301 S Dimple","september":10,"fbc county code":"OKLAHOMA","state":"OK"},"type":"Feature","geometry":{"type":"Point","coordinates":[-97.443503,35.413409]}},{"properties":{"november":0,"city":"Oklahoma City","name":"F4K - Millwood Pre-K, OKC","no.":"6355","january":0,"geo_score":0.54,"october":4,"delivery date":"Tuesday, 1st","zip code":"73003","april":4,"february":0,"average":3.75,"march":4,"id":"a629r21z2ii7","geo_precision":"street","december":10,"address":"6710 N Martin Luther King Ave.","september":8,"fbc county code":"OKLAHOMA","state":"OK"},"type":"Feature","geometry":{"type":"Point","coordinates":[-97.602863,35.656602]}},{"properties":{"november":20,"city":"Oklahoma City","name":"F4K - Bodine, OKCPS","no.":"6356","january":46,"geo_score":0.717,"october":20,"delivery date":"Wednesday, 4th","zip code":"73129-9311","april":46,"february":92,"average":41.0,"march":16,"id":"a629r1zx1k8r","geo_precision":"range","december":48,"address":"5301 S Bryant","september":40,"fbc county code":"OKLAHOMA","state":"OK"},"type":"Feature","geometry":{"type":"Point","coordinates":[-97.459184,35.412057]}},{"properties":{"november":17,"city":"Oklahoma City","name":"F4K - Edgemere, OKCPS","no.":"6358","january":5,"geo_score":0.614,"october":0,"delivery date":"Tuesday, 2nd","zip code":"73118-7363","april":8,"february":28,"average":8.0,"march":0,"id":"a629r20tg34m","geo_precision":"street","december":0,"address":"3200 N. Walker","september":6,"fbc county code":"OKLAHOMA","state":"OK"},"type":"Feature","geometry":{"type":"Point","coordinates":[-97.521003,35.500502]}},{"properties":{"november":17,"city":"Oklahoma City","name":"F4K -  Oakridge, OKCPS","no.":"6361","january":0,"geo_score":0.886,"october":17,"delivery date":"Tuesday, 1st","zip code":"73115-1972","april":13,"february":18,"average":19.0,"march":25,"id":"a629r21hvh95","geo_precision":"range","december":32,"address":"4200 S Leonhardt Dr.","september":30,"fbc county code":"OKLAHOMA","state":"OK"},"type":"Feature","geometry":{"type":"Point","coordinates":[-97.452391,35.42329]}},{"properties":{"november":0,"city":"Oklahoma City","name":"F4K -  Prairie Queen, OKCPS","no.":"6363","january":20,"geo_score":0.941,"october":23,"delivery date":"Monday, 4th","zip code":"73159-2023","april":0,"february":34,"average":14.88,"march":18,"id":"a629r1zpyww1","geo_precision":"range","december":0,"address":"6609 S Blackwelder","september":24,"fbc county code":"OKLAHOMA","state":"OK"},"type":"Feature","geometry":{"type":"Point","coordinates":[-97.539036,35.400259]}},{"properties":{"november":18,"city":"Oklahoma City","name":"F4K - Wilson Elem, OKCPS","no.":"6394","january":8,"geo_score":0.614,"october":0,"delivery date":"Thursday, 3rd","zip code":"73103-1509","april":15,"february":18,"average":9.63,"march":0,"id":"a629r22050ek","geo_precision":"street","december":0,"address":"2215 N. Walker","september":18,"fbc county code":"OKLAHOMA","state":"OK"},"type":"Feature","geometry":{"type":"Point","coordinates":[-97.521249,35.467867]}},{"properties":{"november":52,"city":"Oklahoma City","name":"F4K - Kaiser, OKCPS","no.":"6395","january":24,"geo_score":0.625,"october":12,"delivery date":"Tuesday, 2nd &amp; 4th","zip code":"73112-3333","april":34,"february":54,"average":24.5,"march":0,"id":"a629r1ya01ym","geo_precision":"street","december":0,"address":"3101 N. Lyon Blvd.","september":20,"fbc county code":"OKLAHOMA","state":"OK"},"type":"Feature","geometry":{"type":"Point","coordinates":[-97.59044,35.501062]}},{"properties":{"november":14,"city":"Oklahoma City","name":"F4K - FD Moon, OKCPS","no.":"6396","january":0,"geo_score":0.625,"october":0,"delivery date":"Tuesday, 1st","zip code":"73117-3613","april":4,"february":54,"average":14.88,"march":0,"id":"a629r2dub2a0","geo_precision":"street","december":27,"address":"1901 N.E. 13th","september":20,"fbc county code":"OKLAHOMA","state":"OK"},"type":"Feature","geometry":{"type":"Point","coordinates":[-97.498894,35.482365]}},{"properties":{"november":1,"city":"Oklahoma City","name":"F4K - Wiley Post, OKC","no.":"6420","january":1,"geo_score":0.507,"october":1,"delivery date":"Monday, 3rd","zip code":"73132-1701","april":1,"february":1,"average":0.88,"march":1,"id":"a629r1y7mrt2","geo_precision":"street","december":1,"address":"6920 W. Britton Rd.","september":0,"fbc county code":"OKLAHOMA","state":"OK"},"type":"Feature","geometry":{"type":"Point","coordinates":[-97.617156,35.565625]}},{"properties":{"november":32,"city":"Oklahoma City","name":"F4K - Hilldale, OKC","no.":"6423","january":25,"geo_score":0.732,"october":20,"delivery date":"Monday, 2nd","zip code":"737127","april":16,"february":36,"average":22.63,"march":36,"id":"a629r25t5cxb","geo_precision":"range","december":0,"address":"4801 NW 16th St","september":16,"fbc county code":"OKLAHOMA","state":"OK"},"type":"Feature","geometry":{"type":"Point","coordinates":[-97.606873,35.486043]}},{"properties":{"november":0,"city":"Oklahoma City","name":"F4K - Will Rogers, Putnam City","no.":"6424","january":0,"geo_score":0.935,"october":0,"delivery date":"Monday, 3rd","zip code":"73142","april":0,"february":17,"average":6.63,"march":0,"id":"a629r211vv4y","geo_precision":"range","december":16,"address":"8201 NW 122nd","september":20,"fbc county code":"OKLAHOMA","state":"OK"},"type":"Feature","geometry":{"type":"Point","coordinates":[-97.659808,35.594698]}},{"properties":{"november":6,"city":"Oklahoma City","name":"F4K - Edwards, OKCPS","no.":"6431","january":18,"geo_score":1.0,"october":28,"delivery date":"Tuesday, 3rd","zip code":"73117","april":7,"february":10,"average":12.13,"march":0,"id":"a629r26eipju","geo_precision":"range","december":0,"address":"1123 NE Grand Blvd.","september":28,"fbc county code":"OKLAHOMA","state":"OK"},"type":"Feature","geometry":{"type":"Point","coordinates":[-97.466672,35.479171]}},{"properties":{"november":28,"city":"Oklahoma City","name":"F4K - Buchanan, OKCPS","no.":"6433","january":18,"geo_score":0.854,"october":19,"delivery date":"Monday, 3rd","zip code":"73107","april":14,"february":18,"average":16.63,"march":28,"id":"a629r27z2009","geo_precision":"range","december":0,"address":"4126 NW 18th","september":8,"fbc county code":"OKLAHOMA","state":"OK"},"type":"Feature","geometry":{"type":"Point","coordinates":[-97.5928,35.488294]}},{"properties":{"november":20,"city":"Oklahoma City","name":"F4K - Southern Hills, OKCPS","no.":"6435","january":24,"geo_score":0.607,"october":56,"delivery date":"Monday, 4th","zip code":"73159","april":16,"february":16,"average":23.5,"march":0,"id":"a629r1ytgi8k","geo_precision":"street","december":0,"address":"7800 S. Kentucky","september":56,"fbc county code":"OKLAHOMA","state":"OK"},"type":"Feature","geometry":{"type":"Point","coordinates":[-97.544603,35.403095]}},{"properties":{"november":14,"city":"Oklahoma City","name":"F4K - Options Unlimited, OKCPS","no.":"6496","january":14,"geo_score":0.927,"october":14,"delivery date":"Wednesday, 4th","zip code":"73109","april":28,"february":14,"average":15.75,"march":14,"id":"a629r2882yn6","geo_precision":"range","december":14,"address":"214 SW 30th St","september":14,"fbc county code":"OKLAHOMA","state":"OK"},"type":"Feature","geometry":{"type":"Point","coordinates":[-97.516403,35.434228]}},{"properties":{"november":54,"city":"Oklahoma City","name":"F4K - Fillmore Elem, OKCPS","no.":"6498","january":90,"geo_score":0.746,"october":50,"delivery date":"Wednesday, 4th","zip code":"73109","april":0,"february":80,"average":56.75,"march":90,"id":"a629r2b9oklb","geo_precision":"range","december":40,"address":"5200 S Blackwelder","september":50,"fbc county code":"OKLAHOMA","state":"OK"},"type":"Feature","geometry":{"type":"Point","coordinates":[-97.539116,35.413861]}},{"properties":{"november":50,"city":"Oklahoma City","name":"F4K - Gatewood, OKCPS","no.":"6502","january":50,"geo_score":0.927,"october":41,"delivery date":"Monday, 3rd","zip code":"73106","april":0,"february":0,"average":25.13,"march":60,"id":"a629r287nolh","geo_precision":"range","december":0,"address":"1821 NW 21st Street","september":0,"fbc county code":"OKLAHOMA","state":"OK"},"type":"Feature","geometry":{"type":"Point","coordinates":[-97.540722,35.491174]}},{"properties":{"november":40,"city":"Oklahoma City","name":"F4K - Arthur Elem, OKCPS","no.":"6505","january":30,"geo_score":0.587,"october":0,"delivery date":"Wednesday, 4th","zip code":"73109","april":64,"february":42,"average":33.38,"march":34,"id":"a629r2bei0s7","geo_precision":"street","december":30,"address":"5100 S Independence","september":27,"fbc county code":"OKLAHOMA","state":"OK"},"type":"Feature","geometry":{"type":"Point","coordinates":[-97.573453,35.506592]}},{"properties":{"november":0,"city":"Oklahoma City","name":"F4K - Northridge Elem, OKC","no.":"6518","january":12,"geo_score":0.854,"october":0,"delivery date":"Thursday, 2nd","zip code":"73132","april":3,"february":6,"average":4.13,"march":2,"id":"a629r2a4udam","geo_precision":"range","december":10,"address":"8501 NW 82nd St","september":0,"fbc county code":"OKLAHOMA","state":"OK"},"type":"Feature","geometry":{"type":"Point","coordinates":[-97.665461,35.556613]}},{"properties":{"november":30,"city":"Oklahoma City","name":"F4K - Monroe Elem, OKCPS","no.":"6546","january":19,"geo_score":1.0,"october":0,"delivery date":"Tuesday, 2nd &amp; 4th","zip code":"73112","april":2,"february":40,"average":11.38,"march":0,"id":"a629r27izjjy","geo_precision":"range","december":0,"address":"4810 N Linn Ave","september":0,"fbc county code":"OKLAHOMA","state":"OK"},"type":"Feature","geometry":{"type":"Point","coordinates":[-97.558778,35.519084]}},{"properties":{"november":0,"city":"Oklahoma City","name":"F4K - Ridgeview Elem, OKCPS","no.":"6550","january":0,"geo_score":0.911,"october":0,"delivery date":"Thursday, 3rd","zip code":"73120-3320","april":26,"february":0,"average":4.5,"march":10,"id":"a629r28vftpt","geo_precision":"range","december":0,"address":"10010 Ridgeview Dr","september":0,"fbc county code":"OKLAHOMA","state":"OK"},"type":"Feature","geometry":{"type":"Point","coordinates":[-97.559217,35.57186]}},{"properties":{"november":0,"city":"Oklahoma City","name":"F4K - Cesar Chavez Elem, OKCPS","no.":"6551","january":25,"geo_score":1.0,"october":0,"delivery date":"Tuesday, 3rd","zip code":"73129","april":5,"february":20,"average":8.75,"march":20,"id":"a629r2dliwba","geo_precision":"range","december":0,"address":"600 SE Grand Blvd","september":0,"fbc county code":"OKLAHOMA","state":"OK"},"type":"Feature","geometry":{"type":"Point","coordinates":[-97.501423,35.428119]}},{"properties":{"november":0,"city":"Oklahoma City","name":"F4K - Linwood Elem, OKCPS","no.":"6559","january":0,"geo_score":0.927,"october":0,"delivery date":"Monday, 3rd","zip code":"73107","april":20,"february":12,"average":8.75,"march":38,"id":"a629r244u4gr","geo_precision":"range","december":0,"address":"3416 NW 17th St","september":0,"fbc county code":"OKLAHOMA","state":"OK"},"type":"Feature","geometry":{"type":"Point","coordinates":[-97.577222,35.487012]}},{"properties":{"november":0,"city":"Oklahoma City","name":"F4K - Ralph Downs Elem, OKC","no.":"6567","january":0,"geo_score":1.0,"october":0,"delivery date":"Tuesday, 2nd","zip code":"73162","april":2,"february":10,"average":2.0,"march":4,"id":"a629r2cavxi0","geo_precision":"range","december":0,"address":"7501 W Hefner Rd","september":0,"fbc county code":"OKLAHOMA","state":"OK"},"type":"Feature","geometry":{"type":"Point","coordinates":[-97.644342,35.580082]}},{"properties":{"november":0,"city":"Oklahoma City","name":"F4K - Cleveland Elem, OKCPS","no.":"6569","january":0,"geo_score":0.854,"october":0,"delivery date":"Monday, 3rd","zip code":"73107","april":13,"february":6,"average":3.88,"march":12,"id":"a629r28ubhon","geo_precision":"range","december":0,"address":"2725 NW 23rd","september":0,"fbc county code":"OKLAHOMA","state":"OK"},"type":"Feature","geometry":{"type":"Point","coordinates":[-97.562797,35.493179]}},{"properties":{"november":0,"city":"Oklahoma City","name":"F4K - Quail Creek Elem, OKCPS","no.":"6570","january":0,"geo_score":0.911,"october":0,"delivery date":"Tuesday, 2nd","zip code":"73120","april":0,"february":0,"average":3.75,"march":30,"id":"a629r23wbf56","geo_precision":"range","december":0,"address":"11700 Thorn Ridge Rd","september":0,"fbc county code":"OKLAHOMA","state":"OK"},"type":"Feature","geometry":{"type":"Point","coordinates":[-97.572138,35.588188]}},{"properties":{"november":0,"city":"Oklahoma City","name":"F4K - Bridgestone Elem, OKC","no.":"6582","january":0,"geo_score":0.844,"october":0,"delivery date":"Tuesday, 4th","zip code":"73128","april":8,"february":12,"average":3.5,"march":8,"id":"a629r26rx69i","geo_precision":"range","december":0,"address":"1700 S Council","september":0,"fbc county code":"OKLAHOMA","state":"OK"},"type":"Feature","geometry":{"type":"Point","coordinates":[-97.654055,35.448697]}},{"properties":{"november":0,"city":"Oklahoma City","name":"F4K Test Agency","no.":"F4K TEST","january":0,"geo_score":0.912,"october":0,"delivery date":null,"zip code":"73179","april":0,"february":0,"average":0.0,"march":0,"id":"a629r2d92k6g","geo_precision":"range","december":0,"address":"3355 S Purdue","september":0,"fbc county code":"OKLAHOMA","state":"OK"},"type":"Feature","geometry":{"type":"Point","coordinates":[-97.613652,35.430158]}},{"properties":{"november":0,"city":"Putnam","name":"F4K - Tulakes, OKC","no.":"6033","january":20,"geo_score":0.816,"october":12,"delivery date":"Thursday, 1st","zip code":"73132-7016","april":6,"february":14,"average":12.5,"march":20,"id":"a629r218pqms","geo_precision":"range","december":18,"address":"6600 N Galaxie","september":10,"fbc county code":"OKLAHOMA","state":"OK"},"type":"Feature","geometry":{"type":"Point","coordinates":[-97.631239,35.537234]}},{"properties":{"november":44,"city":"Putnam City","name":"F4K - Windsor Hills, OKC","no.":"6392","january":40,"geo_score":0.668,"october":0,"delivery date":"Tuesday, 2nd &amp; 4th","zip code":"73127","april":57,"february":64,"average":42.75,"march":42,"id":"a629r27fs038","geo_precision":"street","december":21,"address":"2909 Ann Arbor","september":74,"fbc county code":"OKLAHOMA","state":"OK"},"type":"Feature","geometry":{"type":"Point","coordinates":[-97.611705,35.491068]}},{"properties":{"november":0,"city":"Spencer","name":"F4K - Spencer, OKCPS","no.":"6029","january":0,"geo_score":0.779,"october":0,"delivery date":"Friday, 1st","zip code":"73084","april":37,"february":0,"average":8.38,"march":30,"id":"a629r22el94b","geo_precision":"range","december":0,"address":"8900 NE 50th","september":0,"fbc county code":"OKLAHOMA","state":"OK"},"type":"Feature","geometry":{"type":"Point","coordinates":[-97.372206,35.522092]}},{"properties":{"november":0,"city":"Spencer","name":"F4K - Green Pastures, OKCPS","no.":"6038","january":0,"geo_score":0.925,"october":0,"delivery date":"Friday, 1st","zip code":"73084-4216","april":25,"february":0,"average":8.38,"march":42,"id":"a629r2cn85jy","geo_precision":"range","december":0,"address":"4300 N Post Road","september":0,"fbc county code":"OKLAHOMA","state":"OK"},"type":"Feature","geometry":{"type":"Point","coordinates":[-97.353141,35.513036]}},{"properties":{"november":22,"city":"Warr Acres","name":"F4K - Arbor Grove, Warr Acres","no.":"6067","january":26,"geo_score":0.78,"october":22,"delivery date":"Thursday, 1st","zip code":"73122-3303","april":28,"february":28,"average":26.5,"march":30,"id":"a629r1xlaofb","geo_precision":"range","december":22,"address":"5430 NW 40th","september":34,"fbc county code":"OKLAHOMA","state":"OK"},"type":"Feature","geometry":{"type":"Point","coordinates":[-97.610602,35.512595]}},{"properties":{"november":38,"city":"Warr Acres","name":"F4K - Central, Warr Acres","no.":"6432","january":0,"geo_score":0.78,"october":14,"delivery date":"Monday, 3rd","zip code":"73122","april":16,"february":0,"average":11.63,"march":11,"id":"a629r26cf48b","geo_precision":"range","december":0,"address":"5721 NW 39th","september":14,"fbc county code":"OKLAHOMA","state":"OK"},"type":"Feature","geometry":{"type":"Point","coordinates":[-97.615295,35.511174]}}],"is_temporal":false,"author":{"url":"","metadata":"","contact_name":"","contact_address":"","source":"","contact_phone":""},"source":"","pagination":{"sort":null,"start":0,"total":219,"limit":1000000},"state":"complete","tags":"","published":"2014-08-15T04:14:16-04:00","id":239073}