{"type":"FeatureCollection","data_type":"Dataset","url_type":null,"permissions":[{"permissions":{"download":true,"view":true},"group_id":"everyone"}],"classification":null,"title":"FFK School Locations - Northwest Region","count":30,"stream_id":239077,"contributor":{"url":"http://geocommons.com/users/45183","name":"eck74"},"data_attributes":null,"calculation_params":null,"icon_link":null,"link":"http://geocommons.com/overlays/239077.json","extent":[-102.509,35.6299,-98.0893,36.8301],"geometry_types":["point"],"unique_name":null,"name":"FFK School Locations - Northwest Region","feature_count":30,"description":"","next_feature":null,"is_raster":false,"short_classification":"Y","stats":{"november":{"max":35,"mean":4.63333333333333,"variance":190.516091954023,"stdev":13.8027566795196,"min":-54,"median":4},"no.":{"max":6587,"mean":6396.83333333333,"variance":20215.3850574713,"stdev":142.180818176965,"min":6128,"median":6419},"january":{"max":22,"mean":6.2,"variance":47.0620689655173,"stdev":6.86017995139466,"min":0,"median":4},"october":{"max":32,"mean":7.83333333333333,"variance":89.5919540229885,"stdev":9.46530263768616,"min":0,"median":5},"april":{"max":16,"mean":5.23333333333333,"variance":24.667816091954,"stdev":4.96667052379701,"min":0,"median":4},"february":{"max":38,"mean":9.56666666666667,"variance":131.97816091954,"stdev":11.4881748297778,"min":0,"median":5},"average":{"max":16.75,"mean":5.85566666666667,"variance":21.2474874712644,"stdev":4.60949969858599,"min":0.0,"median":6.25},"march":{"max":24,"mean":4.96666666666667,"variance":49.4126436781609,"stdev":7.02941275485804,"min":0,"median":0},"december":{"max":26,"mean":4.4,"variance":52.4551724137931,"stdev":7.24259431514655,"min":0,"median":0},"september":{"max":15,"mean":4.0,"variance":26.4137931034483,"stdev":5.13943509575209,"min":0,"median":0}},"features":[{"properties":{"november":0,"city":"Cherokee","name":"F4K - Cherokee Head Start, Che","no.":6549,"january":6,"geo_score":0.732,"october":0,"delivery date":"Tuesday, 4th","zip code":"73728","april":12,"february":2,"average":5.25,"march":14,"id":"a687x4499ffi","geo_precision":"range","december":8,"address":"412 E 5th","september":0,"fbc county code":"ALFALFA","state":"OK"},"type":"Feature","geometry":{"type":"Point","coordinates":[-98.353067,36.753629]}},{"properties":{"november":0,"city":"Jet","name":"F4K - Timberlake, Timberlake","no.":6475,"january":0,"geo_score":0.686,"october":0,"delivery date":"Tuesday, 4th","zip code":"73749","april":6,"february":0,"average":1.25,"march":4,"id":"a687x45yg6p0","geo_precision":"street","december":0,"address":"3rd Street","september":0,"fbc county code":"ALFALFA","state":"OK"},"type":"Feature","geometry":{"type":"Point","coordinates":[-98.179216,36.668278]}},{"properties":{"november":4,"city":"Forgan","name":"F4K - Forgan, Forgan","no.":6137,"january":0,"geo_score":0.371,"october":6,"delivery date":"Wednesday, 1st","zip code":"73938-0406","april":3,"february":0,"average":4.13,"march":6,"id":"a687x4ceb96k","geo_precision":"street","december":8,"address":"504 W. Main","september":6,"fbc county code":"BEAVER","state":"OK"},"type":"Feature","geometry":{"type":"Point","coordinates":[-100.52098,36.818259]}},{"properties":{"november":10,"city":"Canton","name":"F4K - Canton, Canton","no.":6345,"january":12,"geo_score":0.657,"october":4,"delivery date":"Tuesday, 3rd","zip code":"73724-0639","april":0,"february":32,"average":9.25,"march":0,"id":"a687x49ckg12","geo_precision":"street","december":2,"address":"Oklahoma 58","september":14,"fbc county code":"BLAINE","state":"OK"},"type":"Feature","geometry":{"type":"Point","coordinates":[-98.587081,36.05343]}},{"properties":{"november":6,"city":"Geary","name":"F4K - Geary, Geary","no.":6450,"january":17,"geo_score":1.0,"october":14,"delivery date":"Tuesday, 1st","zip code":"73040","april":8,"february":5,"average":10.75,"march":16,"id":"a687x4b63a9y","geo_precision":"range","december":10,"address":"200 S Galena Ave","september":10,"fbc county code":"BLAINE","state":"OK"},"type":"Feature","geometry":{"type":"Point","coordinates":[-98.323929,35.629922]}},{"properties":{"november":15,"city":"Okeene","name":"F4K - Okeene, Okeene","no.":6471,"january":22,"geo_score":0.548,"october":14,"delivery date":"Tuesday, 1st","zip code":"73763","april":13,"february":14,"average":16.75,"march":24,"id":"a687x40r4ccm","geo_precision":"street","december":20,"address":"318 N. 6th St.","september":12,"fbc county code":"BLAINE","state":"OK"},"type":"Feature","geometry":{"type":"Point","coordinates":[-98.314506,36.118642]}},{"properties":{"november":16,"city":"Watonga","name":"F4K - Watonga Elem, Watonga","no.":6530,"january":10,"geo_score":0.854,"october":14,"delivery date":"Tuesday, 1st","zip code":"73772","april":12,"february":20,"average":14.0,"march":14,"id":"a687x3wpigwi","geo_precision":"range","december":26,"address":"900 N Leach","september":0,"fbc county code":"BLAINE","state":"OK"},"type":"Feature","geometry":{"type":"Point","coordinates":[-98.415568,35.852875]}},{"properties":{"november":0,"city":"Boise City","name":"F4K - Boise City, Boise City","no.":6575,"january":0,"geo_score":0.547,"october":0,"delivery date":"Wednesday, 1st","zip code":"73933","april":16,"february":0,"average":2.0,"march":0,"id":"a687x47j3cgj","geo_precision":"range","december":0,"address":"402 SE 4th","september":0,"fbc county code":"CIMARRON","state":"OK"},"type":"Feature","geometry":{"type":"Point","coordinates":[-102.508802,36.726195]}},{"properties":{"november":0,"city":"Leedey","name":"F4K - Leedey Elem, Leedey","no.":6587,"january":0,"geo_score":0.699,"october":0,"delivery date":"Wednesday, 4th","zip code":"73654","april":8,"february":0,"average":1.88,"march":7,"id":"a687x45cxvt5","geo_precision":"range","december":0,"address":"505 E 6th St","september":0,"fbc county code":"DEWEY","state":"OK"},"type":"Feature","geometry":{"type":"Point","coordinates":[-99.342063,35.86794]}},{"properties":{"november":35,"city":"Gage","name":"F4K - Gage Elem, Gage","no.":6227,"january":12,"geo_score":0.808,"october":0,"delivery date":"Thursday, 4th","zip code":"73843","april":10,"february":20,"average":9.63,"march":0,"id":"a687x48leesq","geo_precision":"range","december":0,"address":"201 School Street","september":0,"fbc county code":"ELLIS","state":"OK"},"type":"Feature","geometry":{"type":"Point","coordinates":[-99.755878,36.316753]}},{"properties":{"november":-54,"city":"Shattuck","name":"F4K - Shattuck Elem, Shattuck","no.":6506,"january":13,"geo_score":0.63,"october":32,"delivery date":"Thursday, 4th","zip code":"73858","april":2,"february":24,"average":4.0,"march":0,"id":"a687x4a3ceon","geo_precision":"street","december":0,"address":"817 E 3rd St","september":15,"fbc county code":"ELLIS","state":"OK"},"type":"Feature","geometry":{"type":"Point","coordinates":[-99.880292,36.274077]}},{"properties":{"november":24,"city":"Buffalo","name":"F4K - Buffalo, Buffalo","no.":6457,"january":10,"geo_score":0.711,"october":12,"delivery date":"Wednesday, 4th","zip code":"73834","april":0,"february":0,"average":6.5,"march":6,"id":"a687x3zmk7b6","geo_precision":"range","december":0,"address":"605 SE 2nd St","september":0,"fbc county code":"HARPER","state":"OK"},"type":"Feature","geometry":{"type":"Point","coordinates":[-99.628045,36.830113]}},{"properties":{"november":10,"city":"Cleo Springs","name":"F4K - Aline-Cleo, Aline-Cleo","no.":6447,"january":0,"geo_score":1.0,"october":10,"delivery date":"Tuesday, 3rd","zip code":"73729","april":0,"february":5,"average":6.88,"march":10,"id":"a687x407dieh","geo_precision":"range","december":10,"address":"124 Illinois St","september":10,"fbc county code":"MAJOR","state":"OK"},"type":"Feature","geometry":{"type":"Point","coordinates":[-98.442968,36.404305]}},{"properties":{"november":7,"city":"Fairview","name":"F4K - Cornelson, Fairview","no.":6384,"january":4,"geo_score":0.536,"october":10,"delivery date":"Tuesday, 3rd","zip code":"73737","april":7,"february":6,"average":6.63,"march":2,"id":"a687x4aw4k8b","geo_precision":"street","december":9,"address":"1400 E. Elm","september":8,"fbc county code":"MAJOR","state":"OK"},"type":"Feature","geometry":{"type":"Point","coordinates":[-98.479873,36.271108]}},{"properties":{"november":10,"city":"Lahoma","name":"F4K - Cimarron Elem, Lahoma","no.":6515,"january":15,"geo_score":0.815,"october":0,"delivery date":"Thursday, 4th","zip code":"73754","april":5,"february":0,"average":7.0,"march":6,"id":"a687x46xabje","geo_precision":"street","december":20,"address":"301 Main St","september":0,"fbc county code":"MAJOR","state":"OK"},"type":"Feature","geometry":{"type":"Point","coordinates":[-98.089345,36.386393]}},{"properties":{"november":10,"city":"Guymon","name":"F4K - Prairie, Guymon","no.":6413,"january":12,"geo_score":0.5,"october":5,"delivery date":"Wednesday, 1st","zip code":"73942","april":10,"february":15,"average":11.75,"march":20,"id":"a687x4b4k8z1","geo_precision":"street","december":14,"address":"1501 E. Hwy 3","september":8,"fbc county code":"TEXAS","state":"OK"},"type":"Feature","geometry":{"type":"Point","coordinates":[-101.352717,36.758511]}},{"properties":{"november":0,"city":"Guymon","name":"F4K - Academy C Elem, Guymon","no.":6414,"january":0,"geo_score":0.902,"october":0,"delivery date":"Wednesday, 1st","zip code":"73942","april":0,"february":0,"average":0.0,"march":0,"id":"a687x48apgkt","geo_precision":"range","december":0,"address":"700 N James St","september":0,"fbc county code":"TEXAS","state":"OK"},"type":"Feature","geometry":{"type":"Point","coordinates":[-101.486757,36.684934]}},{"properties":{"november":0,"city":"Guymon","name":"F4K - Homer Long, Gumon","no.":6415,"january":0,"geo_score":0.837,"october":0,"delivery date":"Wednesday, 1st","zip code":"73942","april":0,"february":0,"average":0.0,"march":0,"id":"a687x4ctbitn","geo_precision":"range","december":0,"address":"1500 N Beaver","september":0,"fbc county code":"TEXAS","state":"OK"},"type":"Feature","geometry":{"type":"Point","coordinates":[-101.488071,36.693059]}},{"properties":{"november":0,"city":"Guymon","name":"F4K - Northeast, Guymon","no.":6416,"january":0,"geo_score":0.902,"october":0,"delivery date":"Wednesday, 1st","zip code":"73942","april":0,"february":0,"average":0.0,"march":0,"id":"a687x41t0ya1","geo_precision":"range","december":0,"address":"220 Medical Dr","september":0,"fbc county code":"TEXAS","state":"OK"},"type":"Feature","geometry":{"type":"Point","coordinates":[-101.480062,36.690691]}},{"properties":{"november":0,"city":"Guymon","name":"F4K - Salyer, Guymon","no.":6417,"january":0,"geo_score":0.902,"october":0,"delivery date":"Wednesday, 1st","zip code":"73942","april":0,"february":0,"average":0.0,"march":0,"id":"a687x4944xgc","geo_precision":"range","december":0,"address":"101 S Crumley St","september":0,"fbc county code":"TEXAS","state":"OK"},"type":"Feature","geometry":{"type":"Point","coordinates":[-101.478952,36.678592]}},{"properties":{"november":0,"city":"Guymon","name":"F4K - Carrier, Gumon","no.":6418,"january":0,"geo_score":0.471,"october":0,"delivery date":"Wednesday, 1st","zip code":"73942","april":0,"february":0,"average":0.0,"march":0,"id":"a687x46l18mw","geo_precision":"street","december":0,"address":"103 N. Perkins","september":0,"fbc county code":"TEXAS","state":"OK"},"type":"Feature","geometry":{"type":"Point","coordinates":[-101.468444,36.678159]}},{"properties":{"november":2,"city":"Guymon","name":"F4K - North Park, Guymon","no.":6419,"january":1,"geo_score":0.471,"october":3,"delivery date":"Wednesday, 1st","zip code":"73942","april":4,"february":4,"average":2.88,"march":4,"id":"a687x42i1ovz","geo_precision":"street","december":1,"address":"1400 N. Crumley","september":4,"fbc county code":"TEXAS","state":"OK"},"type":"Feature","geometry":{"type":"Point","coordinates":[-101.478971,36.680655]}},{"properties":{"november":0,"city":"Guymon","name":"F4K - Academy Elem, Guymon","no.":6426,"january":4,"geo_score":0.471,"october":2,"delivery date":"Wednesday, 1st","zip code":"73942","april":0,"february":0,"average":1.75,"march":0,"id":"a687x46mmfsu","geo_precision":"street","december":4,"address":"602 N. Academy","september":4,"fbc county code":"TEXAS","state":"OK"},"type":"Feature","geometry":{"type":"Point","coordinates":[-101.48544,36.680776]}},{"properties":{"november":0,"city":"Waynoka","name":"F4K - Waynoka Elem, Waynoka","no.":6562,"january":0,"geo_score":0.721,"october":0,"delivery date":"Tuesday, 4th","zip code":"73860","april":4,"february":30,"average":6.25,"march":16,"id":"a687x4ci3jez","geo_precision":"street","december":0,"address":"2134 Lincoln St","september":0,"fbc county code":"WOODS","state":"OK"},"type":"Feature","geometry":{"type":"Point","coordinates":[-98.870899,36.576347]}},{"properties":{"november":10,"city":"Mooreland","name":"F4K -  Mooreland, Mooreland","no.":6331,"january":0,"geo_score":0.935,"october":32,"delivery date":"Thursday, 4th","zip code":"73852-0075","april":0,"february":28,"average":8.75,"march":0,"id":"a687x47ej0cr","geo_precision":"range","december":0,"address":"300 N Elm St","september":0,"fbc county code":"WOODWARD","state":"OK"},"type":"Feature","geometry":{"type":"Point","coordinates":[-99.206004,36.442287]}},{"properties":{"november":6,"city":"Sharon","name":"F4K - Sharon Mutual, Sharon","no.":6501,"january":0,"geo_score":0.805,"october":12,"delivery date":"Thursday, 4th","zip code":"73857","april":2,"february":9,"average":3.63,"march":0,"id":"a687x3xpsitm","geo_precision":"street","december":0,"address":"201 South 3rd Street","september":0,"fbc county code":"WOODWARD","state":"OK"},"type":"Feature","geometry":{"type":"Point","coordinates":[-99.337922,36.274916]}},{"properties":{"november":4,"city":"Woodward","name":"F4K - Horace Mann, WW","no.":6128,"january":12,"geo_score":0.798,"october":8,"delivery date":"Thursday, 4th","zip code":"73801-4961","april":4,"february":10,"average":5.25,"march":0,"id":"a687x4b7p5fk","geo_precision":"range","december":0,"address":"1610 2nd Street","september":4,"fbc county code":"WOODWARD","state":"OK"},"type":"Feature","geometry":{"type":"Point","coordinates":[-99.381845,36.430302]}},{"properties":{"november":17,"city":"Woodward","name":"F4K - Cedar Heights, WW","no.":6129,"january":8,"geo_score":0.675,"october":21,"delivery date":"Thursday, 4th","zip code":"73801","april":10,"february":9,"average":9.13,"march":0,"id":"a687x43y0hl3","geo_precision":"street","december":0,"address":"22nd St and Cedar Ave","september":8,"fbc county code":"WOODWARD","state":"OK"},"type":"Feature","geometry":{"type":"Point","coordinates":[-99.389389,36.426283]}},{"properties":{"november":3,"city":"Woodward","name":"F4K - Highland Park, WW","no.":6130,"january":9,"geo_score":0.484,"october":12,"delivery date":"Thursday, 4th","zip code":"73802","april":10,"february":16,"average":6.63,"march":0,"id":"a687x434gg8q","geo_precision":"street","december":0,"address":"28th and Highland","september":3,"fbc county code":"WOODWARD","state":"OK"},"type":"Feature","geometry":{"type":"Point","coordinates":[-99.416259,36.436675]}},{"properties":{"november":4,"city":"Woodward","name":"F4K - Woodward ECC, WW","no.":6131,"january":19,"geo_score":0.707,"october":24,"delivery date":"Thursday, 4th","zip code":"73802","april":11,"february":38,"average":13.75,"march":0,"id":"a687x425zc64","geo_precision":"range","december":0,"address":"3801 34TH ST","september":14,"fbc county code":"WOODWARD","state":"OK"},"type":"Feature","geometry":{"type":"Point","coordinates":[-99.425438,36.409628]}}],"is_temporal":false,"author":{"url":"","metadata":"","contact_name":"","contact_address":"","source":"","contact_phone":""},"source":"","pagination":{"sort":null,"start":0,"total":30,"limit":1000000},"state":"complete","tags":"","published":"2014-08-15T04:14:19-04:00","id":239077}