{"type":"FeatureCollection","data_type":"Dataset","url_type":null,"permissions":[{"permissions":{"download":true,"view":true},"group_id":"everyone"}],"classification":null,"title":"nytestshort","count":49,"stream_id":239116,"contributor":{"url":"http://geocommons.com/users/44571","name":"Troyusrex"},"data_attributes":null,"calculation_params":null,"icon_link":null,"link":"http://geocommons.com/overlays/239116.json","extent":[-122.475,25.7554,-70.9989,45.6504],"geometry_types":["point"],"unique_name":null,"name":"nytestshort","feature_count":49,"description":"","next_feature":null,"is_raster":false,"short_classification":"Y","stats":{"accept":{"max":1,"mean":0.0612244897959184,"variance":0.0586734693877551,"stdev":0.242226070825902,"min":0,"median":0}},"features":[{"properties":{"accept":1,"geo_score":0.915,"id":"a69vt7fmw32n","geo_precision":"range","address":"345 Millbank Rd,Bryn Mawr,PA 19010"},"type":"Feature","geometry":{"type":"Point","coordinates":[-75.312106,40.030881]}},{"properties":{"accept":0,"geo_score":0.924,"id":"a69vt767gq2s","geo_precision":"range","address":"1520 Grandview Drive,Nashville,TN 37215"},"type":"Feature","geometry":{"type":"Point","coordinates":[-86.799251,36.108805]}},{"properties":{"accept":0,"geo_score":1.0,"id":"a69vt7fif8kv","geo_precision":"range","address":"140 Northern Pkwy,Plainview,NY 11803"},"type":"Feature","geometry":{"type":"Point","coordinates":[-73.49405,40.787807]}},{"properties":{"accept":0,"geo_score":0.92,"id":"a69vt7gcfzti","geo_precision":"range","address":"3124 CHATHAM ROAD,ENDWELL,NY 13760"},"type":"Feature","geometry":{"type":"Point","coordinates":[-76.024766,42.103713]}},{"properties":{"accept":0,"geo_score":0.916,"id":"a69vt78unq9o","geo_precision":"range","address":"N19117 Belgian Lake Road,Pembine,WI 54156"},"type":"Feature","geometry":{"type":"Point","coordinates":[-88.052133,45.65039]}},{"properties":{"accept":0,"geo_score":0.92,"id":"a69vt762rexp","geo_precision":"range","address":"177 Bon Air Avenue,New Rochelle,NY 10804"},"type":"Feature","geometry":{"type":"Point","coordinates":[-73.800174,40.938471]}},{"properties":{"accept":0,"geo_score":1.0,"id":"a69vt7fzq1uz","geo_precision":"range","address":"2111 Park Grove Ave,Los Angeles,CA 90007"},"type":"Feature","geometry":{"type":"Point","coordinates":[-118.27774,34.033864]}},{"properties":{"accept":0,"geo_score":1.0,"id":"a69vt7439kxe","geo_precision":"range","address":"164 East 100th Street,New York,NY 10029"},"type":"Feature","geometry":{"type":"Point","coordinates":[-73.948865,40.78832]}},{"properties":{"accept":0,"geo_score":0.986,"id":"a69vt75288qt","geo_precision":"range","address":"3535 Tuscany Reserve Blvd.,New Smyrna Bch.,FL 32168"},"type":"Feature","geometry":{"type":"Point","coordinates":[-81.037727,29.044548]}},{"properties":{"accept":0,"geo_score":0.902,"id":"a69vt78qw4cq","geo_precision":"range","address":"2170 Englewood Terr,Chesterfield,MO 63017"},"type":"Feature","geometry":{"type":"Point","coordinates":[-90.570846,38.618638]}},{"properties":{"accept":0,"geo_score":0.913,"id":"a69vt7esww12","geo_precision":"range","address":"15 Campbell Rd,Middleton,MA 01949"},"type":"Feature","geometry":{"type":"Point","coordinates":[-70.998893,42.599176]}},{"properties":{"accept":0,"geo_score":1.0,"id":"a69vt7an0wqi","geo_precision":"range","address":"85 Dean Street,Brooklyn,NY 11201"},"type":"Feature","geometry":{"type":"Point","coordinates":[-73.989874,40.687282]}},{"properties":{"accept":0,"geo_score":1.0,"id":"a69vt7gxz4p8","geo_precision":"range","address":"1865 Brickell Ave,Miami,FL 33129"},"type":"Feature","geometry":{"type":"Point","coordinates":[-80.19655,25.755432]}},{"properties":{"accept":0,"geo_score":0.914,"id":"a69vt7hhxsei","geo_precision":"range","address":"1407 Highland Drive,Silver Spring,MD 20910"},"type":"Feature","geometry":{"type":"Point","coordinates":[-77.03264,39.006481]}},{"properties":{"accept":0,"geo_score":1.0,"id":"a69vt76ootvv","geo_precision":"range","address":"142 W 4th Street,New York,NY 10012"},"type":"Feature","geometry":{"type":"Point","coordinates":[-74.000205,40.731432]}},{"properties":{"accept":0,"geo_score":0.908,"id":"a69vt76fi6ma","geo_precision":"range","address":"2120 University Ave Apt 410,Madison,WI 53726"},"type":"Feature","geometry":{"type":"Point","coordinates":[-89.423729,43.072454]}},{"properties":{"accept":0,"geo_score":1.0,"id":"a69vt77mxqei","geo_precision":"range","address":"18164 Blue Lake Way,Boca Raton,FL 33498"},"type":"Feature","geometry":{"type":"Point","coordinates":[-80.225304,26.406835]}},{"properties":{"accept":0,"geo_score":0.912,"id":"a69vt79uluks","geo_precision":"range","address":"11710 S. Island Rd.,Cooper City,FL 33026"},"type":"Feature","geometry":{"type":"Point","coordinates":[-80.30658,26.036446]}},{"properties":{"accept":0,"geo_score":0.873,"id":"a69vt7hxckq0","geo_precision":"range","address":"500 Monte Sano Blvd,Huntsville,AL 35801"},"type":"Feature","geometry":{"type":"Point","coordinates":[-86.531893,34.742323]}},{"properties":{"accept":0,"geo_score":0.902,"id":"a69vt7fzce7w","geo_precision":"range","address":"20760 Radisson Rd,Excelsior,MN 55331"},"type":"Feature","geometry":{"type":"Point","coordinates":[-93.543088,44.903383]}},{"properties":{"accept":0,"geo_score":0.951,"id":"a69vt75w0085","geo_precision":"range","address":"4 Everbloom Drive,Johnston,RI 02919"},"type":"Feature","geometry":{"type":"Point","coordinates":[-71.526632,41.790426]}},{"properties":{"accept":0,"geo_score":0.916,"id":"a69vt72e4v2v","geo_precision":"range","address":"998 Newton Street,North Brunswick,NJ 08902"},"type":"Feature","geometry":{"type":"Point","coordinates":[-74.466608,40.466822]}},{"properties":{"accept":0,"geo_score":0.859,"id":"a69vt767pxiu","geo_precision":"range","address":"200 Netherfield Lane,West Chester,PA 19380"},"type":"Feature","geometry":{"type":"Point","coordinates":[-75.527564,39.969422]}},{"properties":{"accept":0,"geo_score":0.643,"id":"a69vt76n545i","geo_precision":"street","address":"Calle 20 # 144-145,Cali,XX 00000"},"type":"Feature","geometry":{"type":"Point","coordinates":[-83.259957,41.945403]}},{"properties":{"accept":0,"geo_score":0.602,"id":"a69vt78gygkw","geo_precision":"zip","address":"27 STIRRUP LANE,FLEMINGTON,NJ 08822"},"type":"Feature","geometry":{"type":"Point","coordinates":[-74.808775,40.502604]}},{"properties":{"accept":0,"geo_score":0.923,"id":"a69vt7iep7ns","geo_precision":"range","address":"2560 AUGUSTA DR,WHITEHALL,PA 18052"},"type":"Feature","geometry":{"type":"Point","coordinates":[-75.502919,40.641242]}},{"properties":{"accept":0,"geo_score":0.82,"id":"a69vt73516cz","geo_precision":"range","address":"1392 Monroe Ave Apt #15,Rochester,NY 14618"},"type":"Feature","geometry":{"type":"Point","coordinates":[-77.574506,43.135171]}},{"properties":{"accept":0,"geo_score":1.0,"id":"a69vt7ebvmme","geo_precision":"range","address":"4527 Amiens Ave,Fremont,CA 94555"},"type":"Feature","geometry":{"type":"Point","coordinates":[-122.052241,37.571109]}},{"properties":{"accept":0,"geo_score":0.612,"id":"a69vt7cm3oty","geo_precision":"street","address":"201 Chateau Court,Oakley,CA 94561"},"type":"Feature","geometry":{"type":"Point","coordinates":[-121.941282,37.804367]}},{"properties":{"accept":0,"geo_score":0.819,"id":"a69vt7a8rhyv","geo_precision":"range","address":"1730 N 71ST STREET,PHILADELPHIA,PA 19151"},"type":"Feature","geometry":{"type":"Point","coordinates":[-75.262298,39.980343]}},{"properties":{"accept":1,"geo_score":0.522,"id":"a69vt73rpfhb","geo_precision":"street","address":"2131 West Street 1FL R,Brooklyn,NY 11223"},"type":"Feature","geometry":{"type":"Point","coordinates":[-73.971897,40.594353]}},{"properties":{"accept":0,"geo_score":1.0,"id":"a69vt7bac75a","geo_precision":"range","address":"1 Scott Circle NW,Washington,DC 20036"},"type":"Feature","geometry":{"type":"Point","coordinates":[-77.036529,38.907458]}},{"properties":{"accept":0,"geo_score":1.0,"id":"a69vt751lhbk","geo_precision":"range","address":"156 2nd Avenue, Apt 6E,New York,NY 10003"},"type":"Feature","geometry":{"type":"Point","coordinates":[-73.986812,40.729779]}},{"properties":{"accept":0,"geo_score":0.912,"id":"a69vt75mnfvv","geo_precision":"range","address":"831 Limecrest rd,Newton,NJ 07860"},"type":"Feature","geometry":{"type":"Point","coordinates":[-74.699974,41.040507]}},{"properties":{"accept":0,"geo_score":0.92,"id":"a69vt77jio7v","geo_precision":"range","address":"2213 JUDITH STRET,BOISE,ID 83705"},"type":"Feature","geometry":{"type":"Point","coordinates":[-116.208723,43.591266]}},{"properties":{"accept":0,"geo_score":0.685,"id":"a69vt7ehpnsc","geo_precision":"street","address":"400 Cameron Station Blvd. Apartment G4,Alexandria,VA 22304"},"type":"Feature","geometry":{"type":"Point","coordinates":[-77.125987,38.806153]}},{"properties":{"accept":0,"geo_score":0.554,"id":"a69vt78daezp","geo_precision":"range","address":"4117 W St NW, Apt 05,Washington,DC 20007"},"type":"Feature","geometry":{"type":"Point","coordinates":[-77.019156,38.941159]}},{"properties":{"accept":0,"geo_score":1.0,"id":"a69vt73tsj5e","geo_precision":"range","address":"10 Morgan Way,Scotch Plains,NJ 07076"},"type":"Feature","geometry":{"type":"Point","coordinates":[-74.362316,40.627837]}},{"properties":{"accept":0,"geo_score":0.612,"id":"a69vt7c4yd61","geo_precision":"street","address":"176 vintage,irvine,CA 92620"},"type":"Feature","geometry":{"type":"Point","coordinates":[-117.711515,33.506909]}},{"properties":{"accept":0,"geo_score":0.582,"id":"a69vt7bcafdo","geo_precision":"street","address":"224  Forest  Edge ,DEPTFORD,NJ 08096"},"type":"Feature","geometry":{"type":"Point","coordinates":[-75.083722,39.810815]}},{"properties":{"accept":0,"geo_score":1.0,"id":"a69vt75o5zuo","geo_precision":"range","address":"2027 Delancey Place,Philadelphia,PA 19103"},"type":"Feature","geometry":{"type":"Point","coordinates":[-75.174881,39.94748]}},{"properties":{"accept":0,"geo_score":0.833,"id":"a69vt7c81hcz","geo_precision":"range","address":"2770 19Th Ave #57,San Francisco,CA 94132"},"type":"Feature","geometry":{"type":"Point","coordinates":[-122.475118,37.735759]}},{"properties":{"accept":0,"geo_score":0.965,"id":"a69vt7837mq5","geo_precision":"range","address":"112 Fleming Way,Princeton,NJ 08540"},"type":"Feature","geometry":{"type":"Point","coordinates":[-74.688005,40.329003]}},{"properties":{"accept":0,"geo_score":1.0,"id":"a69vt7douv4q","geo_precision":"range","address":"819 Chestnut Tree Drive,Annapolis,MD 21409"},"type":"Feature","geometry":{"type":"Point","coordinates":[-76.453796,39.041615]}},{"properties":{"accept":0,"geo_score":0.641,"id":"a69vt7af2cko","geo_precision":"street","address":"401 Quincy Mail Center,Cambridge,MA 02138"},"type":"Feature","geometry":{"type":"Point","coordinates":[-71.114091,42.376624]}},{"properties":{"accept":0,"geo_score":0.766,"id":"a69vt7cjk85g","geo_precision":"range","address":"1615 HIGHLAND ST., APT.5,COLUMBUS,OH 43201"},"type":"Feature","geometry":{"type":"Point","coordinates":[-83.010887,39.994853]}},{"properties":{"accept":0,"geo_score":0.512,"id":"a69vt7c44vf6","geo_precision":"street","address":"5801 Clipper Lane,Clarksville,MD 21029"},"type":"Feature","geometry":{"type":"Point","coordinates":[-76.90319,39.517547]}},{"properties":{"accept":0,"geo_score":0.72,"id":"a69vt79hteto","geo_precision":"street","address":"3460 14th Street NW,Washington,DC 20010"},"type":"Feature","geometry":{"type":"Point","coordinates":[-77.032731,38.933855]}},{"properties":{"accept":1,"geo_score":1.0,"id":"a69vt7aj1050","geo_precision":"range","address":"1861 Sheridan Rd,evanston,IL 60201"},"type":"Feature","geometry":{"type":"Point","coordinates":[-87.674427,42.050218]}}],"is_temporal":false,"author":{"url":"","metadata":"","contact_name":"","contact_address":"","source":"","contact_phone":""},"source":"","pagination":{"sort":null,"start":0,"total":49,"limit":1000000},"state":"complete","tags":"","published":"2014-08-15T04:18:08-04:00","id":239116}