{"type":"FeatureCollection","data_type":"Dataset","url_type":null,"permissions":[{"permissions":{"download":true,"view":true},"group_id":"everyone"}],"classification":null,"title":"AM Metals Locations","count":45,"stream_id":24010,"contributor":{"url":"http://geocommons.com/users/11235","name":"tholterm"},"data_attributes":null,"calculation_params":null,"icon_link":null,"link":"http://geocommons.com/overlays/24010.json","extent":[-122.247,29.8605,-71.804,47.3814],"geometry_types":["point"],"unique_name":null,"name":"AM Metals Locations","feature_count":45,"description":"European Network Locations","next_feature":null,"is_raster":false,"short_classification":"Y","stats":{"npa nxx":{"max":972339,"mean":520647.852941176,"variance":74629095182.008,"stdev":273183.262997586,"min":203795,"median":513858},"geo_score":{"max":1.0,"mean":0.632377777777778,"variance":0.144224513131313,"stdev":0.379769026029392,"min":0.0,"median":0.752}},"features":[{"properties":{"city":"Shanghai","name":"A.M. Castle Metal Materials (Shangh","zip":"200131","npa nxx":null,"geo_score":0.0,"country":"China","phone":"86 21 5046 3060","id":"a6fb5k4s2xfk","geo_precision":"unmatched","pop_clli":null,"address":"258 North Riying Road Waigaoqiao Free Trade Zone","lec":null,"swc_clli":null,"state":"CH"},"type":"Feature","geometry":null},{"properties":{"city":"Singapore","name":"A.M. Castle Metal Materials (Singap","zip":"658071","npa nxx":null,"geo_score":0.0,"country":"Singapore","phone":"65 66860920","id":"a6fb5k4fbmfs","geo_precision":"unmatched","pop_clli":null,"address":"71 Bukit Batok Crescent 08-06 Prestige Centre","lec":null,"swc_clli":null,"state":"SI"},"type":"Feature","geometry":null},{"properties":{"city":"BIRMINGHAM","name":"Castle Metals - Birmingham","zip":"35217","npa nxx":205815,"geo_score":0.93,"country":"USA","phone":"205.815.5600","id":"a6fb5kdn30q2","geo_precision":"range","pop_clli":"BRHMALMT25E","address":"3900 Pinson Valley Parkway","lec":"BELLSOUTH SO CNTL   GA","swc_clli":"BRHMALCPDS0","state":"AL"},"type":"Feature","geometry":{"type":"Point","coordinates":[-86.72916,33.632118]}},{"properties":{"city":"CHARLOTTE","name":"Castle Metals - Charlotte","zip":"28269","npa nxx":704921,"geo_score":1.0,"country":"USA","phone":"704.921.8000","id":"a6fb5k8j5npd","geo_precision":"range","pop_clli":"CHRLNCCA37G","address":"11125 Metromont Parkway","lec":"BELLSOUTH SO BELL   GA","swc_clli":"CHRLNCDE59F","state":"NC"},"type":"Feature","geometry":{"type":"Point","coordinates":[-80.831858,35.355325]}},{"properties":{"city":"FRANKLIN PARK","name":"Castle Metals - Chicago","zip":"60131","npa nxx":847455,"geo_score":0.805,"country":"USA","phone":"847.455.7111","id":"a6fb5k9ljdhj","geo_precision":"range","pop_clli":"CHCGILWBDS3","address":"3400 Wolf Rd","lec":"AMERITECH ILLINOIS  IL","swc_clli":"RVGVILRGDS0","state":"IL"},"type":"Feature","geometry":{"type":"Point","coordinates":[-87.904536,41.940168]}},{"properties":{"city":"FRANKLIN PARK","name":"Castle Metals - Chicago","zip":"60131","npa nxx":847455,"geo_score":0.805,"country":"USA","phone":"847.455.7111","id":"a6fb5kdnhe7h","geo_precision":"range","pop_clli":"CHCGILWBDS3","address":"3400 Wolf Rd","lec":"AMERITECH ILLINOIS  IL","swc_clli":"RVGVILRGDS0","state":"IL"},"type":"Feature","geometry":{"type":"Point","coordinates":[-87.904536,41.940168]}},{"properties":{"city":"FAIRFIELD","name":"Castle Metals - Cincinnati","zip":"45014","npa nxx":513858,"geo_score":0.902,"country":"USA","phone":"513.858.3179","id":"a6fb5k1jh9pc","geo_precision":"range","pop_clli":"CNCNOHWSDS3","address":"4412 Dixie Highway","lec":"CINCINNATI BELL     OH","swc_clli":"FRFDOHFFRS1","state":"OH"},"type":"Feature","geometry":{"type":"Point","coordinates":[-84.542334,39.354124]}},{"properties":{"city":"BEDFORD HEIGHTS","name":"Castle Metals - Cleveland","zip":"44146","npa nxx":216292,"geo_score":0.735,"country":"USA","phone":"216.292.7600","id":"a6fb5k7dojx6","geo_precision":"street","pop_clli":"CLEVOH6262F","address":"26800 Miles Road","lec":"AMERITECH OHIO      OH","swc_clli":"BCWDOH46DS0","state":"OH"},"type":"Feature","geometry":{"type":"Point","coordinates":[-81.49793,41.424248]}},{"properties":{"city":"BEDFORD HEIGHTS","name":"Castle Metals - Cleveland","zip":"44146","npa nxx":216292,"geo_score":0.735,"country":"USA","phone":"216.292.7600","id":"a6fb5k0h3uc8","geo_precision":"street","pop_clli":"CLEVOH6262F","address":"26800 Miles Road","lec":"AMERITECH OHIO      OH","swc_clli":"BCWDOH46DS0","state":"OH"},"type":"Feature","geometry":{"type":"Point","coordinates":[-81.49793,41.424248]}},{"properties":{"city":"Edmonton","name":"Castle Metals - Edmonton","zip":"T6B 3P2","npa nxx":null,"geo_score":0.0,"country":"Canada","phone":"780.461.5757","id":"a6fb5k4z8d4q","geo_precision":"unmatched","pop_clli":null,"address":"5515 - 42 St.","lec":null,"swc_clli":null,"state":"AB"},"type":"Feature","geometry":null},{"properties":{"city":"HOUSTON","name":"Castle Metals - Houston","zip":"77092","npa nxx":713462,"geo_score":1.0,"country":"USA","phone":"713.462.7100","id":"a6fb5kcgr8vf","geo_precision":"range","pop_clli":"HSTNTXCADS0","address":"6501 Bingle Road","lec":"SOUTHWESTERN BELL   TX","swc_clli":"HSTNTXFADS0","state":"TX"},"type":"Feature","geometry":{"type":"Point","coordinates":[-95.488626,29.860484]}},{"properties":{"city":"KANSAS CITY","name":"Castle Metals - Kansas City","zip":"64120","npa nxx":816231,"geo_score":0.92,"country":"USA","phone":"816.231.6100","id":"a6fb5kccz8nm","geo_precision":"range","pop_clli":"KSCYMO55DS1","address":"6100 Stilwell Street","lec":"SOUTHWESTERN BELL   TX","swc_clli":"KSCYMO01DS0","state":"MO"},"type":"Feature","geometry":{"type":"Point","coordinates":[-94.511642,39.143785]}},{"properties":{"city":"KENT","name":"Castle Metals - Kent","zip":"98032","npa nxx":253372,"geo_score":0.504,"country":"USA","phone":"253-372-5640","id":"a6fb5kfbo3fu","geo_precision":"street","pop_clli":"STTLWAELDS0","address":"20826 68th Ave. S.","lec":"QWEST CORPORATION   WA","swc_clli":"KENTWA01DS0","state":"WA"},"type":"Feature","geometry":{"type":"Point","coordinates":[-122.24739,47.381361]}},{"properties":{"city":"PARAMOUNT","name":"Castle Metals - Los Angeles","zip":"90723","npa nxx":562630,"geo_score":1.0,"country":"USA","phone":"562.630.1400","id":"a6fb5k23o19n","geo_precision":"range","pop_clli":"CMTNCA01DS0","address":"14001 Orange Avenue","lec":"PACIFIC BELL        CA","swc_clli":"PRMTCA01DS0","state":"CA"},"type":"Feature","geometry":{"type":"Point","coordinates":[-118.176835,33.907142]}},{"properties":{"city":"Nuevo Leon","name":"Castle Metals - Mexico","zip":"66350","npa nxx":null,"geo_score":0.0,"country":"Mexico","phone":"01152 81 100 10","id":"a6fb5kenkv2m","geo_precision":"unmatched","pop_clli":null,"address":"Blvd Industriales del Poniente KM19 Santa Catarina","lec":null,"swc_clli":null,"state":"MX"},"type":"Feature","geometry":null},{"properties":{"city":"BLAINE","name":"Castle Metals - Minnesota","zip":"55449","npa nxx":763784,"geo_score":0.838,"country":"USA","phone":"763.784.6866","id":"a6fb5k6bpt8e","geo_precision":"range","pop_clli":"MPLSMNDT34E","address":"3100 82nd Lane NE","lec":"QWEST CORPORATION   IA","swc_clli":"BLANMNBLDS0","state":"MN"},"type":"Feature","geometry":{"type":"Point","coordinates":[-93.194865,45.120312]}},{"properties":{"city":"Pointe Claire","name":"Castle Metals - Montreal","zip":"H9R 3S2","npa nxx":null,"geo_score":0.0,"country":"Canada","phone":"514.694.9575","id":"a6fb5k5puobs","geo_precision":"unmatched","pop_clli":null,"address":"835 Selkirk Avenue","lec":null,"swc_clli":null,"state":"QU"},"type":"Feature","geometry":null},{"properties":{"city":"WORCESTER","name":"Castle Metals - New England","zip":"1610","npa nxx":508798,"geo_score":1.0,"country":"USA","phone":"508.798.2592","id":"a6fb5k24cccf","geo_precision":"range","pop_clli":"WRCSMACEDS3","address":"70 Quinsigamond Avenue","lec":"VERIZON NEW ENGLAND MA","swc_clli":"WRCSMACEDS3","state":"MA"},"type":"Feature","geometry":{"type":"Point","coordinates":[-71.803999,42.248441]}},{"properties":{"city":"FAIRLESS HILLS","name":"Castle Metals - Philadelphia","zip":"19030","npa nxx":215736,"geo_score":1.0,"country":"USA","phone":"215.736.8600","id":"a6fb5k2ck0ua","geo_precision":"range","pop_clli":"PHLAPALODS1","address":"299 Canal Rd","lec":"VERIZON PENNSYLVANIAPA","swc_clli":"MRSLPAMVDS0","state":"PA"},"type":"Feature","geometry":{"type":"Point","coordinates":[-74.788296,40.192352]}},{"properties":{"city":"PHOENIX","name":"Castle Metals - Phoenix","zip":"85034","npa nxx":602275,"geo_score":0.61,"country":"USA","phone":"602.275.7861","id":"a6fb5kd0qg78","geo_precision":"street","pop_clli":"PHNXAZMADS4","address":"2302 E. Magnolia Street","lec":"QWEST CORPORATION   CO","swc_clli":"PHNXAZEADS0","state":"AZ"},"type":"Feature","geometry":{"type":"Point","coordinates":[-112.052118,33.424151]}},{"properties":{"city":"Saskatoon","name":"Castle Metals - Saskatoon","zip":"S7R 1C4","npa nxx":null,"geo_score":0.0,"country":"Canada","phone":"306.931.4833","id":"a6fb5keuppaz","geo_precision":"unmatched","pop_clli":null,"address":"3635 Thatcher Avenue","lec":null,"swc_clli":null,"state":"SK"},"type":"Feature","geometry":null},{"properties":{"city":"STOCKTON","name":"Castle Metals - Stockton","zip":"95206","npa nxx":209944,"geo_score":0.902,"country":"USA","phone":"209.944.1100","id":"a6fb5k72pxgs","geo_precision":"range","pop_clli":"SKTNCA01CG0","address":"1625 Tillie Lewis Drive","lec":"PACIFIC BELL        CA","swc_clli":"SKTNCA01DS0","state":"CA"},"type":"Feature","geometry":{"type":"Point","coordinates":[-121.318317,37.934682]}},{"properties":{"city":"STOCKTON","name":"Castle Metals - Stockton","zip":"95206","npa nxx":209944,"geo_score":0.902,"country":"USA","phone":"209.944.1100","id":"a6fb5kg5vdub","geo_precision":"range","pop_clli":"SKTNCA01CG0","address":"1625 Tillie Lewis Drive","lec":"PACIFIC BELL        CA","swc_clli":"SKTNCA01DS0","state":"CA"},"type":"Feature","geometry":{"type":"Point","coordinates":[-121.318317,37.934682]}},{"properties":{"city":"GRAND PRAIRIE","name":"Castle Metals - Texas","zip":"75051","npa nxx":972339,"geo_score":1.0,"country":"USA","phone":"972.339.5000","id":"a6fb5k11oshk","geo_precision":"range","pop_clli":"DLLSTXRODS0","address":"2602 Pinewood Drive","lec":"SOUTHWESTERN BELL   TX","swc_clli":"DLLSTXMCDS0","state":"TX"},"type":"Feature","geometry":{"type":"Point","coordinates":[-97.047385,32.716421]}},{"properties":{"city":"GRAND PRAIRIE","name":"Castle Metals - Texas","zip":"75051","npa nxx":972339,"geo_score":1.0,"country":"USA","phone":"972.339.5000","id":"a6fb5kbxkxt0","geo_precision":"range","pop_clli":"DLLSTXRODS0","address":"2602 Pinewood Drive","lec":"SOUTHWESTERN BELL   TX","swc_clli":"DLLSTXMCDS0","state":"TX"},"type":"Feature","geometry":{"type":"Point","coordinates":[-97.047385,32.716421]}},{"properties":{"city":"Mississauga","name":"Castle Metals - Toronto","zip":"L5N 2K7","npa nxx":null,"geo_score":0.0,"country":"Canada","phone":"905.858.3888","id":"a6fb5k7tjy3o","geo_precision":"unmatched","pop_clli":null,"address":"2150 Argentia Road","lec":null,"swc_clli":null,"state":"ON"},"type":"Feature","geometry":null},{"properties":{"city":"TULSA","name":"Castle Metals - Tulsa","zip":"74116","npa nxx":918437,"geo_score":0.61,"country":"USA","phone":"918.437.3460","id":"a6fb5k48bmwf","geo_precision":"street","pop_clli":"TULSOKTBDS1","address":"10838 E. Marshall Suite 140","lec":"SOUTHWESTERN BELL   TX","swc_clli":"TULSOKGERSC","state":"OK"},"type":"Feature","geometry":{"type":"Point","coordinates":[-95.819946,36.17423]}},{"properties":{"city":"TULSA","name":"Castle Metals - Tulsa","zip":"74116","npa nxx":918437,"geo_score":0.61,"country":"USA","phone":"918.437.3460","id":"a6fb5k7uzauu","geo_precision":"street","pop_clli":"TULSOKTBDS1","address":"10838 E. Marshall","lec":"SOUTHWESTERN BELL   TX","swc_clli":"TULSOKGERSC","state":"OK"},"type":"Feature","geometry":{"type":"Point","coordinates":[-95.819946,36.17423]}},{"properties":{"city":"WICHITA","name":"Castle Metals - Wichita East","zip":"67216","npa nxx":316522,"geo_score":0.482,"country":"USA","phone":"316.522.5900","id":"a6fb5k5kxeg3","geo_precision":"street","pop_clli":"WCHTKSAMDS0","address":"3050 S. Hydraulic","lec":"SOUTHWESTERN BELL   TX","swc_clli":"WCHTKS47DS0","state":"KS"},"type":"Feature","geometry":{"type":"Point","coordinates":[-97.317117,37.649861]}},{"properties":{"city":"Selkirk","name":"Castle Metals - Winnipeg","zip":"R1A 2B2","npa nxx":null,"geo_score":0.0,"country":"Canada","phone":"204.785.1476","id":"a6fb5kgred08","geo_precision":"unmatched","pop_clli":null,"address":"520 Mercy Street","lec":null,"swc_clli":null,"state":"MB"},"type":"Feature","geometry":null},{"properties":{"city":"MILWAUKEE","name":"Castle Metals - Wisconsin","zip":"53225","npa nxx":414462,"geo_score":0.625,"country":"USA","phone":"414.462.6300","id":"a6fb5kc6b4wt","geo_precision":"street","pop_clli":"MILWWI13DS1","address":"5323 No. 118th Court","lec":"AMERITECH WISCONSIN WI","swc_clli":"MILWWI28DSA","state":"WI"},"type":"Feature","geometry":{"type":"Point","coordinates":[-88.059947,43.100032]}},{"properties":{"city":"Hertfordshire","name":"Castle Metals Aerospace","zip":"SG6 1WH","npa nxx":null,"geo_score":0.0,"country":"UK","phone":"011 44 1462 687","id":"a6fb5k62ltih","geo_precision":"unmatched","pop_clli":null,"address":"1 Meredews - Off Works Road Letchworth","lec":null,"swc_clli":null,"state":"UK"},"type":"Feature","geometry":null},{"properties":{"city":"Montoir de Bretagne","name":"Castle Metals Aerospace","zip":"44550","npa nxx":null,"geo_score":0.371,"country":"France","phone":"011 33 2404 591","id":"a6fb5kci37om","geo_precision":"street","pop_clli":null,"address":"Internationale de Fret","lec":null,"swc_clli":null,"state":"FR"},"type":"Feature","geometry":{"type":"Point","coordinates":[-80.631931,41.096302]}},{"properties":{"city":"ARLINGTON","name":"Castle Metals Aerospace - Arlington","zip":"76014","npa nxx":817417,"geo_score":1.0,"country":"USA","phone":"817.417.6661","id":"a6fb5k1anade","geo_precision":"range","pop_clli":"FTWOTXEDDS5","address":"2100 Design Rd.","lec":"SOUTHWESTERN BELL   TX","swc_clli":"FTWOTXARDS0","state":"TX"},"type":"Feature","geometry":{"type":"Point","coordinates":[-97.075341,32.682843]}},{"properties":{"city":"GARDENA","name":"Castle Metals Aerospace - Gardena","zip":"90248","npa nxx":323321,"geo_score":0.61,"country":"USA","phone":"323.321.1700","id":"a6fb5k2dmjho","geo_precision":"street","pop_clli":"CMTNCA01DS0","address":"14400 S. Figueroa Street","lec":"PACIFIC BELL        CA","swc_clli":"GRDNCA01DS0","state":"CA"},"type":"Feature","geometry":{"type":"Point","coordinates":[-118.282834,33.900985]}},{"properties":{"city":"KENNESAW","name":"Castle Metals Aerospace - Kennesaw","zip":"30144","npa nxx":770499,"geo_score":0.752,"country":"USA","phone":"770.499.1112","id":"a6fb5k3kfkwj","geo_precision":"street","pop_clli":"ATLNGACSDS3","address":"4175 Royal Drive","lec":"BELLSOUTH SO BELL   GA","swc_clli":"MRTTGAMA42G","state":"GA"},"type":"Feature","geometry":{"type":"Point","coordinates":[-84.606399,34.052991]}},{"properties":{"city":"KENT","name":"Castle Metals Aerospace - Kent","zip":"98032","npa nxx":253372,"geo_score":0.504,"country":"USA","phone":"253.372.5663","id":"a6fb5k2vugbw","geo_precision":"street","pop_clli":"STTLWAELDS0","address":"20826 68th Ave. S.","lec":"QWEST CORPORATION   WA","swc_clli":"KENTWA01DS0","state":"WA"},"type":"Feature","geometry":{"type":"Point","coordinates":[-122.24739,47.381361]}},{"properties":{"city":"ORANGE","name":"Castle Metals Aerospace - Orange","zip":"6477","npa nxx":203795,"geo_score":0.929,"country":"USA","phone":"203.795.0575","id":"a6fb5k9g0ua4","geo_precision":"range","pop_clli":"WSHNCT00DS0","address":"12 Cascade Blvd","lec":"SO NEW ENGLAND TEL  CT","swc_clli":"ORNGCT00RS0","state":"CT"},"type":"Feature","geometry":{"type":"Point","coordinates":[-72.999007,41.246982]}},{"properties":{"city":"PARAMOUNT","name":"Castle Metals Aerospace - Paramount","zip":"90723-201","npa nxx":323321,"geo_score":1.0,"country":"USA","phone":"323.321.1700","id":"a6fb5k3mocaf","geo_precision":"range","pop_clli":"CMTNCA01DS0","address":"14001 Orange Ave","lec":"PACIFIC BELL        CA","swc_clli":"GRDNCA01DS0","state":"CA"},"type":"Feature","geometry":{"type":"Point","coordinates":[-118.176835,33.907142]}},{"properties":{"city":"WICHITA","name":"Castle Metals Aerospace - Wichita W","zip":"67217","npa nxx":316943,"geo_score":0.849,"country":"USA","phone":"316.943.0277","id":"a6fb5k8df4b0","geo_precision":"range","pop_clli":"WCHTKSAMDS0","address":"2950 South All Hallows","lec":"SOUTHWESTERN BELL   TX","swc_clli":"WCHTKSNWDS0","state":"KS"},"type":"Feature","geometry":{"type":"Point","coordinates":[-97.382294,37.641769]}},{"properties":{"city":"HAMMOND","name":"H-A Industries","zip":"46327","npa nxx":219931,"geo_score":1.0,"country":"USA","phone":"219.931.6304","id":"a6fb5keihd25","geo_precision":"range","pop_clli":"CHCGILWBDS3","address":"4527 Columbia Ave.","lec":"AMERITECH INDIANA   IN","swc_clli":"HMNDINHWDS0","state":"IN"},"type":"Feature","geometry":{"type":"Point","coordinates":[-87.500111,41.631074]}},{"properties":{"city":"MELROSE PARK","name":"Kreher Steel Company LLC","zip":"60160","npa nxx":708345,"geo_score":0.625,"country":"USA","phone":"708.345.8180","id":"a6fb5k3qgwfa","geo_precision":"street","pop_clli":"CHCGILWBDS3","address":"1550 N. 25th Avenue","lec":"AMERITECH ILLINOIS  IL","swc_clli":"BLWDILBWDS0","state":"IL"},"type":"Feature","geometry":{"type":"Point","coordinates":[-87.864558,41.91158]}},{"properties":{"city":"Blackburn","name":"Metals UK Limited","zip":"BB1 2QE","npa nxx":null,"geo_score":0.0,"country":"UK","phone":"011 44 1254 586","id":"a6fb5k0q7lrc","geo_precision":"unmatched","pop_clli":null,"address":"Unit 10 &amp; 11 Walker Industrial Park Guide","lec":null,"swc_clli":null,"state":"UK"},"type":"Feature","geometry":null},{"properties":{"city":"TWINSBURG","name":"Oliver Steel Plate","zip":"44087","npa nxx":330425,"geo_score":1.0,"country":"USA","phone":"330.425.7000","id":"a6fb5k5kqrj4","geo_precision":"range","pop_clli":"CLEVOH6262F","address":"7851 Bavaria Rd.","lec":"WINDSTREAM WESTN RESOH","swc_clli":"TWBGOHXA42C","state":"OH"},"type":"Feature","geometry":{"type":"Point","coordinates":[-81.461518,41.286693]}},{"properties":{"city":"FAIRFIELD","name":"Tri-State","zip":"45014","npa nxx":513858,"geo_score":0.902,"country":"USA","phone":"513.858.3179","id":"a6fb5k6u75ov","geo_precision":"range","pop_clli":"CNCNOHWSDS3","address":"4412 Dixie Hwy.","lec":"CINCINNATI BELL     OH","swc_clli":"FRFDOHFFRS1","state":"OH"},"type":"Feature","geometry":{"type":"Point","coordinates":[-84.542334,39.354124]}}],"is_temporal":false,"author":{"url":"","metadata":"","contact_name":"","contact_address":"","source":"web site","contact_phone":""},"source":"","pagination":{"sort":null,"start":0,"total":45,"limit":1000000},"state":"complete","tags":"","published":"2010-02-20T04:35:02Z","id":24010}