{"type":"FeatureCollection","data_type":"Dataset","url_type":null,"permissions":[{"permissions":{"download":true,"view":true},"group_id":"everyone"}],"classification":null,"title":"2012.04 - State Performance ","count":54,"stream_id":240570,"contributor":{"url":"http://geocommons.com/users/45509","name":"travisbernard"},"data_attributes":null,"calculation_params":null,"icon_link":null,"link":"http://geocommons.com/overlays/240570.json","extent":[-157.858,13.4443,144.786,58.3736],"geometry_types":["point"],"unique_name":null,"name":"2012.04 - State Performance ","feature_count":54,"description":"","next_feature":null,"is_raster":false,"short_classification":"Y","stats":{},"features":[{"properties":{"city":"Tuscaloosa","geo_score":0.857,"april":"673","id":"a6f6gz6350n0","geo_precision":"city","state":"Alabama"},"type":"Feature","geometry":{"type":"Point","coordinates":[-87.569174,33.209841]}},{"properties":{"city":"Juneau","geo_score":0.857,"april":"467","id":"a6f6gyzt8z9m","geo_precision":"city","state":"Alaska"},"type":"Feature","geometry":{"type":"Point","coordinates":[-134.523946,58.373561]}},{"properties":{"city":"Phoenix","geo_score":0.857,"april":"536","id":"a6f6gzamnn8z","geo_precision":"city","state":"Arizona"},"type":"Feature","geometry":{"type":"Point","coordinates":[-112.074037,33.448377]}},{"properties":{"city":"Conway","geo_score":0.857,"april":"261","id":"a6f6gz54v71f","geo_precision":"city","state":"Arkansas"},"type":"Feature","geometry":{"type":"Point","coordinates":[-92.459422,35.081581]}},{"properties":{"city":"Los Angeles","geo_score":0.857,"april":"483","id":"a6f6gz0syvlp","geo_precision":"city","state":"California"},"type":"Feature","geometry":{"type":"Point","coordinates":[-118.243685,34.052234]}},{"properties":{"city":"Boulder","geo_score":0.857,"april":"196","id":"a6f6gzbnzgo6","geo_precision":"city","state":"Colorado"},"type":"Feature","geometry":{"type":"Point","coordinates":[-105.250597,39.975263]}},{"properties":{"city":"New Haven","geo_score":0.857,"april":"742","id":"a6f6gz541p3b","geo_precision":"city","state":"Connecticut"},"type":"Feature","geometry":{"type":"Point","coordinates":[-72.928158,41.308153]}},{"properties":{"city":"Dover","geo_score":0.857,"april":"458","id":"a6f6gz30d5vp","geo_precision":"city","state":"Delaware"},"type":"Feature","geometry":{"type":"Point","coordinates":[-75.49549,39.156376]}},{"properties":{"city":"Washington","geo_score":0.857,"april":"311","id":"a6f6gz1m2dsw","geo_precision":"city","state":"District of Columbia"},"type":"Feature","geometry":{"type":"Point","coordinates":[-77.036366,38.895112]}},{"properties":{"city":"Orlando","geo_score":0.857,"april":"672","id":"a6f6gz93u6wt","geo_precision":"city","state":"Florida"},"type":"Feature","geometry":{"type":"Point","coordinates":[-81.379237,28.538336]}},{"properties":{"city":"Atlanta","geo_score":0.857,"april":"393","id":"a6f6gz7i1saq","geo_precision":"city","state":"Georgia"},"type":"Feature","geometry":{"type":"Point","coordinates":[-84.387982,33.748995]}},{"properties":{"city":"Yigo","geo_score":0.857,"april":"N/A","id":"a6f6gzf3f7wi","geo_precision":"city","state":"Guam"},"type":"Feature","geometry":{"type":"Point","coordinates":[144.786297,13.444257]}},{"properties":{"city":"Honolulu","geo_score":0.857,"april":"537","id":"a6f6gyz3eeux","geo_precision":"city","state":"Hawaii"},"type":"Feature","geometry":{"type":"Point","coordinates":[-157.858333,21.306944]}},{"properties":{"city":"Boise","geo_score":0.857,"april":"N/A","id":"a6f6gyzxq550","geo_precision":"city","state":"Idaho"},"type":"Feature","geometry":{"type":"Point","coordinates":[-116.203451,43.6135]}},{"properties":{"city":"Chicago","geo_score":0.857,"april":"648","id":"a6f6gz6rfvsa","geo_precision":"city","state":"Illinois"},"type":"Feature","geometry":{"type":"Point","coordinates":[-87.650052,41.850033]}},{"properties":{"city":"Indiannapolis","geo_score":0.846,"april":"703","id":"a6f6gzc92ivi","geo_precision":"city","state":"Indiana"},"type":"Feature","geometry":{"type":"Point","coordinates":[-86.158042,39.768377]}},{"properties":{"city":"Des Mois","geo_score":0.735,"april":"734","id":"a6f6gz5gk7s2","geo_precision":"city","state":"Iowa"},"type":"Feature","geometry":{"type":"Point","coordinates":[-90.585128,42.430284]}},{"properties":{"city":"Topeka","geo_score":0.857,"april":"268","id":"a6f6gz98pqni","geo_precision":"city","state":"Kansas"},"type":"Feature","geometry":{"type":"Point","coordinates":[-95.678037,39.048334]}},{"properties":{"city":"Louisville","geo_score":0.857,"april":"2,841","id":"a6f6gz7eirko","geo_precision":"city","state":"Kentucky"},"type":"Feature","geometry":{"type":"Point","coordinates":[-85.759407,38.254238]}},{"properties":{"city":"Baton Rouge","geo_score":0.857,"april":"383","id":"a6f6gz8glc8o","geo_precision":"city","state":"Louisiana"},"type":"Feature","geometry":{"type":"Point","coordinates":[-91.154551,30.450746]}},{"properties":{"city":"Augusta","geo_score":0.857,"april":"1,506","id":"a6f6gz7sq77i","geo_precision":"city","state":"Maine"},"type":"Feature","geometry":{"type":"Point","coordinates":[-69.803773,44.351642]}},{"properties":{"city":"Annapolis","geo_score":0.857,"april":"386","id":"a6f6gza0ksqg","geo_precision":"city","state":"Maryland"},"type":"Feature","geometry":{"type":"Point","coordinates":[-76.492183,38.978445]}},{"properties":{"city":"Boston","geo_score":0.857,"april":"2,382","id":"a6f6gz4q7ih5","geo_precision":"city","state":"Massachusetts"},"type":"Feature","geometry":{"type":"Point","coordinates":[-71.059773,42.358431]}},{"properties":{"city":"Detroit","geo_score":0.857,"april":"643","id":"a6f6gz7n092a","geo_precision":"city","state":"Michigan"},"type":"Feature","geometry":{"type":"Point","coordinates":[-83.045754,42.331427]}},{"properties":{"city":"Minneapolis","geo_score":0.857,"april":"2,305","id":"a6f6gzbawc7q","geo_precision":"city","state":"Minnesota"},"type":"Feature","geometry":{"type":"Point","coordinates":[-93.263836,44.979965]}},{"properties":{"city":"Hattisburg","geo_score":0.844,"april":"2,072","id":"a6f6gz1st6wr","geo_precision":"city","state":"Mississippi"},"type":"Feature","geometry":{"type":"Point","coordinates":[-89.28071,31.245138]}},{"properties":{"city":"Kansas City","geo_score":0.857,"april":"1,438","id":"a6f6gzc92kv6","geo_precision":"city","state":"Missouri"},"type":"Feature","geometry":{"type":"Point","coordinates":[-94.598583,39.102404]}},{"properties":{"city":"Helena","geo_score":0.857,"april":"262","id":"a6f6gz5yb7d6","geo_precision":"city","state":"Montana"},"type":"Feature","geometry":{"type":"Point","coordinates":[-112.197616,46.70934]}},{"properties":{"city":"Lincoln","geo_score":0.857,"april":"404","id":"a6f6gz3e3ewv","geo_precision":"city","state":"Nebraska"},"type":"Feature","geometry":{"type":"Point","coordinates":[-96.66696,40.800001]}},{"properties":{"city":"Reno","geo_score":0.857,"april":"298","id":"a6f6gz8dl6mp","geo_precision":"city","state":"Nevada"},"type":"Feature","geometry":{"type":"Point","coordinates":[-119.813803,39.529633]}},{"properties":{"city":"Hanover","geo_score":0.857,"april":"817","id":"a6f6gz8xrpcl","geo_precision":"city","state":"New Hampshire"},"type":"Feature","geometry":{"type":"Point","coordinates":[-72.120314,43.861077]}},{"properties":{"city":"Camden","geo_score":0.857,"april":"337","id":"a6f6gz03gc56","geo_precision":"city","state":"New Jersey"},"type":"Feature","geometry":{"type":"Point","coordinates":[-75.11962,39.925946]}},{"properties":{"city":"Santa Fe","geo_score":0.857,"april":"271","id":"a6f6gz5wkjvi","geo_precision":"city","state":"New Mexico"},"type":"Feature","geometry":{"type":"Point","coordinates":[-106.073414,35.625075]}},{"properties":{"city":"New York City","geo_score":0.805,"april":"13,555","id":"a6f6gz32gdu2","geo_precision":"city","state":"New York"},"type":"Feature","geometry":{"type":"Point","coordinates":[-74.005973,40.714269]}},{"properties":{"city":"Raleigh","geo_score":0.857,"april":"634","id":"a6f6gz0n8tjq","geo_precision":"city","state":"North Carolina"},"type":"Feature","geometry":{"type":"Point","coordinates":[-78.638615,35.772096]}},{"properties":{"city":"Bismark","geo_score":0.839,"april":"373","id":"a6f6gyzgrc7t","geo_precision":"city","state":"North Dakota"},"type":"Feature","geometry":{"type":"Point","coordinates":[-100.769066,46.810594]}},{"properties":{"city":"Cleveland","geo_score":0.857,"april":"1,791","id":"a6f6gz8eafiu","geo_precision":"city","state":"Ohio"},"type":"Feature","geometry":{"type":"Point","coordinates":[-81.695409,41.499495]}},{"properties":{"city":"Oklahoma City","geo_score":0.857,"april":"289","id":"a6f6gz64h3w9","geo_precision":"city","state":"Oklahoma"},"type":"Feature","geometry":{"type":"Point","coordinates":[-97.516428,35.46756]}},{"properties":{"city":"Portland","geo_score":0.857,"april":"1,055","id":"a6f6gz2ja8ic","geo_precision":"city","state":"Oregon"},"type":"Feature","geometry":{"type":"Point","coordinates":[-122.676207,45.523452]}},{"properties":{"city":"Pittsburg","geo_score":0.843,"april":"2,421","id":"a6f6gz9an0t3","geo_precision":"city","state":"Pennsylvania"},"type":"Feature","geometry":{"type":"Point","coordinates":[-79.995886,40.440625]}},{"properties":{"city":"San Juan","geo_score":0.857,"april":"N/A","id":"a6f6gz6bcwhs","geo_precision":"city","state":"Puerto Rico"},"type":"Feature","geometry":{"type":"Point","coordinates":[-66.105722,18.466334]}},{"properties":{"city":"Providence","geo_score":0.857,"april":"538","id":"a6f6gz5vrdgq","geo_precision":"city","state":"Rhode Island"},"type":"Feature","geometry":{"type":"Point","coordinates":[-71.412834,41.823989]}},{"properties":{"city":"Charleston","geo_score":0.798,"april":"140","id":"a6f6gz11cgrj","geo_precision":"city","state":"South Carolina"},"type":"Feature","geometry":{"type":"Point","coordinates":[-79.970643,32.85712]}},{"properties":{"city":"Pierre","geo_score":0.857,"april":"457","id":"a6f6gz6w274a","geo_precision":"city","state":"South Dakota"},"type":"Feature","geometry":{"type":"Point","coordinates":[-100.094195,44.334073]}},{"properties":{"city":"Nashville","geo_score":0.857,"april":"436","id":"a6f6gz5i409n","geo_precision":"city","state":"Tennessee"},"type":"Feature","geometry":{"type":"Point","coordinates":[-86.784443,36.16589]}},{"properties":{"city":"Dallas","geo_score":0.857,"april":"10,652","id":"a6f6gz73wcks","geo_precision":"city","state":"Texas"},"type":"Feature","geometry":{"type":"Point","coordinates":[-96.806667,32.783056]}},{"properties":{"city":"Salt Lake City","geo_score":0.857,"april":"1,783","id":"a6f6gzc20yw4","geo_precision":"city","state":"Utah"},"type":"Feature","geometry":{"type":"Point","coordinates":[-111.891047,40.760779]}},{"properties":{"city":"Montpelier","geo_score":0.794,"april":"331","id":"a6f6gz6t70qh","geo_precision":"city","state":"Vermont"},"type":"Feature","geometry":{"type":"Point","coordinates":[-72.607888,44.257004]}},{"properties":{"city":"St. Croix","geo_score":0.0,"april":"336","id":"a6f6gze4auqs","geo_precision":"unmatched","state":"Virgin Islands"},"type":"Feature","geometry":null},{"properties":{"city":"Richmond","geo_score":0.857,"april":"350","id":"a6f6gyyrb8nc","geo_precision":"city","state":"Virginia"},"type":"Feature","geometry":{"type":"Point","coordinates":[-77.460262,37.553758]}},{"properties":{"city":"Seattle","geo_score":0.857,"april":"197","id":"a6f6gza4lcgz","geo_precision":"city","state":"Washington"},"type":"Feature","geometry":{"type":"Point","coordinates":[-122.332071,47.60621]}},{"properties":{"city":"Charleston","geo_score":0.857,"april":"491","id":"a6f6gz6evls1","geo_precision":"city","state":"West Virginia"},"type":"Feature","geometry":{"type":"Point","coordinates":[-81.632624,38.34982]}},{"properties":{"city":"Madison","geo_score":0.857,"april":"562","id":"a6f6gz2oykft","geo_precision":"city","state":"Wisconsin"},"type":"Feature","geometry":{"type":"Point","coordinates":[-89.40123,43.073052]}},{"properties":{"city":"Cheyenne","geo_score":0.857,"april":"214","id":"a6f6gz4449gq","geo_precision":"city","state":"Wyoming"},"type":"Feature","geometry":{"type":"Point","coordinates":[-104.820246,41.139981]}}],"is_temporal":false,"author":{"url":"","metadata":"","contact_name":"","contact_address":"","source":"","contact_phone":""},"source":"","pagination":{"sort":null,"start":0,"total":54,"limit":1000000},"state":"complete","tags":"","published":"2014-08-14T15:33:07-04:00","id":240570}