{"type":"FeatureCollection","data_type":"Dataset","url_type":null,"permissions":[{"permissions":{"download":true,"view":true},"group_id":"everyone"}],"classification":null,"title":"Texas GLO, Marinas, Texas, 1996","count":106,"stream_id":2407,"contributor":{"url":"http://geocommons.com/users/2","name":"data"},"data_attributes":null,"calculation_params":null,"icon_link":null,"link":"http://geocommons.com/overlays/2407.json","extent":[-97.7098,26.0661,-93.7359,30.0954],"geometry_types":["point"],"unique_name":null,"name":"Texas GLO, Marinas, Texas, 1996","feature_count":106,"description":"Point locations representing marinas in Texas coastal counties. Data digitized by Texas General Land Office based on information maintained by GLO and Texas Parks and Wildlife Dept. (street addresses and verbal descriptions).\n\nFor display/cartography at 1:24,000 or smaller scales. Locations are not exact\n\nData was reprojected from a state plain.","next_feature":null,"is_raster":false,"short_classification":"Y","stats":{"SLIPS":{"max":1142,"mean":120.160377358491,"variance":35511.2597484277,"stdev":188.444314715058,"min":0,"median":48},"OBJECTID":{"max":212,"mean":159.5,"variance":945.166666666667,"stdev":30.7435630119,"min":107,"median":160}},"features":[{"properties":{"NAME":"Beaumont Yacht Club","SLIPS":80,"SERVICES":"","XY":"1863978.25,-279437.03125","PHONE":"(409) 832-1456","RARNUM":"H165","CONTACT":"","MA_ID":"MA0001","RAMP":"","OBJECTID":107,"id":"a62fkblc5ciy","ADDRESS":"1500 Pine St, Beaumont 77703"},"type":"Feature","geometry":{"type":"Point","coordinates":[-94.0942564098295,30.0954427286975]}},{"properties":{"NAME":"Pleasure Island Commission","SLIPS":437,"SERVICES":"Fuel &amp; repair services","XY":"1921423.875,-359187.875","PHONE":"(409) 982-4675","RARNUM":"H163","CONTACT":"Bob Leblanc","MA_ID":"MA0002","RAMP":"Yes","OBJECTID":108,"id":"a62fkbo7dvrj","ADDRESS":"520 Pleasure Island Blvd., Port Arthur 77641"},"type":"Feature","geometry":{"type":"Point","coordinates":[-93.9265689654818,29.8682061263838]}},{"properties":{"NAME":"Baytown Marina","SLIPS":50,"SERVICES":"","XY":"1605651,-424013.34375","PHONE":"(713) 427-1997","RARNUM":"H155","CONTACT":"","MA_ID":"MA0003","RAMP":"Yes","OBJECTID":109,"id":"a62fkblgjseb","ADDRESS":"1512 1/2 Jones, Baytown"},"type":"Feature","geometry":{"type":"Point","coordinates":[-94.932583903725,29.7343728422663]}},{"properties":{"NAME":"South Shore Harbour Marina","SLIPS":900,"SERVICES":"No info","XY":"1566322.125,-495040.1875","PHONE":"(713) 334-0515","RARNUM":"H124","CONTACT":"Bill McKee","MA_ID":"MA0004","RAMP":"No","OBJECTID":110,"id":"a62fkbw3dhc1","ADDRESS":"2400 South Shore Blvd., League City 77573"},"type":"Feature","geometry":{"type":"Point","coordinates":[-95.0665955727302,29.5444305175986]}},{"properties":{"NAME":"Nassau Bay Yacht Club","SLIPS":48,"SERVICES":"Fuel &amp; limited services","XY":"1561068.5,-498355.1875","PHONE":"(713) 333-2570","RARNUM":"H123","CONTACT":"Bob Ford","MA_ID":"MA0005","RAMP":"N/A","OBJECTID":111,"id":"a62fkbkfqcq7","ADDRESS":"1120 NASA Rd. 1, Ste. 315, Houston 77058"},"type":"Feature","geometry":{"type":"Point","coordinates":[-95.0835876321611,29.5359817472085]}},{"properties":{"NAME":"San Leon Marina","SLIPS":100,"SERVICES":"Gasoline/diesel fuel, repair servic","XY":"1615238.875,-510345.40625","PHONE":"713-339-1515","RARNUM":"H134","CONTACT":"George Riker","MA_ID":"MA0006","RAMP":"","OBJECTID":112,"id":"a62fkbqs428i","ADDRESS":"105 6th St., San Leon 77539"},"type":"Feature","geometry":{"type":"Point","coordinates":[-94.9149702067722,29.4963145139972]}},{"properties":{"NAME":"Bolivar Yacht Basin","SLIPS":175,"SERVICES":"","XY":"1681544.75,-531066.1875","PHONE":"(409) 684-4210","RARNUM":"H135","CONTACT":"Adrian Van Luzen","MA_ID":"MA0007","RAMP":"Y","OBJECTID":113,"id":"a62fkbxg4p6h","ADDRESS":""},"type":"Feature","geometry":{"type":"Point","coordinates":[-94.7096840069042,29.4308691095341]}},{"properties":{"NAME":"Dollar Point Marina","SLIPS":0,"SERVICES":"None yet","XY":"1624522.5,-536943.625","PHONE":"(409) 945-4686","RARNUM":"H133","CONTACT":"George E Reynolds","MA_ID":"MA0008","RAMP":"Yes","OBJECTID":114,"id":"a62fkbr16pxd","ADDRESS":"4220 Bay St Extension, Texas City"},"type":"Feature","geometry":{"type":"Point","coordinates":[-94.8896782537484,29.422154778454]}},{"properties":{"NAME":"Galveston Yacht Basin","SLIPS":512,"SERVICES":"Fuel and repair services","XY":"1662577,-573396.5625","PHONE":"(409) 762-9689","RARNUM":"H140","CONTACT":"Harry Jahn","MA_ID":"MA0009","RAMP":"No","OBJECTID":115,"id":"a62fkbswm18o","ADDRESS":"715 Holiday Dr. North, Galveston 77550"},"type":"Feature","geometry":{"type":"Point","coordinates":[-94.7755964249759,29.3172206832152]}},{"properties":{"NAME":"Teakwood Marina","SLIPS":112,"SERVICES":"gasoline","XY":"1621600.125,-581688.6875","PHONE":"409-935-5552","RARNUM":"H157","CONTACT":"Al Dwarshus","MA_ID":"MA0010","RAMP":"","OBJECTID":116,"id":"a62fkbj7m4rp","ADDRESS":"400 Tiki Drive, Village of Tiki Island 77554"},"type":"Feature","geometry":{"type":"Point","coordinates":[-94.9053807883104,29.2997521447308]}},{"properties":{"NAME":"Pirates Beach Bait and Tackle","SLIPS":32,"SERVICES":"","XY":"1609430.75,-615652.8125","PHONE":"(409) 737-2592","RARNUM":"H139","CONTACT":"John Allex","MA_ID":"MA0011","RAMP":"Yes","OBJECTID":117,"id":"a62fkbvkjrxk","ADDRESS":"14302 Stewart Rd., Galveston 77550"},"type":"Feature","geometry":{"type":"Point","coordinates":[-94.948462570384,29.2080923977189]}},{"properties":{"NAME":"Mitchell's Pleasure Pier","SLIPS":20,"SERVICES":"","XY":"1483132.25,-713172.5625","PHONE":"(409) 233-0722","RARNUM":"H601","CONTACT":"","MA_ID":"MA0012","RAMP":"No","OBJECTID":118,"id":"a62fkbly95bg","ADDRESS":"403 S. Front, Freeport 77541"},"type":"Feature","geometry":{"type":"Point","coordinates":[-95.3573113481813,28.9557233445728]}},{"properties":{"NAME":"Caney Creek Marina","SLIPS":1,"SERVICES":"","XY":"1397585.25,-783605.0625","PHONE":"(409) 245-3691","RARNUM":"H205","CONTACT":"","MA_ID":"MA0013","RAMP":"","OBJECTID":119,"id":"a62fkbqx9w8m","ADDRESS":"Sargent"},"type":"Feature","geometry":{"type":"Point","coordinates":[-95.633568644476,28.7719716336328]}},{"properties":{"NAME":"Palm Harbor Marina","SLIPS":50,"SERVICES":"Fuel","XY":"939594.4375,-1091428.875","PHONE":"(512) 729-8540","RARNUM":"H461","CONTACT":"Dan Whitaker","MA_ID":"MA0044","RAMP":"No","OBJECTID":120,"id":"a62fkbx37pcz","ADDRESS":"151 Port Avenue, Rockport, Tx 78382"},"type":"Feature","geometry":{"type":"Point","coordinates":[-97.0890913779953,27.96778203169]}},{"properties":{"NAME":"Bahia Marina","SLIPS":54,"SERVICES":"Fuel and Repair Services","XY":"896933.8125,-1142504.25","PHONE":"(361) 776-7295","RARNUM":"H472","CONTACT":"Keith Regnier","MA_ID":"MA0045","RAMP":"No","OBJECTID":121,"id":"a62fkbusa3yu","ADDRESS":"84 Bayshore Dr., Ingleside"},"type":"Feature","geometry":{"type":"Point","coordinates":[-97.2251941790007,27.8303641188702]}},{"properties":{"NAME":"Williamson Boat Works","SLIPS":12,"SERVICES":"Fuel","XY":"744494.625,-1347144.375","PHONE":"(361) 297-5222","RARNUM":"H483","CONTACT":"Louise Williamson","MA_ID":"MA0049","RAMP":"Yes","OBJECTID":122,"id":"a62fkbrcq58v","ADDRESS":"1008 Boatworks Rd, Riviera 78379"},"type":"Feature","geometry":{"type":"Point","coordinates":[-97.7098329063937,27.2770017634501]}},{"properties":{"NAME":"South Padre Marina","SLIPS":25,"SERVICES":"","XY":"929702.625,-1758247.5","PHONE":"","RARNUM":"H499","CONTACT":"","MA_ID":"MA0050","RAMP":"","OBJECTID":123,"id":"a62fkbrv4ed0","ADDRESS":"P.O. Box 3289, South Padre Island, TX 78597"},"type":"Feature","geometry":{"type":"Point","coordinates":[-97.1728731030699,26.1326841368421]}},{"properties":{"NAME":"Weathersby Docks","SLIPS":40,"SERVICES":"","XY":"1146444,-915255.3125","PHONE":"(361) 983-2700","RARNUM":"H455","CONTACT":"G.H. Weathersby","MA_ID":"MA0058","RAMP":"No","OBJECTID":124,"id":"a62fkbzhpkz4","ADDRESS":"P.O. Box 27, Port O'Connor, Tx 77982"},"type":"Feature","geometry":{"type":"Point","coordinates":[-96.4309443865735,28.435261046832]}},{"properties":{"NAME":"April Fool Point Captain Wally's Marina","SLIPS":24,"SERVICES":"Fuel","XY":"1612149.625,-519178.6875","PHONE":"(713) 339-1232","RARNUM":"H121","CONTACT":"Walter Jakubas","MA_ID":"MA0067","RAMP":"Yes","OBJECTID":125,"id":"a62fkbrxmawp","ADDRESS":"815 Av O, San Leon"},"type":"Feature","geometry":{"type":"Point","coordinates":[-94.9259652871312,29.4724712735705]}},{"properties":{"NAME":"Nautical Landings Marina","SLIPS":72,"SERVICES":"","XY":"1082796,-851188.25","PHONE":"(512) 552-2615","RARNUM":"H453","CONTACT":"Jim O'Neil","MA_ID":"MA0069","RAMP":"","OBJECTID":126,"id":"a62fkbknaj8a","ADDRESS":"P.O. Box 105, Port Lavaca, Tx 77979"},"type":"Feature","geometry":{"type":"Point","coordinates":[-96.6228327729988,28.616820297361]}},{"properties":{"NAME":"Seaway RV Village","SLIPS":20,"SERVICES":"","XY":"834905.75,-1690966","PHONE":"(210) 748-2276","RARNUM":"H486","CONTACT":"C.J. Tennant","MA_ID":"MA0070","RAMP":"Y","OBJECTID":127,"id":"a62fkbmpj2sj","ADDRESS":"Rt 2, Box 575, San Benito, TX 78586"},"type":"Feature","geometry":{"type":"Point","coordinates":[-97.4562952886819,26.3245390049278]}},{"properties":{"NAME":"St. Nick's Marina","SLIPS":10,"SERVICES":"","XY":"1977105.375,-275664.15625","PHONE":"409-883-4610","RARNUM":"H158","CONTACT":"","MA_ID":"MA0071","RAMP":"","OBJECTID":128,"id":"a62fkbvon7ef","ADDRESS":"307 Market, Orange, TX 77630"},"type":"Feature","geometry":{"type":"Point","coordinates":[-93.7359028549418,30.0885911485217]}},{"properties":{"NAME":"Kemah Boardwalk Marina","SLIPS":430,"SERVICES":"No info","XY":"1581566.375,-494626.625","PHONE":"281-334-2284","RARNUM":"H150","CONTACT":"","MA_ID":"MA0072","RAMP":"","OBJECTID":129,"id":"a62fkbuyo34w","ADDRESS":"555 Bradford St., Kemah, TX 77565"},"type":"Feature","geometry":{"type":"Point","coordinates":[-95.0185875962677,29.5436765669925]}},{"properties":{"NAME":"Sabine Pass Port Authority","SLIPS":87,"SERVICES":"","XY":"1936579,-406126.375","PHONE":"409-971-2411","RARNUM":"H128","CONTACT":"","MA_ID":"MA0073","RAMP":"","OBJECTID":130,"id":"a62fkbwchrp8","ADDRESS":"5960 South 1st Ave., Sabine Pass, TX 77655"},"type":"Feature","geometry":{"type":"Point","coordinates":[-93.8870109181239,29.7372063429748]}},{"properties":{"NAME":"Bayland Park Marina","SLIPS":0,"SERVICES":"","XY":"1587127.125,-432686.03125","PHONE":"281-420-5076","RARNUM":"H450","CONTACT":"","MA_ID":"MA0074","RAMP":"","OBJECTID":131,"id":"a62fkbnsv62s","ADDRESS":"2651 Highway 146 S., Baytown, TX 77522"},"type":"Feature","geometry":{"type":"Point","coordinates":[-94.9922103720944,29.7129135438252]}},{"properties":{"NAME":"Lutes Marine Service","SLIPS":40,"SERVICES":"","XY":"1518148.375,-603312.4375","PHONE":"281-393-1021","RARNUM":"H136","CONTACT":"","MA_ID":"MA0075","RAMP":"","OBJECTID":132,"id":"a62fkbvm218v","ADDRESS":"6811 County Road 203, Liverpool, TX 77577"},"type":"Feature","geometry":{"type":"Point","coordinates":[-95.2329216778076,29.2531615994285]}},{"properties":{"NAME":"Port Alto Boat Shed","SLIPS":107,"SERVICES":"","XY":"1148915.875,-833982.5625","PHONE":"361-893-5273","RARNUM":"H654","CONTACT":"Ken Morris","MA_ID":"MA0088","RAMP":"Y","OBJECTID":133,"id":"a62fkblixnf4","ADDRESS":"Port St., Palo Alto"},"type":"Feature","geometry":{"type":"Point","coordinates":[-96.4150008874293,28.6583309190387]}},{"properties":{"NAME":"Power's Boat Sheds","SLIPS":40,"SERVICES":"Gas","XY":"1150666.25,-914288.6875","PHONE":"361-983-2843","RARNUM":"H694","CONTACT":"Bill Powers","MA_ID":"MA0089","RAMP":"","OBJECTID":134,"id":"a62fkby1ko2g","ADDRESS":""},"type":"Feature","geometry":{"type":"Point","coordinates":[-96.4177110829059,28.4375393662942]}},{"properties":{"NAME":"Island Moorings Marina","SLIPS":327,"SERVICES":"Fuel","XY":"941980.125,-1149729.625","PHONE":"(361) 749-4100","RARNUM":"H469","CONTACT":"Larry Johnson","MA_ID":"MA0093","RAMP":"","OBJECTID":135,"id":"a62fkbyojbmq","ADDRESS":"3500 Island Moorings Pkwy, Port Aransas 78373"},"type":"Feature","geometry":{"type":"Point","coordinates":[-97.0864927636249,27.807284836342]}},{"properties":{"NAME":"Teal Harbor Condominiums","SLIPS":31,"SERVICES":"","XY":"948278.3252694,-1139283.861269","PHONE":"361-749-4131","RARNUM":"H490","CONTACT":"Kathy Cortright","MA_ID":"MA0098","RAMP":"","OBJECTID":136,"id":"a62fkbv5dyzp","ADDRESS":"P.O. Box 1239, Port Aransas, TX 78373"},"type":"Feature","geometry":{"type":"Point","coordinates":[-97.0661593073023,27.8355511062564]}},{"properties":{"NAME":"Rainbow Marina","SLIPS":23,"SERVICES":"Fuel &amp; repair services","XY":"1936196.364395,-318746.9320997","PHONE":"(409) 962-9578","RARNUM":"H164","CONTACT":"John Benoit","MA_ID":"MA0029","RAMP":"Yes","OBJECTID":137,"id":"a62fkbu98g87","ADDRESS":"P.O. Box 357, Groves"},"type":"Feature","geometry":{"type":"Point","coordinates":[-93.872848876859,29.9768241095504]}},{"properties":{"NAME":"Allen &amp; Cleo's Boat Storage &amp; Marina","SLIPS":31,"SERVICES":"","XY":"1974342.9552,-282472.6885074","PHONE":"(512) 886-8533","RARNUM":"H190","CONTACT":"","MA_ID":"MA0032","RAMP":"Y","OBJECTID":138,"id":"a62fkbtffzgy","ADDRESS":"1802 Mississippi, Orange 77630"},"type":"Feature","geometry":{"type":"Point","coordinates":[-93.7458629177489,30.0703606981475]}},{"properties":{"NAME":"Sabine Yacht Basin","SLIPS":41,"SERVICES":"None","XY":"1974666.800317,-284318.1472188","PHONE":"(409) 886-7085","RARNUM":"H156","CONTACT":"Curtis Jackson","MA_ID":"MA0031","RAMP":"N/A","OBJECTID":139,"id":"a62fkblkrxey","ADDRESS":"319 Meyers, Orange 77630"},"type":"Feature","geometry":{"type":"Point","coordinates":[-93.7451717470279,30.0652516001371]}},{"properties":{"NAME":"Houston Yacht Club","SLIPS":350,"SERVICES":"Fuel &amp; services","XY":"1585821.079388,-467129.5006674","PHONE":"(713) 471-1255","RARNUM":"H154","CONTACT":"Joe Carr","MA_ID":"MA0033","RAMP":"Yes","OBJECTID":140,"id":"a62fkbq0epvb","ADDRESS":"3620 Marinar Drive, Laporte 77571"},"type":"Feature","geometry":{"type":"Point","coordinates":[-95.0012671510016,29.6185857282393]}},{"properties":{"NAME":"The Wharf at Clear Lake","SLIPS":320,"SERVICES":"No info","XY":"1562926.998913,-499273.1487712","PHONE":"(713) 326-4885","RARNUM":"H166","CONTACT":"J.R. McConnell","MA_ID":"MA0082","RAMP":"N/A","OBJECTID":141,"id":"a62fkbo1k629","ADDRESS":"743 Davis Rd. League City 77573"},"type":"Feature","geometry":{"type":"Point","coordinates":[-95.0778717604252,29.5332346144431]}},{"properties":{"NAME":"Anchorage Apartments &amp; Marina","SLIPS":53,"SERVICES":"No info","XY":"1564566.781543,-498270.2507924","PHONE":"(713) 334-2527","RARNUM":"H151","CONTACT":"Gail Hammond","MA_ID":"MA0023","RAMP":"No","OBJECTID":142,"id":"a62fkbxd6u68","ADDRESS":"451 Constellation, League City 77573"},"type":"Feature","geometry":{"type":"Point","coordinates":[-95.0725729403313,29.5357844696513]}},{"properties":{"NAME":"El Lago Marina","SLIPS":57,"SERVICES":"","XY":"1569725.004545,-487225.8684365","PHONE":"(713) 326-2287","RARNUM":"H442","CONTACT":"","MA_ID":"MA0034","RAMP":"No","OBJECTID":143,"id":"a62fkbza4heo","ADDRESS":"P.O. Box 972, Seabrook 77586"},"type":"Feature","geometry":{"type":"Point","coordinates":[-95.0547849436237,29.565450309289]}},{"properties":{"NAME":"The Landing","SLIPS":87,"SERVICES":"","XY":"1569346.676816,-487000.555683","PHONE":"713-326-2714","RARNUM":"H152","CONTACT":"Carol Tremaine","MA_ID":"MA0035","RAMP":"Yes","OBJECTID":144,"id":"a62fkbtm3znm","ADDRESS":"4445 NASA Road #1, Seabrook 77586"},"type":"Feature","geometry":{"type":"Point","coordinates":[-95.0559432491879,29.5661152444819]}},{"properties":{"NAME":"Marina Del Sol","SLIPS":315,"SERVICES":"N/A","XY":"1570298.140733,-492441.345518","PHONE":"(713) 334-3909","RARNUM":"H145","CONTACT":"Trey Caudell","MA_ID":"MA0024","RAMP":"No","OBJECTID":145,"id":"a62fkbp5vr0b","ADDRESS":"1203 Twin Oaks Blvd., Kemah 77565"},"type":"Feature","geometry":{"type":"Point","coordinates":[-95.0537210712193,29.5510700241318]}},{"properties":{"NAME":"Marker 1 Marina","SLIPS":6,"SERVICES":"","XY":"1574157.037745,-489116.1583961","PHONE":"832-864-4000","RARNUM":"H125","CONTACT":"","MA_ID":"MA0081","RAMP":"","OBJECTID":146,"id":"a62fkbqcdwfj","ADDRESS":"3101 NASA Road 1, Seabrook, TX 77586"},"type":"Feature","geometry":{"type":"Point","coordinates":[-95.0411099532009,29.5597155306321]}},{"properties":{"NAME":"Waterford Harbor Yacht Club","SLIPS":418,"SERVICES":"No info","XY":"1573824.700151,-493451.8139772","PHONE":"(713) 334-4400","RARNUM":"H130","CONTACT":"J. William \"Bill\" Taylor","MA_ID":"MA0016","RAMP":"N/A","OBJECTID":147,"id":"a62fkbonutiw","ADDRESS":"800 Mariners Dr, Kemah 77565"},"type":"Feature","geometry":{"type":"Point","coordinates":[-95.0427713261209,29.5478612357466]}},{"properties":{"NAME":"Watergate Yachting Center","SLIPS":1142,"SERVICES":"Fuel, and complete services","XY":"1574719.93661,-494625.2956316","PHONE":"(713) 334-1511","RARNUM":"H129","CONTACT":"Robert &amp; Harry Bascher","MA_ID":"MA0015","RAMP":"Yes","OBJECTID":148,"id":"a62fkbsauji4","ADDRESS":"1500 FM 2094, Clear Lake Shores 77565-2205"},"type":"Feature","geometry":{"type":"Point","coordinates":[-95.0401221140908,29.5445306619993]}},{"properties":{"NAME":"Legend Point Marina","SLIPS":252,"SERVICES":"No info","XY":"1575406.454321,-494789.9989028","PHONE":"(713) 334-3811","RARNUM":"H126","CONTACT":"Mike Robertson","MA_ID":"MA0025","RAMP":"N/A","OBJECTID":149,"id":"a62fkbjvbjhy","ADDRESS":"1300 Marina Bay Dr, Clear Lake Shores 77565"},"type":"Feature","geometry":{"type":"Point","coordinates":[-95.0379861537323,29.5439936669696]}},{"properties":{"NAME":"Portofino Harbor","SLIPS":212,"SERVICES":"","XY":"1579923.537587,-493838.8862569","PHONE":"713-334-6007","RARNUM":"H144","CONTACT":"Tom Richards","MA_ID":"MA0066","RAMP":"yes","OBJECTID":150,"id":"a62fkbkiyknh","ADDRESS":"1 Portofino Plaza, Clear Lake Shores"},"type":"Feature","geometry":{"type":"Point","coordinates":[-95.023642642403,29.5460422381679]}},{"properties":{"NAME":"Capt. Wicks Landing","SLIPS":4,"SERVICES":"Fuel, repairs","XY":"1580886.346379,-493098.3048676","PHONE":"(713) 334-1563","RARNUM":"H122","CONTACT":"Capt. Wick","MA_ID":"MA0038","RAMP":"Yes","OBJECTID":151,"id":"a62fkbxhihv4","ADDRESS":"307 1st st., Kemah 77565"},"type":"Feature","geometry":{"type":"Point","coordinates":[-95.0205085080192,29.5479543494928]}},{"properties":{"NAME":"Blue Dolphin Yachting Center","SLIPS":238,"SERVICES":"Repair Services","XY":"1578208.991163,-489418.6113636","PHONE":"(713) 474-4450","RARNUM":"H148","CONTACT":"Al Dippel","MA_ID":"MA0018","RAMP":"No","OBJECTID":152,"id":"a62fkbl89e8z","ADDRESS":"4450 NASA Rd. 1 &amp; 7th Street, Seabrook 77586"},"type":"Feature","geometry":{"type":"Point","coordinates":[-95.0284060356693,29.5583829310207]}},{"properties":{"NAME":"Lakewood Yacht Club","SLIPS":406,"SERVICES":"Fuel &amp; services","XY":"1577222.403501,-489641.4766978","PHONE":"(713) 474-2511","RARNUM":"H127","CONTACT":"Joan Cordes","MA_ID":"MA0019","RAMP":"Yes","OBJECTID":153,"id":"a62fkbshdauz","ADDRESS":"Rt. 1, 2425 NASA Rd. 1, Seabrook 77586"},"type":"Feature","geometry":{"type":"Point","coordinates":[-95.0315414126295,29.5578940087954]}},{"properties":{"NAME":"Lakeside Yachting Center","SLIPS":75,"SERVICES":"Repair services","XY":"1576442.786401,-488882.6221783","PHONE":"(713) 326-5547","RARNUM":"H146","CONTACT":"Dr. James Hebert","MA_ID":"MA0020","RAMP":"N/A","OBJECTID":154,"id":"a62fkbrbg91g","ADDRESS":"2515-B NASA Rd. 1, Seabrook 77586"},"type":"Feature","geometry":{"type":"Point","coordinates":[-95.0338859744842,29.5600728310479]}},{"properties":{"NAME":"Bal Harbour Association","SLIPS":141,"SERVICES":"","XY":"1563494.70333,-491282.4240357","PHONE":"(713) 333-5168","RARNUM":"H132","CONTACT":"Frank Downes","MA_ID":"MA0022","RAMP":"0","OBJECTID":155,"id":"a62fkbub64zv","ADDRESS":"123 Lakeside Lane, Nassau Bay 77058"},"type":"Feature","geometry":{"type":"Point","coordinates":[-95.0749588848383,29.5550889426467]}},{"properties":{"NAME":"Nassau Bay Hilton Marina","SLIPS":86,"SERVICES":"","XY":"1563908.689636,-489371.3189701","PHONE":"(713) 333-9300","RARNUM":"H149","CONTACT":"Mike Butler","MA_ID":"MA0021","RAMP":"","OBJECTID":156,"id":"a62fkbj2qon1","ADDRESS":"3000 NASA Rd. 1, Houston 77058"},"type":"Feature","geometry":{"type":"Point","coordinates":[-95.0733867917713,29.5602814096731]}},{"properties":{"NAME":"Seabrook Shipyard","SLIPS":800,"SERVICES":"Fuel &amp; repair services","XY":"1579767.370134,-490356.6893865","PHONE":"(713) 474-2586","RARNUM":"H131","CONTACT":"Bob Conners","MA_ID":"MA0017","RAMP":"No","OBJECTID":157,"id":"a62fkbxxofp4","ADDRESS":"Rt. 1, Box 76, Seabrook 77586-9801"},"type":"Feature","geometry":{"type":"Point","coordinates":[-95.0236373697244,29.5556155205061]}},{"properties":{"NAME":"Clear Lake Marine Center","SLIPS":161,"SERVICES":"","XY":"1570132.077255,-487800.4222411","PHONE":"(713) 326-4626","RARNUM":"H159","CONTACT":"","MA_ID":"MA0068","RAMP":"No","OBJECTID":158,"id":"a62fkbsph3x5","ADDRESS":"4141 NASA Rd 1, Seabrook 77586"},"type":"Feature","geometry":{"type":"Point","coordinates":[-95.0535856547727,29.56382363862]}},{"properties":{"NAME":"Eagle Point Fishing Camp","SLIPS":62,"SERVICES":"","XY":"1616909.343506,-510423.9876823","PHONE":"(713) 339-1131","RARNUM":"H147","CONTACT":"Johnny Valentino","MA_ID":"MA0080","RAMP":"yes","OBJECTID":159,"id":"a62fkbtivewh","ADDRESS":"101 1st, San Leon 77539"},"type":"Feature","geometry":{"type":"Point","coordinates":[-94.9097302853838,29.4958865135079]}},{"properties":{"NAME":"Moses Lake Marina","SLIPS":5,"SERVICES":"","XY":"1613237.362274,-538382.0022958","PHONE":"(409) 943-4444","RARNUM":"H161","CONTACT":"","MA_ID":"MA0028","RAMP":"Yes","OBJECTID":160,"id":"a62fkbxhzg57","ADDRESS":"4009 20th St. N, Texas City"},"type":"Feature","geometry":{"type":"Point","coordinates":[-94.9253365298243,29.41964453205]}},{"properties":{"NAME":"Ray's Bait Camp","SLIPS":9,"SERVICES":"","XY":"1613101.582094,-537929.2811766","PHONE":"(409) 945-0989","RARNUM":"H162","CONTACT":"","MA_ID":"MA0027","RAMP":"","OBJECTID":161,"id":"a62fkbl6qf66","ADDRESS":"4025 20th St N, Texas City 77550"},"type":"Feature","geometry":{"type":"Point","coordinates":[-94.9256973177656,29.4209039120293]}},{"properties":{"NAME":"Stingaree Marina","SLIPS":10,"SERVICES":"Gas/diesel","XY":"1714340.536966,-511651.0120437","PHONE":"409-684-9530","RARNUM":"H143","CONTACT":"","MA_ID":"MA0036","RAMP":"Yes","OBJECTID":162,"id":"a62fkbqzyv4t","ADDRESS":""},"type":"Feature","geometry":{"type":"Point","coordinates":[-94.6036712883508,29.479753117132]}},{"properties":{"NAME":"","SLIPS":20,"SERVICES":"Gas/diesel","XY":"1714139.655801,-511440.7956517","PHONE":"409-684-3067","RARNUM":"H142","CONTACT":"A.B &amp; Pat Charpiot","MA_ID":"MA0076","RAMP":"Yes","OBJECTID":163,"id":"a62fkbwygq3e","ADDRESS":"109 Redfish Dr, Crystal Beach, TX 77650"},"type":"Feature","geometry":{"type":"Point","coordinates":[-94.6042701302614,29.4803568895595]}},{"properties":{"NAME":"Payco Marina","SLIPS":130,"SERVICES":"Fuel &amp; repair services","XY":"1632505.12335,-585754.1294447","PHONE":"(409) 744-7428","RARNUM":"H160","CONTACT":"Hershel Payne","MA_ID":"MA0030","RAMP":"Yes","OBJECTID":164,"id":"a62fkbj7aa8l","ADDRESS":"8821 Broadway, Galveston 77551"},"type":"Feature","geometry":{"type":"Point","coordinates":[-94.871765721093,29.2872031971344]}},{"properties":{"NAME":"Marina Landing Resort","SLIPS":132,"SERVICES":"No info","XY":"1640912.424062,-590389.512272","PHONE":"(409) 744-3625","RARNUM":"H141","CONTACT":"Doyl Hatchel","MA_ID":"MA0026","RAMP":"N/A","OBJECTID":165,"id":"a62fkbr8fuoq","ADDRESS":"7302 Heards Lane, Galveston 77551"},"type":"Feature","geometry":{"type":"Point","coordinates":[-94.8460768950337,29.2734032358894]}},{"properties":{"NAME":"West Bay Marina at Sea Isle","SLIPS":54,"SERVICES":"Fuel available","XY":"1578889.442598,-639866.8801784","PHONE":"(409) 737-3636","RARNUM":"H138","CONTACT":"David Wilson","MA_ID":"MA0037","RAMP":"Yes","OBJECTID":166,"id":"a62fkbyvfgp0","ADDRESS":""},"type":"Feature","geometry":{"type":"Point","coordinates":[-95.0476154596159,29.1454578247994]}},{"properties":{"NAME":"Bridge Harbor Marina","SLIPS":300,"SERVICES":"Gas/diesel","XY":"1503845.09158,-709954.9042512","PHONE":"(409) 233-2101","RARNUM":"H441","CONTACT":"","MA_ID":"MA0014","RAMP":"","OBJECTID":167,"id":"a62fkbs9r8dv","ADDRESS":"411 Sailfish, Freeport 77541"},"type":"Feature","geometry":{"type":"Point","coordinates":[-95.2921208366483,28.9621354352639]}},{"properties":{"NAME":"Kirby Marina","SLIPS":72,"SERVICES":"Repair, fuel","XY":"1495527.27725,-693547.1682239","PHONE":"(409) 239-1081","RARNUM":"H446","CONTACT":"","MA_ID":"MA0065","RAMP":"No","OBJECTID":168,"id":"a62fkbukbe8v","ADDRESS":"816 County Rd 782, Freeport 77541"},"type":"Feature","geometry":{"type":"Point","coordinates":[-95.3159398682726,29.0081548312033]}},{"properties":{"NAME":"Jabo's Tacklebox","SLIPS":20,"SERVICES":"Gas/diesel, storage, lift","XY":"1506247.09839,-663192.1676801","PHONE":"(409) 233-2051","RARNUM":"H444","CONTACT":"Jabo Thompson","MA_ID":"MA0063","RAMP":"Yes","OBJECTID":169,"id":"a62fkbn1q7ag","ADDRESS":"Rt 2, Box 314, Freeport, Tx 77541-8916"},"type":"Feature","geometry":{"type":"Point","coordinates":[-95.2783223972049,29.0902203794603]}},{"properties":{"NAME":"Bastrop Marina","SLIPS":12,"SERVICES":"","XY":"1503800.369982,-661570.6114662","PHONE":"","RARNUM":"H445","CONTACT":"","MA_ID":"MA0064","RAMP":"Yes","OBJECTID":170,"id":"a62fkbnucg6k","ADDRESS":"505 Bayou Rd, Freeport, Tx (409) 233-4091"},"type":"Feature","geometry":{"type":"Point","coordinates":[-95.2857648353363,29.0949600228731]}},{"properties":{"NAME":"Matagorda Harbor","SLIPS":220,"SERVICES":"","XY":"1294787.934011,-816472.6412397","PHONE":"(409) 863-7642","RARNUM":"H449","CONTACT":"Harold Martin","MA_ID":"MA0039","RAMP":"","OBJECTID":171,"id":"a62fkblfvu6c","ADDRESS":"Hwy 60 S, Matagorda 77457"},"type":"Feature","geometry":{"type":"Point","coordinates":[-95.9582097595031,28.6925143255946]}},{"properties":{"NAME":"East Bay Yacht Harbor","SLIPS":38,"SERVICES":"","XY":"1213987.832866,-812703.9494549","PHONE":"(361) 972-3727","RARNUM":"H454","CONTACT":"Charlotte Tucker","MA_ID":"MA0086","RAMP":"","OBJECTID":172,"id":"a62fkbmnux9m","ADDRESS":"1012 1st St., Palacios 77465"},"type":"Feature","geometry":{"type":"Point","coordinates":[-96.2098216862004,28.7107801198773]}},{"properties":{"NAME":"South Bay Marina","SLIPS":24,"SERVICES":"","XY":"1210965.822504,-817675.951045","PHONE":"(361) 972-5556","RARNUM":"H440","CONTACT":"Dennis Ward","MA_ID":"MA0104","RAMP":"No","OBJECTID":173,"id":"a62fkbtj4ho2","ADDRESS":"601 S. Bay Blvd, Palacios"},"type":"Feature","geometry":{"type":"Point","coordinates":[-96.219783165398,28.6974090521998]}},{"properties":{"NAME":"Serendipity Resort, RV Park &amp; Marina","SLIPS":120,"SERVICES":"","XY":"1209631.484632,-816702.2553717","PHONE":"(361) 972-5454","RARNUM":"H451","CONTACT":"Dennis Ward","MA_ID":"MA0040","RAMP":"No","OBJECTID":174,"id":"a62fkbokx8ns","ADDRESS":"P.O. Box 818, Palacios, Tx 77465"},"type":"Feature","geometry":{"type":"Point","coordinates":[-96.2238407749033,28.7002097504358]}},{"properties":{"NAME":"Port of Palacios","SLIPS":41,"SERVICES":"","XY":"1207397.133119,-817383.7377871","PHONE":"(361) 972-5556","RARNUM":"H452","CONTACT":"Tony Rigdon","MA_ID":"MA0077","RAMP":"","OBJECTID":175,"id":"a62fkbv7l4ry","ADDRESS":"P.O. Box 551, Palacios, TX 77465"},"type":"Feature","geometry":{"type":"Point","coordinates":[-96.2308833250296,28.6985486674186]}},{"properties":{"NAME":"Alligator Head West Boat Sheds","SLIPS":48,"SERVICES":"","XY":"1149448.464809,-914768.7277368","PHONE":"(361) 983-4745","RARNUM":"H696","CONTACT":"Ron Arbogast","MA_ID":"MA0103","RAMP":"","OBJECTID":176,"id":"a62fkboxluan","ADDRESS":"210 Alligator Head Lane, Port O'Connor"},"type":"Feature","geometry":{"type":"Point","coordinates":[-96.4215483035016,28.4363294060013]}},{"properties":{"NAME":"Alligator Head East Boat Sheds","SLIPS":20,"SERVICES":"","XY":"1150005.401165,-914715.8325794","PHONE":"(361) 983-4745","RARNUM":"H695","CONTACT":"Ron Arbogast","MA_ID":"MA0102","RAMP":"","OBJECTID":177,"id":"a62fkbj0zkbm","ADDRESS":"210 Alligator Head Lane, Port O'Connor"},"type":"Feature","geometry":{"type":"Point","coordinates":[-96.4198103260656,28.4364248850038]}},{"properties":{"NAME":"Fishing Center","SLIPS":10,"SERVICES":"","XY":"1151775.526949,-913389.7230509","PHONE":"361-983-2671","RARNUM":"H167","CONTACT":"John Hawes","MA_ID":"MA0083","RAMP":"Yes","OBJECTID":178,"id":"a62fkbo5318y","ADDRESS":"13th and Water St., Port O'Connor"},"type":"Feature","geometry":{"type":"Point","coordinates":[-96.4141687623632,28.4399100096965]}},{"properties":{"NAME":"Sea Gun Motel and Marina","SLIPS":48,"SERVICES":"Fuel","XY":"964702.1691607,-1029289.175831","PHONE":"(361) 729-3292","RARNUM":"H456","CONTACT":"Manager","MA_ID":"MA0041","RAMP":"Yes","OBJECTID":179,"id":"a62fkbwhz86n","ADDRESS":"Star Rt. Box 85, Rockport, Tx 78382"},"type":"Feature","geometry":{"type":"Point","coordinates":[-97.0060993066222,28.1367716566417]}},{"properties":{"NAME":"Key Allegro Isle Marina","SLIPS":160,"SERVICES":"Fuel","XY":"957827.323085,-1063832.051612","PHONE":"(361) 729-2761","RARNUM":"H459","CONTACT":"Russ Wilhour","MA_ID":"MA0084","RAMP":"No","OBJECTID":180,"id":"a62fkbz3m1w5","ADDRESS":"37 Mazatlan, Rockport, TX 78382"},"type":"Feature","geometry":{"type":"Point","coordinates":[-97.0303217225774,28.0423183127406]}},{"properties":{"NAME":"Fulton Harbor (Aransas Co. Nav. Dist.)","SLIPS":93,"SERVICES":"","XY":"956556.0380462,-1056266.625","PHONE":"(361) 729-6661","RARNUM":"H458","CONTACT":"Ron Roe","MA_ID":"MA0043","RAMP":"Yes","OBJECTID":181,"id":"a62fkbju7oi1","ADDRESS":"911 Navigation Circle, Rockport 78382"},"type":"Feature","geometry":{"type":"Point","coordinates":[-97.0336281371846,28.0632128698993]}},{"properties":{"NAME":"Sandollar Resort","SLIPS":0,"SERVICES":"","XY":"955634.1761033,-1052736.460269","PHONE":"361-729-2381","RARNUM":"H457","CONTACT":"Jan McCauley","MA_ID":"MA0042","RAMP":"","OBJECTID":182,"id":"a62fkbvb1e1m","ADDRESS":"919 N. Fulton Beach Road, Rockport"},"type":"Feature","geometry":{"type":"Point","coordinates":[-97.0361902274036,28.0729867820447]}},{"properties":{"NAME":"Aransas County Navigation Dist. Marina","SLIPS":163,"SERVICES":"","XY":"951808.4857627,-1070808.97077","PHONE":"(361) 729-6661","RARNUM":"H460","CONTACT":"Ron Roe","MA_ID":"MA0085","RAMP":"No","OBJECTID":183,"id":"a62fkbvgi95s","ADDRESS":"911 Navigation Circle, Rockport 78382"},"type":"Feature","geometry":{"type":"Point","coordinates":[-97.0495545090649,28.0235817615376]}},{"properties":{"NAME":"Fin &amp; Feather Marina &amp; RV Park","SLIPS":15,"SERVICES":"","XY":"933203.1474229,-1120446.611966","PHONE":"(361) 758-7414","RARNUM":"H462","CONTACT":"Sharon Conner","MA_ID":"MA0094","RAMP":"Y","OBJECTID":184,"id":"a62fkbp6sbsj","ADDRESS":"P.O. Box 458, Aransas Pass, TX 78336"},"type":"Feature","geometry":{"type":"Point","coordinates":[-97.1112460468119,27.8884527790894]}},{"properties":{"NAME":"San Patricio County Nav. Dist. Marina","SLIPS":158,"SERVICES":"None","XY":"921132.5533621,-1120499.052085","PHONE":"(361) 758-1890","RARNUM":"H463","CONTACT":"Joe Narvaez","MA_ID":"MA0106","RAMP":"Yes","OBJECTID":185,"id":"a62fkbxc3phu","ADDRESS":"426 Ransom Island, Aransas Pass 78336"},"type":"Feature","geometry":{"type":"Point","coordinates":[-97.1485982177258,27.8891759700825]}},{"properties":{"NAME":"Fisherman's Wharf","SLIPS":4,"SERVICES":"Fuel","XY":"950498.2886078,-1137718.837189","PHONE":"361-749-5448","RARNUM":"H477","CONTACT":"Bobby Grumbles","MA_ID":"MA0095","RAMP":"","OBJECTID":186,"id":"a62fkbsojd62","ADDRESS":"900 N. Tarpon, Port Aransas, TX 78373"},"type":"Feature","geometry":{"type":"Point","coordinates":[-97.0591647841229,27.8396918065872]}},{"properties":{"NAME":"Sportsplex Bait Shop &amp; Seafood Center","SLIPS":60,"SERVICES":"","XY":"950161.7045199,-1138178.039822","PHONE":"(361) 749-4088","RARNUM":"H467","CONTACT":"","MA_ID":"MA0100","RAMP":"Yes","OBJECTID":187,"id":"a62fkbj8z4zw","ADDRESS":"847 N Alister, Port Aransas 78373"},"type":"Feature","geometry":{"type":"Point","coordinates":[-97.0602436829302,27.8384537513209]}},{"properties":{"NAME":"Univ. of Texas Marine Science Institute","SLIPS":45,"SERVICES":"Fuel","XY":"952551.7856351,-1138647.670919","PHONE":"(361) 749-6711","RARNUM":"H468","CONTACT":"Patty Webb","MA_ID":"MA0101","RAMP":"No","OBJECTID":188,"id":"a62fkbw2xw27","ADDRESS":"UT Marina, 750 Channelview Drive, Port Aransas, Tx 78373"},"type":"Feature","geometry":{"type":"Point","coordinates":[-97.0528913882619,27.8369860745702]}},{"properties":{"NAME":"Woody's Sports Center","SLIPS":35,"SERVICES":"Fuel","XY":"949604.6766566,-1138364.338195","PHONE":"(361) 749-5252","RARNUM":"H466","CONTACT":"Glenn Martin","MA_ID":"MA0099","RAMP":"Yes","OBJECTID":189,"id":"a62fkbo0xnms","ADDRESS":"114 W Cotter, Port Aransas 78373"},"type":"Feature","geometry":{"type":"Point","coordinates":[-97.0619816561876,27.8379823999961]}},{"properties":{"NAME":"Deep Sea Headquarters","SLIPS":14,"SERVICES":"Fuel","XY":"948006.0360183,-1138464.739431","PHONE":"(361) 749-5597","RARNUM":"H465","CONTACT":"Greg Brown","MA_ID":"MA0097","RAMP":"Yes","OBJECTID":190,"id":"a62fkbntfgxu","ADDRESS":"P.O. Box 388, Port Aransas, Tx 78373"},"type":"Feature","geometry":{"type":"Point","coordinates":[-97.0669337200429,27.8378237958166]}},{"properties":{"NAME":"Port Aransas Municipal Boat Harbor","SLIPS":250,"SERVICES":"None","XY":"947975.1559106,-1138155.324426","PHONE":"(361) 749-5429","RARNUM":"H464","CONTACT":"Kurt Requarth","MA_ID":"MA0096","RAMP":"Yes","OBJECTID":191,"id":"a62fkbjpq4e3","ADDRESS":"301 J C Barr Blvd, Port Aransas 78373"},"type":"Feature","geometry":{"type":"Point","coordinates":[-97.0670036735682,27.8386769855471]}},{"properties":{"NAME":"Corpus Christi Municipal Marina","SLIPS":583,"SERVICES":"Fuel &amp; Repair Services","XY":"844441.0222359,-1157313.148718","PHONE":"(361) 882-7333","RARNUM":"H473","CONTACT":"Peter Davidson","MA_ID":"MA0046","RAMP":"Yes","OBJECTID":192,"id":"a62fkbpo7fnw","ADDRESS":"400A North Shoreline Blvd, Corpus Christi"},"type":"Feature","geometry":{"type":"Point","coordinates":[-97.3886146165991,27.7931746555009]}},{"properties":{"NAME":"Corpus Christi Yacht Club (Private)","SLIPS":5,"SERVICES":"","XY":"844021.4455225,-1158234.125","PHONE":"(361) 883-6518","RARNUM":"H474","CONTACT":"Myrna Hunt","MA_ID":"MA0092","RAMP":"","OBJECTID":193,"id":"a62fkbxtr23q","ADDRESS":"98 Coopers Alley St, Corpus Christi 78401-2899"},"type":"Feature","geometry":{"type":"Point","coordinates":[-97.3899792644893,27.790669018161]}},{"properties":{"NAME":"Laguna Marina","SLIPS":24,"SERVICES":"Fuel","XY":"878027.2675882,-1215428.033642","PHONE":"(361) 937-6878","RARNUM":"H482","CONTACT":"","MA_ID":"MA0062","RAMP":"No","OBJECTID":194,"id":"a62fkbu2t8wa","ADDRESS":"3909 Laguna Shores Road, Corpus Christi"},"type":"Feature","geometry":{"type":"Point","coordinates":[-97.2892260792324,27.6310806694892]}},{"properties":{"NAME":"Bluff Landing Marina","SLIPS":90,"SERVICES":"","XY":"875274.0770155,-1222618.867921","PHONE":"(361) 937-7100","RARNUM":"H481","CONTACT":"","MA_ID":"MA0105","RAMP":"","OBJECTID":195,"id":"a62fkbsrfx3z","ADDRESS":"4242 Laguna Shores Rd., Corpus Christi 78418"},"type":"Feature","geometry":{"type":"Point","coordinates":[-97.2982685359791,27.6114855057764]}},{"properties":{"NAME":"Marker 37 Marina","SLIPS":35,"SERVICES":"","XY":"894081.0649292,-1214655.976683","PHONE":"(361) 949-8037","RARNUM":"H478","CONTACT":"Pat Green","MA_ID":"MA0048","RAMP":"","OBJECTID":196,"id":"a62fkbslorbr","ADDRESS":"13317 South Padre Island, Corpus Christi, 78418"},"type":"Feature","geometry":{"type":"Point","coordinates":[-97.2396232372258,27.6321046076615]}},{"properties":{"NAME":"Clem's Marina","SLIPS":6,"SERVICES":"","XY":"894828.2936597,-1213788.594373","PHONE":"(361) 949-8445","RARNUM":"H476","CONTACT":"Violet Gohlke","MA_ID":"MA0047","RAMP":"Yes","OBJECTID":197,"id":"a62fkbpegim8","ADDRESS":"13304 S. Padre Island Dr, Corpus Christi 78418"},"type":"Feature","geometry":{"type":"Point","coordinates":[-97.2372498777973,27.6344390060459]}},{"properties":{"NAME":"Mariners Cay Marina Condos","SLIPS":22,"SERVICES":"Long-term only","XY":"899072.6805048,-1218671.210058","PHONE":"(361) 949-7037","RARNUM":"H479","CONTACT":"","MA_ID":"MA0090","RAMP":"N","OBJECTID":198,"id":"a62fkbshw4vu","ADDRESS":"14514 Cabana East St, Corpus Christi 78418"},"type":"Feature","geometry":{"type":"Point","coordinates":[-97.2245318283381,27.6207130025509]}},{"properties":{"NAME":"Anchor Resort Condominiums &amp; Marina","SLIPS":40,"SERVICES":"","XY":"899821.0736722,-1218703.077212","PHONE":"(361) 949-8141","RARNUM":"H480","CONTACT":"Tommy Howard","MA_ID":"MA0091","RAMP":"No","OBJECTID":199,"id":"a62fkbkjz00b","ADDRESS":"P.O. Box 8314, Corpus Christi 78468-8502"},"type":"Feature","geometry":{"type":"Point","coordinates":[-97.2222250143161,27.6205732950719]}},{"properties":{"NAME":"Willacy County Nav. Dist. Marina","SLIPS":149,"SERVICES":"","XY":"842399.6426071,-1608111.818723","PHONE":"(210) 689-3332","RARNUM":"H484","CONTACT":"Mike Wilson","MA_ID":"MA0054","RAMP":"","OBJECTID":200,"id":"a62fkbpzzo3y","ADDRESS":"295 E Hidalgo, Raymondville 78580"},"type":"Feature","geometry":{"type":"Point","coordinates":[-97.4275621507098,26.5523803048535]}},{"properties":{"NAME":"Casa de Pescadores (Private)","SLIPS":0,"SERVICES":"","XY":"842826.2459868,-1606972.409069","PHONE":"(210) 944-2333","RARNUM":"H485","CONTACT":"","MA_ID":"MA0087","RAMP":"","OBJECTID":201,"id":"a62fkbizjs56","ADDRESS":"P.O. Box 81, Port Mansfield, Tx 78598"},"type":"Feature","geometry":{"type":"Point","coordinates":[-97.426178416522,26.5554920483771]}},{"properties":{"NAME":"SPI Boat Works (South Point Marina)","SLIPS":30,"SERVICES":"","XY":"918385.1288699,-1782703.884695","PHONE":"(956) 943-7926","RARNUM":"H492","CONTACT":"Daryl Golden","MA_ID":"MA0057","RAMP":"Yes","OBJECTID":202,"id":"a62fkbnmxyut","ADDRESS":"500 South Point Dr., Port Isabel 78578"},"type":"Feature","geometry":{"type":"Point","coordinates":[-97.209162359188,26.0660540417806]}},{"properties":{"NAME":"Jimmy's Bait Stand","SLIPS":14,"SERVICES":"","XY":"917231.2862672,-1780556.112067","PHONE":"(512) 943-9700","RARNUM":"H491","CONTACT":"","MA_ID":"MA0078","RAMP":"N","OBJECTID":203,"id":"a62fkbyl23qn","ADDRESS":"P.O. Box 320, Port Isabel 78578"},"type":"Feature","geometry":{"type":"Point","coordinates":[-97.21250166481,26.0720567131055]}},{"properties":{"NAME":"Hi-Way Bait Stand and Marina","SLIPS":10,"SERVICES":"","XY":"917087.9021392,-1780056.288537","PHONE":"(210) 943-6311","RARNUM":"H489","CONTACT":"","MA_ID":"MA0056","RAMP":"","OBJECTID":204,"id":"a62fkbvw73sn","ADDRESS":"P.O. Box 1926, Port Isabel 78578"},"type":"Feature","geometry":{"type":"Point","coordinates":[-97.2128986963093,26.0734448920805]}},{"properties":{"NAME":"White Sands Marina","SLIPS":20,"SERVICES":"","XY":"916718.4480663,-1779959.973686","PHONE":"(956) 943-2414","RARNUM":"H488","CONTACT":"Pat Marchan","MA_ID":"MA0055","RAMP":"","OBJECTID":205,"id":"a62fkblf5z5i","ADDRESS":"P.O. Box 1027, Port Isabel, Tx 78578"},"type":"Feature","geometry":{"type":"Point","coordinates":[-97.2140135806223,26.0737363004506]}},{"properties":{"NAME":"Anchor Marina","SLIPS":51,"SERVICES":"","XY":"916406.5830557,-1779269.90154","PHONE":"(210) 943-9914","RARNUM":"H493","CONTACT":"","MA_ID":"MA0053","RAMP":"","OBJECTID":206,"id":"a62fkby97sla","ADDRESS":"40 E Tarpon Ave., Port Isabel, TX 78578"},"type":"Feature","geometry":{"type":"Point","coordinates":[-97.2149078093617,26.075660762494]}},{"properties":{"NAME":"Sea R Sea Marine","SLIPS":27,"SERVICES":"","XY":"917241.2015588,-1779105.911113","PHONE":"956-943-7712","RARNUM":"H487","CONTACT":"","MA_ID":"MA0079","RAMP":"","OBJECTID":207,"id":"a62fkbvhhbnv","ADDRESS":"600 Yturria, Port Isabel, TX 78578"},"type":"Feature","geometry":{"type":"Point","coordinates":[-97.2123597335166,26.0760545191339]}},{"properties":{"NAME":"Sea Ranch Marine Center","SLIPS":62,"SERVICES":"","XY":"933013.3658369,-1778621.578975","PHONE":"(210) 761-5493","RARNUM":"H495","CONTACT":"Daryl Golden","MA_ID":"MA0061","RAMP":"Y","OBJECTID":208,"id":"a62fkblgr770","ADDRESS":"1 Padre Blvd., South Padre Island 78597"},"type":"Feature","geometry":{"type":"Point","coordinates":[-97.1644087604562,26.0762767226392]}},{"properties":{"NAME":"Cameron County Marina","SLIPS":0,"SERVICES":"","XY":"932276.0467318,-1778350.730607","PHONE":"(210) 761-5493","RARNUM":"H494","CONTACT":"Javier Mendez","MA_ID":"MA0060","RAMP":"","OBJECTID":209,"id":"a62fkbn3efqj","ADDRESS":"P.O. Box 2106, South Padre Island 78597"},"type":"Feature","geometry":{"type":"Point","coordinates":[-97.166627375841,26.0770759629101]}},{"properties":{"NAME":"Boardwalk Condos &amp; Yacht Club","SLIPS":45,"SERVICES":"","XY":"932251.8949693,-1774341.700201","PHONE":"(210) 761-7111","RARNUM":"H496","CONTACT":"Balde Valdez","MA_ID":"MA0059","RAMP":"No","OBJECTID":210,"id":"a62fkbmdwafu","ADDRESS":"425 Padre Blvd., South Padre Island, TX 78597"},"type":"Feature","geometry":{"type":"Point","coordinates":[-97.1663865404888,26.0881311345033]}},{"properties":{"NAME":"Jim's Pier","SLIPS":36,"SERVICES":"","XY":"930972.2218772,-1768827.686995","PHONE":"(210) 761-2865","RARNUM":"H497","CONTACT":"Frank Gonzalez","MA_ID":"MA0052","RAMP":"Yes","OBJECTID":211,"id":"a62fkbre2zzt","ADDRESS":"209 W. Whiting, South Padre Island 78597"},"type":"Feature","geometry":{"type":"Point","coordinates":[-97.1698427924266,26.1034246718739]}},{"properties":{"NAME":"Fisherman's Wharf","SLIPS":42,"SERVICES":"","XY":"930918.7301847,-1768590.033872","PHONE":"(956) 761-7818","RARNUM":"H498","CONTACT":"Elmer Shull","MA_ID":"MA0051","RAMP":"","OBJECTID":212,"id":"a62fkbo1wfc0","ADDRESS":"211 W. Swordfish, South Padre Island 78597"},"type":"Feature","geometry":{"type":"Point","coordinates":[-97.1699867033628,26.1040836822821]}}],"is_temporal":false,"author":{"url":"http://www.glo.state.tx.us/gisdata/gisdata.html","metadata":"","contact_name":"","contact_address":"","source":"Texas General Land Office","contact_phone":""},"source":"http://www.glo.state.tx.us/gisdata/gisdata.html","pagination":{"sort":null,"start":0,"total":106,"limit":1000000},"state":"complete","tags":"boat,boating,marinas,recreation,texas","published":"1996-01-01T12:00:00Z","id":2407}