{"type":"FeatureCollection","data_type":"Dataset","url_type":null,"permissions":[{"permissions":{"download":true,"view":true},"group_id":"everyone"}],"classification":null,"title":"table","count":339,"stream_id":241033,"contributor":{"url":"http://geocommons.com/users/45595","name":"rpazos"},"data_attributes":null,"calculation_params":null,"icon_link":null,"link":"http://geocommons.com/overlays/241033.json","extent":[150.139,-34.2293,151.332,-32.831],"geometry_types":["point"],"unique_name":null,"name":"table","feature_count":339,"description":"","next_feature":null,"is_raster":false,"short_classification":"Y","stats":{"latitude":{"max":-32.831026,"mean":-33.8529283038348,"variance":0.0187787817003719,"stdev":0.137035694986277,"min":-34.22928,"median":-33.87104},"postcode":{"max":2770,"mean":2235.74926253687,"variance":50886.6203766735,"stdev":225.580629435848,"min":2000,"median":2158},"ranking":{"max":100,"mean":43.6961651917404,"variance":879.786109511093,"stdev":29.661188605838,"min":0,"median":38},"longitude":{"max":151.331726,"mean":151.01766060767,"variance":0.0302489111567068,"stdev":0.173922141076709,"min":150.139,"median":151.029343}},"features":[{"properties":{"city":"Oatlands","latitude":-33.793892,"postcode":2117,"ranking":0,"type":"Non-government","country":"Australia","longitude":151.021912,"id":"a67002atmvo3","school":"M.E.T. School","state":"NSW"},"type":"Feature","geometry":{"type":"Point","coordinates":[151.021912,-33.793892]}},{"properties":{"city":"Tahmoor","latitude":-34.22928,"postcode":2573,"ranking":1,"type":"Non-government","country":"Australia","longitude":150.59111,"id":"a670021y2mh1","school":"Wollondilly Anglican College","state":"NSW"},"type":"Feature","geometry":{"type":"Point","coordinates":[150.59111,-34.22928]}},{"properties":{"city":"Warriewood","latitude":-33.68891,"postcode":2102,"ranking":1,"type":"Non-government","country":"Australia","longitude":151.297432,"id":"a6700286siqv","school":"Mater Maria Catholic College","state":"NSW"},"type":"Feature","geometry":{"type":"Point","coordinates":[151.297432,-33.68891]}},{"properties":{"city":"Oakville","latitude":-33.622261,"postcode":2765,"ranking":3,"type":"Non-government","country":"Australia","longitude":150.861206,"id":"a670023qnb1b","school":"Arndell College","state":"NSW"},"type":"Feature","geometry":{"type":"Point","coordinates":[150.861206,-33.622261]}},{"properties":{"city":"Potts Point","latitude":-33.87159,"postcode":2011,"ranking":3,"type":"Non-government","country":"Australia","longitude":151.222855,"id":"a670023gy6bs","school":"St Vincent s College","state":"NSW"},"type":"Feature","geometry":{"type":"Point","coordinates":[151.222855,-33.87159]}},{"properties":{"city":"Rouse Hill","latitude":-33.67923,"postcode":2155,"ranking":3,"type":"Non-government","country":"Australia","longitude":150.922348,"id":"a67002cli3ud","school":"Rouse Hill Anglican College","state":"NSW"},"type":"Feature","geometry":{"type":"Point","coordinates":[150.922348,-33.67923]}},{"properties":{"city":"North Sydney","latitude":-33.83989,"postcode":2060,"ranking":4,"type":"Non-government","country":"Australia","longitude":151.207779,"id":"a67001y8meu5","school":"Monte Sant Angelo Mercy College","state":"NSW"},"type":"Feature","geometry":{"type":"Point","coordinates":[151.207779,-33.83989]}},{"properties":{"city":"Heathcote","latitude":-34.081669,"postcode":2233,"ranking":4,"type":"Government","country":"Australia","longitude":151.008682,"id":"a67001z3soe0","school":"Heathcote High School","state":"NSW"},"type":"Feature","geometry":{"type":"Point","coordinates":[151.008682,-34.081669]}},{"properties":{"city":"Picton","latitude":-34.169079,"postcode":2571,"ranking":4,"type":"Government","country":"Australia","longitude":150.611496,"id":"a670020d4kjh","school":"Picton High School","state":"NSW"},"type":"Feature","geometry":{"type":"Point","coordinates":[150.611496,-34.169079]}},{"properties":{"city":"Manly","latitude":-33.795238,"postcode":2095,"ranking":5,"type":"Non-government","country":"Australia","longitude":151.287369,"id":"a6700213w7k9","school":"St Paul s Catholic College","state":"NSW"},"type":"Feature","geometry":{"type":"Point","coordinates":[151.287369,-33.795238]}},{"properties":{"city":"North Sydney","latitude":-33.83989,"postcode":2060,"ranking":5,"type":"Non-government","country":"Australia","longitude":151.207779,"id":"a67002awzw7j","school":"Wenona School Ltd","state":"NSW"},"type":"Feature","geometry":{"type":"Point","coordinates":[151.207779,-33.83989]}},{"properties":{"city":"Rose Bay","latitude":-33.874189,"postcode":2029,"ranking":5,"type":"Non-government","country":"Australia","longitude":151.265678,"id":"a67002e9cw6q","school":"Kambala","state":"NSW"},"type":"Feature","geometry":{"type":"Point","coordinates":[151.265678,-33.874189]}},{"properties":{"city":"Freemans Reach","latitude":-33.557919,"postcode":2756,"ranking":5,"type":"Government","country":"Australia","longitude":150.799606,"id":"a670026ntt73","school":"Hawkesbury High School","state":"NSW"},"type":"Feature","geometry":{"type":"Point","coordinates":[150.799606,-33.557919]}},{"properties":{"city":"Mcgraths Hill","latitude":-33.612068,"postcode":2756,"ranking":5,"type":"Government","country":"Australia","longitude":150.842636,"id":"a670028q1u70","school":"Windsor High School","state":"NSW"},"type":"Feature","geometry":{"type":"Point","coordinates":[150.842636,-33.612068]}},{"properties":{"city":"Glebe","latitude":-33.877201,"postcode":2037,"ranking":6,"type":"Non-government","country":"Australia","longitude":151.184937,"id":"a67002by6usv","school":"St Scholastica s College","state":"NSW"},"type":"Feature","geometry":{"type":"Point","coordinates":[151.184937,-33.877201]}},{"properties":{"city":"Oxford Falls","latitude":-33.737148,"postcode":2100,"ranking":6,"type":"Non-government","country":"Australia","longitude":151.245026,"id":"a6700217gld4","school":"Oxford Falls Grammar School","state":"NSW"},"type":"Feature","geometry":{"type":"Point","coordinates":[151.245026,-33.737148]}},{"properties":{"city":"Elderslie","latitude":-34.058681,"postcode":2570,"ranking":6,"type":"Government","country":"Australia","longitude":150.710968,"id":"a6700241nq1z","school":"Elderslie High School","state":"NSW"},"type":"Feature","geometry":{"type":"Point","coordinates":[150.710968,-34.058681]}},{"properties":{"city":"North Richmond","latitude":-33.58242,"postcode":2754,"ranking":6,"type":"Government","country":"Australia","longitude":150.722198,"id":"a67002b8kvou","school":"Colo High School","state":"NSW"},"type":"Feature","geometry":{"type":"Point","coordinates":[150.722198,-33.58242]}},{"properties":{"city":"Barden Ridge","latitude":-34.030159,"postcode":2234,"ranking":7,"type":"Non-government","country":"Australia","longitude":151.006485,"id":"a670021ianix","school":"Sutherland Shire Christian School","state":"NSW"},"type":"Feature","geometry":{"type":"Point","coordinates":[151.006485,-34.030159]}},{"properties":{"city":"Engadine","latitude":-34.064999,"postcode":2233,"ranking":7,"type":"Non-government","country":"Australia","longitude":151.013306,"id":"a67002ciztgn","school":"St John Bosco College","state":"NSW"},"type":"Feature","geometry":{"type":"Point","coordinates":[151.013306,-34.064999]}},{"properties":{"city":"Kellyville","latitude":-33.711269,"postcode":2155,"ranking":7,"type":"Non-government","country":"Australia","longitude":150.955566,"id":"a67002ape2k4","school":"William Branwhite Clarke College","state":"NSW"},"type":"Feature","geometry":{"type":"Point","coordinates":[150.955566,-33.711269]}},{"properties":{"city":"Lane Cove","latitude":-33.8139,"postcode":2066,"ranking":7,"type":"Non-government","country":"Australia","longitude":151.169983,"id":"a67002dwb8ol","school":"St Ignatius College","state":"NSW"},"type":"Feature","geometry":{"type":"Point","coordinates":[151.169983,-33.8139]}},{"properties":{"city":"Mosman","latitude":-33.823631,"postcode":2088,"ranking":7,"type":"Non-government","country":"Australia","longitude":151.248413,"id":"a670021hn03k","school":"Queenwood School for Girls Ltd","state":"NSW"},"type":"Feature","geometry":{"type":"Point","coordinates":[151.248413,-33.823631]}},{"properties":{"city":"South Windsor","latitude":-33.621761,"postcode":2756,"ranking":7,"type":"Non-government","country":"Australia","longitude":150.804413,"id":"a67002a5lgu8","school":"Bede Polding College","state":"NSW"},"type":"Feature","geometry":{"type":"Point","coordinates":[150.804413,-33.621761]}},{"properties":{"city":"Wahroonga","latitude":-33.718719,"postcode":2076,"ranking":7,"type":"Non-government","country":"Australia","longitude":151.117386,"id":"a67002bmtox0","school":"St Leo s Catholic College","state":"NSW"},"type":"Feature","geometry":{"type":"Point","coordinates":[151.117386,-33.718719]}},{"properties":{"city":"Waverley","latitude":-33.899151,"postcode":2024,"ranking":7,"type":"Non-government","country":"Australia","longitude":151.25386,"id":"a670025el78g","school":"Waverley College","state":"NSW"},"type":"Feature","geometry":{"type":"Point","coordinates":[151.25386,-33.899151]}},{"properties":{"city":"Camden","latitude":-34.056381,"postcode":2570,"ranking":7,"type":"Government","country":"Australia","longitude":150.693954,"id":"a67002ctjykr","school":"Camden High School","state":"NSW"},"type":"Feature","geometry":{"type":"Point","coordinates":[150.693954,-34.056381]}},{"properties":{"city":"Arcadia","latitude":-33.621658,"postcode":2159,"ranking":8,"type":"Non-government","country":"Australia","longitude":151.049042,"id":"a67002e3hnzk","school":"Northholm Grammar School","state":"NSW"},"type":"Feature","geometry":{"type":"Point","coordinates":[151.049042,-33.621658]}},{"properties":{"city":"Chatswood","latitude":-33.79607,"postcode":2067,"ranking":8,"type":"Non-government","country":"Australia","longitude":151.183853,"id":"a670029pfc1l","school":"Mercy Catholic College","state":"NSW"},"type":"Feature","geometry":{"type":"Point","coordinates":[151.183853,-33.79607]}},{"properties":{"city":"Cobbitty","latitude":-34.015388,"postcode":2570,"ranking":8,"type":"Non-government","country":"Australia","longitude":150.686523,"id":"a670024bupli","school":"Macarthur Anglican School","state":"NSW"},"type":"Feature","geometry":{"type":"Point","coordinates":[150.686523,-34.015388]}},{"properties":{"city":"Dee Why","latitude":-33.75375,"postcode":2099,"ranking":8,"type":"Non-government","country":"Australia","longitude":151.285233,"id":"a67002edt1s1","school":"St Luke s Grammar School","state":"NSW"},"type":"Feature","geometry":{"type":"Point","coordinates":[151.285233,-33.75375]}},{"properties":{"city":"North Sydney","latitude":-33.83989,"postcode":2060,"ranking":8,"type":"Non-government","country":"Australia","longitude":151.207779,"id":"a670020j555q","school":"Sydney Church of England Grammar School","state":"NSW"},"type":"Feature","geometry":{"type":"Point","coordinates":[151.207779,-33.83989]}},{"properties":{"city":"Emu Plains","latitude":-33.753479,"postcode":2750,"ranking":8,"type":"Government","country":"Australia","longitude":150.659576,"id":"a670022xsffk","school":"Nepean Creative and Performing Arts High School","state":"NSW"},"type":"Feature","geometry":{"type":"Point","coordinates":[150.659576,-33.753479]}},{"properties":{"city":"Brookvale","latitude":-33.761189,"postcode":2100,"ranking":9,"type":"Non-government","country":"Australia","longitude":151.273941,"id":"a670020i42we","school":"St Augustine s College","state":"NSW"},"type":"Feature","geometry":{"type":"Point","coordinates":[151.273941,-33.761189]}},{"properties":{"city":"Emu Plains","latitude":-33.753479,"postcode":2750,"ranking":9,"type":"Non-government","country":"Australia","longitude":150.659576,"id":"a67002cxs8z0","school":"McCarthy Catholic College (Emu Plains)","state":"NSW"},"type":"Feature","geometry":{"type":"Point","coordinates":[150.659576,-33.753479]}},{"properties":{"city":"Gordon","latitude":-33.757349,"postcode":2072,"ranking":9,"type":"Non-government","country":"Australia","longitude":151.155678,"id":"a670021c8tdh","school":"Ravenswood School for Girls","state":"NSW"},"type":"Feature","geometry":{"type":"Point","coordinates":[151.155678,-33.757349]}},{"properties":{"city":"Kingswood","latitude":-33.76347,"postcode":2747,"ranking":9,"type":"Non-government","country":"Australia","longitude":150.719696,"id":"a67002a8wlgt","school":"St Dominic s College","state":"NSW"},"type":"Feature","geometry":{"type":"Point","coordinates":[150.719696,-33.76347]}},{"properties":{"city":"Manly","latitude":-33.795238,"postcode":2095,"ranking":9,"type":"Non-government","country":"Australia","longitude":151.287369,"id":"a67002aqvkar","school":"Stella Maris College Manly","state":"NSW"},"type":"Feature","geometry":{"type":"Point","coordinates":[151.287369,-33.795238]}},{"properties":{"city":"Roseville","latitude":-33.78368,"postcode":2069,"ranking":9,"type":"Non-government","country":"Australia","longitude":151.175797,"id":"a670029rk3ci","school":"Roseville College","state":"NSW"},"type":"Feature","geometry":{"type":"Point","coordinates":[151.175797,-33.78368]}},{"properties":{"city":"Cranebrook","latitude":-33.719452,"postcode":2749,"ranking":9,"type":"Government","country":"Australia","longitude":150.710037,"id":"a670026e0uez","school":"Cranebrook High School","state":"NSW"},"type":"Feature","geometry":{"type":"Point","coordinates":[150.710037,-33.719452]}},{"properties":{"city":"Richmond","latitude":-33.59848,"postcode":2753,"ranking":9,"type":"Government","country":"Australia","longitude":150.752411,"id":"a670028rpfh7","school":"Richmond High School","state":"NSW"},"type":"Feature","geometry":{"type":"Point","coordinates":[150.752411,-33.59848]}},{"properties":{"city":"Bondi Junction","latitude":-33.89283,"postcode":2022,"ranking":10,"type":"Non-government","country":"Australia","longitude":151.247208,"id":"a67002bomr63","school":"Moriah College","state":"NSW"},"type":"Feature","geometry":{"type":"Point","coordinates":[151.247208,-33.89283]}},{"properties":{"city":"Campbelltown","latitude":-34.064098,"postcode":2560,"ranking":10,"type":"Non-government","country":"Australia","longitude":150.816589,"id":"a67002bt2el0","school":"St Gregory s College","state":"NSW"},"type":"Feature","geometry":{"type":"Point","coordinates":[150.816589,-34.064098]}},{"properties":{"city":"Caringbah","latitude":-34.042912,"postcode":2229,"ranking":10,"type":"Non-government","country":"Australia","longitude":151.121216,"id":"a6700277j1vz","school":"De La Salle College","state":"NSW"},"type":"Feature","geometry":{"type":"Point","coordinates":[151.121216,-34.042912]}},{"properties":{"city":"Normanhurst","latitude":-33.72134,"postcode":2076,"ranking":10,"type":"Non-government","country":"Australia","longitude":151.096756,"id":"a670020s1mpv","school":"Loreto Normanhurst","state":"NSW"},"type":"Feature","geometry":{"type":"Point","coordinates":[151.096756,-33.72134]}},{"properties":{"city":"Randwick","latitude":-33.91399,"postcode":2031,"ranking":10,"type":"Non-government","country":"Australia","longitude":151.239914,"id":"a670029nrd4t","school":"Emanuel School","state":"NSW"},"type":"Feature","geometry":{"type":"Point","coordinates":[151.239914,-33.91399]}},{"properties":{"city":"Rose Bay","latitude":-33.874189,"postcode":2029,"ranking":10,"type":"Non-government","country":"Australia","longitude":151.265678,"id":"a670020f7pc1","school":"Kincoppal-Rose Bay School of the Sacred Heart","state":"NSW"},"type":"Feature","geometry":{"type":"Point","coordinates":[151.265678,-33.874189]}},{"properties":{"city":"Avalon","latitude":-33.628639,"postcode":2107,"ranking":10,"type":"Government","country":"Australia","longitude":151.331726,"id":"a670027971ns","school":"Barrenjoey High School","state":"NSW"},"type":"Feature","geometry":{"type":"Point","coordinates":[151.331726,-33.628639]}},{"properties":{"city":"Cambridge Park","latitude":-33.747681,"postcode":2747,"ranking":10,"type":"Government","country":"Australia","longitude":150.721436,"id":"a670021d30iq","school":"Cambridge Park High School","state":"NSW"},"type":"Feature","geometry":{"type":"Point","coordinates":[150.721436,-33.747681]}},{"properties":{"city":"Engadine","latitude":-34.064999,"postcode":2233,"ranking":10,"type":"Government","country":"Australia","longitude":151.013306,"id":"a67001yqwx7o","school":"Engadine High School","state":"NSW"},"type":"Feature","geometry":{"type":"Point","coordinates":[151.013306,-34.064999]}},{"properties":{"city":"Woolloomooloo","latitude":-33.869068,"postcode":2011,"ranking":10,"type":"Government","country":"Australia","longitude":151.219788,"id":"a6700286ovzp","school":"Sydney Distance Education High School","state":"NSW"},"type":"Feature","geometry":{"type":"Point","coordinates":[151.219788,-33.869068]}},{"properties":{"city":"Campbelltown","latitude":-34.064098,"postcode":2560,"ranking":11,"type":"Non-government","country":"Australia","longitude":150.816589,"id":"a67002bym3qj","school":"Broughton Anglican College","state":"NSW"},"type":"Feature","geometry":{"type":"Point","coordinates":[150.816589,-34.064098]}},{"properties":{"city":"Hunters Hill","latitude":-33.834709,"postcode":2110,"ranking":11,"type":"Non-government","country":"Australia","longitude":151.15332,"id":"a67002bii3mb","school":"St Joseph s College","state":"NSW"},"type":"Feature","geometry":{"type":"Point","coordinates":[151.15332,-33.834709]}},{"properties":{"city":"Asquith","latitude":-33.688679,"postcode":2077,"ranking":11,"type":"Government","country":"Australia","longitude":151.109497,"id":"a670025wlshc","school":"Asquith Boys High School","state":"NSW"},"type":"Feature","geometry":{"type":"Point","coordinates":[151.109497,-33.688679]}},{"properties":{"city":"Cronulla","latitude":-34.055229,"postcode":2230,"ranking":11,"type":"Government","country":"Australia","longitude":151.153366,"id":"a67001zwux9q","school":"Cronulla High School","state":"NSW"},"type":"Feature","geometry":{"type":"Point","coordinates":[151.153366,-34.055229]}},{"properties":{"city":"Penrith South","latitude":-33.773529,"postcode":2750,"ranking":11,"type":"Government","country":"Australia","longitude":150.697083,"id":"a670026esamf","school":"Jamison High School","state":"NSW"},"type":"Feature","geometry":{"type":"Point","coordinates":[150.697083,-33.773529]}},{"properties":{"city":"Darlinghurst","latitude":-33.879162,"postcode":2010,"ranking":12,"type":"Non-government","country":"Australia","longitude":151.220184,"id":"a67001zfdn8i","school":"SCEGGS Darlinghurst","state":"NSW"},"type":"Feature","geometry":{"type":"Point","coordinates":[151.220184,-33.879162]}},{"properties":{"city":"Edgecliff","latitude":-33.880379,"postcode":2027,"ranking":12,"type":"Non-government","country":"Australia","longitude":151.237793,"id":"a670027gq8n2","school":"Ascham School Ltd","state":"NSW"},"type":"Feature","geometry":{"type":"Point","coordinates":[151.237793,-33.880379]}},{"properties":{"city":"Llandilo","latitude":-33.699478,"postcode":2747,"ranking":12,"type":"Non-government","country":"Australia","longitude":150.75853,"id":"a670020p0kin","school":"Xavier College","state":"NSW"},"type":"Feature","geometry":{"type":"Point","coordinates":[150.75853,-33.699478]}},{"properties":{"city":"Orchard Hills","latitude":-33.806765,"postcode":2748,"ranking":12,"type":"Non-government","country":"Australia","longitude":150.731087,"id":"a670023sqt2h","school":"Penrith Anglican College","state":"NSW"},"type":"Feature","geometry":{"type":"Point","coordinates":[150.731087,-33.806765]}},{"properties":{"city":"Orchard Hills","latitude":-33.806765,"postcode":2748,"ranking":12,"type":"Non-government","country":"Australia","longitude":150.731087,"id":"a67001zjonws","school":"Penrith Christian School","state":"NSW"},"type":"Feature","geometry":{"type":"Point","coordinates":[150.731087,-33.806765]}},{"properties":{"city":"Terrey Hills","latitude":-33.683819,"postcode":2084,"ranking":12,"type":"Non-government","country":"Australia","longitude":151.229721,"id":"a670025m7jc1","school":"Northern Beaches Christian School","state":"NSW"},"type":"Feature","geometry":{"type":"Point","coordinates":[151.229721,-33.683819]}},{"properties":{"city":"Frenchs Forest","latitude":-33.75082,"postcode":2086,"ranking":12,"type":"Government","country":"Australia","longitude":151.234756,"id":"a67001zo87mk","school":"Davidson High School","state":"NSW"},"type":"Feature","geometry":{"type":"Point","coordinates":[151.234756,-33.75082]}},{"properties":{"city":"Bangor","latitude":-34.018681,"postcode":2234,"ranking":13,"type":"Non-government","country":"Australia","longitude":151.029083,"id":"a670027c27m0","school":"Inaburra School","state":"NSW"},"type":"Feature","geometry":{"type":"Point","coordinates":[151.029083,-34.018681]}},{"properties":{"city":"Beecroft","latitude":-33.75032,"postcode":2119,"ranking":13,"type":"Non-government","country":"Australia","longitude":151.064835,"id":"a67002bs7uxa","school":"Arden Anglican School","state":"NSW"},"type":"Feature","geometry":{"type":"Point","coordinates":[151.064835,-33.75032]}},{"properties":{"city":"Cronulla","latitude":-34.055229,"postcode":2230,"ranking":13,"type":"Non-government","country":"Australia","longitude":151.153366,"id":"a67002cd2vyi","school":"Our Lady of Mercy College Burraneer","state":"NSW"},"type":"Feature","geometry":{"type":"Point","coordinates":[151.153366,-34.055229]}},{"properties":{"city":"Waverley","latitude":-33.899151,"postcode":2024,"ranking":13,"type":"Non-government","country":"Australia","longitude":151.25386,"id":"a670020oyfrn","school":"St Catherine s School","state":"NSW"},"type":"Feature","geometry":{"type":"Point","coordinates":[151.25386,-33.899151]}},{"properties":{"city":"Galston","latitude":-33.65292,"postcode":2159,"ranking":13,"type":"Government","country":"Australia","longitude":151.045013,"id":"a670024d51rm","school":"Galston High School","state":"NSW"},"type":"Feature","geometry":{"type":"Point","coordinates":[151.045013,-33.65292]}},{"properties":{"city":"Jannali","latitude":-34.016289,"postcode":2226,"ranking":13,"type":"Government","country":"Australia","longitude":151.066055,"id":"a67002ah93qh","school":"The Jannali High School","state":"NSW"},"type":"Feature","geometry":{"type":"Point","coordinates":[151.066055,-34.016289]}},{"properties":{"city":"Kirrawee","latitude":-34.034229,"postcode":2232,"ranking":13,"type":"Government","country":"Australia","longitude":151.071106,"id":"a670027ynjb4","school":"Kirrawee High School","state":"NSW"},"type":"Feature","geometry":{"type":"Point","coordinates":[151.071106,-34.034229]}},{"properties":{"city":"Turramurra North","latitude":-32.831026,"postcode":2074,"ranking":13,"type":"Government","country":"Australia","longitude":150.139,"id":"a670021qqd41","school":"Ku-ring-gai High School","state":"NSW"},"type":"Feature","geometry":{"type":"Point","coordinates":[150.139,-32.831026]}},{"properties":{"city":"Bellevue Hill","latitude":-33.879681,"postcode":2023,"ranking":14,"type":"Non-government","country":"Australia","longitude":151.256325,"id":"a670028akdp6","school":"The Scots College","state":"NSW"},"type":"Feature","geometry":{"type":"Point","coordinates":[151.256325,-33.879681]}},{"properties":{"city":"Cremorne","latitude":-33.830509,"postcode":2090,"ranking":14,"type":"Non-government","country":"Australia","longitude":151.225937,"id":"a670023dzspc","school":"Sydney Church of England Co-Educational Grammar School Redlands","state":"NSW"},"type":"Feature","geometry":{"type":"Point","coordinates":[151.225937,-33.830509]}},{"properties":{"city":"Hornsby","latitude":-33.700779,"postcode":2077,"ranking":14,"type":"Non-government","country":"Australia","longitude":151.096878,"id":"a6700293kgih","school":"Barker College","state":"NSW"},"type":"Feature","geometry":{"type":"Point","coordinates":[151.096878,-33.700779]}},{"properties":{"city":"Kirribilli","latitude":-33.847488,"postcode":2061,"ranking":14,"type":"Non-government","country":"Australia","longitude":151.215866,"id":"a67002166zv2","school":"Loreto Kirribilli","state":"NSW"},"type":"Feature","geometry":{"type":"Point","coordinates":[151.215866,-33.847488]}},{"properties":{"city":"St Ives","latitude":-33.738232,"postcode":2075,"ranking":14,"type":"Non-government","country":"Australia","longitude":151.165604,"id":"a670026fl1f6","school":"Brigidine College St Ives","state":"NSW"},"type":"Feature","geometry":{"type":"Point","coordinates":[151.165604,-33.738232]}},{"properties":{"city":"Glenmore Park","latitude":-33.78487,"postcode":2745,"ranking":14,"type":"Government","country":"Australia","longitude":150.678741,"id":"a67001ylglr8","school":"Glenmore Park High School","state":"NSW"},"type":"Feature","geometry":{"type":"Point","coordinates":[150.678741,-33.78487]}},{"properties":{"city":"Five Dock","latitude":-33.87104,"postcode":2046,"ranking":15,"type":"Non-government","country":"Australia","longitude":151.128693,"id":"a670020f2mdb","school":"Rosebank College","state":"NSW"},"type":"Feature","geometry":{"type":"Point","coordinates":[151.128693,-33.87104]}},{"properties":{"city":"Glenmore Park","latitude":-33.78487,"postcode":2745,"ranking":15,"type":"Non-government","country":"Australia","longitude":150.678741,"id":"a670021hmlwx","school":"Caroline Chisholm College","state":"NSW"},"type":"Feature","geometry":{"type":"Point","coordinates":[150.678741,-33.78487]}},{"properties":{"city":"Mount Annan","latitude":-34.048679,"postcode":2567,"ranking":15,"type":"Non-government","country":"Australia","longitude":150.762497,"id":"a67002cvx6pp","school":"Mount Annan Christian College","state":"NSW"},"type":"Feature","geometry":{"type":"Point","coordinates":[150.762497,-34.048679]}},{"properties":{"city":"Narellan","latitude":-34.040039,"postcode":2567,"ranking":15,"type":"Non-government","country":"Australia","longitude":150.735291,"id":"a670026rvqs1","school":"Magdalene Catholic High School","state":"NSW"},"type":"Feature","geometry":{"type":"Point","coordinates":[150.735291,-34.040039]}},{"properties":{"city":"Mount Annan","latitude":-34.050499,"postcode":2567,"ranking":15,"type":"Government","country":"Australia","longitude":150.760468,"id":"a670026njy5n","school":"Mount Annan High School","state":"NSW"},"type":"Feature","geometry":{"type":"Point","coordinates":[150.760468,-34.050499]}},{"properties":{"city":"Cranebrook","latitude":-33.682064,"postcode":2749,"ranking":16,"type":"Non-government","country":"Australia","longitude":150.715897,"id":"a670028xla8n","school":"St Paul s Grammar School Penrith","state":"NSW"},"type":"Feature","geometry":{"type":"Point","coordinates":[150.715897,-33.682064]}},{"properties":{"city":"Milsons Point","latitude":-33.848312,"postcode":2061,"ranking":16,"type":"Non-government","country":"Australia","longitude":151.214203,"id":"a670022h5557","school":"St Aloysius College","state":"NSW"},"type":"Feature","geometry":{"type":"Point","coordinates":[151.214203,-33.848312]}},{"properties":{"city":"Stanmore","latitude":-33.893665,"postcode":2048,"ranking":16,"type":"Non-government","country":"Australia","longitude":151.165482,"id":"a67002246ny3","school":"Newington College","state":"NSW"},"type":"Feature","geometry":{"type":"Point","coordinates":[151.165482,-33.893665]}},{"properties":{"city":"Wahroonga","latitude":-33.718719,"postcode":2076,"ranking":16,"type":"Non-government","country":"Australia","longitude":151.117386,"id":"a670024mw37r","school":"Knox Grammar School","state":"NSW"},"type":"Feature","geometry":{"type":"Point","coordinates":[151.117386,-33.718719]}},{"properties":{"city":"Woolooware","latitude":-34.03965,"postcode":2230,"ranking":16,"type":"Government","country":"Australia","longitude":151.143005,"id":"a670028gwiil","school":"Woolooware High School","state":"NSW"},"type":"Feature","geometry":{"type":"Point","coordinates":[151.143005,-34.03965]}},{"properties":{"city":"Kenthurst","latitude":-33.677059,"postcode":2156,"ranking":17,"type":"Non-government","country":"Australia","longitude":151.008835,"id":"a670025qhx5h","school":"Marian Catholic College","state":"NSW"},"type":"Feature","geometry":{"type":"Point","coordinates":[151.008835,-33.677059]}},{"properties":{"city":"North Sydney","latitude":-33.83989,"postcode":2060,"ranking":17,"type":"Non-government","country":"Australia","longitude":151.207779,"id":"a67001y9abx6","school":"Marist College North Shore","state":"NSW"},"type":"Feature","geometry":{"type":"Point","coordinates":[151.207779,-33.83989]}},{"properties":{"city":"Pennant Hills","latitude":-33.73661,"postcode":2120,"ranking":17,"type":"Non-government","country":"Australia","longitude":151.070343,"id":"a670020dz8cz","school":"Mount St Benedict College (Pennant Hills)","state":"NSW"},"type":"Feature","geometry":{"type":"Point","coordinates":[151.070343,-33.73661]}},{"properties":{"city":"Mona Vale","latitude":-33.677071,"postcode":2103,"ranking":17,"type":"Government","country":"Australia","longitude":151.300308,"id":"a670025f2hxp","school":"Pittwater High School","state":"NSW"},"type":"Feature","geometry":{"type":"Point","coordinates":[151.300308,-33.677071]}},{"properties":{"city":"Bellevue Hill","latitude":-33.879681,"postcode":2023,"ranking":18,"type":"Non-government","country":"Australia","longitude":151.256325,"id":"a670023jxisj","school":"Cranbrook School","state":"NSW"},"type":"Feature","geometry":{"type":"Point","coordinates":[151.256325,-33.879681]}},{"properties":{"city":"Belrose","latitude":-33.729111,"postcode":2085,"ranking":18,"type":"Non-government","country":"Australia","longitude":151.220993,"id":"a6700209b18w","school":"Covenant Christian School","state":"NSW"},"type":"Feature","geometry":{"type":"Point","coordinates":[151.220993,-33.729111]}},{"properties":{"city":"Chatswood","latitude":-33.79607,"postcode":2067,"ranking":18,"type":"Non-government","country":"Australia","longitude":151.183853,"id":"a67002a4mme8","school":"St Pius X College","state":"NSW"},"type":"Feature","geometry":{"type":"Point","coordinates":[151.183853,-33.79607]}},{"properties":{"city":"Sutherland","latitude":-34.03149,"postcode":2232,"ranking":18,"type":"Non-government","country":"Australia","longitude":151.057419,"id":"a670023blits","school":"St Patrick s College","state":"NSW"},"type":"Feature","geometry":{"type":"Point","coordinates":[151.057419,-34.03149]}},{"properties":{"city":"Narellan","latitude":-34.040039,"postcode":2567,"ranking":18,"type":"Government","country":"Australia","longitude":150.735291,"id":"a670024kzyqi","school":"Elizabeth Macarthur High School","state":"NSW"},"type":"Feature","geometry":{"type":"Point","coordinates":[150.735291,-34.040039]}},{"properties":{"city":"Kemps Creek","latitude":-33.869282,"postcode":2171,"ranking":19,"type":"Non-government","country":"Australia","longitude":150.789375,"id":"a670020fx6nc","school":"Emmaus Catholic College","state":"NSW"},"type":"Feature","geometry":{"type":"Point","coordinates":[150.789375,-33.869282]}},{"properties":{"city":"Rouse Hill","latitude":-33.67923,"postcode":2155,"ranking":19,"type":"Government","country":"Australia","longitude":150.922348,"id":"a67001zy66tn","school":"Rouse Hill High School","state":"NSW"},"type":"Feature","geometry":{"type":"Point","coordinates":[150.922348,-33.67923]}},{"properties":{"city":"North Bondi","latitude":-33.88504,"postcode":2026,"ranking":20,"type":"Non-government","country":"Australia","longitude":151.276062,"id":"a670023mu3un","school":"Reddam House","state":"NSW"},"type":"Feature","geometry":{"type":"Point","coordinates":[151.276062,-33.88504]}},{"properties":{"city":"Wahroonga","latitude":-33.718719,"postcode":2076,"ranking":20,"type":"Non-government","country":"Australia","longitude":151.117386,"id":"a670029pd4t1","school":"Abbotsleigh","state":"NSW"},"type":"Feature","geometry":{"type":"Point","coordinates":[151.117386,-33.718719]}},{"properties":{"city":"Holsworthy","latitude":-33.950401,"postcode":2173,"ranking":20,"type":"Government","country":"Australia","longitude":150.949966,"id":"a670024dwfaj","school":"Holsworthy High School","state":"NSW"},"type":"Feature","geometry":{"type":"Point","coordinates":[150.949966,-33.950401]}},{"properties":{"city":"Shalvey","latitude":-33.729092,"postcode":2770,"ranking":20,"type":"Government","country":"Australia","longitude":150.809662,"id":"a67002e6dv3l","school":"Chifley College Shalvey Campus","state":"NSW"},"type":"Feature","geometry":{"type":"Point","coordinates":[150.809662,-33.729092]}},{"properties":{"city":"Waverley","latitude":-33.899151,"postcode":2024,"ranking":21,"type":"Non-government","country":"Australia","longitude":151.25386,"id":"a67002cidt51","school":"St Clare s College","state":"NSW"},"type":"Feature","geometry":{"type":"Point","coordinates":[151.25386,-33.899151]}},{"properties":{"city":"North Rocks","latitude":-33.775734,"postcode":2150,"ranking":21,"type":"Government","country":"Australia","longitude":151.015602,"id":"a67001zmud96","school":"Muirfield High School","state":"NSW"},"type":"Feature","geometry":{"type":"Point","coordinates":[151.015602,-33.775734]}},{"properties":{"city":"Kenthurst","latitude":-33.677059,"postcode":2156,"ranking":22,"type":"Non-government","country":"Australia","longitude":151.008835,"id":"a670021o0y7r","school":"The Hills Grammar School","state":"NSW"},"type":"Feature","geometry":{"type":"Point","coordinates":[151.008835,-33.677059]}},{"properties":{"city":"Campbelltown","latitude":-34.064098,"postcode":2560,"ranking":22,"type":"Government","country":"Australia","longitude":150.816589,"id":"a6700254pnda","school":"Airds High School","state":"NSW"},"type":"Feature","geometry":{"type":"Point","coordinates":[150.816589,-34.064098]}},{"properties":{"city":"Erskine Park","latitude":-33.804039,"postcode":2759,"ranking":22,"type":"Government","country":"Australia","longitude":150.805801,"id":"a670029xqhte","school":"Erskine Park High School","state":"NSW"},"type":"Feature","geometry":{"type":"Point","coordinates":[150.805801,-33.804039]}},{"properties":{"city":"Kingswood","latitude":-33.76347,"postcode":2747,"ranking":22,"type":"Government","country":"Australia","longitude":150.719696,"id":"a6700245mt6n","school":"Kingswood High School","state":"NSW"},"type":"Feature","geometry":{"type":"Point","coordinates":[150.719696,-33.76347]}},{"properties":{"city":"Pennant Hills","latitude":-33.73661,"postcode":2120,"ranking":22,"type":"Government","country":"Australia","longitude":151.070343,"id":"a670021wac79","school":"Pennant Hills High School","state":"NSW"},"type":"Feature","geometry":{"type":"Point","coordinates":[151.070343,-33.73661]}},{"properties":{"city":"Rosemeadow","latitude":-34.100521,"postcode":2560,"ranking":22,"type":"Government","country":"Australia","longitude":150.797897,"id":"a670029aaemw","school":"Ambarvale High School","state":"NSW"},"type":"Feature","geometry":{"type":"Point","coordinates":[150.797897,-34.100521]}},{"properties":{"city":"Randwick","latitude":-33.91399,"postcode":2031,"ranking":23,"type":"Non-government","country":"Australia","longitude":151.239914,"id":"a670020xa8s3","school":"Marcellin College","state":"NSW"},"type":"Feature","geometry":{"type":"Point","coordinates":[151.239914,-33.91399]}},{"properties":{"city":"Ultimo","latitude":-33.878422,"postcode":2007,"ranking":23,"type":"Non-government","country":"Australia","longitude":151.197266,"id":"a670023wss8b","school":"International Grammar School","state":"NSW"},"type":"Feature","geometry":{"type":"Point","coordinates":[151.197266,-33.878422]}},{"properties":{"city":"Asquith","latitude":-33.688679,"postcode":2077,"ranking":23,"type":"Government","country":"Australia","longitude":151.109497,"id":"a67002587nqq","school":"Asquith Girls High School","state":"NSW"},"type":"Feature","geometry":{"type":"Point","coordinates":[151.109497,-33.688679]}},{"properties":{"city":"Menai","latitude":-34.01519,"postcode":2234,"ranking":24,"type":"Non-government","country":"Australia","longitude":151.011765,"id":"a6700245ioil","school":"Aquinas College","state":"NSW"},"type":"Feature","geometry":{"type":"Point","coordinates":[151.011765,-34.01519]}},{"properties":{"city":"Oakhurst","latitude":-33.74139,"postcode":2761,"ranking":24,"type":"Non-government","country":"Australia","longitude":150.835373,"id":"a67001ydeyyl","school":"Richard Johnson Anglican School","state":"NSW"},"type":"Feature","geometry":{"type":"Point","coordinates":[150.835373,-33.74139]}},{"properties":{"city":"Rosemeadow","latitude":-34.100521,"postcode":2560,"ranking":24,"type":"Non-government","country":"Australia","longitude":150.797897,"id":"a670027sc2p1","school":"John Therry Catholic High School","state":"NSW"},"type":"Feature","geometry":{"type":"Point","coordinates":[150.797897,-34.100521]}},{"properties":{"city":"Sydney","latitude":-33.869576,"postcode":2000,"ranking":24,"type":"Non-government","country":"Australia","longitude":151.210007,"id":"a670023j5l7a","school":"St Andrew s Cathedral School","state":"NSW"},"type":"Feature","geometry":{"type":"Point","coordinates":[151.210007,-33.869576]}},{"properties":{"city":"Campbelltown","latitude":-34.064098,"postcode":2560,"ranking":25,"type":"Non-government","country":"Australia","longitude":150.816589,"id":"a67002cv01sk","school":"St Patrick s College","state":"NSW"},"type":"Feature","geometry":{"type":"Point","coordinates":[150.816589,-34.064098]}},{"properties":{"city":"Castle Hill","latitude":-33.73177,"postcode":2154,"ranking":25,"type":"Non-government","country":"Australia","longitude":151.003815,"id":"a67001ybkoyj","school":"Gilroy Catholic College","state":"NSW"},"type":"Feature","geometry":{"type":"Point","coordinates":[151.003815,-33.73177]}},{"properties":{"city":"North Parramatta","latitude":-33.798859,"postcode":2151,"ranking":25,"type":"Non-government","country":"Australia","longitude":151.010529,"id":"a67001yyc5g0","school":"Tara Anglican School for Girls","state":"NSW"},"type":"Feature","geometry":{"type":"Point","coordinates":[151.010529,-33.798859]}},{"properties":{"city":"North Parramatta","latitude":-33.798859,"postcode":2151,"ranking":25,"type":"Non-government","country":"Australia","longitude":151.010529,"id":"a67002ba0csm","school":"The King s School","state":"NSW"},"type":"Feature","geometry":{"type":"Point","coordinates":[151.010529,-33.798859]}},{"properties":{"city":"Varroville","latitude":-34.003971,"postcode":2565,"ranking":25,"type":"Non-government","country":"Australia","longitude":150.81002,"id":"a670029kdoto","school":"Mount Carmel Catholic High School","state":"NSW"},"type":"Feature","geometry":{"type":"Point","coordinates":[150.81002,-34.003971]}},{"properties":{"city":"Manly Vale","latitude":-33.781761,"postcode":2093,"ranking":25,"type":"Government","country":"Australia","longitude":151.267715,"id":"a670025j96fq","school":"Northern Beaches Secondary College Mackellar Girls Campus","state":"NSW"},"type":"Feature","geometry":{"type":"Point","coordinates":[151.267715,-33.781761]}},{"properties":{"city":"Balgowlah","latitude":-33.79393,"postcode":2093,"ranking":26,"type":"Government","country":"Australia","longitude":151.261581,"id":"a670023as9kg","school":"Northern Beaches Secondary College Balgowlah Boys Campus","state":"NSW"},"type":"Feature","geometry":{"type":"Point","coordinates":[151.261581,-33.79393]}},{"properties":{"city":"Barden Ridge","latitude":-34.030159,"postcode":2234,"ranking":26,"type":"Government","country":"Australia","longitude":151.006485,"id":"a670026a7ym2","school":"Lucas Heights Community School","state":"NSW"},"type":"Feature","geometry":{"type":"Point","coordinates":[151.006485,-34.030159]}},{"properties":{"city":"Campbelltown","latitude":-34.064098,"postcode":2560,"ranking":26,"type":"Government","country":"Australia","longitude":150.816589,"id":"a670028abm5d","school":"Campbelltown Performing Arts High School","state":"NSW"},"type":"Feature","geometry":{"type":"Point","coordinates":[150.816589,-34.064098]}},{"properties":{"city":"Frenchs Forest","latitude":-33.75082,"postcode":2086,"ranking":26,"type":"Government","country":"Australia","longitude":151.234756,"id":"a67002eeub77","school":"The Forest High School","state":"NSW"},"type":"Feature","geometry":{"type":"Point","coordinates":[151.234756,-33.75082]}},{"properties":{"city":"Hunters Hill","latitude":-33.834709,"postcode":2110,"ranking":26,"type":"Government","country":"Australia","longitude":151.15332,"id":"a670023stryl","school":"Hunters Hill High School","state":"NSW"},"type":"Feature","geometry":{"type":"Point","coordinates":[151.15332,-33.834709]}},{"properties":{"city":"Newtown","latitude":-33.89859,"postcode":2042,"ranking":26,"type":"Government","country":"Australia","longitude":151.175812,"id":"a670029kjgoj","school":"Newtown High School of Performing Arts","state":"NSW"},"type":"Feature","geometry":{"type":"Point","coordinates":[151.175812,-33.89859]}},{"properties":{"city":"St Clair","latitude":-33.797359,"postcode":2759,"ranking":26,"type":"Government","country":"Australia","longitude":150.7798,"id":"a67002ase48r","school":"St Clair High School","state":"NSW"},"type":"Feature","geometry":{"type":"Point","coordinates":[150.7798,-33.797359]}},{"properties":{"city":"Castle Hill","latitude":-33.73177,"postcode":2154,"ranking":27,"type":"Non-government","country":"Australia","longitude":151.003815,"id":"a67002a55pxj","school":"Oakhill College","state":"NSW"},"type":"Feature","geometry":{"type":"Point","coordinates":[151.003815,-33.73177]}},{"properties":{"city":"Dural","latitude":-33.68187,"postcode":2158,"ranking":27,"type":"Non-government","country":"Australia","longitude":151.028427,"id":"a67002bga3o6","school":"Pacific Hills Christian School","state":"NSW"},"type":"Feature","geometry":{"type":"Point","coordinates":[151.028427,-33.68187]}},{"properties":{"city":"Pymble","latitude":-33.740528,"postcode":2073,"ranking":27,"type":"Non-government","country":"Australia","longitude":151.137497,"id":"a67002amc4cg","school":"Pymble Ladies College","state":"NSW"},"type":"Feature","geometry":{"type":"Point","coordinates":[151.137497,-33.740528]}},{"properties":{"city":"Gymea","latitude":-34.035332,"postcode":2227,"ranking":27,"type":"Government","country":"Australia","longitude":151.084961,"id":"a67002871k26","school":"Gymea Technology High School","state":"NSW"},"type":"Feature","geometry":{"type":"Point","coordinates":[151.084961,-34.035332]}},{"properties":{"city":"Miranda","latitude":-34.033871,"postcode":2228,"ranking":27,"type":"Government","country":"Australia","longitude":151.102417,"id":"a670026jfnvx","school":"Port Hacking High School","state":"NSW"},"type":"Feature","geometry":{"type":"Point","coordinates":[151.102417,-34.033871]}},{"properties":{"city":"Randwick","latitude":-33.91399,"postcode":2031,"ranking":28,"type":"Non-government","country":"Australia","longitude":151.239914,"id":"a670023km8qy","school":"Brigidine College Randwick","state":"NSW"},"type":"Feature","geometry":{"type":"Point","coordinates":[151.239914,-33.91399]}},{"properties":{"city":"Baulkham Hills","latitude":-33.757881,"postcode":2153,"ranking":28,"type":"Government","country":"Australia","longitude":150.989624,"id":"a670025j8jee","school":"Model Farms High School","state":"NSW"},"type":"Feature","geometry":{"type":"Point","coordinates":[150.989624,-33.757881]}},{"properties":{"city":"Menai","latitude":-34.01519,"postcode":2234,"ranking":28,"type":"Government","country":"Australia","longitude":151.011765,"id":"a670028lj4bx","school":"Menai High School","state":"NSW"},"type":"Feature","geometry":{"type":"Point","coordinates":[151.011765,-34.01519]}},{"properties":{"city":"Raby","latitude":-34.026089,"postcode":2566,"ranking":28,"type":"Government","country":"Australia","longitude":150.819992,"id":"a67002bl34j5","school":"Robert Townson High School","state":"NSW"},"type":"Feature","geometry":{"type":"Point","coordinates":[150.819992,-34.026089]}},{"properties":{"city":"Mosman","latitude":-33.829079,"postcode":2088,"ranking":29,"type":"Government","country":"Australia","longitude":151.244095,"id":"a67001yg42m3","school":"Mosman High School","state":"NSW"},"type":"Feature","geometry":{"type":"Point","coordinates":[151.244095,-33.829079]}},{"properties":{"city":"Panania","latitude":-33.9548,"postcode":2213,"ranking":29,"type":"Government","country":"Australia","longitude":150.998367,"id":"a6700223y1s9","school":"Picnic Point High School","state":"NSW"},"type":"Feature","geometry":{"type":"Point","coordinates":[150.998367,-33.9548]}},{"properties":{"city":"Dundas","latitude":-33.802319,"postcode":2117,"ranking":30,"type":"Non-government","country":"Australia","longitude":151.046432,"id":"a670020unkxl","school":"St Patrick s Marist College","state":"NSW"},"type":"Feature","geometry":{"type":"Point","coordinates":[151.046432,-33.802319]}},{"properties":{"city":"Dural","latitude":-33.68187,"postcode":2158,"ranking":30,"type":"Non-government","country":"Australia","longitude":151.028427,"id":"a67002b5bq0j","school":"Redfield College","state":"NSW"},"type":"Feature","geometry":{"type":"Point","coordinates":[151.028427,-33.68187]}},{"properties":{"city":"Stanhope Gardens","latitude":-33.71899,"postcode":2768,"ranking":30,"type":"Non-government","country":"Australia","longitude":150.920746,"id":"a670028ovczp","school":"St Mark s Catholic College","state":"NSW"},"type":"Feature","geometry":{"type":"Point","coordinates":[150.920746,-33.71899]}},{"properties":{"city":"Darlinghurst","latitude":-33.879162,"postcode":2010,"ranking":31,"type":"Non-government","country":"Australia","longitude":151.220184,"id":"a670023cdbed","school":"Sydney Grammar School","state":"NSW"},"type":"Feature","geometry":{"type":"Point","coordinates":[151.220184,-33.879162]}},{"properties":{"city":"Cromer","latitude":-33.740349,"postcode":2099,"ranking":31,"type":"Government","country":"Australia","longitude":151.278519,"id":"a670029m6ilt","school":"Northern Beaches Secondary College Cromer Campus","state":"NSW"},"type":"Feature","geometry":{"type":"Point","coordinates":[151.278519,-33.740349]}},{"properties":{"city":"Seven Hills","latitude":-33.77597,"postcode":2147,"ranking":31,"type":"Government","country":"Australia","longitude":150.933884,"id":"a67002802xy4","school":"Seven Hills High School","state":"NSW"},"type":"Feature","geometry":{"type":"Point","coordinates":[150.933884,-33.77597]}},{"properties":{"city":"St Marys","latitude":-33.74725,"postcode":2760,"ranking":31,"type":"Government","country":"Australia","longitude":150.771515,"id":"a670021q6uwk","school":"Colyton High School","state":"NSW"},"type":"Feature","geometry":{"type":"Point","coordinates":[150.771515,-33.74725]}},{"properties":{"city":"Seven Hills","latitude":-33.77597,"postcode":2147,"ranking":32,"type":"Government","country":"Australia","longitude":150.933884,"id":"a670028btkhu","school":"The Hills Sports High School","state":"NSW"},"type":"Feature","geometry":{"type":"Point","coordinates":[150.933884,-33.77597]}},{"properties":{"city":"Leumeah","latitude":-34.05167,"postcode":2560,"ranking":33,"type":"Government","country":"Australia","longitude":150.834244,"id":"a67001z0mk5s","school":"Leumeah High School","state":"NSW"},"type":"Feature","geometry":{"type":"Point","coordinates":[150.834244,-34.05167]}},{"properties":{"city":"Quakers Hill","latitude":-33.726421,"postcode":2763,"ranking":33,"type":"Government","country":"Australia","longitude":150.886612,"id":"a670022s5wx9","school":"Quakers Hill High School","state":"NSW"},"type":"Feature","geometry":{"type":"Point","coordinates":[150.886612,-33.726421]}},{"properties":{"city":"Belmore","latitude":-33.91946,"postcode":2192,"ranking":34,"type":"Non-government","country":"Australia","longitude":151.088234,"id":"a67002dbgofl","school":"All Saints Greek Orthodox Grammar School","state":"NSW"},"type":"Feature","geometry":{"type":"Point","coordinates":[151.088234,-33.91946]}},{"properties":{"city":"Croydon","latitude":-33.880606,"postcode":2132,"ranking":34,"type":"Non-government","country":"Australia","longitude":151.116974,"id":"a67001yi7plf","school":"Presbyterian Ladies College Sydney","state":"NSW"},"type":"Feature","geometry":{"type":"Point","coordinates":[151.116974,-33.880606]}},{"properties":{"city":"Hurstville","latitude":-33.967319,"postcode":2220,"ranking":34,"type":"Non-government","country":"Australia","longitude":151.107285,"id":"a67002a7r22f","school":"St George Christian School","state":"NSW"},"type":"Feature","geometry":{"type":"Point","coordinates":[151.107285,-33.967319]}},{"properties":{"city":"Woolwich","latitude":-33.84021,"postcode":2110,"ranking":34,"type":"Non-government","country":"Australia","longitude":151.169922,"id":"a67002ar7on3","school":"Marist Sisters College","state":"NSW"},"type":"Feature","geometry":{"type":"Point","coordinates":[151.169922,-33.84021]}},{"properties":{"city":"Eastwood","latitude":-33.791489,"postcode":2122,"ranking":35,"type":"Non-government","country":"Australia","longitude":151.080414,"id":"a670025p94gb","school":"Marist College","state":"NSW"},"type":"Feature","geometry":{"type":"Point","coordinates":[151.080414,-33.791489]}},{"properties":{"city":"Toongabbie","latitude":-33.786171,"postcode":2146,"ranking":35,"type":"Non-government","country":"Australia","longitude":150.963806,"id":"a670020flop1","school":"Toongabbie Christian School","state":"NSW"},"type":"Feature","geometry":{"type":"Point","coordinates":[150.963806,-33.786171]}},{"properties":{"city":"Baulkham Hills","latitude":-33.757881,"postcode":2153,"ranking":35,"type":"Government","country":"Australia","longitude":150.989624,"id":"a670021a60ku","school":"Crestwood High School","state":"NSW"},"type":"Feature","geometry":{"type":"Point","coordinates":[150.989624,-33.757881]}},{"properties":{"city":"Bidwill","latitude":-33.729149,"postcode":2770,"ranking":35,"type":"Government","country":"Australia","longitude":150.820923,"id":"a670024bz76v","school":"Chifley College Bidwill Campus","state":"NSW"},"type":"Feature","geometry":{"type":"Point","coordinates":[150.820923,-33.729149]}},{"properties":{"city":"Greystanes","latitude":-33.813194,"postcode":2145,"ranking":35,"type":"Government","country":"Australia","longitude":150.941727,"id":"a670028qheyh","school":"Greystanes High School","state":"NSW"},"type":"Feature","geometry":{"type":"Point","coordinates":[150.941727,-33.813194]}},{"properties":{"city":"North Curl Curl","latitude":-33.763008,"postcode":2099,"ranking":35,"type":"Government","country":"Australia","longitude":151.298004,"id":"a67002dmgv28","school":"Northern Beaches Secondary College Manly Campus","state":"NSW"},"type":"Feature","geometry":{"type":"Point","coordinates":[151.298004,-33.763008]}},{"properties":{"city":"Kensington","latitude":-33.912994,"postcode":2033,"ranking":36,"type":"Non-government","country":"Australia","longitude":151.219009,"id":"a670027u1yf1","school":"Our Lady of The Sacred Heart College","state":"NSW"},"type":"Feature","geometry":{"type":"Point","coordinates":[151.219009,-33.912994]}},{"properties":{"city":"Schofields","latitude":-33.705404,"postcode":2762,"ranking":36,"type":"Non-government","country":"Australia","longitude":150.874336,"id":"a67002efa1xv","school":"Terra Sancta College (Schofields)","state":"NSW"},"type":"Feature","geometry":{"type":"Point","coordinates":[150.874336,-33.705404]}},{"properties":{"city":"West Hoxton","latitude":-33.92915,"postcode":2171,"ranking":36,"type":"Non-government","country":"Australia","longitude":150.847107,"id":"a67002e3s5i6","school":"Thomas Hassall Anglican College","state":"NSW"},"type":"Feature","geometry":{"type":"Point","coordinates":[150.847107,-33.92915]}},{"properties":{"city":"Ambarvale","latitude":-34.08387,"postcode":2560,"ranking":36,"type":"Government","country":"Australia","longitude":150.802429,"id":"a6700219djih","school":"Thomas Reddall High School","state":"NSW"},"type":"Feature","geometry":{"type":"Point","coordinates":[150.802429,-34.08387]}},{"properties":{"city":"Cherrybrook","latitude":-33.721001,"postcode":2126,"ranking":37,"type":"Non-government","country":"Australia","longitude":151.041367,"id":"a670022916hd","school":"Tangara School for Girls","state":"NSW"},"type":"Feature","geometry":{"type":"Point","coordinates":[151.041367,-33.721001]}},{"properties":{"city":"Maroubra","latitude":-33.946121,"postcode":2035,"ranking":38,"type":"Non-government","country":"Australia","longitude":151.242813,"id":"a670026fc4tz","school":"Marist College Pagewood","state":"NSW"},"type":"Feature","geometry":{"type":"Point","coordinates":[151.242813,-33.946121]}},{"properties":{"city":"Kellyville","latitude":-33.711269,"postcode":2155,"ranking":38,"type":"Government","country":"Australia","longitude":150.955566,"id":"a67002b461dz","school":"Kellyville High School","state":"NSW"},"type":"Feature","geometry":{"type":"Point","coordinates":[150.955566,-33.711269]}},{"properties":{"city":"Plumpton","latitude":-33.747028,"postcode":2761,"ranking":38,"type":"Government","country":"Australia","longitude":150.834213,"id":"a67001yet1v1","school":"Plumpton High School","state":"NSW"},"type":"Feature","geometry":{"type":"Point","coordinates":[150.834213,-33.747028]}},{"properties":{"city":"South Turramurra","latitude":-33.75034,"postcode":2074,"ranking":38,"type":"Government","country":"Australia","longitude":151.112732,"id":"a6700291kewa","school":"Turramurra High School","state":"NSW"},"type":"Feature","geometry":{"type":"Point","coordinates":[151.112732,-33.75034]}},{"properties":{"city":"Ryde","latitude":-33.81332,"postcode":2112,"ranking":39,"type":"Non-government","country":"Australia","longitude":151.105469,"id":"a670028fqle9","school":"Holy Cross College","state":"NSW"},"type":"Feature","geometry":{"type":"Point","coordinates":[151.105469,-33.81332]}},{"properties":{"city":"Dulwich Hill","latitude":-33.90469,"postcode":2203,"ranking":39,"type":"Government","country":"Australia","longitude":151.138771,"id":"a670029i2qow","school":"Dulwich High School of Visual Arts and Design","state":"NSW"},"type":"Feature","geometry":{"type":"Point","coordinates":[151.138771,-33.90469]}},{"properties":{"city":"Sydney","latitude":-33.869576,"postcode":2000,"ranking":40,"type":"Non-government","country":"Australia","longitude":151.210007,"id":"a67002e6uvkk","school":"St Mary s Cathedral College","state":"NSW"},"type":"Feature","geometry":{"type":"Point","coordinates":[151.210007,-33.869576]}},{"properties":{"city":"Northmead","latitude":-33.793739,"postcode":2152,"ranking":40,"type":"Government","country":"Australia","longitude":150.994675,"id":"a67002bi5fb6","school":"Northmead Creative and Performing Arts High School","state":"NSW"},"type":"Feature","geometry":{"type":"Point","coordinates":[150.994675,-33.793739]}},{"properties":{"city":"Sylvania","latitude":-34.008759,"postcode":2224,"ranking":40,"type":"Government","country":"Australia","longitude":151.096008,"id":"a67001zl0dwt","school":"Sylvania High School","state":"NSW"},"type":"Feature","geometry":{"type":"Point","coordinates":[151.096008,-34.008759]}},{"properties":{"city":"Blacktown","latitude":-33.772598,"postcode":2148,"ranking":41,"type":"Non-government","country":"Australia","longitude":150.908142,"id":"a670026list1","school":"Tyndale Christian School","state":"NSW"},"type":"Feature","geometry":{"type":"Point","coordinates":[150.908142,-33.772598]}},{"properties":{"city":"Castle Hill","latitude":-33.73177,"postcode":2154,"ranking":41,"type":"Government","country":"Australia","longitude":151.003815,"id":"a670022cdrhc","school":"Castle Hill High School","state":"NSW"},"type":"Feature","geometry":{"type":"Point","coordinates":[151.003815,-33.73177]}},{"properties":{"city":"Ingleburn","latitude":-33.998489,"postcode":2565,"ranking":42,"type":"Government","country":"Australia","longitude":150.865997,"id":"a67001yo99ui","school":"Ingleburn High School","state":"NSW"},"type":"Feature","geometry":{"type":"Point","coordinates":[150.865997,-33.998489]}},{"properties":{"city":"Parramatta","latitude":-33.81731,"postcode":2150,"ranking":43,"type":"Non-government","country":"Australia","longitude":151.00354,"id":"a67002el7f3e","school":"Our Lady of Mercy College Parramatta","state":"NSW"},"type":"Feature","geometry":{"type":"Point","coordinates":[151.00354,-33.81731]}},{"properties":{"city":"Strathfield","latitude":-33.879131,"postcode":2135,"ranking":43,"type":"Non-government","country":"Australia","longitude":151.081223,"id":"a670022o6her","school":"St Patrick s College","state":"NSW"},"type":"Feature","geometry":{"type":"Point","coordinates":[151.081223,-33.879131]}},{"properties":{"city":"Dover Heights","latitude":-33.87188,"postcode":2030,"ranking":43,"type":"Government","country":"Australia","longitude":151.280884,"id":"a67002drvfca","school":"Rose Bay Secondary College","state":"NSW"},"type":"Feature","geometry":{"type":"Point","coordinates":[151.280884,-33.87188]}},{"properties":{"city":"Georges Hall","latitude":-33.907829,"postcode":2198,"ranking":44,"type":"Non-government","country":"Australia","longitude":150.989235,"id":"a67002dt5me8","school":"Georges River Grammar","state":"NSW"},"type":"Feature","geometry":{"type":"Point","coordinates":[150.989235,-33.907829]}},{"properties":{"city":"Hurstville","latitude":-33.967319,"postcode":2220,"ranking":44,"type":"Non-government","country":"Australia","longitude":151.107285,"id":"a67001yd0qc3","school":"Danebank School","state":"NSW"},"type":"Feature","geometry":{"type":"Point","coordinates":[151.107285,-33.967319]}},{"properties":{"city":"Eagle Vale","latitude":-34.03244,"postcode":2558,"ranking":44,"type":"Government","country":"Australia","longitude":150.818024,"id":"a670027fns14","school":"Eagle Vale High School","state":"NSW"},"type":"Feature","geometry":{"type":"Point","coordinates":[150.818024,-34.03244]}},{"properties":{"city":"Killarney Heights","latitude":-33.772949,"postcode":2087,"ranking":44,"type":"Government","country":"Australia","longitude":151.217453,"id":"a6700209jr0n","school":"Killarney Heights High School","state":"NSW"},"type":"Feature","geometry":{"type":"Point","coordinates":[151.217453,-33.772949]}},{"properties":{"city":"Mount Druitt","latitude":-33.765289,"postcode":2770,"ranking":44,"type":"Government","country":"Australia","longitude":150.817276,"id":"a67002e0dl8v","school":"Chifley College Mount Druitt Campus","state":"NSW"},"type":"Feature","geometry":{"type":"Point","coordinates":[150.817276,-33.765289]}},{"properties":{"city":"Revesby Heights","latitude":-33.968948,"postcode":2212,"ranking":45,"type":"Non-government","country":"Australia","longitude":151.019592,"id":"a6700223xguj","school":"De La Salle College Revesby Heights","state":"NSW"},"type":"Feature","geometry":{"type":"Point","coordinates":[151.019592,-33.968948]}},{"properties":{"city":"Caringbah","latitude":-34.042912,"postcode":2229,"ranking":45,"type":"Government","country":"Australia","longitude":151.121216,"id":"a670029f9zgw","school":"Endeavour Sports High School","state":"NSW"},"type":"Feature","geometry":{"type":"Point","coordinates":[151.121216,-34.042912]}},{"properties":{"city":"Doonside","latitude":-33.764561,"postcode":2767,"ranking":45,"type":"Government","country":"Australia","longitude":150.869324,"id":"a67001ywa8sn","school":"Doonside High School","state":"NSW"},"type":"Feature","geometry":{"type":"Point","coordinates":[150.869324,-33.764561]}},{"properties":{"city":"Gladesville","latitude":-33.83147,"postcode":2111,"ranking":45,"type":"Government","country":"Australia","longitude":151.12616,"id":"a670021xh27g","school":"Riverside Girls High School","state":"NSW"},"type":"Feature","geometry":{"type":"Point","coordinates":[151.12616,-33.83147]}},{"properties":{"city":"Peakhurst","latitude":-33.962551,"postcode":2210,"ranking":45,"type":"Government","country":"Australia","longitude":151.058105,"id":"a6700283kcxv","school":"Georges River College Peakhurst Campus","state":"NSW"},"type":"Feature","geometry":{"type":"Point","coordinates":[151.058105,-33.962551]}},{"properties":{"city":"Bankstown","latitude":-33.914791,"postcode":2200,"ranking":47,"type":"Non-government","country":"Australia","longitude":151.034164,"id":"a670029rkugb","school":"St Euphemia College","state":"NSW"},"type":"Feature","geometry":{"type":"Point","coordinates":[151.034164,-33.914791]}},{"properties":{"city":"Blacktown","latitude":-33.772598,"postcode":2148,"ranking":47,"type":"Non-government","country":"Australia","longitude":150.908142,"id":"a670020u2yio","school":"Patrician Brothers College (Blacktown)","state":"NSW"},"type":"Feature","geometry":{"type":"Point","coordinates":[150.908142,-33.772598]}},{"properties":{"city":"Mortdale","latitude":-33.970131,"postcode":2223,"ranking":47,"type":"Non-government","country":"Australia","longitude":151.079742,"id":"a6700210lji8","school":"Marist College Penshurst","state":"NSW"},"type":"Feature","geometry":{"type":"Point","coordinates":[151.079742,-33.970131]}},{"properties":{"city":"Prestons","latitude":-33.952438,"postcode":2170,"ranking":47,"type":"Non-government","country":"Australia","longitude":150.865051,"id":"a6700234k3wt","school":"William Carey Christian School","state":"NSW"},"type":"Feature","geometry":{"type":"Point","coordinates":[150.865051,-33.952438]}},{"properties":{"city":"Strathfield","latitude":-33.879131,"postcode":2135,"ranking":47,"type":"Non-government","country":"Australia","longitude":151.081223,"id":"a67002bhxff7","school":"Santa Sabina College","state":"NSW"},"type":"Feature","geometry":{"type":"Point","coordinates":[151.081223,-33.879131]}},{"properties":{"city":"Horningsea Park","latitude":-33.946548,"postcode":2171,"ranking":47,"type":"Government","country":"Australia","longitude":150.837692,"id":"a670025io70u","school":"John Edmondson High School","state":"NSW"},"type":"Feature","geometry":{"type":"Point","coordinates":[150.837692,-33.946548]}},{"properties":{"city":"St Ives","latitude":-33.738232,"postcode":2075,"ranking":47,"type":"Government","country":"Australia","longitude":151.165604,"id":"a670022xwaca","school":"St Ives High School","state":"NSW"},"type":"Feature","geometry":{"type":"Point","coordinates":[151.165604,-33.738232]}},{"properties":{"city":"Killara","latitude":-33.766312,"postcode":2071,"ranking":48,"type":"Government","country":"Australia","longitude":151.156876,"id":"a6700275wbhg","school":"Killara High School","state":"NSW"},"type":"Feature","geometry":{"type":"Point","coordinates":[151.156876,-33.766312]}},{"properties":{"city":"Riverstone","latitude":-33.678379,"postcode":2765,"ranking":49,"type":"Non-government","country":"Australia","longitude":150.863464,"id":"a67001zz3lo4","school":"Norwest Christian College","state":"NSW"},"type":"Feature","geometry":{"type":"Point","coordinates":[150.863464,-33.678379]}},{"properties":{"city":"Rooty Hill","latitude":-33.770809,"postcode":2766,"ranking":49,"type":"Non-government","country":"Australia","longitude":150.834396,"id":"a670025iq16t","school":"St Agnes Catholic High School","state":"NSW"},"type":"Feature","geometry":{"type":"Point","coordinates":[150.834396,-33.770809]}},{"properties":{"city":"West Hoxton","latitude":-33.92915,"postcode":2171,"ranking":49,"type":"Non-government","country":"Australia","longitude":150.847107,"id":"a67001yzzdps","school":"Clancy Catholic College","state":"NSW"},"type":"Feature","geometry":{"type":"Point","coordinates":[150.847107,-33.92915]}},{"properties":{"city":"Blacktown","latitude":-33.772598,"postcode":2148,"ranking":49,"type":"Government","country":"Australia","longitude":150.908142,"id":"a67001yhg93n","school":"Mitchell High School","state":"NSW"},"type":"Feature","geometry":{"type":"Point","coordinates":[150.908142,-33.772598]}},{"properties":{"city":"Glenwood","latitude":-33.733089,"postcode":2768,"ranking":49,"type":"Government","country":"Australia","longitude":150.927795,"id":"a67002703lfd","school":"Glenwood High School","state":"NSW"},"type":"Feature","geometry":{"type":"Point","coordinates":[150.927795,-33.733089]}},{"properties":{"city":"Leichhardt","latitude":-33.883678,"postcode":2040,"ranking":49,"type":"Government","country":"Australia","longitude":151.158554,"id":"a670022xesi2","school":"Sydney Secondary College Leichhardt Campus","state":"NSW"},"type":"Feature","geometry":{"type":"Point","coordinates":[151.158554,-33.883678]}},{"properties":{"city":"Maroubra","latitude":-33.946121,"postcode":2035,"ranking":49,"type":"Government","country":"Australia","longitude":151.242813,"id":"a670023f5oaw","school":"South Sydney High School","state":"NSW"},"type":"Feature","geometry":{"type":"Point","coordinates":[151.242813,-33.946121]}},{"properties":{"city":"Ashcroft","latitude":-33.91621,"postcode":2168,"ranking":50,"type":"Government","country":"Australia","longitude":150.900894,"id":"a67002alwxm2","school":"Ashcroft High School","state":"NSW"},"type":"Feature","geometry":{"type":"Point","coordinates":[150.900894,-33.91621]}},{"properties":{"city":"Hurstville","latitude":-33.967319,"postcode":2220,"ranking":51,"type":"Non-government","country":"Australia","longitude":151.107285,"id":"a67002duxpw5","school":"Bethany College","state":"NSW"},"type":"Feature","geometry":{"type":"Point","coordinates":[151.107285,-33.967319]}},{"properties":{"city":"Milperra","latitude":-33.941175,"postcode":2214,"ranking":51,"type":"Non-government","country":"Australia","longitude":150.983681,"id":"a67001zkgsj7","school":"Mount St Joseph Milperra","state":"NSW"},"type":"Feature","geometry":{"type":"Point","coordinates":[150.983681,-33.941175]}},{"properties":{"city":"Minto","latitude":-34.031189,"postcode":2566,"ranking":51,"type":"Government","country":"Australia","longitude":150.844696,"id":"a67002cagx4e","school":"Sarah Redfern High School","state":"NSW"},"type":"Feature","geometry":{"type":"Point","coordinates":[150.844696,-34.031189]}},{"properties":{"city":"Rooty Hill","latitude":-33.770809,"postcode":2766,"ranking":52,"type":"Government","country":"Australia","longitude":150.834396,"id":"a6700242uy04","school":"Rooty Hill High School","state":"NSW"},"type":"Feature","geometry":{"type":"Point","coordinates":[150.834396,-33.770809]}},{"properties":{"city":"Doonside","latitude":-33.764561,"postcode":2767,"ranking":53,"type":"Non-government","country":"Australia","longitude":150.869324,"id":"a670028xyx0w","school":"Mountain View Adventist College","state":"NSW"},"type":"Feature","geometry":{"type":"Point","coordinates":[150.869324,-33.764561]}},{"properties":{"city":"Summer Hill","latitude":-33.893475,"postcode":2130,"ranking":53,"type":"Non-government","country":"Australia","longitude":151.137238,"id":"a67002ebj34y","school":"Trinity Grammar School","state":"NSW"},"type":"Feature","geometry":{"type":"Point","coordinates":[151.137238,-33.893475]}},{"properties":{"city":"Cherrybrook","latitude":-33.721001,"postcode":2126,"ranking":53,"type":"Government","country":"Australia","longitude":151.041367,"id":"a67002dvda2x","school":"Cherrybrook Technology High School","state":"NSW"},"type":"Feature","geometry":{"type":"Point","coordinates":[151.041367,-33.721001]}},{"properties":{"city":"Blacktown South","latitude":-32.831026,"postcode":2148,"ranking":54,"type":"Non-government","country":"Australia","longitude":150.139,"id":"a670021b03vf","school":"Nagle College","state":"NSW"},"type":"Feature","geometry":{"type":"Point","coordinates":[150.139,-32.831026]}},{"properties":{"city":"Caringbah","latitude":-34.042912,"postcode":2229,"ranking":54,"type":"Government","country":"Australia","longitude":151.121216,"id":"a67002c9ohde","school":"Caringbah High School","state":"NSW"},"type":"Feature","geometry":{"type":"Point","coordinates":[151.121216,-34.042912]}},{"properties":{"city":"Moorebank","latitude":-33.951389,"postcode":2170,"ranking":54,"type":"Government","country":"Australia","longitude":150.922928,"id":"a670020vjbe6","school":"Moorebank High School","state":"NSW"},"type":"Feature","geometry":{"type":"Point","coordinates":[150.922928,-33.951389]}},{"properties":{"city":"Carlingford","latitude":-33.779968,"postcode":2118,"ranking":55,"type":"Government","country":"Australia","longitude":151.055786,"id":"a670023c8ur3","school":"Cumberland High School","state":"NSW"},"type":"Feature","geometry":{"type":"Point","coordinates":[151.055786,-33.779968]}},{"properties":{"city":"Panania","latitude":-33.9548,"postcode":2213,"ranking":55,"type":"Government","country":"Australia","longitude":150.998367,"id":"a67001zfoy0w","school":"East Hills Girls Technology High School","state":"NSW"},"type":"Feature","geometry":{"type":"Point","coordinates":[150.998367,-33.9548]}},{"properties":{"city":"Randwick","latitude":-33.91399,"postcode":2031,"ranking":55,"type":"Government","country":"Australia","longitude":151.239914,"id":"a670025zo8lz","school":"Randwick Girls High School","state":"NSW"},"type":"Feature","geometry":{"type":"Point","coordinates":[151.239914,-33.91399]}},{"properties":{"city":"Willoughby","latitude":-33.807331,"postcode":2068,"ranking":55,"type":"Government","country":"Australia","longitude":151.199387,"id":"a670024jw97o","school":"Willoughby Girls High School","state":"NSW"},"type":"Feature","geometry":{"type":"Point","coordinates":[151.199387,-33.807331]}},{"properties":{"city":"Burwood","latitude":-33.87817,"postcode":2134,"ranking":56,"type":"Non-government","country":"Australia","longitude":151.103546,"id":"a67002321sfx","school":"MLC School","state":"NSW"},"type":"Feature","geometry":{"type":"Point","coordinates":[151.103546,-33.87817]}},{"properties":{"city":"Kingsgrove","latitude":-33.93948,"postcode":2208,"ranking":56,"type":"Non-government","country":"Australia","longitude":151.098938,"id":"a670022u1c5n","school":"St Ursula s College","state":"NSW"},"type":"Feature","geometry":{"type":"Point","coordinates":[151.098938,-33.93948]}},{"properties":{"city":"Eastwood","latitude":-33.791489,"postcode":2122,"ranking":56,"type":"Government","country":"Australia","longitude":151.080414,"id":"a67002c8nnve","school":"Epping Boys High School","state":"NSW"},"type":"Feature","geometry":{"type":"Point","coordinates":[151.080414,-33.791489]}},{"properties":{"city":"Rozelle","latitude":-33.863441,"postcode":2039,"ranking":56,"type":"Government","country":"Australia","longitude":151.170364,"id":"a670021acl9v","school":"Sydney Secondary College Balmain Campus","state":"NSW"},"type":"Feature","geometry":{"type":"Point","coordinates":[151.170364,-33.863441]}},{"properties":{"city":"Concord","latitude":-33.856079,"postcode":2137,"ranking":57,"type":"Government","country":"Australia","longitude":151.103256,"id":"a67002e73md4","school":"Concord High School","state":"NSW"},"type":"Feature","geometry":{"type":"Point","coordinates":[151.103256,-33.856079]}},{"properties":{"city":"West Ryde","latitude":-33.809151,"postcode":2114,"ranking":57,"type":"Government","country":"Australia","longitude":151.08638,"id":"a670027kjlha","school":"Marsden High School","state":"NSW"},"type":"Feature","geometry":{"type":"Point","coordinates":[151.08638,-33.809151]}},{"properties":{"city":"Hassall Grove","latitude":-33.73476,"postcode":2761,"ranking":58,"type":"Non-government","country":"Australia","longitude":150.836777,"id":"a6700293s7ev","school":"St Clare s Catholic High School","state":"NSW"},"type":"Feature","geometry":{"type":"Point","coordinates":[150.836777,-33.73476]}},{"properties":{"city":"Marayong","latitude":-33.746269,"postcode":2148,"ranking":58,"type":"Non-government","country":"Australia","longitude":150.899765,"id":"a670028xerjw","school":"St Andrew s College","state":"NSW"},"type":"Feature","geometry":{"type":"Point","coordinates":[150.899765,-33.746269]}},{"properties":{"city":"Blacktown","latitude":-33.772598,"postcode":2148,"ranking":58,"type":"Government","country":"Australia","longitude":150.908142,"id":"a670023cnfzc","school":"Blacktown Girls High School","state":"NSW"},"type":"Feature","geometry":{"type":"Point","coordinates":[150.908142,-33.772598]}},{"properties":{"city":"Strathfield","latitude":-33.879131,"postcode":2135,"ranking":59,"type":"Non-government","country":"Australia","longitude":151.081223,"id":"a67002bbqh5x","school":"Meriden School","state":"NSW"},"type":"Feature","geometry":{"type":"Point","coordinates":[151.081223,-33.879131]}},{"properties":{"city":"Westmead","latitude":-33.81451,"postcode":2145,"ranking":59,"type":"Non-government","country":"Australia","longitude":150.984665,"id":"a67002ark413","school":"Catherine McAuley Westmead","state":"NSW"},"type":"Feature","geometry":{"type":"Point","coordinates":[150.984665,-33.81451]}},{"properties":{"city":"Greystanes","latitude":-33.819012,"postcode":2145,"ranking":61,"type":"Non-government","country":"Australia","longitude":150.947647,"id":"a67001yfzkgz","school":"St Paul s Catholic College","state":"NSW"},"type":"Feature","geometry":{"type":"Point","coordinates":[150.947647,-33.819012]}},{"properties":{"city":"Fairfield West","latitude":-33.86916,"postcode":2165,"ranking":61,"type":"Government","country":"Australia","longitude":150.923004,"id":"a67002bxeb9n","school":"Westfields Sports High School","state":"NSW"},"type":"Feature","geometry":{"type":"Point","coordinates":[150.923004,-33.86916]}},{"properties":{"city":"Bexley","latitude":-33.951321,"postcode":2207,"ranking":62,"type":"Non-government","country":"Australia","longitude":151.124817,"id":"a670029jus6t","school":"Marist College Kogarah","state":"NSW"},"type":"Feature","geometry":{"type":"Point","coordinates":[151.124817,-33.951321]}},{"properties":{"city":"Five Dock","latitude":-33.87104,"postcode":2046,"ranking":62,"type":"Non-government","country":"Australia","longitude":151.128693,"id":"a670021j5rr1","school":"Domremy College","state":"NSW"},"type":"Feature","geometry":{"type":"Point","coordinates":[151.128693,-33.87104]}},{"properties":{"city":"Hinchinbrook","latitude":-33.911201,"postcode":2168,"ranking":62,"type":"Non-government","country":"Australia","longitude":150.864883,"id":"a67002676vps","school":"Good Samaritan Catholic College","state":"NSW"},"type":"Feature","geometry":{"type":"Point","coordinates":[150.864883,-33.911201]}},{"properties":{"city":"Beecroft","latitude":-33.75032,"postcode":2119,"ranking":62,"type":"Government","country":"Australia","longitude":151.064835,"id":"a67002eidkme","school":"Cheltenham Girls High School","state":"NSW"},"type":"Feature","geometry":{"type":"Point","coordinates":[151.064835,-33.75032]}},{"properties":{"city":"Blacktown","latitude":-33.772598,"postcode":2148,"ranking":62,"type":"Government","country":"Australia","longitude":150.908142,"id":"a670020cdnqw","school":"Evans High School","state":"NSW"},"type":"Feature","geometry":{"type":"Point","coordinates":[150.908142,-33.772598]}},{"properties":{"city":"Casula","latitude":-33.949791,"postcode":2170,"ranking":62,"type":"Government","country":"Australia","longitude":150.903976,"id":"a670028xzaay","school":"Casula High School","state":"NSW"},"type":"Feature","geometry":{"type":"Point","coordinates":[150.903976,-33.949791]}},{"properties":{"city":"Miller","latitude":-33.920265,"postcode":2168,"ranking":63,"type":"Government","country":"Australia","longitude":150.885651,"id":"a670025dm3im","school":"Miller High School","state":"NSW"},"type":"Feature","geometry":{"type":"Point","coordinates":[150.885651,-33.920265]}},{"properties":{"city":"Liverpool","latitude":-33.922451,"postcode":2170,"ranking":64,"type":"Non-government","country":"Australia","longitude":150.923096,"id":"a67002c8krt6","school":"All Saints Catholic Boys College","state":"NSW"},"type":"Feature","geometry":{"type":"Point","coordinates":[150.923096,-33.922451]}},{"properties":{"city":"Croydon","latitude":-33.880606,"postcode":2132,"ranking":64,"type":"Government","country":"Australia","longitude":151.116974,"id":"a670025s08kd","school":"Burwood Girls High School","state":"NSW"},"type":"Feature","geometry":{"type":"Point","coordinates":[151.116974,-33.880606]}},{"properties":{"city":"Ashfield","latitude":-33.889502,"postcode":2131,"ranking":65,"type":"Non-government","country":"Australia","longitude":151.127441,"id":"a670028l5d7w","school":"Bethlehem College","state":"NSW"},"type":"Feature","geometry":{"type":"Point","coordinates":[151.127441,-33.889502]}},{"properties":{"city":"Bonnyrigg","latitude":-33.89727,"postcode":2177,"ranking":65,"type":"Non-government","country":"Australia","longitude":150.883224,"id":"a6700278o7ky","school":"Freeman Catholic College","state":"NSW"},"type":"Feature","geometry":{"type":"Point","coordinates":[150.883224,-33.89727]}},{"properties":{"city":"Liverpool","latitude":-33.922451,"postcode":2170,"ranking":65,"type":"Non-government","country":"Australia","longitude":150.923096,"id":"a67002ckl0jd","school":"All Saints Catholic Girl s College","state":"NSW"},"type":"Feature","geometry":{"type":"Point","coordinates":[150.923096,-33.922451]}},{"properties":{"city":"Merrylands","latitude":-33.83617,"postcode":2160,"ranking":65,"type":"Government","country":"Australia","longitude":150.988174,"id":"a67002bi6ogr","school":"Merrylands High School","state":"NSW"},"type":"Feature","geometry":{"type":"Point","coordinates":[150.988174,-33.83617]}},{"properties":{"city":"Lurnea","latitude":-33.931519,"postcode":2170,"ranking":66,"type":"Government","country":"Australia","longitude":150.896255,"id":"a67002amj91u","school":"Lurnea High School","state":"NSW"},"type":"Feature","geometry":{"type":"Point","coordinates":[150.896255,-33.931519]}},{"properties":{"city":"Green Valley","latitude":-33.90274,"postcode":2168,"ranking":67,"type":"Government","country":"Australia","longitude":150.866516,"id":"a670023pb09e","school":"James Busby High School","state":"NSW"},"type":"Feature","geometry":{"type":"Point","coordinates":[150.866516,-33.90274]}},{"properties":{"city":"Regents Park","latitude":-33.882149,"postcode":2143,"ranking":68,"type":"Non-government","country":"Australia","longitude":151.024033,"id":"a6700272c597","school":"Regents Park Christian School","state":"NSW"},"type":"Feature","geometry":{"type":"Point","coordinates":[151.024033,-33.882149]}},{"properties":{"city":"Hinchinbrook","latitude":-33.911201,"postcode":2168,"ranking":68,"type":"Government","country":"Australia","longitude":150.864883,"id":"a67002c2ykn2","school":"Hoxton Park High School","state":"NSW"},"type":"Feature","geometry":{"type":"Point","coordinates":[150.864883,-33.911201]}},{"properties":{"city":"Ashfield","latitude":-33.889502,"postcode":2131,"ranking":69,"type":"Non-government","country":"Australia","longitude":151.127441,"id":"a67002cwtyrc","school":"De La Salle College","state":"NSW"},"type":"Feature","geometry":{"type":"Point","coordinates":[151.127441,-33.889502]}},{"properties":{"city":"Auburn","latitude":-33.849258,"postcode":2144,"ranking":69,"type":"Non-government","country":"Australia","longitude":151.029343,"id":"a67002crruvc","school":"Trinity Catholic College","state":"NSW"},"type":"Feature","geometry":{"type":"Point","coordinates":[151.029343,-33.849258]}},{"properties":{"city":"Marrickville","latitude":-33.91251,"postcode":2204,"ranking":69,"type":"Non-government","country":"Australia","longitude":151.160553,"id":"a6700203xz05","school":"Casimir Catholic College","state":"NSW"},"type":"Feature","geometry":{"type":"Point","coordinates":[151.160553,-33.91251]}},{"properties":{"city":"Panania","latitude":-33.9548,"postcode":2213,"ranking":69,"type":"Government","country":"Australia","longitude":150.998367,"id":"a670026iqqby","school":"East Hills Boys High School","state":"NSW"},"type":"Feature","geometry":{"type":"Point","coordinates":[150.998367,-33.9548]}},{"properties":{"city":"Penrith","latitude":-33.753819,"postcode":2750,"ranking":69,"type":"Government","country":"Australia","longitude":150.698563,"id":"a670029jik7k","school":"Penrith High School","state":"NSW"},"type":"Feature","geometry":{"type":"Point","coordinates":[150.698563,-33.753819]}},{"properties":{"city":"Penshurst","latitude":-33.964876,"postcode":2222,"ranking":69,"type":"Government","country":"Australia","longitude":151.085106,"id":"a67002cfoo6h","school":"Georges River College Penshurst Girls Campus","state":"NSW"},"type":"Feature","geometry":{"type":"Point","coordinates":[151.085106,-33.964876]}},{"properties":{"city":"Merrylands","latitude":-33.83617,"postcode":2160,"ranking":71,"type":"Non-government","country":"Australia","longitude":150.988174,"id":"a670025kruls","school":"Cerdon College","state":"NSW"},"type":"Feature","geometry":{"type":"Point","coordinates":[150.988174,-33.83617]}},{"properties":{"city":"Bass Hill","latitude":-33.900606,"postcode":2197,"ranking":71,"type":"Government","country":"Australia","longitude":150.992889,"id":"a6700286km72","school":"Bass High School","state":"NSW"},"type":"Feature","geometry":{"type":"Point","coordinates":[150.992889,-33.900606]}},{"properties":{"city":"Canterbury","latitude":-33.913929,"postcode":2193,"ranking":71,"type":"Government","country":"Australia","longitude":151.114868,"id":"a670027gkoc0","school":"Canterbury Girls High School","state":"NSW"},"type":"Feature","geometry":{"type":"Point","coordinates":[151.114868,-33.913929]}},{"properties":{"city":"Westmead","latitude":-33.81451,"postcode":2145,"ranking":72,"type":"Non-government","country":"Australia","longitude":150.984665,"id":"a67002dgg2vz","school":"Parramatta Marist High School","state":"NSW"},"type":"Feature","geometry":{"type":"Point","coordinates":[150.984665,-33.81451]}},{"properties":{"city":"Blakehurst","latitude":-33.98785,"postcode":2221,"ranking":72,"type":"Government","country":"Australia","longitude":151.111664,"id":"a670026h5jm9","school":"Blakehurst High School","state":"NSW"},"type":"Feature","geometry":{"type":"Point","coordinates":[151.111664,-33.98785]}},{"properties":{"city":"Carlingford","latitude":-33.779968,"postcode":2118,"ranking":73,"type":"Government","country":"Australia","longitude":151.055786,"id":"a670020812xc","school":"Carlingford High School","state":"NSW"},"type":"Feature","geometry":{"type":"Point","coordinates":[151.055786,-33.779968]}},{"properties":{"city":"Chatswood","latitude":-33.79607,"postcode":2067,"ranking":73,"type":"Government","country":"Australia","longitude":151.183853,"id":"a670022og5ga","school":"Chatswood High School","state":"NSW"},"type":"Feature","geometry":{"type":"Point","coordinates":[151.183853,-33.79607]}},{"properties":{"city":"Macquarie Fields","latitude":-33.985352,"postcode":2564,"ranking":73,"type":"Government","country":"Australia","longitude":150.893784,"id":"a6700264fvc0","school":"Macquarie Fields High School","state":"NSW"},"type":"Feature","geometry":{"type":"Point","coordinates":[150.893784,-33.985352]}},{"properties":{"city":"Wetherill Park","latitude":-33.860928,"postcode":2164,"ranking":73,"type":"Government","country":"Australia","longitude":150.901154,"id":"a67002b2ffp0","school":"Prairiewood High School","state":"NSW"},"type":"Feature","geometry":{"type":"Point","coordinates":[150.901154,-33.860928]}},{"properties":{"city":"Bankstown","latitude":-33.914791,"postcode":2200,"ranking":74,"type":"Non-government","country":"Australia","longitude":151.034164,"id":"a670022qtpcn","school":"Al Amanah College","state":"NSW"},"type":"Feature","geometry":{"type":"Point","coordinates":[151.034164,-33.914791]}},{"properties":{"city":"Bossley Park","latitude":-33.866001,"postcode":2176,"ranking":75,"type":"Government","country":"Australia","longitude":150.882523,"id":"a67002dp3fyp","school":"Bossley Park High School","state":"NSW"},"type":"Feature","geometry":{"type":"Point","coordinates":[150.882523,-33.866001]}},{"properties":{"city":"Randwick","latitude":-33.91399,"postcode":2031,"ranking":75,"type":"Government","country":"Australia","longitude":151.239914,"id":"a670020tud95","school":"Randwick Boys High School","state":"NSW"},"type":"Feature","geometry":{"type":"Point","coordinates":[151.239914,-33.91399]}},{"properties":{"city":"Wakeley","latitude":-33.870071,"postcode":2176,"ranking":76,"type":"Non-government","country":"Australia","longitude":150.91095,"id":"a67001zu5phi","school":"Mary Mackillop College","state":"NSW"},"type":"Feature","geometry":{"type":"Point","coordinates":[150.91095,-33.870071]}},{"properties":{"city":"Ashfield","latitude":-33.889502,"postcode":2131,"ranking":76,"type":"Government","country":"Australia","longitude":151.127441,"id":"a670024fs65v","school":"Ashfield Boys High School","state":"NSW"},"type":"Feature","geometry":{"type":"Point","coordinates":[151.127441,-33.889502]}},{"properties":{"city":"Cecil Hills","latitude":-33.893959,"postcode":2171,"ranking":76,"type":"Government","country":"Australia","longitude":150.856323,"id":"a67001z1xu3r","school":"Cecil Hills High School","state":"NSW"},"type":"Feature","geometry":{"type":"Point","coordinates":[150.856323,-33.893959]}},{"properties":{"city":"Glenfield","latitude":-33.97221,"postcode":2167,"ranking":76,"type":"Government","country":"Australia","longitude":150.889992,"id":"a670028kqm28","school":"Hurlstone Agricultural High School","state":"NSW"},"type":"Feature","geometry":{"type":"Point","coordinates":[150.889992,-33.97221]}},{"properties":{"city":"Bonnyrigg","latitude":-33.89727,"postcode":2177,"ranking":77,"type":"Government","country":"Australia","longitude":150.883224,"id":"a670028bnblm","school":"Bonnyrigg High School","state":"NSW"},"type":"Feature","geometry":{"type":"Point","coordinates":[150.883224,-33.89727]}},{"properties":{"city":"Fairfield","latitude":-33.871849,"postcode":2165,"ranking":78,"type":"Non-government","country":"Australia","longitude":150.953232,"id":"a67001ysxae1","school":"Patrician Brothers College","state":"NSW"},"type":"Feature","geometry":{"type":"Point","coordinates":[150.953232,-33.871849]}},{"properties":{"city":"Ryde","latitude":-33.81332,"postcode":2112,"ranking":78,"type":"Government","country":"Australia","longitude":151.105469,"id":"a670024lbw7c","school":"Ryde Secondary College","state":"NSW"},"type":"Feature","geometry":{"type":"Point","coordinates":[151.105469,-33.81332]}},{"properties":{"city":"Greenacre","latitude":-33.892689,"postcode":2190,"ranking":79,"type":"Non-government","country":"Australia","longitude":151.057816,"id":"a67002a4va9c","school":"Al Noori Muslim School","state":"NSW"},"type":"Feature","geometry":{"type":"Point","coordinates":[151.057816,-33.892689]}},{"properties":{"city":"Bankstown","latitude":-33.914791,"postcode":2200,"ranking":80,"type":"Non-government","country":"Australia","longitude":151.034164,"id":"a670029xuc1r","school":"La Salle College","state":"NSW"},"type":"Feature","geometry":{"type":"Point","coordinates":[151.034164,-33.914791]}},{"properties":{"city":"Petersham","latitude":-33.896278,"postcode":2049,"ranking":80,"type":"Government","country":"Australia","longitude":151.153915,"id":"a6700226eio0","school":"Fort Street High School","state":"NSW"},"type":"Feature","geometry":{"type":"Point","coordinates":[151.153915,-33.896278]}},{"properties":{"city":"Kogarah","latitude":-33.963169,"postcode":2217,"ranking":81,"type":"Government","country":"Australia","longitude":151.132675,"id":"a67002e6n1qo","school":"Moorefield Girls High School","state":"NSW"},"type":"Feature","geometry":{"type":"Point","coordinates":[151.132675,-33.963169]}},{"properties":{"city":"Chester Hill","latitude":-33.882999,"postcode":2162,"ranking":82,"type":"Government","country":"Australia","longitude":151.000137,"id":"a670029t4tj9","school":"Chester Hill High School","state":"NSW"},"type":"Feature","geometry":{"type":"Point","coordinates":[151.000137,-33.882999]}},{"properties":{"city":"Kingsgrove","latitude":-33.93948,"postcode":2208,"ranking":82,"type":"Government","country":"Australia","longitude":151.098938,"id":"a670020wrxla","school":"Kingsgrove High School","state":"NSW"},"type":"Feature","geometry":{"type":"Point","coordinates":[151.098938,-33.93948]}},{"properties":{"city":"Parramatta","latitude":-33.81731,"postcode":2150,"ranking":82,"type":"Government","country":"Australia","longitude":151.00354,"id":"a67001zchhkc","school":"Parramatta High School","state":"NSW"},"type":"Feature","geometry":{"type":"Point","coordinates":[151.00354,-33.81731]}},{"properties":{"city":"Homebush","latitude":-33.863979,"postcode":2140,"ranking":83,"type":"Government","country":"Australia","longitude":151.082397,"id":"a670023ju03x","school":"Homebush Boys High School","state":"NSW"},"type":"Feature","geometry":{"type":"Point","coordinates":[151.082397,-33.863979]}},{"properties":{"city":"Kogarah","latitude":-33.963169,"postcode":2217,"ranking":83,"type":"Government","country":"Australia","longitude":151.132675,"id":"a67002d0norj","school":"James Cook Boys High School","state":"NSW"},"type":"Feature","geometry":{"type":"Point","coordinates":[151.132675,-33.963169]}},{"properties":{"city":"Lewisham","latitude":-33.894371,"postcode":2049,"ranking":84,"type":"Non-government","country":"Australia","longitude":151.144974,"id":"a67002dg9fj6","school":"Christian Brothers High School","state":"NSW"},"type":"Feature","geometry":{"type":"Point","coordinates":[151.144974,-33.894371]}},{"properties":{"city":"Fairfield West","latitude":-33.86916,"postcode":2165,"ranking":84,"type":"Government","country":"Australia","longitude":150.923004,"id":"a67002cdc07w","school":"Fairvale High School","state":"NSW"},"type":"Feature","geometry":{"type":"Point","coordinates":[150.923004,-33.86916]}},{"properties":{"city":"Kingsgrove","latitude":-33.93948,"postcode":2208,"ranking":84,"type":"Government","country":"Australia","longitude":151.098938,"id":"a670029mgov9","school":"Kingsgrove North High School","state":"NSW"},"type":"Feature","geometry":{"type":"Point","coordinates":[151.098938,-33.93948]}},{"properties":{"city":"Tempe","latitude":-33.920471,"postcode":2044,"ranking":84,"type":"Government","country":"Australia","longitude":151.160782,"id":"a6700298h7lo","school":"Tempe High School","state":"NSW"},"type":"Feature","geometry":{"type":"Point","coordinates":[151.160782,-33.920471]}},{"properties":{"city":"Revesby","latitude":-33.963856,"postcode":2212,"ranking":85,"type":"Government","country":"Australia","longitude":151.015747,"id":"a670026sip7h","school":"Sir Joseph Banks High School","state":"NSW"},"type":"Feature","geometry":{"type":"Point","coordinates":[151.015747,-33.963856]}},{"properties":{"city":"Condell Park","latitude":-33.922031,"postcode":2200,"ranking":86,"type":"Government","country":"Australia","longitude":151.011627,"id":"a6700283oqbb","school":"Condell Park High School","state":"NSW"},"type":"Feature","geometry":{"type":"Point","coordinates":[151.011627,-33.922031]}},{"properties":{"city":"Fairfield","latitude":-33.871849,"postcode":2165,"ranking":86,"type":"Government","country":"Australia","longitude":150.953232,"id":"a670024rhoqd","school":"Fairfield High School","state":"NSW"},"type":"Feature","geometry":{"type":"Point","coordinates":[150.953232,-33.871849]}},{"properties":{"city":"Hornsby","latitude":-33.700779,"postcode":2077,"ranking":86,"type":"Government","country":"Australia","longitude":151.096878,"id":"a67002bohsfa","school":"Hornsby Girls High School","state":"NSW"},"type":"Feature","geometry":{"type":"Point","coordinates":[151.096878,-33.700779]}},{"properties":{"city":"Liverpool","latitude":-33.922451,"postcode":2170,"ranking":86,"type":"Government","country":"Australia","longitude":150.923096,"id":"a670022zqqr9","school":"Liverpool Boys High School","state":"NSW"},"type":"Feature","geometry":{"type":"Point","coordinates":[150.923096,-33.922451]}},{"properties":{"city":"Parramatta","latitude":-33.81731,"postcode":2150,"ranking":86,"type":"Government","country":"Australia","longitude":151.00354,"id":"a67002ec65ds","school":"Arthur Phillip High School","state":"NSW"},"type":"Feature","geometry":{"type":"Point","coordinates":[151.00354,-33.81731]}},{"properties":{"city":"Lakemba","latitude":-33.920738,"postcode":2195,"ranking":87,"type":"Non-government","country":"Australia","longitude":151.07756,"id":"a67002chp8yj","school":"Holy Spirit College","state":"NSW"},"type":"Feature","geometry":{"type":"Point","coordinates":[151.07756,-33.920738]}},{"properties":{"city":"Canterbury","latitude":-33.913929,"postcode":2193,"ranking":87,"type":"Government","country":"Australia","longitude":151.114868,"id":"a67002e98jzk","school":"Canterbury Boys High School","state":"NSW"},"type":"Feature","geometry":{"type":"Point","coordinates":[151.114868,-33.913929]}},{"properties":{"city":"Enfield","latitude":-33.88834,"postcode":2136,"ranking":87,"type":"Government","country":"Australia","longitude":151.095367,"id":"a67001yilra3","school":"Strathfield South High School","state":"NSW"},"type":"Feature","geometry":{"type":"Point","coordinates":[151.095367,-33.88834]}},{"properties":{"city":"Guildford","latitude":-33.854881,"postcode":2161,"ranking":87,"type":"Government","country":"Australia","longitude":150.990494,"id":"a670026gb559","school":"Granville South Creative and Performing Arts High School","state":"NSW"},"type":"Feature","geometry":{"type":"Point","coordinates":[150.990494,-33.854881]}},{"properties":{"city":"Liverpool","latitude":-33.922451,"postcode":2170,"ranking":87,"type":"Government","country":"Australia","longitude":150.923096,"id":"a670028e827t","school":"Liverpool Girls High School","state":"NSW"},"type":"Feature","geometry":{"type":"Point","coordinates":[150.923096,-33.922451]}},{"properties":{"city":"Normanhurst","latitude":-33.722176,"postcode":2076,"ranking":87,"type":"Government","country":"Australia","longitude":151.10289,"id":"a670027ldkqk","school":"Normanhurst Boys High School","state":"NSW"},"type":"Feature","geometry":{"type":"Point","coordinates":[151.10289,-33.722176]}},{"properties":{"city":"Parramatta","latitude":-33.81731,"postcode":2150,"ranking":87,"type":"Government","country":"Australia","longitude":151.00354,"id":"a670029wql3n","school":"Macarthur Girls High School","state":"NSW"},"type":"Feature","geometry":{"type":"Point","coordinates":[151.00354,-33.81731]}},{"properties":{"city":"Baulkham Hills","latitude":-33.753387,"postcode":2153,"ranking":89,"type":"Government","country":"Australia","longitude":150.989716,"id":"a670022xn5pm","school":"Baulkham Hills High School","state":"NSW"},"type":"Feature","geometry":{"type":"Point","coordinates":[150.989716,-33.753387]}},{"properties":{"city":"Bexley","latitude":-33.951321,"postcode":2207,"ranking":89,"type":"Government","country":"Australia","longitude":151.124817,"id":"a670022nx1c0","school":"Sydney Technical High School","state":"NSW"},"type":"Feature","geometry":{"type":"Point","coordinates":[151.124817,-33.951321]}},{"properties":{"city":"Birrong","latitude":-33.892368,"postcode":2143,"ranking":89,"type":"Government","country":"Australia","longitude":151.020676,"id":"a6700204cbdl","school":"Birrong Girls High School","state":"NSW"},"type":"Feature","geometry":{"type":"Point","coordinates":[151.020676,-33.892368]}},{"properties":{"city":"Greystanes","latitude":-33.819012,"postcode":2145,"ranking":89,"type":"Government","country":"Australia","longitude":150.947647,"id":"a67002ba8ywx","school":"Holroyd High School","state":"NSW"},"type":"Feature","geometry":{"type":"Point","coordinates":[150.947647,-33.819012]}},{"properties":{"city":"Kogarah","latitude":-33.963169,"postcode":2217,"ranking":89,"type":"Government","country":"Australia","longitude":151.132675,"id":"a670020cs8h2","school":"St George Girls High School","state":"NSW"},"type":"Feature","geometry":{"type":"Point","coordinates":[151.132675,-33.963169]}},{"properties":{"city":"St Johns Park","latitude":-33.885101,"postcode":2176,"ranking":89,"type":"Government","country":"Australia","longitude":150.906128,"id":"a670022bh46t","school":"St Johns Park High School","state":"NSW"},"type":"Feature","geometry":{"type":"Point","coordinates":[150.906128,-33.885101]}},{"properties":{"city":"Strathfield","latitude":-33.879131,"postcode":2135,"ranking":89,"type":"Government","country":"Australia","longitude":151.081223,"id":"a6700216hziv","school":"Strathfield Girls High School","state":"NSW"},"type":"Feature","geometry":{"type":"Point","coordinates":[151.081223,-33.879131]}},{"properties":{"city":"Surry Hills","latitude":-33.879051,"postcode":2010,"ranking":89,"type":"Government","country":"Australia","longitude":151.212982,"id":"a67002bsdz99","school":"Sydney Girls High School","state":"NSW"},"type":"Feature","geometry":{"type":"Point","coordinates":[151.212982,-33.879051]}},{"properties":{"city":"Artarmon","latitude":-33.811405,"postcode":2064,"ranking":90,"type":"Government","country":"Australia","longitude":151.184952,"id":"a67002cbfgbl","school":"North Sydney Boys High School","state":"NSW"},"type":"Feature","geometry":{"type":"Point","coordinates":[151.184952,-33.811405]}},{"properties":{"city":"Beverly Hills","latitude":-33.947041,"postcode":2209,"ranking":90,"type":"Government","country":"Australia","longitude":151.079666,"id":"a67002accfrg","school":"Beverly Hills Girls High School","state":"NSW"},"type":"Feature","geometry":{"type":"Point","coordinates":[151.079666,-33.947041]}},{"properties":{"city":"Kogarah","latitude":-33.963169,"postcode":2217,"ranking":90,"type":"Government","country":"Australia","longitude":151.132675,"id":"a670025hehet","school":"Kogarah High School","state":"NSW"},"type":"Feature","geometry":{"type":"Point","coordinates":[151.132675,-33.963169]}},{"properties":{"city":"Maroubra Junction","latitude":-33.94162,"postcode":2035,"ranking":91,"type":"Non-government","country":"Australia","longitude":151.239517,"id":"a670026nyu9u","school":"The French School of Sydney","state":"NSW"},"type":"Feature","geometry":{"type":"Point","coordinates":[151.239517,-33.94162]}},{"properties":{"city":"Crows Nest","latitude":-33.825161,"postcode":2065,"ranking":91,"type":"Government","country":"Australia","longitude":151.200882,"id":"a670020iqo52","school":"North Sydney Girls High School","state":"NSW"},"type":"Feature","geometry":{"type":"Point","coordinates":[151.200882,-33.825161]}},{"properties":{"city":"Sefton","latitude":-33.890171,"postcode":2162,"ranking":91,"type":"Government","country":"Australia","longitude":151.012497,"id":"a670023ri6au","school":"Sefton High School","state":"NSW"},"type":"Feature","geometry":{"type":"Point","coordinates":[151.012497,-33.890171]}},{"properties":{"city":"Austral","latitude":-33.934261,"postcode":2179,"ranking":92,"type":"Non-government","country":"Australia","longitude":150.811783,"id":"a670028qtrpj","school":"Unity Grammar College","state":"NSW"},"type":"Feature","geometry":{"type":"Point","coordinates":[150.811783,-33.934261]}},{"properties":{"city":"Dulwich Hill","latitude":-33.90469,"postcode":2203,"ranking":92,"type":"Non-government","country":"Australia","longitude":151.138771,"id":"a670021ljml2","school":"St Maroun s College","state":"NSW"},"type":"Feature","geometry":{"type":"Point","coordinates":[151.138771,-33.90469]}},{"properties":{"city":"Birrong","latitude":-33.892368,"postcode":2143,"ranking":92,"type":"Government","country":"Australia","longitude":151.020676,"id":"a670028x88gt","school":"Birrong Boys High School","state":"NSW"},"type":"Feature","geometry":{"type":"Point","coordinates":[151.020676,-33.892368]}},{"properties":{"city":"Surry Hills","latitude":-33.879051,"postcode":2010,"ranking":92,"type":"Government","country":"Australia","longitude":151.212982,"id":"a670028ynqlc","school":"Sydney Boys High School","state":"NSW"},"type":"Feature","geometry":{"type":"Point","coordinates":[151.212982,-33.879051]}},{"properties":{"city":"Wattle Grove","latitude":-33.954929,"postcode":2173,"ranking":93,"type":"Non-government","country":"Australia","longitude":150.939163,"id":"a670027xl0ix","school":"St Mark s Coptic Orthodox College","state":"NSW"},"type":"Feature","geometry":{"type":"Point","coordinates":[150.939163,-33.954929]}},{"properties":{"city":"Bankstown","latitude":-33.914791,"postcode":2200,"ranking":93,"type":"Government","country":"Australia","longitude":151.034164,"id":"a670023wfo2v","school":"Bankstown Girls High School","state":"NSW"},"type":"Feature","geometry":{"type":"Point","coordinates":[151.034164,-33.914791]}},{"properties":{"city":"Canley Vale","latitude":-33.887058,"postcode":2166,"ranking":93,"type":"Government","country":"Australia","longitude":150.942719,"id":"a67001zrqnpw","school":"Canley Vale High School","state":"NSW"},"type":"Feature","geometry":{"type":"Point","coordinates":[150.942719,-33.887058]}},{"properties":{"city":"Girraween","latitude":-33.799389,"postcode":2145,"ranking":93,"type":"Government","country":"Australia","longitude":150.946457,"id":"a67002e2hrts","school":"Girraween High School","state":"NSW"},"type":"Feature","geometry":{"type":"Point","coordinates":[150.946457,-33.799389]}},{"properties":{"city":"Granville","latitude":-33.833309,"postcode":2142,"ranking":94,"type":"Government","country":"Australia","longitude":151.009583,"id":"a67002a4xbaa","school":"Granville Boys High School","state":"NSW"},"type":"Feature","geometry":{"type":"Point","coordinates":[151.009583,-33.833309]}},{"properties":{"city":"Punchbowl","latitude":-33.92585,"postcode":2196,"ranking":94,"type":"Government","country":"Australia","longitude":151.053741,"id":"a67001zhsl4y","school":"Wiley Park Girls High School","state":"NSW"},"type":"Feature","geometry":{"type":"Point","coordinates":[151.053741,-33.92585]}},{"properties":{"city":"Prestons","latitude":-33.952438,"postcode":2170,"ranking":95,"type":"Non-government","country":"Australia","longitude":150.865051,"id":"a67001zmz9ke","school":"Sule College","state":"NSW"},"type":"Feature","geometry":{"type":"Point","coordinates":[150.865051,-33.952438]}},{"properties":{"city":"Cabramatta","latitude":-33.895039,"postcode":2166,"ranking":96,"type":"Government","country":"Australia","longitude":150.938507,"id":"a670021hor61","school":"Cabramatta High School","state":"NSW"},"type":"Feature","geometry":{"type":"Point","coordinates":[150.938507,-33.895039]}},{"properties":{"city":"Carlingford","latitude":-33.779968,"postcode":2118,"ranking":96,"type":"Government","country":"Australia","longitude":151.055786,"id":"a67001yrxnue","school":"James Ruse Agricultural High School","state":"NSW"},"type":"Feature","geometry":{"type":"Point","coordinates":[151.055786,-33.779968]}},{"properties":{"city":"Auburn","latitude":-33.849258,"postcode":2144,"ranking":98,"type":"Non-government","country":"Australia","longitude":151.029343,"id":"a670021ysben","school":"Al Faisal College","state":"NSW"},"type":"Feature","geometry":{"type":"Point","coordinates":[151.029343,-33.849258]}},{"properties":{"city":"Greenacre","latitude":-33.892689,"postcode":2190,"ranking":98,"type":"Non-government","country":"Australia","longitude":151.057816,"id":"a67002dwalmf","school":"Malek Fahd Islamic School","state":"NSW"},"type":"Feature","geometry":{"type":"Point","coordinates":[151.057816,-33.892689]}},{"properties":{"city":"Mount Druitt","latitude":-33.765289,"postcode":2770,"ranking":98,"type":"Non-government","country":"Australia","longitude":150.817276,"id":"a670021di3k9","school":"Australian Islamic College of Sydney","state":"NSW"},"type":"Feature","geometry":{"type":"Point","coordinates":[150.817276,-33.765289]}},{"properties":{"city":"Auburn","latitude":-33.849258,"postcode":2144,"ranking":98,"type":"Government","country":"Australia","longitude":151.029343,"id":"a67001zn9dct","school":"Auburn Girls High School","state":"NSW"},"type":"Feature","geometry":{"type":"Point","coordinates":[151.029343,-33.849258]}},{"properties":{"city":"Harris Park","latitude":-33.81897,"postcode":2150,"ranking":99,"type":"Non-government","country":"Australia","longitude":151.019897,"id":"a670029j443f","school":"Our Lady of Lebanon College","state":"NSW"},"type":"Feature","geometry":{"type":"Point","coordinates":[151.019897,-33.81897]}},{"properties":{"city":"Green Valley","latitude":-33.90274,"postcode":2168,"ranking":100,"type":"Non-government","country":"Australia","longitude":150.866516,"id":"a67002dl94u8","school":"Green Valley Islamic College","state":"NSW"},"type":"Feature","geometry":{"type":"Point","coordinates":[150.866516,-33.90274]}},{"properties":{"city":"Greenfield Park","latitude":-33.873299,"postcode":2176,"ranking":100,"type":"Non-government","country":"Australia","longitude":150.889816,"id":"a670027h1s2t","school":"St Hurmizd Assyrian Primary School","state":"NSW"},"type":"Feature","geometry":{"type":"Point","coordinates":[150.889816,-33.873299]}},{"properties":{"city":"Punchbowl","latitude":-33.92585,"postcode":2196,"ranking":100,"type":"Non-government","country":"Australia","longitude":151.053741,"id":"a67001zvoetn","school":"St Charbel s College","state":"NSW"},"type":"Feature","geometry":{"type":"Point","coordinates":[151.053741,-33.92585]}},{"properties":{"city":"Strathfield","latitude":-33.879131,"postcode":2135,"ranking":100,"type":"Non-government","country":"Australia","longitude":151.081223,"id":"a670022j2vo7","school":"Australian International Academy Sydney Strathfield Campus","state":"NSW"},"type":"Feature","geometry":{"type":"Point","coordinates":[151.081223,-33.879131]}},{"properties":{"city":"Kingsford","latitude":-33.923401,"postcode":2032,"ranking":100,"type":"Non-government","country":"Australia","longitude":151.227463,"id":"a67002efu6ml","school":"St Spyridon College","state":"NSW"},"type":"Feature","geometry":{"type":"Point","coordinates":[151.227463,-33.923401]}}],"is_temporal":false,"author":{"url":"","metadata":"","contact_name":"","contact_address":"","source":"","contact_phone":""},"source":"","pagination":{"sort":null,"start":0,"total":339,"limit":1000000},"state":"complete","tags":"schools","published":"2014-08-14T16:03:54-04:00","id":241033}