{"type":"FeatureCollection","data_type":"Dataset","url_type":null,"permissions":[{"permissions":{"download":true,"view":true},"group_id":"everyone"}],"classification":null,"title":"Trial 2","count":100,"stream_id":241952,"contributor":{"url":"http://geocommons.com/users/45724","name":"rohitat"},"data_attributes":null,"calculation_params":null,"icon_link":null,"link":"http://geocommons.com/overlays/241952.json","extent":[-92.5005,-71.4167,133.55,49.6],"geometry_types":["point"],"unique_name":null,"name":"Trial 2","feature_count":100,"description":"Trial 2 by Rohit","next_feature":null,"is_raster":false,"short_classification":"Y","stats":{"india demand share":{"max":3.98,"mean":0.4144,"variance":0.284762262626263,"stdev":0.533631204696898,"min":0.13,"median":0.25}},"features":[{"properties":{"city":"Nellore","geo_score":0.857,"country":"India","india demand share":0.14,"id":"a62wfzq9eviw","geo_precision":"zip","state":"Andhra Pradesh"},"type":"Feature","geometry":{"type":"Point","coordinates":[79.9666667,14.4333333]}},{"properties":{"city":"Hyderabad M. Corp","geo_score":0.806,"country":"India","india demand share":1.27,"id":"a62wfzquhesq","geo_precision":"zip","state":"Andhra Pradesh"},"type":"Feature","geometry":{"type":"Point","coordinates":[78.4744444,17.3752778]}},{"properties":{"city":"Vishakhapatnam","geo_score":0.857,"country":"India","india demand share":0.36,"id":"a62wfzt3xi1w","geo_precision":"zip","state":"Andhra Pradesh"},"type":"Feature","geometry":{"type":"Point","coordinates":[83.3,17.7]}},{"properties":{"city":"Vijayawada","geo_score":0.857,"country":"India","india demand share":0.3,"id":"a62wfzk7oo9g","geo_precision":"zip","state":"Andhra Pradesh"},"type":"Feature","geometry":{"type":"Point","coordinates":[80.6166667,16.5166667]}},{"properties":{"city":"Warangal","geo_score":0.857,"country":"India","india demand share":0.19,"id":"a62wfzr7x2pp","geo_precision":"zip","state":"Andhra Pradesh"},"type":"Feature","geometry":{"type":"Point","coordinates":[79.5833333,18.0]}},{"properties":{"city":"Guntur","geo_score":0.755,"country":"India","india demand share":0.19,"id":"a62wfzolkou6","geo_precision":"zip","state":"Andhra Pradesh"},"type":"Feature","geometry":{"type":"Point","coordinates":[-6.3333333,34.5833333]}},{"properties":{"city":"Guwahati","geo_score":0.857,"country":"India","india demand share":0.38,"id":"a62wfzry8ja6","geo_precision":"zip","state":"Assam"},"type":"Feature","geometry":{"type":"Point","coordinates":[91.7509460449219,26.1861735774963]}},{"properties":{"city":"Patna","geo_score":0.857,"country":"India","india demand share":0.28,"id":"a62wfzk1v8we","geo_precision":"zip","state":"Bihar"},"type":"Feature","geometry":{"type":"Point","coordinates":[85.1166667,25.6]}},{"properties":{"city":"Chandigarh","geo_score":0.857,"country":"India","india demand share":0.3,"id":"a62wfzo6i9b0","geo_precision":"zip","state":"Chandigarh"},"type":"Feature","geometry":{"type":"Point","coordinates":[76.7872222,30.7372222]}},{"properties":{"city":"Raipur","geo_score":0.857,"country":"India","india demand share":0.3,"id":"a62wfzi9xo4f","geo_precision":"zip","state":"Chhattisgarh"},"type":"Feature","geometry":{"type":"Point","coordinates":[81.6333333,21.2333333]}},{"properties":{"city":"Bhilai Nagar","geo_score":0.792,"country":"India","india demand share":0.28,"id":"a62wfzj8iqf7","geo_precision":"zip","state":"Chhattisgarh"},"type":"Feature","geometry":{"type":"Point","coordinates":[81.4333333,21.2166667]}},{"properties":{"city":"Korba","geo_score":0.857,"country":"India","india demand share":0.16,"id":"a62wfzla5d7o","geo_precision":"zip","state":"Chhattisgarh"},"type":"Feature","geometry":{"type":"Point","coordinates":[82.6833333,22.35]}},{"properties":{"city":"Bilaspur","geo_score":0.857,"country":"India","india demand share":0.13,"id":"a62wfzlt97ru","geo_precision":"zip","state":"Chhattisgarh"},"type":"Feature","geometry":{"type":"Point","coordinates":[82.15,22.0833333]}},{"properties":{"city":"Delhi","geo_score":0.857,"country":"India","india demand share":2.7,"id":"a62wfzrr61hs","geo_precision":"zip","state":"Delhi"},"type":"Feature","geometry":{"type":"Point","coordinates":[77.2166667,28.6666667]}},{"properties":{"city":"Ahmedabad","geo_score":0.841,"country":"India","india demand share":1.69,"id":"a62wfzrg859p","geo_precision":"zip","state":"Gujarat"},"type":"Feature","geometry":{"type":"Point","coordinates":[72.6166667,23.0333333]}},{"properties":{"city":"Surat","geo_score":0.857,"country":"India","india demand share":1.17,"id":"a62wfzhicv3a","geo_precision":"zip","state":"Gujarat"},"type":"Feature","geometry":{"type":"Point","coordinates":[72.8333333,21.1666667]}},{"properties":{"city":"Vadodara","geo_score":0.857,"country":"India","india demand share":0.63,"id":"a62wfzjhheef","geo_precision":"zip","state":"Gujarat"},"type":"Feature","geometry":{"type":"Point","coordinates":[73.2,22.3]}},{"properties":{"city":"Rajkot","geo_score":0.857,"country":"India","india demand share":0.46,"id":"a62wfzolmxbe","geo_precision":"zip","state":"Gujarat"},"type":"Feature","geometry":{"type":"Point","coordinates":[70.7833333,22.3]}},{"properties":{"city":"Bhavnagar","geo_score":0.857,"country":"India","india demand share":0.25,"id":"a62wfzh9fu40","geo_precision":"zip","state":"Gujarat"},"type":"Feature","geometry":{"type":"Point","coordinates":[72.15,21.7666667]}},{"properties":{"city":"Jamnagar","geo_score":0.857,"country":"India","india demand share":0.22,"id":"a62wfztt1qvk","geo_precision":"zip","state":"Gujarat"},"type":"Feature","geometry":{"type":"Point","coordinates":[70.0666667,22.4666667]}},{"properties":{"city":"Faridabad","geo_score":0.857,"country":"India","india demand share":0.54,"id":"a62wfziga4ld","geo_precision":"zip","state":"Haryana"},"type":"Feature","geometry":{"type":"Point","coordinates":[77.3166667,28.4333333]}},{"properties":{"city":"Rohtak","geo_score":0.857,"country":"India","india demand share":0.15,"id":"a62wfzthnktd","geo_precision":"zip","state":"Haryana"},"type":"Feature","geometry":{"type":"Point","coordinates":[76.5666667,28.9]}},{"properties":{"city":"Panipat","geo_score":0.857,"country":"India","india demand share":0.13,"id":"a62wfzs6k9cf","geo_precision":"zip","state":"Haryana"},"type":"Feature","geometry":{"type":"Point","coordinates":[76.9680556,29.3888889]}},{"properties":{"city":"Hisar","geo_score":0.857,"country":"India","india demand share":0.13,"id":"a62wfzq5clgq","geo_precision":"zip","state":"Haryana"},"type":"Feature","geometry":{"type":"Point","coordinates":[75.7166667,29.1666667]}},{"properties":{"city":"Shimla","geo_score":0.857,"country":"India","india demand share":0.17,"id":"a62wfztnc0wi","geo_precision":"zip","state":"Himachal Pradesh"},"type":"Feature","geometry":{"type":"Point","coordinates":[77.1666667,31.1]}},{"properties":{"city":"Srinagar","geo_score":0.857,"country":"India","india demand share":0.25,"id":"a62wfzfu6b0q","geo_precision":"zip","state":"J&amp;K"},"type":"Feature","geometry":{"type":"Point","coordinates":[74.8166667,34.0833333]}},{"properties":{"city":"Ranchi","geo_score":0.857,"country":"India","india demand share":0.22,"id":"a62wfzjui392","geo_precision":"zip","state":"Jharkhand"},"type":"Feature","geometry":{"type":"Point","coordinates":[85.3333333,23.35]}},{"properties":{"city":"Jamshedpur","geo_score":0.857,"country":"India","india demand share":0.14,"id":"a62wfzhh1s7z","geo_precision":"zip","state":"Jharkhand"},"type":"Feature","geometry":{"type":"Point","coordinates":[86.1833333,22.8]}},{"properties":{"city":"Bangalore","geo_score":0.81,"country":"India","india demand share":1.26,"id":"a62wfzklinz3","geo_precision":"zip","state":"Karnataka"},"type":"Feature","geometry":{"type":"Point","coordinates":[77.6032912731171,12.9762266976805]}},{"properties":{"city":"Dharwad","geo_score":0.857,"country":"India","india demand share":0.23,"id":"a62wfzlz1u4n","geo_precision":"zip","state":"Karnataka"},"type":"Feature","geometry":{"type":"Point","coordinates":[75.0166667,15.4666667]}},{"properties":{"city":"Mysuru","geo_score":0.786,"country":"India","india demand share":0.22,"id":"a62wfzkdqmjf","geo_precision":"zip","state":"Karnataka"},"type":"Feature","geometry":{"type":"Point","coordinates":[-92.5004614,38.2503112]}},{"properties":{"city":"Kochi","geo_score":0.857,"country":"India","india demand share":0.26,"id":"a62wfzmauq05","geo_precision":"zip","state":"Kerala"},"type":"Feature","geometry":{"type":"Point","coordinates":[133.55,33.55]}},{"properties":{"city":"Trivandrum","geo_score":0.753,"country":"India","india demand share":0.33,"id":"a62wfzfgla8e","geo_precision":"zip","state":"Kerala"},"type":"Feature","geometry":{"type":"Point","coordinates":[30.45,-27.0166667]}},{"properties":{"city":"Kozhikode","geo_score":0.774,"country":"India","india demand share":0.19,"id":"a62wfztihler","geo_precision":"zip","state":"Kerala"},"type":"Feature","geometry":{"type":"Point","coordinates":[63.5555556,31.4322222]}},{"properties":{"city":"Kollam","geo_score":0.738,"country":"India","india demand share":0.16,"id":"a62wfznajdbr","geo_precision":"zip","state":"Kerala"},"type":"Feature","geometry":{"type":"Point","coordinates":[83.3333333,28.0833333]}},{"properties":{"city":"Thrissur","geo_score":0.786,"country":"India","india demand share":0.14,"id":"a62wfznepuqp","geo_precision":"zip","state":"Kerala"},"type":"Feature","geometry":{"type":"Point","coordinates":[72.9833333,28.5166667]}},{"properties":{"city":"Indore","geo_score":0.857,"country":"India","india demand share":0.58,"id":"a62wfzq5oy51","geo_precision":"zip","state":"Madhya Pradesh"},"type":"Feature","geometry":{"type":"Point","coordinates":[75.8333015441895,22.7179235376322]}},{"properties":{"city":"Bhopal","geo_score":0.857,"country":"India","india demand share":0.52,"id":"a62wfzi6pa0h","geo_precision":"zip","state":"Madhya Pradesh"},"type":"Feature","geometry":{"type":"Point","coordinates":[77.4,23.2666667]}},{"properties":{"city":"Jabalpur","geo_score":0.857,"country":"India","india demand share":0.35,"id":"a62wfzhrnr6f","geo_precision":"zip","state":"Madhya Pradesh"},"type":"Feature","geometry":{"type":"Point","coordinates":[79.9500632286072,23.1669748590236]}},{"properties":{"city":"Gwalior","geo_score":0.857,"country":"India","india demand share":0.3,"id":"a62wfzkew0yf","geo_precision":"zip","state":"Madhya Pradesh"},"type":"Feature","geometry":{"type":"Point","coordinates":[78.1791667,26.2236111]}},{"properties":{"city":"Ujjain","geo_score":0.857,"country":"India","india demand share":0.16,"id":"a62wfzeik082","geo_precision":"zip","state":"Madhya Pradesh"},"type":"Feature","geometry":{"type":"Point","coordinates":[75.7666667,23.1833333]}},{"properties":{"city":"Akola","geo_score":0.857,"country":"India","india demand share":0.13,"id":"a62wfzoy27gu","geo_precision":"zip","state":"Maharashtra"},"type":"Feature","geometry":{"type":"Point","coordinates":[77.0,20.7333333]}},{"properties":{"city":"Mumbai","geo_score":0.857,"country":"India","india demand share":3.98,"id":"a62wfzmoxc3r","geo_precision":"zip","state":"Maharashtra"},"type":"Feature","geometry":{"type":"Point","coordinates":[72.8479385375977,19.0144100168904]}},{"properties":{"city":"Pune","geo_score":0.857,"country":"India","india demand share":0.85,"id":"a62wfztc5sov","geo_precision":"zip","state":"Maharashtra"},"type":"Feature","geometry":{"type":"Point","coordinates":[73.8553547859192,18.5195742288075]}},{"properties":{"city":"Nagpur","geo_score":0.857,"country":"India","india demand share":0.69,"id":"a62wfzi5anqy","geo_precision":"zip","state":"Maharashtra"},"type":"Feature","geometry":{"type":"Point","coordinates":[79.1,21.15]}},{"properties":{"city":"Thane","geo_score":0.857,"country":"India","india demand share":0.42,"id":"a62wfznxazmo","geo_precision":"zip","state":"Maharashtra"},"type":"Feature","geometry":{"type":"Point","coordinates":[72.9666667,19.2]}},{"properties":{"city":"Kalyan","geo_score":0.857,"country":"India","india demand share":0.4,"id":"a62wfzmv7t0f","geo_precision":"zip","state":"Maharashtra"},"type":"Feature","geometry":{"type":"Point","coordinates":[73.15,19.25]}},{"properties":{"city":"Nashik","geo_score":0.786,"country":"India","india demand share":0.36,"id":"a62wfzr4gv8j","geo_precision":"zip","state":"Maharashtra"},"type":"Feature","geometry":{"type":"Point","coordinates":[66.0166667,29.55]}},{"properties":{"city":"Pimpri","geo_score":0.857,"country":"India","india demand share":0.34,"id":"a62wfzoc63p6","geo_precision":"zip","state":"Maharashtra"},"type":"Feature","geometry":{"type":"Point","coordinates":[73.8,18.6166667]}},{"properties":{"city":"Solapur","geo_score":0.857,"country":"India","india demand share":0.29,"id":"a62wfzosh21i","geo_precision":"zip","state":"Maharashtra"},"type":"Feature","geometry":{"type":"Point","coordinates":[75.9166667,17.6833333]}},{"properties":{"city":"Aurangabad","geo_score":0.857,"country":"India","india demand share":0.29,"id":"a62wfzfl3zc5","geo_precision":"zip","state":"Maharashtra"},"type":"Feature","geometry":{"type":"Point","coordinates":[75.3333333,19.8833333]}},{"properties":{"city":"Navi Mumbai","geo_score":0.8,"country":"India","india demand share":0.24,"id":"a62wfzmhgz5k","geo_precision":"zip","state":"Maharashtra"},"type":"Feature","geometry":{"type":"Point","coordinates":[72.8479385375977,19.0144100168904]}},{"properties":{"city":"Bhiwandi","geo_score":0.857,"country":"India","india demand share":0.2,"id":"a62wfzlp6jmp","geo_precision":"zip","state":"Maharashtra"},"type":"Feature","geometry":{"type":"Point","coordinates":[73.0666667,19.3]}},{"properties":{"city":"Amravati","geo_score":0.857,"country":"India","india demand share":0.18,"id":"a62wfzff9uck","geo_precision":"zip","state":"Maharashtra"},"type":"Feature","geometry":{"type":"Point","coordinates":[77.75,20.9333333]}},{"properties":{"city":"Bhayandar","geo_score":0.786,"country":"India","india demand share":0.17,"id":"a62wfztz4cf3","geo_precision":"zip","state":"Maharashtra"},"type":"Feature","geometry":{"type":"Point","coordinates":[-68.75,-54.8666667]}},{"properties":{"city":"Kolhapur","geo_score":0.857,"country":"India","india demand share":0.16,"id":"a62wfzq8ztjb","geo_precision":"zip","state":"Maharashtra"},"type":"Feature","geometry":{"type":"Point","coordinates":[74.2166667,16.7]}},{"properties":{"city":"Ulhasnagar","geo_score":0.857,"country":"India","india demand share":0.16,"id":"a62wfzgifwvb","geo_precision":"zip","state":"Maharashtra"},"type":"Feature","geometry":{"type":"Point","coordinates":[73.15,19.2166667]}},{"properties":{"city":"Sangli","geo_score":0.776,"country":"India","india demand share":0.15,"id":"a62wfzr49gup","geo_precision":"zip","state":"Maharashtra"},"type":"Feature","geometry":{"type":"Point","coordinates":[98.6166667,3.55]}},{"properties":{"city":"Nanded","geo_score":0.755,"country":"India","india demand share":0.14,"id":"a62wfztxxnzp","geo_precision":"zip","state":"Maharashtra"},"type":"Feature","geometry":{"type":"Point","coordinates":[0.4833333,49.6]}},{"properties":{"city":"Malegaon","geo_score":0.857,"country":"India","india demand share":0.14,"id":"a62wfzpoeu81","geo_precision":"zip","state":"Maharashtra"},"type":"Feature","geometry":{"type":"Point","coordinates":[74.5333333,20.55]}},{"properties":{"city":"Bhubaneswar","geo_score":0.752,"country":"India","india demand share":0.35,"id":"a62wfztz8qmi","geo_precision":"zip","state":"Orissa"},"type":"Feature","geometry":{"type":"Point","coordinates":[-65.25,-54.7833333]}},{"properties":{"city":"Cuttack","geo_score":0.857,"country":"India","india demand share":0.29,"id":"a62wfznsdgb6","geo_precision":"zip","state":"Orissa"},"type":"Feature","geometry":{"type":"Point","coordinates":[85.8792686462402,20.464972713141]}},{"properties":{"city":"Brahmapur","geo_score":0.857,"country":"India","india demand share":0.16,"id":"a62wfzq8k3lp","geo_precision":"zip","state":"Orissa"},"type":"Feature","geometry":{"type":"Point","coordinates":[84.7833333,19.3166667]}},{"properties":{"city":"Ludhiana","geo_score":0.857,"country":"India","india demand share":0.5,"id":"a62wfzmrnu7r","geo_precision":"zip","state":"Punjab"},"type":"Feature","geometry":{"type":"Point","coordinates":[75.85,30.9]}},{"properties":{"city":"Amritsar","geo_score":0.857,"country":"India","india demand share":0.35,"id":"a62wfzk0p1kf","geo_precision":"zip","state":"Punjab"},"type":"Feature","geometry":{"type":"Point","coordinates":[74.8655556,31.6330556]}},{"properties":{"city":"Jalandhar","geo_score":0.857,"country":"India","india demand share":0.25,"id":"a62wfzsw2mgf","geo_precision":"zip","state":"Punjab"},"type":"Feature","geometry":{"type":"Point","coordinates":[75.5791667,31.3255556]}},{"properties":{"city":"Jaipur","geo_score":0.857,"country":"India","india demand share":0.82,"id":"a62wfzkgud8c","geo_precision":"zip","state":"Rajasthan"},"type":"Feature","geometry":{"type":"Point","coordinates":[75.8166667,26.9166667]}},{"properties":{"city":"Jodhpur","geo_score":0.857,"country":"India","india demand share":0.3,"id":"a62wfzekh1qb","geo_precision":"zip","state":"Rajasthan"},"type":"Feature","geometry":{"type":"Point","coordinates":[73.03,26.2866667]}},{"properties":{"city":"Kota","geo_score":0.743,"country":"India","india demand share":0.25,"id":"a62wfznavxgk","geo_precision":"zip","state":"Rajasthan"},"type":"Feature","geometry":{"type":"Point","coordinates":[-78.5,-0.2166667]}},{"properties":{"city":"Bikaner","geo_score":0.857,"country":"India","india demand share":0.19,"id":"a62wfzontdk7","geo_precision":"zip","state":"Rajasthan"},"type":"Feature","geometry":{"type":"Point","coordinates":[73.3,28.0166667]}},{"properties":{"city":"Ajmer","geo_score":0.857,"country":"India","india demand share":0.17,"id":"a62wfzu32nby","geo_precision":"zip","state":"Rajasthan"},"type":"Feature","geometry":{"type":"Point","coordinates":[74.6333333,26.45]}},{"properties":{"city":"Udaipur","geo_score":0.857,"country":"India","india demand share":0.14,"id":"a62wfzl2l4bx","geo_precision":"zip","state":"Rajasthan"},"type":"Feature","geometry":{"type":"Point","coordinates":[73.6918258666992,24.5711674515418]}},{"properties":{"city":"Chennai","geo_score":0.857,"country":"India","india demand share":1.47,"id":"a62wfzl5pwgh","geo_precision":"zip","state":"Tamil Nadu"},"type":"Feature","geometry":{"type":"Point","coordinates":[80.2784729003906,13.0878385345075]}},{"properties":{"city":"Coimbatore","geo_score":0.857,"country":"India","india demand share":0.32,"id":"a62wfzr7tulg","geo_precision":"zip","state":"Tamil Nadu"},"type":"Feature","geometry":{"type":"Point","coordinates":[76.9666667,11.0]}},{"properties":{"city":"Madurai","geo_score":0.857,"country":"India","india demand share":0.32,"id":"a62wfznx75fy","geo_precision":"zip","state":"Tamil Nadu"},"type":"Feature","geometry":{"type":"Point","coordinates":[78.1166667,9.9333333]}},{"properties":{"city":"Tiruchirappalli","geo_score":0.756,"country":"India","india demand share":0.26,"id":"a62wfzpih62w","geo_precision":"zip","state":"Tamil Nadu"},"type":"Feature","geometry":{"type":"Point","coordinates":[-73.3333333,-71.4166667]}},{"properties":{"city":"Salem","geo_score":0.857,"country":"India","india demand share":0.24,"id":"a62wfzjrkl20","geo_precision":"zip","state":"Tamil Nadu"},"type":"Feature","geometry":{"type":"Point","coordinates":[78.1666667,11.65]}},{"properties":{"city":"Tirunelveli","geo_score":0.857,"country":"India","india demand share":0.14,"id":"a62wfzgv8ecm","geo_precision":"zip","state":"Tamil Nadu"},"type":"Feature","geometry":{"type":"Point","coordinates":[77.7,8.7333333]}},{"properties":{"city":"Kanpur","geo_score":0.857,"country":"India","india demand share":0.88,"id":"a62wfzg6o8ln","geo_precision":"zip","state":"Uttar Pradesh"},"type":"Feature","geometry":{"type":"Point","coordinates":[80.35,26.4666667]}},{"properties":{"city":"Lucknow","geo_score":0.857,"country":"India","india demand share":0.77,"id":"a62wfzsdbsbp","geo_precision":"zip","state":"Uttar Pradesh"},"type":"Feature","geometry":{"type":"Point","coordinates":[80.9166667,26.85]}},{"properties":{"city":"Agra","geo_score":0.8,"country":"India","india demand share":0.44,"id":"a62wfzjyx5cy","geo_precision":"zip","state":"Uttar Pradesh"},"type":"Feature","geometry":{"type":"Point","coordinates":[-0.2166667,5.55]}},{"properties":{"city":"Varanasi","geo_score":0.75,"country":"India","india demand share":0.38,"id":"a62wfzm0d05w","geo_precision":"zip","state":"Uttar Pradesh"},"type":"Feature","geometry":{"type":"Point","coordinates":[1.6,49.05]}},{"properties":{"city":"Meerut","geo_score":0.857,"country":"India","india demand share":0.37,"id":"a62wfzqsfqbl","geo_precision":"zip","state":"Uttar Pradesh"},"type":"Feature","geometry":{"type":"Point","coordinates":[77.7,28.9833333]}},{"properties":{"city":"Allahabad","geo_score":0.857,"country":"India","india demand share":0.34,"id":"a62wfzjxaijr","geo_precision":"zip","state":"Uttar Pradesh"},"type":"Feature","geometry":{"type":"Point","coordinates":[81.85,25.45]}},{"properties":{"city":"Ghaziabad","geo_score":0.857,"country":"India","india demand share":0.34,"id":"a62wfzjlvll0","geo_precision":"zip","state":"Uttar Pradesh"},"type":"Feature","geometry":{"type":"Point","coordinates":[77.4333333,28.6666667]}},{"properties":{"city":"Bareilly","geo_score":0.857,"country":"India","india demand share":0.24,"id":"a62wfzrqm1bf","geo_precision":"zip","state":"Uttar Pradesh"},"type":"Feature","geometry":{"type":"Point","coordinates":[79.4166667,28.35]}},{"properties":{"city":"Aligarh","geo_score":0.857,"country":"India","india demand share":0.23,"id":"a62wfzjpf7z8","geo_precision":"zip","state":"Uttar Pradesh"},"type":"Feature","geometry":{"type":"Point","coordinates":[78.0833333,27.8833333]}},{"properties":{"city":"Moradabad","geo_score":0.857,"country":"India","india demand share":0.22,"id":"a62wfzit1izj","geo_precision":"zip","state":"Uttar Pradesh"},"type":"Feature","geometry":{"type":"Point","coordinates":[78.7833333,28.8333333]}},{"properties":{"city":"Gorakhpur","geo_score":0.857,"country":"India","india demand share":0.22,"id":"a62wfzog2weg","geo_precision":"zip","state":"Uttar Pradesh"},"type":"Feature","geometry":{"type":"Point","coordinates":[75.6833333,29.45]}},{"properties":{"city":"Saharanpur","geo_score":0.857,"country":"India","india demand share":0.16,"id":"a62wfzpy3w4w","geo_precision":"zip","state":"Uttar Pradesh"},"type":"Feature","geometry":{"type":"Point","coordinates":[77.55,29.9666667]}},{"properties":{"city":"Jhansi","geo_score":0.857,"country":"India","india demand share":0.13,"id":"a62wfzkwcp5i","geo_precision":"zip","state":"Uttar Pradesh"},"type":"Feature","geometry":{"type":"Point","coordinates":[78.5833333,25.4333333]}},{"properties":{"city":"Dehradun","geo_score":0.857,"country":"India","india demand share":0.17,"id":"a62wfzlaxtdg","geo_precision":"zip","state":"Uttaranchal"},"type":"Feature","geometry":{"type":"Point","coordinates":[78.0333333,30.3166667]}},{"properties":{"city":"Kolkata","geo_score":0.768,"country":"India","india demand share":1.61,"id":"a62wfzjpuxak","geo_precision":"zip","state":"West Bengal"},"type":"Feature","geometry":{"type":"Point","coordinates":[88.3697222,22.5697222]}},{"properties":{"city":"Haora","geo_score":0.857,"country":"India","india demand share":0.35,"id":"a62wfzignjko","geo_precision":"zip","state":"West Bengal"},"type":"Feature","geometry":{"type":"Point","coordinates":[88.3102778,22.5891667]}},{"properties":{"city":"Durgapur","geo_score":0.857,"country":"India","india demand share":0.17,"id":"a62wfzk9sz6s","geo_precision":"zip","state":"West Bengal"},"type":"Feature","geometry":{"type":"Point","coordinates":[87.3166667,23.4833333]}},{"properties":{"city":"Asansol","geo_score":0.857,"country":"India","india demand share":0.17,"id":"a62wfzelmuhg","geo_precision":"zip","state":"West Bengal"},"type":"Feature","geometry":{"type":"Point","coordinates":[86.9833333,23.6833333]}},{"properties":{"city":"Siliguri","geo_score":0.778,"country":"India","india demand share":0.17,"id":"a62wfzif9xel","geo_precision":"zip","state":"West Bengal"},"type":"Feature","geometry":{"type":"Point","coordinates":[-39.0565603466667,-8.07868821600001]}},{"properties":{"city":"Bhatpara","geo_score":0.857,"country":"India","india demand share":0.16,"id":"a62wfzh4ty9a","geo_precision":"zip","state":"West Bengal"},"type":"Feature","geometry":{"type":"Point","coordinates":[88.4088889,22.8713889]}},{"properties":{"city":"Dumdum","geo_score":0.81,"country":"India","india demand share":0.14,"id":"a62wfzmm0pne","geo_precision":"zip","state":"West Bengal"},"type":"Feature","geometry":{"type":"Point","coordinates":[88.4169444,22.6222222]}},{"properties":{"city":"Maheshtala","geo_score":0.8,"country":"India","india demand share":0.14,"id":"a62wfzuj31lx","geo_precision":"zip","state":"West Bengal"},"type":"Feature","geometry":{"type":"Point","coordinates":[87.9833333,22.1833333]}}],"is_temporal":false,"author":{"url":"","metadata":"","contact_name":"","contact_address":"","source":"","contact_phone":""},"source":"","pagination":{"sort":null,"start":0,"total":100,"limit":1000000},"state":"complete","tags":"","published":"2014-08-14T17:27:05-04:00","id":241952}