{"type":"FeatureCollection","data_type":"Dataset","url_type":null,"permissions":[{"permissions":{"download":true,"view":true},"group_id":"everyone"}],"classification":null,"title":"stores","count":73,"stream_id":242491,"contributor":{"url":"http://geocommons.com/users/45299","name":"ryankelly415"},"data_attributes":null,"calculation_params":null,"icon_link":null,"link":"http://geocommons.com/overlays/242491.json","extent":[-122.814,32.7928,-111.891,40.5865],"geometry_types":["point"],"unique_name":null,"name":"stores","feature_count":73,"description":"","next_feature":null,"is_raster":false,"short_classification":"Y","stats":{},"features":[{"properties":{"name":"Fremont","zip":"94538","county":"Alameda","geo_score":0.49,"sunday":"Y","id":"a671skxss0u9","geo_precision":"street","address":"43349 Pacific Commons Blvd., Fremont, CA 94538","state":"CA","streetaddress":"43349 Pacific Commons Blvd."},"type":"Feature","geometry":{"type":"Point","coordinates":[-121.953481,37.527701]}},{"properties":{"name":"Livermore","zip":"94550","county":"Alameda","geo_score":0.536,"sunday":"Y","id":"a671skp9ig4h","geo_precision":"street","address":"1881 N. Livermore Ave., Livermore, CA 94550","state":"CA","streetaddress":"1881 N. Livermore Ave."},"type":"Feature","geometry":{"type":"Point","coordinates":[-121.771176,37.683994]}},{"properties":{"name":"Pleasanton","zip":"94588","county":"Alameda","geo_score":0.429,"sunday":"Y","id":"a671skuyqwc7","geo_precision":"street","address":"6015 Johnson Dr., Pleasanton, CA 94588","state":"CA","streetaddress":"6015 Johnson Dr."},"type":"Feature","geometry":{"type":"Point","coordinates":[-121.906791,37.692271]}},{"properties":{"name":"San Leandro","zip":"94579","county":"Alameda","geo_score":0.49,"sunday":"N","id":"a671sl2vc899","geo_precision":"street","address":"15575 Hesperian Blvd., San Leandro, CA 94579","state":"CA","streetaddress":"15575 Hesperian Blvd."},"type":"Feature","geometry":{"type":"Point","coordinates":[-122.15578,37.702218]}},{"properties":{"name":"Union City","zip":"94587","county":"Alameda","geo_score":0.49,"sunday":"Y","id":"a671sl27auak","geo_precision":"street","address":"32060 Union Landing Blvd., Union City, CA 94587","state":"CA","streetaddress":"32060 Union Landing Blvd."},"type":"Feature","geometry":{"type":"Point","coordinates":[-122.021907,37.605657]}},{"properties":{"name":"Chico","zip":"95928","county":"Butte","geo_score":0.643,"sunday":"N","id":"a671skw6tirg","geo_precision":"street","address":"2050 Business Ln., Chico, CA 95928","state":"CA","streetaddress":"2050 Business Ln."},"type":"Feature","geometry":{"type":"Point","coordinates":[-121.806141,39.7273]}},{"properties":{"name":"Henderson","zip":"89014","county":"Clark","geo_score":0.333,"sunday":"N","id":"a671sl1n5t63","geo_precision":"street","address":"1051 W. Sunset Rd., Henderson, CA 89014","state":"CA","streetaddress":"1051 W. Sunset Rd."},"type":"Feature","geometry":{"type":"Point","coordinates":[-115.068686,36.072666]}},{"properties":{"name":"Placerville","zip":"95667","county":"El Dorado","geo_score":0.857,"sunday":"N","id":"a671sl0tocfn","geo_precision":"street","address":"3055 Forni Road, Placerville, CA 95667","state":"CA","streetaddress":"3055 Forni Road"},"type":"Feature","geometry":{"type":"Point","coordinates":[-120.811168,38.728395]}},{"properties":{"name":"Clovis","zip":"93612","county":"Fresno","geo_score":0.471,"sunday":"Y","id":"a671sl3nkxti","geo_precision":"street","address":"382 N. Clovis Ave., Clovis, CA 93612","state":"CA","streetaddress":"382 N. Clovis Ave."},"type":"Feature","geometry":{"type":"Point","coordinates":[-119.699979,36.833912]}},{"properties":{"name":"El Centro","zip":"92243","county":"Imperial","geo_score":0.5,"sunday":"N","id":"a671skt6m2qc","geo_precision":"street","address":"2390 S. 4th St., El Centro, CA 92243","state":"CA","streetaddress":"2390 S. 4th St."},"type":"Feature","geometry":{"type":"Point","coordinates":[-115.552512,32.792837]}},{"properties":{"name":"Bakersfield","zip":"93307","county":"Kern","geo_score":0.49,"sunday":"Y","id":"a671sl0jyf0s","geo_precision":"street","address":"2310 Panama Ln., Bakersfield, CA 93307","state":"CA","streetaddress":"2310 Panama Ln."},"type":"Feature","geometry":{"type":"Point","coordinates":[-118.99193,35.347602]}},{"properties":{"name":"Bakersfield","zip":"93309","county":"Kern","geo_score":0.5,"sunday":"Y","id":"a671skvcr0fr","geo_precision":"street","address":"5100 Stockdale Hwy., Bakersfield, CA 93309","state":"CA","streetaddress":"5100 Stockdale Hwy."},"type":"Feature","geometry":{"type":"Point","coordinates":[-119.077592,35.35447]}},{"properties":{"name":"Kettleman City","zip":"93239","county":"Kings","geo_score":0.471,"sunday":"N","id":"a671skwaatk5","geo_precision":"street","address":"Highway 41 at Bernard Dr., Kettleman City, CA 93239","state":"CA","streetaddress":"Highway 41 at Bernard Dr."},"type":"Feature","geometry":{"type":"Point","coordinates":[-119.959324,36.007287]}},{"properties":{"name":"Arcadia","zip":"91006","county":"Los Angeles","geo_score":0.462,"sunday":"N","id":"a671skqfches","geo_precision":"street","address":"420 N. Santa Anita Ave., Arcadia, CA 91006","state":"CA","streetaddress":"420 N. Santa Anita Ave."},"type":"Feature","geometry":{"type":"Point","coordinates":[-118.031424,34.140048]}},{"properties":{"name":"Woodland Hills","zip":"91364","county":"Los Angeles","geo_score":0.457,"sunday":"Y","id":"a671skzf9ri8","geo_precision":"street","address":"19920 Ventura Blvd., Woodland Hills, CA 91364","state":"CA","streetaddress":"19920 Ventura Blvd."},"type":"Feature","geometry":{"type":"Point","coordinates":[-118.601979,34.142897]}},{"properties":{"name":"Peoria","zip":"85382","county":"Maricopa","geo_score":0.347,"sunday":"N","id":"a671skpcd3ta","geo_precision":"street","address":"8285 W. Bell Rd., Peoria, CA 85382","state":"CA","streetaddress":"8285 W. Bell Rd."},"type":"Feature","geometry":{"type":"Point","coordinates":[-112.236032,33.638169]}},{"properties":{"name":"Mill Valley","zip":"94941","county":"Marin","geo_score":0.482,"sunday":"Y","id":"a671sl2dg9vk","geo_precision":"street","address":"798 Redwood Hwy., Mill Valley, CA 94941","state":"CA","streetaddress":"798 Redwood Hwy."},"type":"Feature","geometry":{"type":"Point","coordinates":[-122.516426,37.904289]}},{"properties":{"name":"Merced","zip":"95340","county":"Merced","geo_score":0.49,"sunday":"N","id":"a671skqgbhy5","geo_precision":"street","address":"1579 Martin Luther King Jr. Way, Merced, CA 95340","state":"CA","streetaddress":"1579 Martin Luther King Jr. Way"},"type":"Feature","geometry":{"type":"Point","coordinates":[-120.487414,37.288232]}},{"properties":{"name":"Kingman","zip":"86409","county":"Mohave","geo_score":0.0,"sunday":"N","id":"a671sl1bs9bo","geo_precision":"unmatched","address":"1770 E. Beverly Ave., Kingman, CA 86409","state":"CA","streetaddress":"1770 E. Beverly Ave."},"type":"Feature","geometry":null},{"properties":{"name":"Lake Havasu","zip":"86403","county":"Mohave","geo_score":0.316,"sunday":"Y","id":"a671skvs0317","geo_precision":"street","address":"81-101 London Bridge Rd., Lake Havasu, CA 86403","state":"CA","streetaddress":"81-101 London Bridge Rd."},"type":"Feature","geometry":{"type":"Point","coordinates":[-114.342813,34.472913]}},{"properties":{"name":"Salinas","zip":"93905","county":"Monterey","geo_score":0.857,"sunday":"N","id":"a671skp3a8d4","geo_precision":"street","address":"151 Kern St., Salinas, CA 93905","state":"CA","streetaddress":"151 Kern St."},"type":"Feature","geometry":{"type":"Point","coordinates":[-121.640393,36.679452]}},{"properties":{"name":"Napa","zip":"94559","county":"Napa","geo_score":0.714,"sunday":"N","id":"a671sktpan4q","geo_precision":"street","address":"820 Imola Ave., Napa, CA 94559","state":"CA","streetaddress":"820 Imola Ave."},"type":"Feature","geometry":{"type":"Point","coordinates":[-122.285072,38.304275]}},{"properties":{"name":"Anaheim","zip":"92804","county":"Orange","geo_score":0.464,"sunday":"N","id":"a671skrcl4sj","geo_precision":"street","address":"600 S. Brookhurst St., Anaheim, CA 92804","state":"CA","streetaddress":"600 S. Brookhurst St."},"type":"Feature","geometry":{"type":"Point","coordinates":[-117.958955,33.832527]}},{"properties":{"name":"Tustin","zip":"92782","county":"Orange","geo_score":0.429,"sunday":"Y","id":"a671skzcvear","geo_precision":"street","address":"3020 El Camino Real, Tustin, CA 92782","state":"CA","streetaddress":"3020 El Camino Real"},"type":"Feature","geometry":{"type":"Point","coordinates":[-117.77594,33.75042]}},{"properties":{"name":"Westminster","zip":"92683","county":"Orange","geo_score":0.429,"sunday":"Y","id":"a671sks349df","geo_precision":"street","address":"6292 Westminster Blvd., Westminster, CA 92683","state":"CA","streetaddress":"6292 Westminster Blvd."},"type":"Feature","geometry":{"type":"Point","coordinates":[-118.01405,33.7496]}},{"properties":{"name":"Oro Valley","zip":"85755","county":"Pima","geo_score":0.0,"sunday":"Y","id":"a671skw50lrl","geo_precision":"unmatched","address":"11545 N. Oracle Rd., Oro Valley, CA 85755","state":"CA","streetaddress":"11545 N. Oracle Rd."},"type":"Feature","geometry":null},{"properties":{"name":"Auburn","zip":"95603","county":"Placer","geo_score":0.714,"sunday":"Y","id":"a671sknonpv4","geo_precision":"street","address":"130 Grass Valley Hwy., Auburn, CA 95603","state":"CA","streetaddress":"130 Grass Valley Hwy."},"type":"Feature","geometry":{"type":"Point","coordinates":[-120.950834,39.096834]}},{"properties":{"name":"Roseville","zip":"95661","county":"Placer","geo_score":0.408,"sunday":"Y","id":"a671skv9z2ng","geo_precision":"street","address":"1803 Taylor Rd., Roseville, CA 95661","state":"CA","streetaddress":"1803 Taylor Rd."},"type":"Feature","geometry":{"type":"Point","coordinates":[-121.106407,38.937395]}},{"properties":{"name":"Corona","zip":"92881","county":"Riverside","geo_score":0.471,"sunday":"N","id":"a671skr93dll","geo_precision":"street","address":"2305 Compton Ave., Corona, CA 92881","state":"CA","streetaddress":"2305 Compton Ave."},"type":"Feature","geometry":{"type":"Point","coordinates":[-117.53701,33.859612]}},{"properties":{"name":"Thousand Palms","zip":"92276","county":"Riverside","geo_score":0.482,"sunday":"Y","id":"a671skupnuzy","geo_precision":"street","address":"72265 Varner Rd., Thousand Palms, CA 92276","state":"CA","streetaddress":"72265 Varner Rd."},"type":"Feature","geometry":{"type":"Point","coordinates":[-116.423348,33.835761]}},{"properties":{"name":"Elk Grove","zip":"95624","county":"Sacramento","geo_score":0.5,"sunday":"N","id":"a671sl32mrwl","geo_precision":"street","address":"9188 E. Stockton Blvd., Elk Grove, CA 95624","state":"CA","streetaddress":"9188 E. Stockton Blvd."},"type":"Feature","geometry":{"type":"Point","coordinates":[-121.382722,38.417322]}},{"properties":{"name":"Sacramento","zip":"95841","county":"Sacramento","geo_score":0.471,"sunday":"N","id":"a671sknsapcg","geo_precision":"street","address":"4600 Madison Ave., Sacramento, CA 95841","state":"CA","streetaddress":"4600 Madison Ave."},"type":"Feature","geometry":{"type":"Point","coordinates":[-121.359841,38.660996]}},{"properties":{"name":"Draper","zip":"84020","county":"Salt Lake","geo_score":0.347,"sunday":"N","id":"a671skvqbh2a","geo_precision":"street","address":"12191 S. State St., Draper, CA 84020","state":"CA","streetaddress":"12191 S. State St."},"type":"Feature","geometry":{"type":"Point","coordinates":[-111.890723,40.537015]}},{"properties":{"name":"San Bernardino","zip":"92410","county":"San Bernardino","geo_score":0.468,"sunday":"Y","id":"a671skubllls","geo_precision":"street","address":"190 Bungalow Ct., San Bernardino, CA 92410","state":"CA","streetaddress":"190 Bungalow Ct."},"type":"Feature","geometry":{"type":"Point","coordinates":[-117.299966,34.102726]}},{"properties":{"name":"Carlsbad","zip":"92008","county":"San Diego","geo_score":0.551,"sunday":"N","id":"a671skwpmry5","geo_precision":"street","address":"5950 Avenida Encinas, Carlsbad, CA 92008","state":"CA","streetaddress":"5950 Avenida Encinas"},"type":"Feature","geometry":{"type":"Point","coordinates":[-117.293822,33.174261]}},{"properties":{"name":"Vista","zip":"92081","county":"San Diego","geo_score":0.0,"sunday":"Y","id":"a671skzdmhbh","geo_precision":"unmatched","address":"2010 Hacienda Dr., Vista, CA 92081","state":"CA","streetaddress":"2010 Hacienda Dr."},"type":"Feature","geometry":null},{"properties":{"name":"San Francisco","zip":"94133","county":"San Francisco","geo_score":0.468,"sunday":"Y","id":"a671skxr17ga","geo_precision":"street","address":"333 Jefferson St., San Francisco, CA 94133","state":"CA","streetaddress":"333 Jefferson St."},"type":"Feature","geometry":{"type":"Point","coordinates":[-122.405357,37.805696]}},{"properties":{"name":"Lodi","zip":"95242","county":"San Joaquin","geo_score":0.464,"sunday":"N","id":"a671skwqpjf8","geo_precision":"street","address":"2625 W. Kettleman Ln., Lodi, CA 95242","state":"CA","streetaddress":"2625 W. Kettleman Ln."},"type":"Feature","geometry":{"type":"Point","coordinates":[-121.275964,38.115502]}},{"properties":{"name":"Tracy","zip":"95376","county":"San Joaquin","geo_score":0.667,"sunday":"N","id":"a671sl2amjue","geo_precision":"street","address":"575 Clover Rd., Tracy, CA 95376","state":"CA","streetaddress":"575 Clover Rd."},"type":"Feature","geometry":{"type":"Point","coordinates":[-121.434859,37.733641]}},{"properties":{"name":"Arroyo Grande","zip":"93420","county":"San Luis Obispo","geo_score":0.476,"sunday":"Y","id":"a671skv0njme","geo_precision":"street","address":"1170 W. Branch St., Arroyo Grande, CA 93420","state":"CA","streetaddress":"1170 W. Branch St."},"type":"Feature","geometry":{"type":"Point","coordinates":[-120.582325,35.122416]}},{"properties":{"name":"Atascadero","zip":"93422","county":"San Luis Obispo","geo_score":0.5,"sunday":"N","id":"a671skqgdm2u","geo_precision":"street","address":"6000 San Anselmo Rd., Atascadero, CA 93422","state":"CA","streetaddress":"6000 San Anselmo Rd."},"type":"Feature","geometry":{"type":"Point","coordinates":[-120.639997,35.439264]}},{"properties":{"name":"Daly City","zip":"94015","county":"San Mateo","geo_score":0.464,"sunday":"Y","id":"a671skq9y438","geo_precision":"street","address":"260 Washington Street, Daly City, CA 94015","state":"CA","streetaddress":"260 Washington Street"},"type":"Feature","geometry":{"type":"Point","coordinates":[-122.468688,37.687908]}},{"properties":{"name":"San Carlos","zip":"94070","county":"San Mateo","geo_score":0.429,"sunday":"N","id":"a671skwaw2dy","geo_precision":"street","address":"445 Industrial Rd.*, San Carlos, CA 94070","state":"CA","streetaddress":"445 Industrial Rd.*"},"type":"Feature","geometry":{"type":"Point","coordinates":[-122.259937,37.513586]}},{"properties":{"name":"Goleta","zip":"93111","county":"Santa Barbara","geo_score":0.551,"sunday":"N","id":"a671skpcycft","geo_precision":"street","address":"4865 Calle Real, Goleta, CA 93111","state":"CA","streetaddress":"4865 Calle Real"},"type":"Feature","geometry":{"type":"Point","coordinates":[-119.789361,34.443861]}},{"properties":{"name":"Santa Maria","zip":"93454","county":"Santa Barbara","geo_score":0.471,"sunday":"Y","id":"a671skq2mhn2","geo_precision":"street","address":"1330 S. Bradley Rd., Santa Maria, CA 93454","state":"CA","streetaddress":"1330 S. Bradley Rd."},"type":"Feature","geometry":{"type":"Point","coordinates":[-120.418131,34.952963]}},{"properties":{"name":"Gilroy","zip":"95020","county":"Santa Clara","geo_score":0.662,"sunday":"N","id":"a671sks2klir","geo_precision":"street","address":"641 Leavesley Rd., Gilroy, CA 95020","state":"CA","streetaddress":"641 Leavesley Rd."},"type":"Feature","geometry":{"type":"Point","coordinates":[-121.566283,37.005901]}},{"properties":{"name":"Milpitas","zip":"95035","county":"Santa Clara","geo_score":0.857,"sunday":"N","id":"a671skv7vfsi","geo_precision":"street","address":"50 Ranch Dr., Milpitas, CA 95035","state":"CA","streetaddress":"50 Ranch Dr."},"type":"Feature","geometry":{"type":"Point","coordinates":[-121.924065,37.426204]}},{"properties":{"name":"Morgan Hill","zip":"95037","county":"Santa Clara","geo_score":0.506,"sunday":"N","id":"a671skom9qb1","geo_precision":"street","address":"895 Cochrane Road , Morgan Hill, CA 95037","state":"CA","streetaddress":"895 Cochrane Road"},"type":"Feature","geometry":{"type":"Point","coordinates":[-121.66416,37.146779]}},{"properties":{"name":"Mountain View","zip":"94043","county":"Santa Clara","geo_score":0.459,"sunday":"Y","id":"a671sl2y2olz","geo_precision":"street","address":"1159 N. Rengstorff Ave., Mountain View, CA 94043","state":"CA","streetaddress":"1159 N. Rengstorff Ave."},"type":"Feature","geometry":{"type":"Point","coordinates":[-122.09736,37.403159]}},{"properties":{"name":"Mountain View","zip":"94040","county":"Santa Clara","geo_score":0.462,"sunday":"Y","id":"a671sktxmami","geo_precision":"street","address":"53 W. El Camino Real, Mountain View, CA 94040","state":"CA","streetaddress":"53 W. El Camino Real"},"type":"Feature","geometry":{"type":"Point","coordinates":[-122.06914,37.37865]}},{"properties":{"name":"San Jose","zip":"95148","county":"Santa Clara","geo_score":0.468,"sunday":"Y","id":"a671sks66nsc","geo_precision":"street","address":"2950 E. Capitol Expressway, San Jose, CA 95148","state":"CA","streetaddress":"2950 E. Capitol Expressway"},"type":"Feature","geometry":{"type":"Point","coordinates":[-121.818687,37.339175]}},{"properties":{"name":"San Jose","zip":"95110","county":"Santa Clara","geo_score":0.429,"sunday":"Y","id":"a671sko8ivmy","geo_precision":"street","address":"550 Newhall Dr., San Jose, CA 95110","state":"CA","streetaddress":"550 Newhall Dr."},"type":"Feature","geometry":{"type":"Point","coordinates":[-121.92179,37.348292]}},{"properties":{"name":"San Jose","zip":"95123","county":"Santa Clara","geo_score":0.49,"sunday":"Y","id":"a671skzzr19f","geo_precision":"street","address":"5611 Santa Teresa Blvd., San Jose, CA 95123","state":"CA","streetaddress":"5611 Santa Teresa Blvd."},"type":"Feature","geometry":{"type":"Point","coordinates":[-121.821899,37.255464]}},{"properties":{"name":"Santa Clara","zip":"95054","county":"Santa Clara","geo_score":0.495,"sunday":"N","id":"a671sky8phdc","geo_precision":"street","address":"3001 Mission College Blvd., Santa Clara, CA 95054","state":"CA","streetaddress":"3001 Mission College Blvd."},"type":"Feature","geometry":{"type":"Point","coordinates":[-121.963436,37.393851]}},{"properties":{"name":"Sunnyvale","zip":"94087","county":"Santa Clara","geo_score":0.464,"sunday":"Y","id":"a671skrawuxk","geo_precision":"street","address":"604 E. El Camino Real, Sunnyvale, CA 94087","state":"CA","streetaddress":"604 E. El Camino Real"},"type":"Feature","geometry":{"type":"Point","coordinates":[-122.01127,37.351941]}},{"properties":{"name":"Redding","zip":"96003","county":"Shasta","geo_score":0.857,"sunday":"N","id":"a671sl1lqeo8","geo_precision":"street","address":"1275 Dana Drive, Redding, CA 96003","state":"CA","streetaddress":"1275 Dana Drive"},"type":"Feature","geometry":{"type":"Point","coordinates":[-122.357959,40.586527]}},{"properties":{"name":"Fairfield","zip":"94534","county":"Solano","geo_score":0.429,"sunday":"N","id":"a671sknif1ug","geo_precision":"street","address":"1364 Holiday Ln., Fairfield, CA 94534","state":"CA","streetaddress":"1364 Holiday Ln."},"type":"Feature","geometry":{"type":"Point","coordinates":[-122.065069,38.258314]}},{"properties":{"name":"Vacaville","zip":"95687","county":"Solano","geo_score":0.429,"sunday":"N","id":"a671skwa6j1e","geo_precision":"street","address":"170 Nut Tree Pkwy., Vacaville, CA 95687","state":"CA","streetaddress":"170 Nut Tree Pkwy."},"type":"Feature","geometry":{"type":"Point","coordinates":[-121.979161,38.341792]}},{"properties":{"name":"Petaluma","zip":"94952","county":"Sonoma","geo_score":0.49,"sunday":"Y","id":"a671sl1lj579","geo_precision":"street","address":"1010 Lakeville St. , Petaluma, CA 94952","state":"CA","streetaddress":"1010 Lakeville St."},"type":"Feature","geometry":{"type":"Point","coordinates":[-122.637637,38.233584]}},{"properties":{"name":"Rohnert Park","zip":"94928","county":"Sonoma","geo_score":0.429,"sunday":"N","id":"a671skplisdf","geo_precision":"street","address":"5145 Redwood Dr., Rohnert Park, CA 94928","state":"CA","streetaddress":"5145 Redwood Dr."},"type":"Feature","geometry":{"type":"Point","coordinates":[-122.714969,38.363292]}},{"properties":{"name":"Santa Rosa","zip":"95401","county":"Sonoma","geo_score":0.49,"sunday":"Y","id":"a671sl35jorz","geo_precision":"street","address":"2131 County Center Dr., Santa Rosa, CA 95401","state":"CA","streetaddress":"2131 County Center Dr."},"type":"Feature","geometry":{"type":"Point","coordinates":[-122.814217,38.452435]}},{"properties":{"name":"Modesto","zip":"95356","county":"Stanislaus","geo_score":0.464,"sunday":"Y","id":"a671skyvnzi4","geo_precision":"street","address":"3900 Pelandale Ave., Modesto, CA 95356","state":"CA","streetaddress":"3900 Pelandale Ave."},"type":"Feature","geometry":{"type":"Point","coordinates":[-120.997525,37.700064]}},{"properties":{"name":"Turlock","zip":"95380","county":"Stanislaus","geo_score":0.49,"sunday":"N","id":"a671skorimpp","geo_precision":"street","address":"3071 Countryside Dr., Turlock, CA 95380","state":"CA","streetaddress":"3071 Countryside Dr."},"type":"Feature","geometry":{"type":"Point","coordinates":[-120.844304,37.490189]}},{"properties":{"name":"Yuba City","zip":"95993","county":"Sutter","geo_score":0.49,"sunday":"N","id":"a671skzj27ja","geo_precision":"street","address":"1375 Sunsweet Blvd., Yuba City, CA 95993","state":"CA","streetaddress":"1375 Sunsweet Blvd."},"type":"Feature","geometry":{"type":"Point","coordinates":[-121.668939,39.155076]}},{"properties":{"name":"Visalia","zip":"93277","county":"Tulare","geo_score":0.468,"sunday":"Y","id":"a671sksl55du","geo_precision":"street","address":"1933 S. Mooney Blvd., Visalia, CA 93277","state":"CA","streetaddress":"1933 S. Mooney Blvd."},"type":"Feature","geometry":{"type":"Point","coordinates":[-119.31324,36.272991]}},{"properties":{"name":"Camarillo","zip":"93010","county":"Ventura","geo_score":0.506,"sunday":"N","id":"a671skv3bxvp","geo_precision":"street","address":"1316 Ventura Blvd., Camarillo, CA 93010","state":"CA","streetaddress":"1316 Ventura Blvd."},"type":"Feature","geometry":{"type":"Point","coordinates":[-119.052963,34.241605]}},{"properties":{"name":"Moorpark","zip":"93021","county":"Ventura","geo_score":0.468,"sunday":"Y","id":"a671skv7tz82","geo_precision":"street","address":"856 Los Angeles Ave., Moorpark, CA 93021","state":"CA","streetaddress":"856 Los Angeles Ave."},"type":"Feature","geometry":{"type":"Point","coordinates":[-118.882097,34.278867]}},{"properties":{"name":"Newbury Park","zip":"91320","county":"Ventura","geo_score":0.551,"sunday":"N","id":"a671sknczslh","geo_precision":"street","address":"1550 Newbury Rd., Newbury Park, CA 91320","state":"CA","streetaddress":"1550 Newbury Rd."},"type":"Feature","geometry":{"type":"Point","coordinates":[-118.946502,34.180222]}},{"properties":{"name":"Oxnard","zip":"93030","county":"Ventura","geo_score":0.429,"sunday":"N","id":"a671skt85uwi","geo_precision":"street","address":"381 W. Esplanade, Oxnard, CA 93030","state":"CA","streetaddress":"381 W. Esplanade"},"type":"Feature","geometry":{"type":"Point","coordinates":[-119.191625,34.202587]}},{"properties":{"name":"Simi Valley","zip":"93063","county":"Ventura","geo_score":0.49,"sunday":"Y","id":"a671skzl54tf","geo_precision":"street","address":"2600 Stearns St., Simi Valley, CA 93063","state":"CA","streetaddress":"2600 Stearns St."},"type":"Feature","geometry":{"type":"Point","coordinates":[-118.666477,34.268115]}},{"properties":{"name":"Davis","zip":"95616","county":"Yolo","geo_score":0.857,"sunday":"N","id":"a671sl2ljrf8","geo_precision":"street","address":"1020 Olive Dr., Davis, CA 95616","state":"CA","streetaddress":"1020 Olive Dr."},"type":"Feature","geometry":{"type":"Point","coordinates":[-121.738582,38.540807]}},{"properties":{"name":"West Sacramento","zip":"95605","county":"Yolo","geo_score":0.5,"sunday":"N","id":"a671skv3yvnj","geo_precision":"street","address":"780 Ikea Court, West Sacramento, CA 95605","state":"CA","streetaddress":"780 Ikea Court"},"type":"Feature","geometry":{"type":"Point","coordinates":[-121.509097,38.588421]}},{"properties":{"name":"Woodland","zip":"95776","county":"Yolo","geo_score":0.49,"sunday":"Y","id":"a671skqbdf38","geo_precision":"street","address":"2011 Bronze Star Dr., Woodland, CA 95776","state":"CA","streetaddress":"2011 Bronze Star Dr."},"type":"Feature","geometry":{"type":"Point","coordinates":[-121.762124,38.678625]}}],"is_temporal":false,"author":{"url":"","metadata":null,"contact_name":null,"contact_address":null,"source":null,"contact_phone":null},"source":"","pagination":{"sort":null,"start":0,"total":73,"limit":1000000},"state":"complete","tags":"","published":"2014-08-14T18:13:18-04:00","id":242491}