{"type":"FeatureCollection","data_type":"Dataset","url_type":null,"permissions":[{"permissions":{"download":true,"view":true},"group_id":"everyone"}],"classification":null,"title":"mwctestdata","count":499,"stream_id":242956,"contributor":{"url":"http://geocommons.com/users/45969","name":"lauren@harvestretailmarketing.com"},"data_attributes":null,"calculation_params":null,"icon_link":null,"link":"http://geocommons.com/overlays/242956.json","extent":[-91.0337,37.7113,-87.7481,42.0998],"geometry_types":["point"],"unique_name":null,"name":"mwctestdata","feature_count":499,"description":"","next_feature":null,"is_raster":false,"short_classification":"Y","stats":{"level":{"max":4,"mean":2.88577154308617,"variance":0.731905578224724,"stdev":0.855514803042428,"min":1,"median":3}},"features":[{"properties":{"city":"Arnold","name":"Trek Store","zip":"63010","last visit":"5/16/12","geo_score":0.927,"level":1,"id":"a62dc2ceijyz","geo_precision":"range","address":"2194 Michigan Avenue","state":"MO"},"type":"Feature","geometry":{"type":"Point","coordinates":[-90.38041,38.435968]}},{"properties":{"city":"Arnold","name":"Steven Wright","zip":"63010","last visit":"5/14/2012","geo_score":0.698,"level":1,"id":"a62dc273z8ab","geo_precision":"range","address":"132 Stone Oaks Dr","state":"MO"},"type":"Feature","geometry":{"type":"Point","coordinates":[-90.529215,38.614711]}},{"properties":{"city":"Saint Louis","name":"Mark Reinking","zip":"63128","last visit":"5/11/2012","geo_score":0.776,"level":1,"id":"a62dc24pkpy1","geo_precision":"range","address":"13360 East Ln","state":"MO"},"type":"Feature","geometry":{"type":"Point","coordinates":[-90.37566,38.485104]}},{"properties":{"city":"Saint Louis","name":"Jeff Elliott","zip":"63129","last visit":"5/8/2012","geo_score":0.845,"level":1,"id":"a62dc28loc4y","geo_precision":"range","address":"4329 Forder Gardens Pl Apt A","state":"MO"},"type":"Feature","geometry":{"type":"Point","coordinates":[-90.328532,38.499781]}},{"properties":{"city":"Saint Louis","name":"Brian Rodenbeck","zip":"63125","last visit":"5/6/2012","geo_score":0.956,"level":1,"id":"a62dc27513g0","geo_precision":"range","address":"1021 Victory Dr","state":"MO"},"type":"Feature","geometry":{"type":"Point","coordinates":[-90.314243,38.507303]}},{"properties":{"city":"Saint Louis","name":"Scott Meyer","zip":"63129","last visit":"5/5/2012","geo_score":0.83,"level":1,"id":"a62dc20yxse9","geo_precision":"range","address":"752 Forder Crossing Ct","state":"MO"},"type":"Feature","geometry":{"type":"Point","coordinates":[-90.315963,38.48874]}},{"properties":{"city":"Arnold","name":"Robert Leeling","zip":"63010","last visit":"5/5/2012","geo_score":0.927,"level":1,"id":"a62dc2867h9k","geo_precision":"range","address":"1106 Airglades Dr","state":"MO"},"type":"Feature","geometry":{"type":"Point","coordinates":[-90.354716,38.419099]}},{"properties":{"city":"Arnold","name":"John Senn","zip":"63010","last visit":"5/5/2012","geo_score":0.927,"level":1,"id":"a62dc24muxux","geo_precision":"range","address":"2147 Braxton Ct","state":"MO"},"type":"Feature","geometry":{"type":"Point","coordinates":[-90.397736,38.428295]}},{"properties":{"city":"Saint Louis","name":"Ron Hummel","zip":"63129","last visit":"5/4/2012","geo_score":0.877,"level":1,"id":"a62dc28c8l4w","geo_precision":"range","address":"6845 River Hollow Ct","state":"MO"},"type":"Feature","geometry":{"type":"Point","coordinates":[-90.311317,38.438338]}},{"properties":{"city":"Saint Louis","name":"Brad Loyet","zip":"63129","last visit":"5/3/2012","geo_score":0.605,"level":1,"id":"a62dc2da3ffu","geo_precision":"zip","address":"8112 Pinetop Dr","state":"MO"},"type":"Feature","geometry":{"type":"Point","coordinates":[-90.304561,38.470053]}},{"properties":{"city":"Saint Louis","name":"Joe Rideout","zip":"63129","last visit":"5/3/2012","geo_score":0.922,"level":1,"id":"a62dc293k6ir","geo_precision":"range","address":"6157 Clovergreen Pl","state":"MO"},"type":"Feature","geometry":{"type":"Point","coordinates":[-90.363499,38.465873]}},{"properties":{"city":"Arnold","name":"Keith Rickman","zip":"63010","last visit":"5/2/2012","geo_score":0.927,"level":1,"id":"a62dc26x8noi","geo_precision":"range","address":"1440 Apple Ridge Ct","state":"MO"},"type":"Feature","geometry":{"type":"Point","coordinates":[-90.367909,38.40068]}},{"properties":{"city":"Arnold","name":"Marvin Hargis","zip":"63010","last visit":"5/2/2012","geo_score":0.927,"level":1,"id":"a62dc22akvr7","geo_precision":"range","address":"3820 Dewey Ave","state":"MO"},"type":"Feature","geometry":{"type":"Point","coordinates":[-90.431067,38.447869]}},{"properties":{"city":"Saint Louis","name":"Jeffrey Long","zip":"63129","last visit":"5/2/2012","geo_score":0.922,"level":1,"id":"a62dc222arh2","geo_precision":"range","address":"2561 Grayland Walk","state":"MO"},"type":"Feature","geometry":{"type":"Point","coordinates":[-90.306682,38.484633]}},{"properties":{"city":"Saint Louis","name":"Paul Schulte","zip":"63128","last visit":"5/2/2012","geo_score":0.922,"level":1,"id":"a62dc1zuouhq","geo_precision":"range","address":"4725 McIlroy Dr","state":"MO"},"type":"Feature","geometry":{"type":"Point","coordinates":[-90.37419,38.478002]}},{"properties":{"city":"Saint Louis","name":"Andy Reitter","zip":"63129","last visit":"4/27/2012","geo_score":0.83,"level":1,"id":"a62dc243dgic","geo_precision":"range","address":"807 Forder Crossing Dr","state":"MO"},"type":"Feature","geometry":{"type":"Point","coordinates":[-90.318531,38.490562]}},{"properties":{"city":"Arnold","name":"Aaron Thiele","zip":"63010","last visit":"4/27/2012","geo_score":0.927,"level":1,"id":"a62dc25u02e1","geo_precision":"range","address":"1912 Lone Pine Dr","state":"MO"},"type":"Feature","geometry":{"type":"Point","coordinates":[-90.381767,38.447378]}},{"properties":{"city":"Saint Louis","name":"Tim Grimoldi","zip":"63129","last visit":"4/14/2012","geo_score":0.922,"level":1,"id":"a62dc25sws9b","geo_precision":"range","address":"3744 Yaeger Rd","state":"MO"},"type":"Feature","geometry":{"type":"Point","coordinates":[-90.34066,38.470763]}},{"properties":{"city":"Fenton","name":"Rodney Gerdes","zip":"63026","last visit":"4/12/2012","geo_score":0.777,"level":1,"id":"a62dc27gyoe6","geo_precision":"range","address":"1221 Konert Valley Dr","state":"MO"},"type":"Feature","geometry":{"type":"Point","coordinates":[-90.492604,38.497186]}},{"properties":{"city":"Arnold","name":"William Mach","zip":"63010","last visit":"4/10/2012","geo_score":0.927,"level":1,"id":"a62dc21frn9p","geo_precision":"range","address":"1728 Melody Ln","state":"MO"},"type":"Feature","geometry":{"type":"Point","coordinates":[-90.392873,38.444773]}},{"properties":{"city":"Saint Louis","name":"Randall Pickens","zip":"63129","last visit":"3/28/2012","geo_score":0.922,"level":1,"id":"a62dc26vnch9","geo_precision":"range","address":"2733 Mountain Top Dr","state":"MO"},"type":"Feature","geometry":{"type":"Point","coordinates":[-90.311987,38.467315]}},{"properties":{"city":"Arnold","name":"Debbie St. John","zip":"63010","last visit":"3/19/2012","geo_score":0.927,"level":1,"id":"a62dc1zfd28h","geo_precision":"range","address":"613 Riverbend Ct","state":"MO"},"type":"Feature","geometry":{"type":"Point","coordinates":[-90.366072,38.452196]}},{"properties":{"city":"Arnold","name":"Hazel Rauls","zip":"63010","last visit":"2/19/2012","geo_score":0.927,"level":1,"id":"a62dc28k07rd","geo_precision":"range","address":"1864 Lonedell Rd","state":"MO"},"type":"Feature","geometry":{"type":"Point","coordinates":[-90.404729,38.445448]}},{"properties":{"city":"Saint Louis","name":"Scott Cranor","zip":"63128","last visit":"1/31/2012","geo_score":0.922,"level":1,"id":"a62dc20pz30j","geo_precision":"range","address":"4443 Welford Dr","state":"MO"},"type":"Feature","geometry":{"type":"Point","coordinates":[-90.350655,38.494284]}},{"properties":{"city":"Arnold","name":"Dan Kroupa","zip":"63010","last visit":"9/15/2011","geo_score":0.927,"level":1,"id":"a62dc28w3bvq","geo_precision":"range","address":"2092 Kroupa Dr","state":"MO"},"type":"Feature","geometry":{"type":"Point","coordinates":[-90.395622,38.428796]}},{"properties":{"city":"Saint Louis","name":"Robert May","zip":"63129","last visit":"5/14/2012","geo_score":0.873,"level":2,"id":"a62dc21an4fg","geo_precision":"range","address":"4435 Berkshire Estates Dr","state":"MO"},"type":"Feature","geometry":{"type":"Point","coordinates":[-90.368216,38.465139]}},{"properties":{"city":"Arnold","name":"Cindy Stucky","zip":"63010","last visit":"5/14/2012","geo_score":0.927,"level":2,"id":"a62dc1ynptl0","geo_precision":"range","address":"1162 Deborah Dr","state":"MO"},"type":"Feature","geometry":{"type":"Point","coordinates":[-90.364434,38.434685]}},{"properties":{"city":"Arnold","name":"Melissa Brown","zip":"63010","last visit":"5/14/2012","geo_score":0.927,"level":2,"id":"a62dc2aynt60","geo_precision":"range","address":"1818 Lonedell Rd","state":"MO"},"type":"Feature","geometry":{"type":"Point","coordinates":[-90.403447,38.446256]}},{"properties":{"city":"Arnold","name":"Zach Beaven","zip":"63010","last visit":"5/14/2012","geo_score":0.927,"level":2,"id":"a62dc1yd416m","geo_precision":"range","address":"3839 Autumn Set Dr","state":"MO"},"type":"Feature","geometry":{"type":"Point","coordinates":[-90.430643,38.436361]}},{"properties":{"city":"Saint Louis","name":"Dean Fournie","zip":"63129","last visit":"5/14/2012","geo_score":0.605,"level":2,"id":"a62dc274yt4i","geo_precision":"zip","address":"6520 Devonhurst Dr","state":"MO"},"type":"Feature","geometry":{"type":"Point","coordinates":[-90.304561,38.470053]}},{"properties":{"city":"Arnold","name":"Larry Gullett","zip":"63010","last visit":"5/13/2012","geo_score":0.927,"level":2,"id":"a62dc27415y3","geo_precision":"range","address":"2279 Sunnyridge Dr","state":"MO"},"type":"Feature","geometry":{"type":"Point","coordinates":[-90.367964,38.438209]}},{"properties":{"city":"Affton","name":"Liz Twilbeck","zip":"63123","last visit":"5/13/2012","geo_score":0.902,"level":2,"id":"a62dc21kqsa7","geo_precision":"range","address":"7939 Croydon Dr","state":"MO"},"type":"Feature","geometry":{"type":"Point","coordinates":[-90.335428,38.569381]}},{"properties":{"city":"Saint Louis","name":"Jay Shelp","zip":"63129","last visit":"5/12/2012","geo_score":0.922,"level":2,"id":"a62dc2c6tj2d","geo_precision":"range","address":"3619 Falcon Ridge Ct","state":"MO"},"type":"Feature","geometry":{"type":"Point","coordinates":[-90.344425,38.466125]}},{"properties":{"city":"Saint Louis","name":"Jake And Erin Garner","zip":"63128","last visit":"5/12/2012","geo_score":0.922,"level":2,"id":"a62dc1yrb811","geo_precision":"range","address":"5041 Windleigh Pl","state":"MO"},"type":"Feature","geometry":{"type":"Point","coordinates":[-90.385148,38.473135]}},{"properties":{"city":"Saint Louis","name":"Joe Burris","zip":"63125","last visit":"5/11/2012","geo_score":0.956,"level":2,"id":"a62dc2cht5s3","geo_precision":"range","address":"2516 Captiva Dr","state":"MO"},"type":"Feature","geometry":{"type":"Point","coordinates":[-90.301432,38.520098]}},{"properties":{"city":"Arnold","name":"Tom Hegger","zip":"63010","last visit":"5/11/2012","geo_score":0.927,"level":2,"id":"a62dc207z1fy","geo_precision":"range","address":"2876 Fox Meadow Ln","state":"MO"},"type":"Feature","geometry":{"type":"Point","coordinates":[-90.373642,38.425305]}},{"properties":{"city":"Arnold","name":"Shawn Bradley","zip":"63010","last visit":"5/11/2012","geo_score":0.61,"level":2,"id":"a62dc203yumy","geo_precision":"zip","address":"1224 Woodside Dr","state":"MO"},"type":"Feature","geometry":{"type":"Point","coordinates":[-90.350118,38.433665]}},{"properties":{"city":"Arnold","name":"Mike And Colleen Lauter","zip":"63010","last visit":"5/11/2012","geo_score":0.927,"level":2,"id":"a62dc2b0mbje","geo_precision":"range","address":"3015 Jamie Ct","state":"MO"},"type":"Feature","geometry":{"type":"Point","coordinates":[-90.4153,38.426866]}},{"properties":{"city":"Saint Louis","name":"Katie Schloss","zip":"63123","last visit":"5/10/2012","geo_score":0.902,"level":2,"id":"a62dc25qokcx","geo_precision":"range","address":"4709 Stone Ave","state":"MO"},"type":"Feature","geometry":{"type":"Point","coordinates":[-90.296598,38.554976]}},{"properties":{"city":"Saint Louis","name":"Jeffrey Hynds","zip":"63129","last visit":"5/9/2012","geo_score":0.876,"level":2,"id":"a62dc254ftzj","geo_precision":"range","address":"2876 Woodbridge Estates Dr","state":"MO"},"type":"Feature","geometry":{"type":"Point","coordinates":[-90.320567,38.422114]}},{"properties":{"city":"Saint Louis","name":"Michael Temporal","zip":"63129","last visit":"5/7/2012","geo_score":0.922,"level":2,"id":"a62dc2c2vzeu","geo_precision":"range","address":"2731 Bloomfield Dr","state":"MO"},"type":"Feature","geometry":{"type":"Point","coordinates":[-90.314495,38.482008]}},{"properties":{"city":"Arnold","name":"John Leach","zip":"63010","last visit":"5/7/2012","geo_score":0.927,"level":2,"id":"a62dc28dgc7e","geo_precision":"range","address":"3208 Kenai Ct","state":"MO"},"type":"Feature","geometry":{"type":"Point","coordinates":[-90.405998,38.413048]}},{"properties":{"city":"Saint Louis","name":"Eric Meyer","zip":"63128","last visit":"5/6/2012","geo_score":0.922,"level":2,"id":"a62dc1ynt65w","geo_precision":"range","address":"5108 Windleigh Pl","state":"MO"},"type":"Feature","geometry":{"type":"Point","coordinates":[-90.387575,38.473959]}},{"properties":{"city":"Arnold","name":"Eric Grau","zip":"63010","last visit":"5/5/2012","geo_score":0.927,"level":2,"id":"a62dc2bas94i","geo_precision":"range","address":"2125 Chelsea Ct","state":"MO"},"type":"Feature","geometry":{"type":"Point","coordinates":[-90.393758,38.418678]}},{"properties":{"city":"Arnold","name":"Patrick Nolte","zip":"63010","last visit":"5/4/2012","geo_score":0.927,"level":2,"id":"a62dc2e8nbbq","geo_precision":"range","address":"2791 Baccara Dr","state":"MO"},"type":"Feature","geometry":{"type":"Point","coordinates":[-90.365663,38.430027]}},{"properties":{"city":"Fenton","name":"Brad Handyside","zip":"63026","last visit":"5/4/2012","geo_score":0.765,"level":2,"id":"a62dc27t9ae3","geo_precision":"range","address":"1 Heritage Pointe Cir","state":"MO"},"type":"Feature","geometry":{"type":"Point","coordinates":[-90.435899,38.475699]}},{"properties":{"city":"Arnold","name":"Todd Scott","zip":"63010","last visit":"5/3/2012","geo_score":0.927,"level":2,"id":"a62dc1yxqwt0","geo_precision":"range","address":"2141 Blossom Ln","state":"MO"},"type":"Feature","geometry":{"type":"Point","coordinates":[-90.400939,38.42796]}},{"properties":{"city":"Saint Louis","name":"Hiedi Vogel","zip":"63129","last visit":"5/2/2012","geo_score":0.65,"level":2,"id":"a62dc2bhwbo9","geo_precision":"street","address":"2810 Christopher Bluffs Ln","state":"MO"},"type":"Feature","geometry":{"type":"Point","coordinates":[-90.306311,38.449583]}},{"properties":{"city":"Arnold","name":"Chip Kearney","zip":"63010","last visit":"5/1/2012","geo_score":0.927,"level":2,"id":"a62dc1zxrc4y","geo_precision":"range","address":"1288 Jungermann Rd","state":"MO"},"type":"Feature","geometry":{"type":"Point","coordinates":[-90.37145,38.395849]}},{"properties":{"city":"Arnold","name":"Dan Couden","zip":"63010","last visit":"4/30/2012","geo_score":0.927,"level":2,"id":"a62dc24b7nv1","geo_precision":"range","address":"1523 Jonathan Ct","state":"MO"},"type":"Feature","geometry":{"type":"Point","coordinates":[-90.366996,38.398461]}},{"properties":{"city":"Saint Louis","name":"Sherry Kettlekamp","zip":"63129","last visit":"4/30/2012","geo_score":0.922,"level":2,"id":"a62dc2atdb9w","geo_precision":"range","address":"2732 Blackforest Dr","state":"MO"},"type":"Feature","geometry":{"type":"Point","coordinates":[-90.31618,38.464213]}},{"properties":{"city":"Saint Louis","name":"Marie-Claude Boudrias","zip":"63129","last visit":"4/28/2012","geo_score":0.53,"level":2,"id":"a62dc1y5ygoj","geo_precision":"street","address":"3055 Windsor Point Dr","state":"MO"},"type":"Feature","geometry":{"type":"Point","coordinates":[-90.229025,38.642861]}},{"properties":{"city":"Arnold","name":"Frank Narez","zip":"63010","last visit":"4/27/2012","geo_score":0.927,"level":2,"id":"a62dc291xqkd","geo_precision":"range","address":"3211 Rosedale Dr","state":"MO"},"type":"Feature","geometry":{"type":"Point","coordinates":[-90.391925,38.422897]}},{"properties":{"city":"Saint Louis","name":"Kayla Brown","zip":"63123","last visit":"4/27/2012","geo_score":0.902,"level":2,"id":"a62dc295exka","geo_precision":"range","address":"8505 Elgin Ave","state":"MO"},"type":"Feature","geometry":{"type":"Point","coordinates":[-90.314516,38.559535]}},{"properties":{"city":"Arnold","name":"Joe Lang","zip":"63010","last visit":"4/26/2012","geo_score":0.927,"level":2,"id":"a62dc2ckh87e","geo_precision":"range","address":"1822 Missouri State Rd","state":"MO"},"type":"Feature","geometry":{"type":"Point","coordinates":[-90.398134,38.441936]}},{"properties":{"city":"Saint Louis","name":"Mike Schlueter","zip":"63129","last visit":"4/22/2012","geo_score":0.922,"level":2,"id":"a62dc2d1pcgz","geo_precision":"range","address":"3945 Butler Hill Rd","state":"MO"},"type":"Feature","geometry":{"type":"Point","coordinates":[-90.348267,38.485351]}},{"properties":{"city":"Saint Louis","name":"Ryan Blum","zip":"63129","last visit":"4/21/2012","geo_score":0.83,"level":2,"id":"a62dc2cjgks8","geo_precision":"range","address":"954 Forder Crossing Dr","state":"MO"},"type":"Feature","geometry":{"type":"Point","coordinates":[-90.321374,38.493502]}},{"properties":{"city":"Fenton","name":"Pat Storie","zip":"63026","last visit":"4/21/2012","geo_score":0.902,"level":2,"id":"a62dc226scab","geo_precision":"range","address":"2006 Pincian Dr","state":"MO"},"type":"Feature","geometry":{"type":"Point","coordinates":[-90.487326,38.531336]}},{"properties":{"city":"Saint Louis","name":"Ellen Woulfe","zip":"63129","last visit":"4/19/2012","geo_score":0.922,"level":2,"id":"a62dc208hhny","geo_precision":"range","address":"6817 Graystone Ridge Ct","state":"MO"},"type":"Feature","geometry":{"type":"Point","coordinates":[-90.330684,38.440109]}},{"properties":{"city":"Saint Louis","name":"Linda And Ron Andre","zip":"63129","last visit":"4/19/2012","geo_score":0.922,"level":2,"id":"a62dc26iwz68","geo_precision":"range","address":"2269 Broken Horse Ln","state":"MO"},"type":"Feature","geometry":{"type":"Point","coordinates":[-90.298133,38.462954]}},{"properties":{"city":"Saint Louis","name":"Steve Kovacs","zip":"63128","last visit":"4/16/2012","geo_score":0.922,"level":2,"id":"a62dc2ea6usm","geo_precision":"range","address":"4624 Valmeyer Dr","state":"MO"},"type":"Feature","geometry":{"type":"Point","coordinates":[-90.35736,38.500638]}},{"properties":{"city":"Saint Louis","name":"Ryan Linch","zip":"63129","last visit":"4/15/2012","geo_score":0.922,"level":2,"id":"a62dc21wliav","geo_precision":"range","address":"5907 Pennbrooke Dr","state":"MO"},"type":"Feature","geometry":{"type":"Point","coordinates":[-90.355027,38.469095]}},{"properties":{"city":"Arnold","name":"Kurt Mccoy","zip":"63010","last visit":"4/15/2012","geo_score":0.927,"level":2,"id":"a62dc2chph7d","geo_precision":"range","address":"1023 Crabapple Dr","state":"MO"},"type":"Feature","geometry":{"type":"Point","coordinates":[-90.37112,38.402895]}},{"properties":{"city":"Saint Louis","name":"Ben Ssimon","zip":"63129","last visit":"4/15/2012","geo_score":0.922,"level":2,"id":"a62dc2a8001f","geo_precision":"range","address":"5726 Beefwood Ct","state":"MO"},"type":"Feature","geometry":{"type":"Point","coordinates":[-90.345765,38.471232]}},{"properties":{"city":"Arnold","name":"George Krockenberger","zip":"63010","last visit":"4/14/2012","geo_score":0.927,"level":2,"id":"a62dc2774j3x","geo_precision":"range","address":"2447 Ridgecrest Dr","state":"MO"},"type":"Feature","geometry":{"type":"Point","coordinates":[-90.367445,38.438024]}},{"properties":{"city":"Arnold","name":"Bradley Smith","zip":"63010","last visit":"4/14/2012","geo_score":0.927,"level":2,"id":"a62dc2cgaijc","geo_precision":"range","address":"1430 Appleton Ct","state":"MO"},"type":"Feature","geometry":{"type":"Point","coordinates":[-90.366654,38.399574]}},{"properties":{"city":"Saint Louis","name":"Brad Marquardt","zip":"63129","last visit":"4/13/2012","geo_score":0.922,"level":2,"id":"a62dc29l1fr2","geo_precision":"range","address":"4404 Niagara Dr","state":"MO"},"type":"Feature","geometry":{"type":"Point","coordinates":[-90.297189,38.479852]}},{"properties":{"city":"Fenton","name":"Alison Toth","zip":"63026","last visit":"4/7/2012","geo_score":0.902,"level":2,"id":"a62dc29ueikn","geo_precision":"range","address":"2989 Jesse Ln","state":"MO"},"type":"Feature","geometry":{"type":"Point","coordinates":[-90.46412,38.466529]}},{"properties":{"city":"Arnold","name":"Ray Martin","zip":"63010","last visit":"4/7/2012","geo_score":0.927,"level":2,"id":"a62dc21bth1f","geo_precision":"range","address":"4043 Hidden Meadows Dr","state":"MO"},"type":"Feature","geometry":{"type":"Point","coordinates":[-90.435366,38.439039]}},{"properties":{"city":"Saint Louis","name":"Paul Crisler","zip":"63129","last visit":"4/7/2012","geo_score":0.922,"level":2,"id":"a62dc28sa8wm","geo_precision":"range","address":"2608 Storm Lake Dr","state":"MO"},"type":"Feature","geometry":{"type":"Point","coordinates":[-90.313369,38.437777]}},{"properties":{"city":"Arnold","name":"Huiyin Wonk","zip":"63010","last visit":"4/6/2012","geo_score":0.927,"level":2,"id":"a62dc1y83kcd","geo_precision":"range","address":"47 Hickory Ct","state":"MO"},"type":"Feature","geometry":{"type":"Point","coordinates":[-90.383814,38.419198]}},{"properties":{"city":"Arnold","name":"Lisa Buchmeier","zip":"63010","last visit":"4/6/2012","geo_score":0.565,"level":2,"id":"a62dc2d14nsm","geo_precision":"street","address":"1825 Chara St","state":"MO"},"type":"Feature","geometry":{"type":"Point","coordinates":[-90.36524,38.43138]}},{"properties":{"city":"Saint Louis","name":"Brad Kestler","zip":"63125","last visit":"4/3/2012","geo_score":0.956,"level":2,"id":"a62dc21u4bhv","geo_precision":"range","address":"835 Peace Haven Dr","state":"MO"},"type":"Feature","geometry":{"type":"Point","coordinates":[-90.311723,38.501915]}},{"properties":{"city":"Saint Louis","name":"Patrick Turek","zip":"63123","last visit":"4/2/2012","geo_score":0.902,"level":2,"id":"a62dc28nbx7w","geo_precision":"range","address":"7054 Eichelberger Dr","state":"MO"},"type":"Feature","geometry":{"type":"Point","coordinates":[-90.314403,38.58196]}},{"properties":{"city":"Arnold","name":"Trevelyn &amp; Dorothy Zander","zip":"63010","last visit":"3/31/2012","geo_score":0.927,"level":2,"id":"a62dc2bo1gix","geo_precision":"range","address":"532 Blackberry Path","state":"MO"},"type":"Feature","geometry":{"type":"Point","coordinates":[-90.412167,38.444236]}},{"properties":{"city":"Arnold","name":"Peter Teigen","zip":"63010","last visit":"3/27/2012","geo_score":0.927,"level":2,"id":"a62dc22a7pgg","geo_precision":"range","address":"2029 Dohack Dr","state":"MO"},"type":"Feature","geometry":{"type":"Point","coordinates":[-90.379613,38.424822]}},{"properties":{"city":"Saint Louis","name":"Adam Fay","zip":"63128","last visit":"3/25/2012","geo_score":0.922,"level":2,"id":"a62dc1z3af8y","geo_precision":"range","address":"5617 Summerside Trl","state":"MO"},"type":"Feature","geometry":{"type":"Point","coordinates":[-90.405438,38.480296]}},{"properties":{"city":"Saint Louis","name":"Sean Kennedy","zip":"63128","last visit":"3/25/2012","geo_score":0.922,"level":2,"id":"a62dc25r8735","geo_precision":"range","address":"4927 Mattis Rd","state":"MO"},"type":"Feature","geometry":{"type":"Point","coordinates":[-90.366658,38.504708]}},{"properties":{"city":"Saint Louis","name":"Spencer Vandeven","zip":"63129","last visit":"3/25/2012","geo_score":0.922,"level":2,"id":"a62dc27cguxn","geo_precision":"range","address":"2816 Newbridge Ct","state":"MO"},"type":"Feature","geometry":{"type":"Point","coordinates":[-90.31261,38.47303]}},{"properties":{"city":"Arnold","name":"Mike Tuttle","zip":"63010","last visit":"3/25/2012","geo_score":0.743,"level":2,"id":"a62dc2dxy1iq","geo_precision":"street","address":"4583 Towne Hall Dr","state":"MO"},"type":"Feature","geometry":{"type":"Point","coordinates":[-90.36822,38.39451]}},{"properties":{"city":"Saint Louis","name":"Jennifer Detzel","zip":"63125","last visit":"3/24/2012","geo_score":0.956,"level":2,"id":"a62dc26vb3az","geo_precision":"range","address":"3700 Fannie Ave","state":"MO"},"type":"Feature","geometry":{"type":"Point","coordinates":[-90.278814,38.543911]}},{"properties":{"city":"Saint Louis","name":"Steven Seidel","zip":"63129","last visit":"3/24/2012","geo_score":0.922,"level":2,"id":"a62dc25h04j9","geo_precision":"range","address":"2837 Oldewick Dr","state":"MO"},"type":"Feature","geometry":{"type":"Point","coordinates":[-90.321121,38.4361]}},{"properties":{"city":"Arnold","name":"William Kline","zip":"63010","last visit":"3/23/2012","geo_score":0.927,"level":2,"id":"a62dc27lzu8u","geo_precision":"range","address":"2851 Deborah Ann Dr","state":"MO"},"type":"Feature","geometry":{"type":"Point","coordinates":[-90.40451,38.410258]}},{"properties":{"city":"Saint Louis","name":"Jim O'Shea","zip":"63128","last visit":"3/21/2012","geo_score":0.922,"level":2,"id":"a62dc28hmqte","geo_precision":"range","address":"4371 Owens Dr","state":"MO"},"type":"Feature","geometry":{"type":"Point","coordinates":[-90.369982,38.474855]}},{"properties":{"city":"Saint Louis","name":"John Anderson","zip":"63128","last visit":"3/19/2012","geo_score":0.922,"level":2,"id":"a62dc2c2o7kr","geo_precision":"range","address":"4915 E Concord Rd","state":"MO"},"type":"Feature","geometry":{"type":"Point","coordinates":[-90.352652,38.514458]}},{"properties":{"city":"Saint Louis","name":"Jane Smith","zip":"63125","last visit":"3/19/2012","geo_score":0.956,"level":2,"id":"a62dc2dhfny8","geo_precision":"range","address":"3035 Sedan Dr","state":"MO"},"type":"Feature","geometry":{"type":"Point","coordinates":[-90.303208,38.504782]}},{"properties":{"city":"Arnold","name":"Curt Volpi","zip":"63010","last visit":"3/18/2012","geo_score":0.927,"level":2,"id":"a62dc242tb20","geo_precision":"range","address":"2132 Sante Fe Cir","state":"MO"},"type":"Feature","geometry":{"type":"Point","coordinates":[-90.39175,38.405515]}},{"properties":{"city":"Arnold","name":"Kathy Lee","zip":"63010","last visit":"3/17/2012","geo_score":0.649,"level":2,"id":"a62dc27skwo5","geo_precision":"street","address":"1654 Trinity Cir","state":"MO"},"type":"Feature","geometry":{"type":"Point","coordinates":[-90.38406,38.433793]}},{"properties":{"city":"Saint Louis","name":"Dan Smith","zip":"63128","last visit":"3/14/2012","geo_score":0.922,"level":2,"id":"a62dc2c25kal","geo_precision":"range","address":"5885 Hightower Dr","state":"MO"},"type":"Feature","geometry":{"type":"Point","coordinates":[-90.395703,38.484641]}},{"properties":{"city":"Saint Louis","name":"Paul Keys","zip":"63129","last visit":"3/13/2012","geo_score":0.922,"level":2,"id":"a62dc24ns49a","geo_precision":"range","address":"2954 Piney Pointe Dr","state":"MO"},"type":"Feature","geometry":{"type":"Point","coordinates":[-90.322642,38.419261]}},{"properties":{"city":"Arnold","name":"Susan Williams","zip":"63010","last visit":"3/13/2012","geo_score":0.927,"level":2,"id":"a62dc20ct4so","geo_precision":"range","address":"3268 Rosedale Dr","state":"MO"},"type":"Feature","geometry":{"type":"Point","coordinates":[-90.394527,38.420993]}},{"properties":{"city":"Arnold","name":"Theresa Harms","zip":"63010","last visit":"3/13/2012","geo_score":0.629,"level":2,"id":"a62dc26gxqqb","geo_precision":"range","address":"116 Lamp Post Ln","state":"MO"},"type":"Feature","geometry":{"type":"Point","coordinates":[-91.033711,38.565982]}},{"properties":{"city":"Arnold","name":"Quentin Biggs","zip":"63010","last visit":"3/8/2012","geo_score":0.927,"level":2,"id":"a62dc20efs1i","geo_precision":"range","address":"3451 Swan Cir N","state":"MO"},"type":"Feature","geometry":{"type":"Point","coordinates":[-90.374261,38.414693]}},{"properties":{"city":"Saint Louis","name":"Joe Perulfi","zip":"63129","last visit":"3/4/2012","geo_score":0.922,"level":2,"id":"a62dc2b7671f","geo_precision":"range","address":"5337 Casa Royale Dr","state":"MO"},"type":"Feature","geometry":{"type":"Point","coordinates":[-90.327958,38.476465]}},{"properties":{"city":"Saint Louis","name":"Guy Girardi","zip":"63129","last visit":"3/3/2012","geo_score":0.526,"level":2,"id":"a62dc25qzcif","geo_precision":"street","address":"125 Greycliff Bluff Dr","state":"MO"},"type":"Feature","geometry":{"type":"Point","coordinates":[-90.284392,38.48914]}},{"properties":{"city":"Arnold","name":"Deno Denatale","zip":"63010","last visit":"2/29/2012","geo_score":0.927,"level":2,"id":"a62dc2echm4a","geo_precision":"range","address":"2504 Dohack Ct","state":"MO"},"type":"Feature","geometry":{"type":"Point","coordinates":[-90.378681,38.423614]}},{"properties":{"city":"Arnold","name":"Beth Cavanaugh","zip":"63010","last visit":"2/28/2012","geo_score":0.927,"level":2,"id":"a62dc203vw0v","geo_precision":"range","address":"3773 Lisa Ct","state":"MO"},"type":"Feature","geometry":{"type":"Point","coordinates":[-90.403388,38.409332]}},{"properties":{"city":"Saint Louis","name":"Ray Tretter","zip":"63129","last visit":"2/26/2012","geo_score":0.922,"level":2,"id":"a62dc2c7p8e8","geo_precision":"range","address":"3008 Yaeger Rd","state":"MO"},"type":"Feature","geometry":{"type":"Point","coordinates":[-90.323165,38.477988]}},{"properties":{"city":"Arnold","name":"Kevin Robben","zip":"63010","last visit":"2/26/2012","geo_score":0.927,"level":2,"id":"a62dc1zzpo2x","geo_precision":"range","address":"1056 Caleb Dr","state":"MO"},"type":"Feature","geometry":{"type":"Point","coordinates":[-90.416801,38.426307]}},{"properties":{"city":"Arnold","name":"Conrado Delacruz","zip":"63010","last visit":"2/26/2012","geo_score":0.927,"level":2,"id":"a62dc29dvod4","geo_precision":"range","address":"3150 Theodore Dr","state":"MO"},"type":"Feature","geometry":{"type":"Point","coordinates":[-90.396761,38.420115]}},{"properties":{"city":"Fenton","name":"Brenda Gaylor","zip":"63026","last visit":"2/26/2012","geo_score":0.461,"level":2,"id":"a62dc249lfiv","geo_precision":"street","address":"438 Winter Bluff Dr","state":"MO"},"type":"Feature","geometry":{"type":"Point","coordinates":[-90.48043,38.48473]}},{"properties":{"city":"Saint Louis","name":"Mike Sommers","zip":"63125","last visit":"2/21/2012","geo_score":0.956,"level":2,"id":"a62dc25ujbjp","geo_precision":"range","address":"2842 Telegraph Rd","state":"MO"},"type":"Feature","geometry":{"type":"Point","coordinates":[-90.295553,38.506313]}},{"properties":{"city":"Saint Louis","name":"Michael Abendroth","zip":"63129","last visit":"2/20/2012","geo_score":0.922,"level":2,"id":"a62dc21teqqg","geo_precision":"range","address":"2143 Olde Winery Rd","state":"MO"},"type":"Feature","geometry":{"type":"Point","coordinates":[-90.29388,38.46314]}},{"properties":{"city":"Saint Louis","name":"Scott Holzborn","zip":"63129","last visit":"2/18/2012","geo_score":0.922,"level":2,"id":"a62dc21weffv","geo_precision":"range","address":"7312 Stream Valley Ct","state":"MO"},"type":"Feature","geometry":{"type":"Point","coordinates":[-90.329203,38.425192]}},{"properties":{"city":"Saint Louis","name":"Kevin Bonney","zip":"63126","last visit":"2/13/2012","geo_score":0.922,"level":2,"id":"a62dc28h4e5f","geo_precision":"range","address":"9426 High Hill Ct","state":"MO"},"type":"Feature","geometry":{"type":"Point","coordinates":[-90.375719,38.555468]}},{"properties":{"city":"Arnold","name":"Mistti Ritter","zip":"63010","last visit":"1/7/2012","geo_score":0.927,"level":2,"id":"a62dc2e4qhgv","geo_precision":"range","address":"2350 Summit Dr","state":"MO"},"type":"Feature","geometry":{"type":"Point","coordinates":[-90.366527,38.439887]}},{"properties":{"city":"Saint Louis","name":"Russell Hartley","zip":"63129","last visit":"1/6/2012","geo_score":0.876,"level":2,"id":"a62dc209l00d","geo_precision":"range","address":"2889 Woodbridge Estates Dr","state":"MO"},"type":"Feature","geometry":{"type":"Point","coordinates":[-90.32163,38.422246]}},{"properties":{"city":"Arnold","name":"Michael Drummond","zip":"63010","last visit":"1/5/2012","geo_score":0.927,"level":2,"id":"a62dc261d3f5","geo_precision":"range","address":"61 Starling Community Trailer Ct","state":"MO"},"type":"Feature","geometry":{"type":"Point","coordinates":[-90.351217,38.445416]}},{"properties":{"city":"Arnold","name":"John And Carol Gebhardt","zip":"63010","last visit":"1/2/2012","geo_score":0.733,"level":2,"id":"a62dc1z2gf02","geo_precision":"street","address":"1369 Fox Ridge Ct","state":"MO"},"type":"Feature","geometry":{"type":"Point","coordinates":[-90.37337,38.42781]}},{"properties":{"city":"Fenton","name":"Eric Anderson","zip":"63026","last visit":"12/21/2011","geo_score":0.902,"level":2,"id":"a62dc2axhnzo","geo_precision":"range","address":"250 Avalon Hills Dr","state":"MO"},"type":"Feature","geometry":{"type":"Point","coordinates":[-90.507369,38.529007]}},{"properties":{"city":"Arnold","name":"Jim Kreyling","zip":"63010","last visit":"12/11/2011","geo_score":0.868,"level":2,"id":"a62dc22zv8yr","geo_precision":"range","address":"1580 Kingsway Dr","state":"MO"},"type":"Feature","geometry":{"type":"Point","coordinates":[-90.400592,38.445637]}},{"properties":{"city":"Arnold","name":"Stephen Overton","zip":"63010","last visit":"12/3/2011","geo_score":0.561,"level":2,"id":"a62dc24vjfme","geo_precision":"street","address":"202 Mason Ridge Ct","state":"MO"},"type":"Feature","geometry":{"type":"Point","coordinates":[-90.37713,38.44344]}},{"properties":{"city":"Saint Louis","name":"Morgan Sachs","zip":"63129","last visit":"11/9/2011","geo_score":0.922,"level":2,"id":"a62dc20tkjue","geo_precision":"range","address":"4420 Whitmeere Ct","state":"MO"},"type":"Feature","geometry":{"type":"Point","coordinates":[-90.369498,38.464701]}},{"properties":{"city":"Saint Louis","name":"Anthony Uy","zip":"63125","last visit":"11/2/2011","geo_score":0.956,"level":2,"id":"a62dc298kmk5","geo_precision":"range","address":"487 Sappington Barracks Rd","state":"MO"},"type":"Feature","geometry":{"type":"Point","coordinates":[-90.305694,38.502212]}},{"properties":{"city":"Arnold","name":"Steve Georgevitch","zip":"63010","last visit":"10/26/2011","geo_score":0.927,"level":2,"id":"a62dc29x26ed","geo_precision":"range","address":"2134 San Simeon Dr","state":"MO"},"type":"Feature","geometry":{"type":"Point","coordinates":[-90.392362,38.405999]}},{"properties":{"city":"Saint Louis","name":"Bill Weindell","zip":"63129","last visit":"10/24/2011","geo_score":0.922,"level":2,"id":"a62dc2d62j8c","geo_precision":"range","address":"5572 Homeward Ln","state":"MO"},"type":"Feature","geometry":{"type":"Point","coordinates":[-90.349353,38.476294]}},{"properties":{"city":"Saint Louis","name":"Sharon Norton","zip":"63128","last visit":"10/24/2011","geo_score":0.922,"level":2,"id":"a62dc21ehgya","geo_precision":"range","address":"5156 Bryncastle Pl","state":"MO"},"type":"Feature","geometry":{"type":"Point","coordinates":[-90.366658,38.488098]}},{"properties":{"city":"Saint Louis","name":"Barbra &amp; Tom Cosgrove","zip":"63129","last visit":"10/20/2011","geo_score":0.922,"level":2,"id":"a62dc206tfd0","geo_precision":"range","address":"5431 Oakvilla Manor Dr","state":"MO"},"type":"Feature","geometry":{"type":"Point","coordinates":[-90.323064,38.477387]}},{"properties":{"city":"Saint Louis","name":"Wendy Burgoon","zip":"63123","last visit":"10/3/2011","geo_score":0.902,"level":2,"id":"a62dc1xxocup","geo_precision":"range","address":"3900 Primm St","state":"MO"},"type":"Feature","geometry":{"type":"Point","coordinates":[-90.276262,38.554778]}},{"properties":{"city":"Saint Louis","name":"Andre Strzembosz","zip":"63127","last visit":"9/29/2011","geo_score":0.403,"level":2,"id":"a62dc20l6sx5","geo_precision":"street","address":"PO Box 270207","state":"MO"},"type":"Feature","geometry":{"type":"Point","coordinates":[-90.312086,38.529149]}},{"properties":{"city":"Saint Louis","name":"Martin Folk","zip":"63125","last visit":"9/24/2011","geo_score":0.956,"level":2,"id":"a62dc2bocnk9","geo_precision":"range","address":"2945 Hallmark Ln","state":"MO"},"type":"Feature","geometry":{"type":"Point","coordinates":[-90.312826,38.516438]}},{"properties":{"city":"Saint Louis","name":"Tim Kratz","zip":"63129","last visit":"9/12/2011","geo_score":0.922,"level":2,"id":"a62dc24ypqlc","geo_precision":"range","address":"4837 Turley Mill Rd","state":"MO"},"type":"Feature","geometry":{"type":"Point","coordinates":[-90.350821,38.490175]}},{"properties":{"city":"Fenton","name":"Tracy Heimos","zip":"63026","last visit":"9/6/2011","geo_score":0.902,"level":2,"id":"a62dc2d692o1","geo_precision":"range","address":"1481 Bent Oak Ridge Dr","state":"MO"},"type":"Feature","geometry":{"type":"Point","coordinates":[-90.468253,38.53552]}},{"properties":{"city":"Saint Louis","name":"Damir Kordic","zip":"63129","last visit":"8/28/2011","geo_score":0.922,"level":2,"id":"a62dc23jfq66","geo_precision":"range","address":"4372 Hawkins Glen Way","state":"MO"},"type":"Feature","geometry":{"type":"Point","coordinates":[-90.362357,38.475107]}},{"properties":{"city":"Arnold","name":"Steve Becker","zip":"63010","last visit":"8/20/2011","geo_score":0.927,"level":2,"id":"a62dc2anx2cg","geo_precision":"range","address":"454 Kathryn Dr","state":"MO"},"type":"Feature","geometry":{"type":"Point","coordinates":[-90.351061,38.444422]}},{"properties":{"city":"Arnold","name":"John Tolliver","zip":"63010","last visit":"8/15/2011","geo_score":0.927,"level":2,"id":"a62dc2dqwehg","geo_precision":"range","address":"2122 Chelsea Ct","state":"MO"},"type":"Feature","geometry":{"type":"Point","coordinates":[-90.393727,38.418661]}},{"properties":{"city":"Arnold","name":"John Coyle","zip":"63010","last visit":"8/7/2011","geo_score":0.927,"level":2,"id":"a62dc265rvd8","geo_precision":"range","address":"4317 Missouri Pacific Rd","state":"MO"},"type":"Feature","geometry":{"type":"Point","coordinates":[-90.361745,38.398055]}},{"properties":{"city":"Saint Louis","name":"Jake Bast","zip":"63129","last visit":"8/3/2011","geo_score":0.922,"level":2,"id":"a62dc23wuvqt","geo_precision":"range","address":"6439 Fordyce Bluffs Dr","state":"MO"},"type":"Feature","geometry":{"type":"Point","coordinates":[-90.297168,38.446459]}},{"properties":{"city":"Saint Louis","name":"Ryan Wetzel","zip":"63129","last visit":"7/29/2011","geo_score":0.922,"level":2,"id":"a62dc2cwpvb1","geo_precision":"range","address":"2552 Grayland Walk","state":"MO"},"type":"Feature","geometry":{"type":"Point","coordinates":[-90.30659,38.4846]}},{"properties":{"city":"Saint Louis","name":"William Harvey","zip":"63129","last visit":"7/29/2011","geo_score":0.922,"level":2,"id":"a62dc2a9utn6","geo_precision":"range","address":"6 Grimsley Station Bluff Ct","state":"MO"},"type":"Feature","geometry":{"type":"Point","coordinates":[-90.301102,38.445297]}},{"properties":{"city":"Saint Louis","name":"Travis Parker","zip":"63129","last visit":"7/25/2011","geo_score":0.922,"level":2,"id":"a62dc2edf4rm","geo_precision":"range","address":"5919 Oakville Woods Pl","state":"MO"},"type":"Feature","geometry":{"type":"Point","coordinates":[-90.325647,38.461237]}},{"properties":{"city":"Saint Louis","name":"Pamela Knickmeyer","zip":"63129","last visit":"7/10/2011","geo_score":0.922,"level":2,"id":"a62dc1zuhatb","geo_precision":"range","address":"3263 Yaeger Rd","state":"MO"},"type":"Feature","geometry":{"type":"Point","coordinates":[-90.329097,38.476889]}},{"properties":{"city":"Arnold","name":"Stephen Jackson","zip":"63010","last visit":"7/7/2011","geo_score":0.927,"level":2,"id":"a62dc1yt7nca","geo_precision":"range","address":"20 Hickory Bluff Ln","state":"MO"},"type":"Feature","geometry":{"type":"Point","coordinates":[-90.380609,38.420799]}},{"properties":{"city":"Arnold","name":"Scott Ross","zip":"63010","last visit":"6/26/2011","geo_score":0.927,"level":2,"id":"a62dc245wm4a","geo_precision":"range","address":"1543 Berry Ct","state":"MO"},"type":"Feature","geometry":{"type":"Point","coordinates":[-90.3967,38.447328]}},{"properties":{"city":"Arnold","name":"Jeff Hart","zip":"63010","last visit":"6/17/2011","geo_score":0.698,"level":2,"id":"a62dc26qdkf2","geo_precision":"range","address":"121 Stone Oaks Dr","state":"MO"},"type":"Feature","geometry":{"type":"Point","coordinates":[-90.52958,38.614726]}},{"properties":{"city":"Saint Louis","name":"Larry Naumann","zip":"63129","last visit":"6/16/2011","geo_score":0.922,"level":2,"id":"a62dc1yr15ch","geo_precision":"range","address":"3010 Silver Bow Ct","state":"MO"},"type":"Feature","geometry":{"type":"Point","coordinates":[-90.326243,38.423304]}},{"properties":{"city":"Fenton","name":"David Hunnius","zip":"63026","last visit":"6/3/2011","geo_score":0.856,"level":2,"id":"a62dc21z65u4","geo_precision":"range","address":"2476 Smizer Mill Estates Dr","state":"MO"},"type":"Feature","geometry":{"type":"Point","coordinates":[-90.48723,38.529778]}},{"properties":{"city":"Arnold","name":"Tyler Scantlan","zip":"63010","last visit":"5/31/2011","geo_score":0.927,"level":2,"id":"a62dc1yn4ezl","geo_precision":"range","address":"1907 Maple Dr","state":"MO"},"type":"Feature","geometry":{"type":"Point","coordinates":[-90.383005,38.447426]}},{"properties":{"city":"Arnold","name":"Shop Use Arnold - Tbs","zip":"63010","last visit":"5/14/2012","geo_score":0.927,"level":3,"id":"a62dc2bfrx6x","geo_precision":"range","address":"2194 Michigan Ave","state":"MO"},"type":"Feature","geometry":{"type":"Point","coordinates":[-90.38041,38.435968]}},{"properties":{"city":"Arnold","name":"Lisa Quisenberry","zip":"63010","last visit":"5/12/2012","geo_score":0.927,"level":3,"id":"a62dc2601n0e","geo_precision":"range","address":"913 Grape Arbor Dr","state":"MO"},"type":"Feature","geometry":{"type":"Point","coordinates":[-90.371422,38.403544]}},{"properties":{"city":"Arnold","name":"Lindsay Robertson","zip":"63010","last visit":"5/11/2012","geo_score":0.927,"level":3,"id":"a62dc202jm4x","geo_precision":"range","address":"3120 Shelley Lynn Dr","state":"MO"},"type":"Feature","geometry":{"type":"Point","coordinates":[-90.407693,38.414329]}},{"properties":{"city":"Saint Louis","name":"Chris Creed","zip":"63125","last visit":"5/11/2012","geo_score":0.956,"level":3,"id":"a62dc242fcid","geo_precision":"range","address":"3600 Lemay Ferry Rd","state":"MO"},"type":"Feature","geometry":{"type":"Point","coordinates":[-90.322271,38.50909]}},{"properties":{"city":"Arnold","name":"Trisha Mowry","zip":"63010","last visit":"5/11/2012","geo_score":0.927,"level":3,"id":"a62dc1zxvdyn","geo_precision":"range","address":"2180 Blossom Ln","state":"MO"},"type":"Feature","geometry":{"type":"Point","coordinates":[-90.401969,38.428105]}},{"properties":{"city":"Fenton","name":"Pete Brockmeier","zip":"63026","last visit":"5/10/2012","geo_score":0.805,"level":3,"id":"a62dc21vsvjg","geo_precision":"street","address":"1380 Remington Oaks Ter","state":"MO"},"type":"Feature","geometry":{"type":"Point","coordinates":[-90.484186,38.51139]}},{"properties":{"city":"Arnold","name":"Liz Jarvis","zip":"63010","last visit":"5/9/2012","geo_score":0.927,"level":3,"id":"a62dc225lsge","geo_precision":"range","address":"2696 Diane Dr","state":"MO"},"type":"Feature","geometry":{"type":"Point","coordinates":[-90.361617,38.435449]}},{"properties":{"city":"Saint Louis","name":"Pat Marx","zip":"63129","last visit":"5/9/2012","geo_score":0.922,"level":3,"id":"a62dc2a8lt47","geo_precision":"range","address":"4173 Fairburn Ct","state":"MO"},"type":"Feature","geometry":{"type":"Point","coordinates":[-90.354317,38.476202]}},{"properties":{"city":"Saint Louis","name":"Lisa Cabral","zip":"63129","last visit":"5/9/2012","geo_score":0.814,"level":3,"id":"a62dc25lu7sz","geo_precision":"range","address":"3279 Patterson Place Dr Apt 208","state":"MO"},"type":"Feature","geometry":{"type":"Point","coordinates":[-90.332549,38.47818]}},{"properties":{"city":"Saint Louis","name":"Ron Schellert","zip":"63129","last visit":"5/7/2012","geo_score":0.922,"level":3,"id":"a62dc28ail7p","geo_precision":"range","address":"2828 Elk Peak Ct","state":"MO"},"type":"Feature","geometry":{"type":"Point","coordinates":[-90.319094,38.419035]}},{"properties":{"city":"Saint Louis","name":"Brian Goertz","zip":"63129","last visit":"5/7/2012","geo_score":0.86,"level":3,"id":"a62dc1zhrv8t","geo_precision":"range","address":"5641 Hunters Valley Ct Apt L","state":"MO"},"type":"Feature","geometry":{"type":"Point","coordinates":[-90.350009,38.471922]}},{"properties":{"city":"Saint Louis","name":"Eric Chavez","zip":"63125","last visit":"5/7/2012","geo_score":0.956,"level":3,"id":"a62dc29g3lnr","geo_precision":"range","address":"518 Summerplace Ct","state":"MO"},"type":"Feature","geometry":{"type":"Point","coordinates":[-90.301815,38.500748]}},{"properties":{"city":"Arnold","name":"Calvin Hatala","zip":"63010","last visit":"5/5/2012","geo_score":0.829,"level":3,"id":"a62dc206d1ah","geo_precision":"street","address":"1651 Trinity Cir","state":"MO"},"type":"Feature","geometry":{"type":"Point","coordinates":[-90.38406,38.433793]}},{"properties":{"city":"Saint Louis","name":"Jason Bonk","zip":"63128","last visit":"5/4/2012","geo_score":0.922,"level":3,"id":"a62dc24x7t44","geo_precision":"range","address":"4560 Kerth Forest Dr","state":"MO"},"type":"Feature","geometry":{"type":"Point","coordinates":[-90.37559,38.463515]}},{"properties":{"city":"Saint Louis","name":"Tyler Seim","zip":"63129","last visit":"5/2/2012","geo_score":0.922,"level":3,"id":"a62dc279jltp","geo_precision":"range","address":"2217 England Town Rd","state":"MO"},"type":"Feature","geometry":{"type":"Point","coordinates":[-90.296017,38.464057]}},{"properties":{"city":"Saint Louis","name":"Tom Williams","zip":"63129","last visit":"5/2/2012","geo_score":0.922,"level":3,"id":"a62dc2c739kq","geo_precision":"range","address":"5740 Hidden Stone Dr","state":"MO"},"type":"Feature","geometry":{"type":"Point","coordinates":[-90.335791,38.467478]}},{"properties":{"city":"Saint Louis","name":"Craig Gilchrist","zip":"63129","last visit":"4/30/2012","geo_score":0.922,"level":3,"id":"a62dc266e1r4","geo_precision":"range","address":"2162 Olde Winery Rd","state":"MO"},"type":"Feature","geometry":{"type":"Point","coordinates":[-90.294293,38.463168]}},{"properties":{"city":"Saint Louis","name":"Ed Isenberg","zip":"63129","last visit":"4/29/2012","geo_score":0.493,"level":3,"id":"a62dc1zz4j5j","geo_precision":"street","address":"6696 Winding Creek Way","state":"MO"},"type":"Feature","geometry":{"type":"Point","coordinates":[-90.370192,38.631882]}},{"properties":{"city":"Arnold","name":"Matt Ferrell","zip":"63010","last visit":"4/28/2012","geo_score":0.927,"level":3,"id":"a62dc24q9smd","geo_precision":"range","address":"2787 Baccara Dr","state":"MO"},"type":"Feature","geometry":{"type":"Point","coordinates":[-90.365667,38.430029]}},{"properties":{"city":"Arnold","name":"Josh Hemingway","zip":"63010","last visit":"4/28/2012","geo_score":0.927,"level":3,"id":"a62dc23rghgu","geo_precision":"range","address":"3811 N Barrington Ct","state":"MO"},"type":"Feature","geometry":{"type":"Point","coordinates":[-90.395123,38.407813]}},{"properties":{"city":"Arnold","name":"Brigette Pollard","zip":"63010","last visit":"4/27/2012","geo_score":0.927,"level":3,"id":"a62dc29r7as2","geo_precision":"range","address":"37 Oakwood Dr","state":"MO"},"type":"Feature","geometry":{"type":"Point","coordinates":[-90.434924,38.440708]}},{"properties":{"city":"Saint Louis","name":"Mike Freshman","zip":"63129","last visit":"4/26/2012","geo_score":0.922,"level":3,"id":"a62dc275iuf9","geo_precision":"range","address":"4143 Fairburn Ct","state":"MO"},"type":"Feature","geometry":{"type":"Point","coordinates":[-90.354421,38.475584]}},{"properties":{"city":"Saint Louis","name":"David Waterkotte","zip":"63129","last visit":"4/25/2012","geo_score":0.922,"level":3,"id":"a62dc27n6ob6","geo_precision":"range","address":"5121 Kings Park Dr","state":"MO"},"type":"Feature","geometry":{"type":"Point","coordinates":[-90.30729,38.485606]}},{"properties":{"city":"Saint Louis","name":"Peggy Frederich","zip":"63129","last visit":"4/24/2012","geo_score":0.922,"level":3,"id":"a62dc2dnqar9","geo_precision":"range","address":"7882 Becker Rd","state":"MO"},"type":"Feature","geometry":{"type":"Point","coordinates":[-90.334032,38.411511]}},{"properties":{"city":"Saint Louis","name":"Janice And Bob Schrewe","zip":"63129","last visit":"4/24/2012","geo_score":0.922,"level":3,"id":"a62dc2af0c0f","geo_precision":"range","address":"2469 Southwind Meadows Ct","state":"MO"},"type":"Feature","geometry":{"type":"Point","coordinates":[-90.303053,38.475145]}},{"properties":{"city":"Saint Louis","name":"Steve Haydon","zip":"63128","last visit":"4/23/2012","geo_score":0.922,"level":3,"id":"a62dc1z6pcy1","geo_precision":"range","address":"5060 Suson Hills Dr","state":"MO"},"type":"Feature","geometry":{"type":"Point","coordinates":[-90.387263,38.476829]}},{"properties":{"city":"Saint Louis","name":"John Jandro","zip":"63129","last visit":"4/21/2012","geo_score":0.922,"level":3,"id":"a62dc27s36fg","geo_precision":"range","address":"4941 Lowndes Dr","state":"MO"},"type":"Feature","geometry":{"type":"Point","coordinates":[-90.335442,38.490698]}},{"properties":{"city":"Saint Louis","name":"Tim Johanningmeyer","zip":"63129","last visit":"4/20/2012","geo_score":0.853,"level":3,"id":"a62dc2d8a5zn","geo_precision":"range","address":"3553 Lakeview Heights Dr","state":"MO"},"type":"Feature","geometry":{"type":"Point","coordinates":[-90.34095,38.463865]}},{"properties":{"city":"Saint Louis","name":"Tom Zimmerman","zip":"63129","last visit":"4/20/2012","geo_score":0.922,"level":3,"id":"a62dc2abm9fw","geo_precision":"range","address":"5030 Ringer Rd","state":"MO"},"type":"Feature","geometry":{"type":"Point","coordinates":[-90.33512,38.486919]}},{"properties":{"city":"Arnold","name":"Mike Pocilujko","zip":"63010","last visit":"4/17/2012","geo_score":0.878,"level":3,"id":"a62dc290raqo","geo_precision":"range","address":"3914 Cedar Brook Ct","state":"MO"},"type":"Feature","geometry":{"type":"Point","coordinates":[-90.404311,38.405922]}},{"properties":{"city":"Fenton","name":"Tony Horton","zip":"63026","last visit":"4/16/2012","geo_score":0.849,"level":3,"id":"a62dc23hfia6","geo_precision":"range","address":"101 Hillview Ter","state":"MO"},"type":"Feature","geometry":{"type":"Point","coordinates":[-90.43271,38.47812]}},{"properties":{"city":"Saint Louis","name":"Diane Hornsey","zip":"63129","last visit":"4/16/2012","geo_score":0.922,"level":3,"id":"a62dc270ylw2","geo_precision":"range","address":"5766 Wickershire Ln","state":"MO"},"type":"Feature","geometry":{"type":"Point","coordinates":[-90.35353,38.472188]}},{"properties":{"city":"Saint Louis","name":"Pebbles Lovell","zip":"63129","last visit":"4/16/2012","geo_score":0.922,"level":3,"id":"a62dc2czuhya","geo_precision":"range","address":"4957 Bacardi Ln","state":"MO"},"type":"Feature","geometry":{"type":"Point","coordinates":[-90.35005,38.488635]}},{"properties":{"city":"Saint Louis","name":"Jarrod Paul","zip":"63129","last visit":"4/15/2012","geo_score":0.888,"level":3,"id":"a62dc26dwfg1","geo_precision":"range","address":"5554 Bellemeade Trail Ct","state":"MO"},"type":"Feature","geometry":{"type":"Point","coordinates":[-90.338096,38.470964]}},{"properties":{"city":"Saint Louis","name":"Jean Mills","zip":"63125","last visit":"4/15/2012","geo_score":0.956,"level":3,"id":"a62dc2aftb1e","geo_precision":"range","address":"4308 Timm Dr","state":"MO"},"type":"Feature","geometry":{"type":"Point","coordinates":[-90.324975,38.520314]}},{"properties":{"city":"Fenton","name":"Daniel Roth","zip":"63026","last visit":"4/14/2012","geo_score":0.537,"level":3,"id":"a62dc27hhs49","geo_precision":"street","address":"617 Stone Bluff Ct","state":"MO"},"type":"Feature","geometry":{"type":"Point","coordinates":[-90.4982,38.497229]}},{"properties":{"city":"Arnold","name":"Michelle Dane","zip":"63010","last visit":"4/14/2012","geo_score":0.927,"level":3,"id":"a62dc2a9x452","geo_precision":"range","address":"1502 Pepperidge Ct","state":"MO"},"type":"Feature","geometry":{"type":"Point","coordinates":[-90.4244,38.446868]}},{"properties":{"city":"Saint Louis","name":"Kerry Nikolaisen","zip":"63128","last visit":"4/14/2012","geo_score":0.922,"level":3,"id":"a62dc29mpb1y","geo_precision":"range","address":"4747 Brookton Way","state":"MO"},"type":"Feature","geometry":{"type":"Point","coordinates":[-90.37566,38.479896]}},{"properties":{"city":"Arnold","name":"Jennifer Helling","zip":"63010","last visit":"4/13/2012","geo_score":0.927,"level":3,"id":"a62dc210kybi","geo_precision":"range","address":"1285 Birch Rd","state":"MO"},"type":"Feature","geometry":{"type":"Point","coordinates":[-90.367743,38.434]}},{"properties":{"city":"Saint Louis","name":"Carrie And Jeff Sona","zip":"63129","last visit":"4/13/2012","geo_score":0.922,"level":3,"id":"a62dc1zzu2og","geo_precision":"range","address":"5918 Cedar Pointe Ct","state":"MO"},"type":"Feature","geometry":{"type":"Point","coordinates":[-90.328581,38.458875]}},{"properties":{"city":"Saint Louis","name":"Ken Howard","zip":"63125","last visit":"4/12/2012","geo_score":0.956,"level":3,"id":"a62dc2a1pmu1","geo_precision":"range","address":"60 Cliff Dr","state":"MO"},"type":"Feature","geometry":{"type":"Point","coordinates":[-90.301656,38.506204]}},{"properties":{"city":"Saint Louis","name":"Terry Rehagen","zip":"63129","last visit":"4/12/2012","geo_score":0.922,"level":3,"id":"a62dc2aycq1j","geo_precision":"range","address":"5655 Chalet Forest Dr","state":"MO"},"type":"Feature","geometry":{"type":"Point","coordinates":[-90.313536,38.466642]}},{"properties":{"city":"Saint Louis","name":"Mike Gebauer","zip":"63129","last visit":"4/12/2012","geo_score":0.922,"level":3,"id":"a62dc2ayyw4v","geo_precision":"range","address":"2728 Danforth Dr","state":"MO"},"type":"Feature","geometry":{"type":"Point","coordinates":[-90.310988,38.476984]}},{"properties":{"city":"Arnold","name":"John Paschkewitz","zip":"63010","last visit":"4/9/2012","geo_score":0.507,"level":3,"id":"a62dc1y8uunu","geo_precision":"range","address":"133 Lamp Post Ln","state":"MO"},"type":"Feature","geometry":{"type":"Point","coordinates":[-91.03373,38.565983]}},{"properties":{"city":"Arnold","name":"John Adams","zip":"63010","last visit":"4/7/2012","geo_score":0.927,"level":3,"id":"a62dc1zv79m8","geo_precision":"range","address":"1786 Janet Dr","state":"MO"},"type":"Feature","geometry":{"type":"Point","coordinates":[-90.408793,38.436678]}},{"properties":{"city":"Saint Louis","name":"Carol Brown","zip":"63128","last visit":"4/7/2012","geo_score":0.922,"level":3,"id":"a62dc2bpf8vy","geo_precision":"range","address":"5535 Brookton Way","state":"MO"},"type":"Feature","geometry":{"type":"Point","coordinates":[-90.38185,38.483062]}},{"properties":{"city":"Arnold","name":"Dave Washburn","zip":"63010","last visit":"4/7/2012","geo_score":0.927,"level":3,"id":"a62dc1xwzkba","geo_precision":"range","address":"384 Heritage Woods Dr","state":"MO"},"type":"Feature","geometry":{"type":"Point","coordinates":[-90.425682,38.444913]}},{"properties":{"city":"Saint Louis","name":"Mike Vancleave","zip":"63128","last visit":"4/7/2012","geo_score":0.854,"level":3,"id":"a62dc218enkj","geo_precision":"range","address":"5728 Lilac Trails Dr","state":"MO"},"type":"Feature","geometry":{"type":"Point","coordinates":[-90.366972,38.474069]}},{"properties":{"city":"Arnold","name":"Jason Banks","zip":"63010","last visit":"4/6/2012","geo_score":0.927,"level":3,"id":"a62dc22em73a","geo_precision":"range","address":"1552 Polly Dr","state":"MO"},"type":"Feature","geometry":{"type":"Point","coordinates":[-90.391772,38.447412]}},{"properties":{"city":"Arnold","name":"Bill Hudson","zip":"63010","last visit":"4/5/2012","geo_score":0.927,"level":3,"id":"a62dc2eepolt","geo_precision":"range","address":"2037 Dohack Dr","state":"MO"},"type":"Feature","geometry":{"type":"Point","coordinates":[-90.379265,38.424486]}},{"properties":{"city":"Arnold","name":"Harley Smith","zip":"63010","last visit":"4/4/2012","geo_score":0.464,"level":3,"id":"a62dc2az9hao","geo_precision":"street","address":"131 Brian Trl","state":"MO"},"type":"Feature","geometry":{"type":"Point","coordinates":[-90.377518,38.769608]}},{"properties":{"city":"Saint Louis","name":"Thomas Reiman","zip":"63129","last visit":"4/4/2012","geo_score":0.922,"level":3,"id":"a62dc26lo413","geo_precision":"range","address":"2680 Cripple Creek Dr","state":"MO"},"type":"Feature","geometry":{"type":"Point","coordinates":[-90.31481,38.439717]}},{"properties":{"city":"Arnold","name":"Michael Putnam","zip":"63010","last visit":"4/2/2012","geo_score":0.927,"level":3,"id":"a62dc28tv1o0","geo_precision":"range","address":"2859 Harmony Hills Dr","state":"MO"},"type":"Feature","geometry":{"type":"Point","coordinates":[-90.410979,38.42509]}},{"properties":{"city":"Arnold","name":"John Taschler","zip":"63010","last visit":"4/2/2012","geo_score":0.927,"level":3,"id":"a62dc24uxeyb","geo_precision":"range","address":"1724 Trinity Cir","state":"MO"},"type":"Feature","geometry":{"type":"Point","coordinates":[-90.385004,38.431997]}},{"properties":{"city":"Arnold","name":"Rick Laurrell","zip":"63010","last visit":"4/1/2012","geo_score":0.927,"level":3,"id":"a62dc2832jk5","geo_precision":"range","address":"1251 Surfside Dr","state":"MO"},"type":"Feature","geometry":{"type":"Point","coordinates":[-90.355568,38.414454]}},{"properties":{"city":"Fenton","name":"Ryan Eaton","zip":"63026","last visit":"3/31/2012","geo_score":0.902,"level":3,"id":"a62dc1y0pjpg","geo_precision":"range","address":"355 Fury Dr","state":"MO"},"type":"Feature","geometry":{"type":"Point","coordinates":[-90.44453,38.52889]}},{"properties":{"city":"Arnold","name":"Chris Baize","zip":"63010","last visit":"3/30/2012","geo_score":0.927,"level":3,"id":"a62dc29tlvxt","geo_precision":"range","address":"21 Pike Trl","state":"MO"},"type":"Feature","geometry":{"type":"Point","coordinates":[-90.464105,38.442198]}},{"properties":{"city":"Arnold","name":"Rusty Luaders","zip":"63010","last visit":"3/28/2012","geo_score":0.927,"level":3,"id":"a62dc2ag0z7s","geo_precision":"range","address":"2330 Vaek Dr","state":"MO"},"type":"Feature","geometry":{"type":"Point","coordinates":[-90.37136,38.437383]}},{"properties":{"city":"Arnold","name":"Julie Burleyson","zip":"63010","last visit":"3/28/2012","geo_score":0.927,"level":3,"id":"a62dc204xnj9","geo_precision":"range","address":"3243 Biscayne Blvd","state":"MO"},"type":"Feature","geometry":{"type":"Point","coordinates":[-90.357503,38.414723]}},{"properties":{"city":"Saint Louis","name":"Mike Schlueter","zip":"63129","last visit":"3/27/2012","geo_score":0.922,"level":3,"id":"a62dc27duhyj","geo_precision":"range","address":"6017 Bissonnet Ct","state":"MO"},"type":"Feature","geometry":{"type":"Point","coordinates":[-90.359639,38.470126]}},{"properties":{"city":"Saint Louis","name":"Tim Henson","zip":"63129","last visit":"3/27/2012","geo_score":0.922,"level":3,"id":"a62dc1ytah2p","geo_precision":"range","address":"5435 Chardonnay Way Ct","state":"MO"},"type":"Feature","geometry":{"type":"Point","coordinates":[-90.340683,38.474244]}},{"properties":{"city":"Saint Louis","name":"John Harris","zip":"63128","last visit":"3/24/2012","geo_score":0.922,"level":3,"id":"a62dc2aw9ox1","geo_precision":"range","address":"5644 Wieland Dr","state":"MO"},"type":"Feature","geometry":{"type":"Point","coordinates":[-90.373545,38.476694]}},{"properties":{"city":"Saint Louis","name":"Dan Reinagel","zip":"63129","last visit":"3/24/2012","geo_score":0.922,"level":3,"id":"a62dc226l67s","geo_precision":"range","address":"5903 Royal Country Ct","state":"MO"},"type":"Feature","geometry":{"type":"Point","coordinates":[-90.324109,38.462243]}},{"properties":{"city":"Arnold","name":"Michelle Goetz","zip":"63010","last visit":"3/24/2012","geo_score":0.927,"level":3,"id":"a62dc1yib525","geo_precision":"range","address":"3435 Rockwood Forest Ct","state":"MO"},"type":"Feature","geometry":{"type":"Point","coordinates":[-90.358059,38.40902]}},{"properties":{"city":"Arnold","name":"Stan Portell","zip":"63010","last visit":"3/23/2012","geo_score":0.927,"level":3,"id":"a62dc20zistu","geo_precision":"range","address":"716 Idaho Dr","state":"MO"},"type":"Feature","geometry":{"type":"Point","coordinates":[-90.358694,38.441163]}},{"properties":{"city":"Arnold","name":"Caron Arnold","zip":"63010","last visit":"3/23/2012","geo_score":0.556,"level":3,"id":"a62dc2drk2mt","geo_precision":"street","address":"2435 Guardian Ct","state":"MO"},"type":"Feature","geometry":{"type":"Point","coordinates":[-90.42119,38.4496]}},{"properties":{"city":"Saint Louis","name":"Brandon Burke","zip":"63129","last visit":"3/21/2012","geo_score":0.922,"level":3,"id":"a62dc24rzi6f","geo_precision":"range","address":"2656 Softwood Dr","state":"MO"},"type":"Feature","geometry":{"type":"Point","coordinates":[-90.31195,38.459808]}},{"properties":{"city":"Arnold","name":"Scott Simpson","zip":"63010","last visit":"3/20/2012","geo_score":0.927,"level":3,"id":"a62dc21giyw7","geo_precision":"range","address":"2943 Northern Lights Dr","state":"MO"},"type":"Feature","geometry":{"type":"Point","coordinates":[-90.40699,38.41281]}},{"properties":{"city":"Arnold","name":"Ben Young","zip":"63010","last visit":"3/19/2012","geo_score":0.927,"level":3,"id":"a62dc264q39g","geo_precision":"range","address":"3302 Waycross Dr","state":"MO"},"type":"Feature","geometry":{"type":"Point","coordinates":[-90.358906,38.417812]}},{"properties":{"city":"Saint Louis","name":"Michelle Herzog","zip":"63128","last visit":"3/14/2012","geo_score":0.809,"level":3,"id":"a62dc2c5hxj7","geo_precision":"range","address":"11323 B Pointe South Ct","state":"MO"},"type":"Feature","geometry":{"type":"Point","coordinates":[-90.358378,38.520592]}},{"properties":{"city":"Arnold","name":"Phil Stephenson","zip":"63010","last visit":"3/10/2012","geo_score":0.927,"level":3,"id":"a62dc2c2owfx","geo_precision":"range","address":"2037 Buck Dr","state":"MO"},"type":"Feature","geometry":{"type":"Point","coordinates":[-90.395874,38.429952]}},{"properties":{"city":"Arnold","name":"Troy Pritchard","zip":"63010","last visit":"3/7/2012","geo_score":0.927,"level":3,"id":"a62dc2e7oypx","geo_precision":"range","address":"1949 Saint Christopher Way","state":"MO"},"type":"Feature","geometry":{"type":"Point","coordinates":[-90.383286,38.417065]}},{"properties":{"city":"Saint Louis","name":"Scott Braun","zip":"63129","last visit":"3/6/2012","geo_score":0.922,"level":3,"id":"a62dc2bg9j6x","geo_precision":"range","address":"2946 Piney Pointe Dr","state":"MO"},"type":"Feature","geometry":{"type":"Point","coordinates":[-90.322903,38.419264]}},{"properties":{"city":"Arnold","name":"Joette Klein","zip":"63010","last visit":"3/6/2012","geo_score":0.927,"level":3,"id":"a62dc1yf7i61","geo_precision":"range","address":"2859 Fox Meadow Ln","state":"MO"},"type":"Feature","geometry":{"type":"Point","coordinates":[-90.374306,38.425737]}},{"properties":{"city":"Saint Louis","name":"Dwight Elmore","zip":"63128","last visit":"3/5/2012","geo_score":0.922,"level":3,"id":"a62dc2030953","geo_precision":"range","address":"4522 Jenkins Ln","state":"MO"},"type":"Feature","geometry":{"type":"Point","coordinates":[-90.358414,38.507519]}},{"properties":{"city":"Saint Louis","name":"Dave Hasenfratz","zip":"63125","last visit":"3/5/2012","geo_score":0.956,"level":3,"id":"a62dc27k1u07","geo_precision":"range","address":"502 Bellsworth Dr","state":"MO"},"type":"Feature","geometry":{"type":"Point","coordinates":[-90.290576,38.512952]}},{"properties":{"city":"Arnold","name":"Don Buck","zip":"63010","last visit":"3/4/2012","geo_score":0.927,"level":3,"id":"a62dc2bpurgi","geo_precision":"range","address":"1638 Twin Oaks Dr","state":"MO"},"type":"Feature","geometry":{"type":"Point","coordinates":[-90.396776,38.449742]}},{"properties":{"city":"Saint Louis","name":"Jamie Kovach","zip":"63129","last visit":"3/4/2012","geo_score":0.819,"level":3,"id":"a62dc20x39e4","geo_precision":"range","address":"29 Kassebaum Ln Apt 204","state":"MO"},"type":"Feature","geometry":{"type":"Point","coordinates":[-90.343115,38.493744]}},{"properties":{"city":"Arnold","name":"Donnie Blomker","zip":"63010","last visit":"3/3/2012","geo_score":0.61,"level":3,"id":"a62dc25pmaij","geo_precision":"zip","address":"709 Berrywine Ln","state":"MO"},"type":"Feature","geometry":{"type":"Point","coordinates":[-90.350118,38.433665]}},{"properties":{"city":"Saint Louis","name":"Matthew Boll","zip":"63129","last visit":"3/3/2012","geo_score":0.922,"level":3,"id":"a62dc26x8skz","geo_precision":"range","address":"3024 Armona Dr","state":"MO"},"type":"Feature","geometry":{"type":"Point","coordinates":[-90.326599,38.431419]}},{"properties":{"city":"Saint Louis","name":"Greg Elford","zip":"63129","last visit":"2/29/2012","geo_score":0.922,"level":3,"id":"a62dc243oxwx","geo_precision":"range","address":"2519 Brenna Ct","state":"MO"},"type":"Feature","geometry":{"type":"Point","coordinates":[-90.309161,38.451282]}},{"properties":{"city":"Saint Louis","name":"Linda Maly","zip":"63129","last visit":"2/28/2012","geo_score":0.922,"level":3,"id":"a62dc251wu42","geo_precision":"range","address":"4331 Hollyshire Dr","state":"MO"},"type":"Feature","geometry":{"type":"Point","coordinates":[-90.31324,38.491955]}},{"properties":{"city":"Saint Louis","name":"Matt Maddock","zip":"63129","last visit":"2/27/2012","geo_score":0.922,"level":3,"id":"a62dc208vey3","geo_precision":"range","address":"2834 Gatling Dr","state":"MO"},"type":"Feature","geometry":{"type":"Point","coordinates":[-90.320561,38.458169]}},{"properties":{"city":"Arnold","name":"Michael Salger","zip":"63010","last visit":"2/26/2012","geo_score":0.927,"level":3,"id":"a62dc231zked","geo_precision":"range","address":"1569 Roy Dr","state":"MO"},"type":"Feature","geometry":{"type":"Point","coordinates":[-90.392913,38.44707]}},{"properties":{"city":"Saint Louis","name":"Duane Kujawa","zip":"63129","last visit":"2/25/2012","geo_score":0.922,"level":3,"id":"a62dc2ce9sdy","geo_precision":"range","address":"3007 Smalloaks Ct","state":"MO"},"type":"Feature","geometry":{"type":"Point","coordinates":[-90.328892,38.417538]}},{"properties":{"city":"Saint Louis","name":"Andrew Titus","zip":"63128","last visit":"2/24/2012","geo_score":0.922,"level":3,"id":"a62dc213x61l","geo_precision":"range","address":"5534 Wieland Dr","state":"MO"},"type":"Feature","geometry":{"type":"Point","coordinates":[-90.373268,38.480201]}},{"properties":{"city":"Arnold","name":"Ray Slesinski","zip":"63010","last visit":"2/23/2012","geo_score":0.927,"level":3,"id":"a62dc262artc","geo_precision":"range","address":"4183 Summerwood Dr","state":"MO"},"type":"Feature","geometry":{"type":"Point","coordinates":[-90.43981,38.429841]}},{"properties":{"city":"Fenton","name":"Brad Luckett","zip":"63026","last visit":"2/21/2012","geo_score":0.527,"level":3,"id":"a62dc1ykor4n","geo_precision":"street","address":"424 Caleb Pl","state":"MO"},"type":"Feature","geometry":{"type":"Point","coordinates":[-90.414581,38.425695]}},{"properties":{"city":"Arnold","name":"Robert Heine","zip":"63010","last visit":"2/20/2012","geo_score":0.927,"level":3,"id":"a62dc29z21b6","geo_precision":"range","address":"117 Berrywood Dr","state":"MO"},"type":"Feature","geometry":{"type":"Point","coordinates":[-90.373383,38.445205]}},{"properties":{"city":"Arnold","name":"Derick Ragseale","zip":"63010","last visit":"2/18/2012","geo_score":0.927,"level":3,"id":"a62dc2b3zedm","geo_precision":"range","address":"2773 Baccara Dr","state":"MO"},"type":"Feature","geometry":{"type":"Point","coordinates":[-90.36568,38.430034]}},{"properties":{"city":"Arnold","name":"Charles Green","zip":"63010","last visit":"2/17/2012","geo_score":0.927,"level":3,"id":"a62dc24w7zpe","geo_precision":"range","address":"2807 Fox Meadow Ln","state":"MO"},"type":"Feature","geometry":{"type":"Point","coordinates":[-90.374921,38.427742]}},{"properties":{"city":"Arnold","name":"Hedwig Vinson","zip":"63010","last visit":"2/17/2012","geo_score":0.927,"level":3,"id":"a62dc23nmz1o","geo_precision":"range","address":"2118 Richardson Rd","state":"MO"},"type":"Feature","geometry":{"type":"Point","coordinates":[-90.396116,38.420192]}},{"properties":{"city":"Arnold","name":"Chris Knese","zip":"63010","last visit":"2/16/2012","geo_score":0.927,"level":3,"id":"a62dc2e03ktt","geo_precision":"range","address":"4028 Apple Valley Dr","state":"MO"},"type":"Feature","geometry":{"type":"Point","coordinates":[-90.369929,38.401322]}},{"properties":{"city":"Arnold","name":"Curtis Smith","zip":"63010","last visit":"2/11/2012","geo_score":0.565,"level":3,"id":"a62dc25gpy20","geo_precision":"street","address":"1824 Chara St","state":"MO"},"type":"Feature","geometry":{"type":"Point","coordinates":[-90.36524,38.43138]}},{"properties":{"city":"Saint Louis","name":"Wanda Shewmon","zip":"63125","last visit":"2/8/2012","geo_score":0.956,"level":3,"id":"a62dc2d4c0h0","geo_precision":"range","address":"124 Brilliant Ln","state":"MO"},"type":"Feature","geometry":{"type":"Point","coordinates":[-90.291233,38.508215]}},{"properties":{"city":"Saint Louis","name":"John Bundy","zip":"63129","last visit":"2/6/2012","geo_score":0.922,"level":3,"id":"a62dc27nhqk3","geo_precision":"range","address":"4335 Grand Marnier Dr","state":"MO"},"type":"Feature","geometry":{"type":"Point","coordinates":[-90.362556,38.468992]}},{"properties":{"city":"Saint Louis","name":"Mike Lorance","zip":"63129","last visit":"2/5/2012","geo_score":0.878,"level":3,"id":"a62dc1zyt2kz","geo_precision":"range","address":"4332 Meadowgreen Estates Dr","state":"MO"},"type":"Feature","geometry":{"type":"Point","coordinates":[-90.366873,38.465448]}},{"properties":{"city":"Arnold","name":"Alice Wright","zip":"63010","last visit":"2/2/2012","geo_score":0.927,"level":3,"id":"a62dc246ok2g","geo_precision":"range","address":"2135 Pearl Dr","state":"MO"},"type":"Feature","geometry":{"type":"Point","coordinates":[-90.393936,38.432116]}},{"properties":{"city":"Saint Louis","name":"Ed Zink","zip":"63128","last visit":"1/31/2012","geo_score":0.922,"level":3,"id":"a62dc2coqal3","geo_precision":"range","address":"5401 Crestside Ln","state":"MO"},"type":"Feature","geometry":{"type":"Point","coordinates":[-90.362384,38.480451]}},{"properties":{"city":"Affton","name":"Donna Young","zip":"63123","last visit":"1/30/2012","geo_score":0.902,"level":3,"id":"a62dc2dfw3vf","geo_precision":"range","address":"9019 Rosemary Ave","state":"MO"},"type":"Feature","geometry":{"type":"Point","coordinates":[-90.30766,38.555219]}},{"properties":{"city":"Arnold","name":"Matt Wanersten","zip":"63010","last visit":"1/23/2012","geo_score":0.927,"level":3,"id":"a62dc2crgee6","geo_precision":"range","address":"2123 Casa Blanca Dr","state":"MO"},"type":"Feature","geometry":{"type":"Point","coordinates":[-90.392195,38.402491]}},{"properties":{"city":"Arnold","name":"Ed Furey","zip":"63010","last visit":"1/13/2012","geo_score":0.927,"level":3,"id":"a62dc29f5yvg","geo_precision":"range","address":"728 Lonedell Rd","state":"MO"},"type":"Feature","geometry":{"type":"Point","coordinates":[-90.36909,38.451842]}},{"properties":{"city":"Saint Louis","name":"Alex Tomiser","zip":"63129","last visit":"1/10/2012","geo_score":0.922,"level":3,"id":"a62dc2dbn4nv","geo_precision":"range","address":"401 Rockview Dr","state":"MO"},"type":"Feature","geometry":{"type":"Point","coordinates":[-90.295892,38.476903]}},{"properties":{"city":"Arnold","name":"Linda Hanneke","zip":"63010","last visit":"1/8/2012","geo_score":0.927,"level":3,"id":"a62dc25yg8mk","geo_precision":"range","address":"2937 Katie Ct","state":"MO"},"type":"Feature","geometry":{"type":"Point","coordinates":[-90.406203,38.419196]}},{"properties":{"city":"Saint Louis","name":"John Gassner","zip":"63129","last visit":"1/7/2012","geo_score":0.922,"level":3,"id":"a62dc28nntsf","geo_precision":"range","address":"7149 Shady Hill Dr","state":"MO"},"type":"Feature","geometry":{"type":"Point","coordinates":[-90.33611,38.435148]}},{"properties":{"city":"Saint Louis","name":"Doug May","zip":"63129","last visit":"1/2/2012","geo_score":0.876,"level":3,"id":"a62dc2da7nf2","geo_precision":"range","address":"2837 Woodbridge Estates Dr","state":"MO"},"type":"Feature","geometry":{"type":"Point","coordinates":[-90.319179,38.420328]}},{"properties":{"city":"Saint Louis","name":"Greg Macrander","zip":"63129","last visit":"12/31/2011","geo_score":0.922,"level":3,"id":"a62dc22texsq","geo_precision":"range","address":"7028 Bumble Bee Ln","state":"MO"},"type":"Feature","geometry":{"type":"Point","coordinates":[-90.323887,38.432795]}},{"properties":{"city":"Arnold","name":"Mark Hopkins","zip":"63010","last visit":"12/30/2011","geo_score":0.927,"level":3,"id":"a62dc20hz20y","geo_precision":"range","address":"2307 Maxville Ln","state":"MO"},"type":"Feature","geometry":{"type":"Point","coordinates":[-90.386886,38.4305]}},{"properties":{"city":"Arnold","name":"Tim Douglas","zip":"63010","last visit":"12/29/2011","geo_score":0.927,"level":3,"id":"a62dc2dh2fcr","geo_precision":"range","address":"523 Robin Dr","state":"MO"},"type":"Feature","geometry":{"type":"Point","coordinates":[-90.361122,38.451829]}},{"properties":{"city":"Saint Louis","name":"Aaron Burlingame","zip":"63129","last visit":"12/28/2011","geo_score":0.922,"level":3,"id":"a62dc24fddk0","geo_precision":"range","address":"3018 Royal Highlands Dr","state":"MO"},"type":"Feature","geometry":{"type":"Point","coordinates":[-90.322787,38.460763]}},{"properties":{"city":"Arnold","name":"Jim Strautmann","zip":"63010","last visit":"12/27/2011","geo_score":0.927,"level":3,"id":"a62dc2dnbyp3","geo_precision":"range","address":"2223 Big Bill Rd","state":"MO"},"type":"Feature","geometry":{"type":"Point","coordinates":[-90.400488,38.425629]}},{"properties":{"city":"Arnold","name":"Tim Adkins","zip":"63010","last visit":"12/26/2011","geo_score":0.805,"level":3,"id":"a62dc26l2pkh","geo_precision":"range","address":"1185 New Towne Rd","state":"MO"},"type":"Feature","geometry":{"type":"Point","coordinates":[-90.36946,38.394705]}},{"properties":{"city":"Saint Louis","name":"Dave Stebe","zip":"63129","last visit":"12/26/2011","geo_score":0.888,"level":3,"id":"a62dc279xt97","geo_precision":"range","address":"5546 Bellemeade Trail Ct","state":"MO"},"type":"Feature","geometry":{"type":"Point","coordinates":[-90.338102,38.471423]}},{"properties":{"city":"Saint Louis","name":"Bill Borner","zip":"63123","last visit":"12/22/2011","geo_score":0.902,"level":3,"id":"a62dc1y85hy5","geo_precision":"range","address":"8133 Middlevalley Trl","state":"MO"},"type":"Feature","geometry":{"type":"Point","coordinates":[-90.335556,38.56548]}},{"properties":{"city":"Arnold","name":"Susan Caldera","zip":"63010","last visit":"12/21/2011","geo_score":0.568,"level":3,"id":"a62dc29q8k9j","geo_precision":"street","address":"3122 5 Oaks Dr","state":"MO"},"type":"Feature","geometry":{"type":"Point","coordinates":[-90.41765,38.34541]}},{"properties":{"city":"Arnold","name":"Kevin Griffin","zip":"63010","last visit":"12/21/2011","geo_score":0.927,"level":3,"id":"a62dc250mxzl","geo_precision":"range","address":"5215 Hillcrest Rd","state":"MO"},"type":"Feature","geometry":{"type":"Point","coordinates":[-90.454885,38.438603]}},{"properties":{"city":"Arnold","name":"Andrew Luffy","zip":"63010","last visit":"12/21/2011","geo_score":0.927,"level":3,"id":"a62dc24ijtrk","geo_precision":"range","address":"2611 Diane Dr","state":"MO"},"type":"Feature","geometry":{"type":"Point","coordinates":[-90.363786,38.436934]}},{"properties":{"city":"Saint Louis","name":"Matthew Wagener","zip":"63125","last visit":"12/20/2011","geo_score":0.956,"level":3,"id":"a62dc1z8qf28","geo_precision":"range","address":"825 Walden Dr","state":"MO"},"type":"Feature","geometry":{"type":"Point","coordinates":[-90.296652,38.513933]}},{"properties":{"city":"Saint Louis","name":"Michael Montgomery","zip":"63128","last visit":"12/19/2011","geo_score":0.922,"level":3,"id":"a62dc23xy0t1","geo_precision":"range","address":"9900 Crestwick Dr","state":"MO"},"type":"Feature","geometry":{"type":"Point","coordinates":[-90.388727,38.525718]}},{"properties":{"city":"Saint Louis","name":"James Whaley","zip":"63129","last visit":"12/17/2011","geo_score":0.922,"level":3,"id":"a62dc271w741","geo_precision":"range","address":"6038 Treeridge Trl","state":"MO"},"type":"Feature","geometry":{"type":"Point","coordinates":[-90.314616,38.45748]}},{"properties":{"city":"Saint Louis","name":"Nancy&amp;Steve Hahn","zip":"63129","last visit":"12/17/2011","geo_score":0.922,"level":3,"id":"a62dc20d5hjo","geo_precision":"range","address":"2723 China Lake Dr","state":"MO"},"type":"Feature","geometry":{"type":"Point","coordinates":[-90.316773,38.435887]}},{"properties":{"city":"Arnold","name":"John Peterson","zip":"63010","last visit":"12/16/2011","geo_score":0.927,"level":3,"id":"a62dc1zfq2xv","geo_precision":"range","address":"225 Slover Ln","state":"MO"},"type":"Feature","geometry":{"type":"Point","coordinates":[-90.398035,38.409631]}},{"properties":{"city":"Arnold","name":"Thom Callahan","zip":"63010","last visit":"12/15/2011","geo_score":0.927,"level":3,"id":"a62dc2clz25c","geo_precision":"range","address":"2311 Boeing Dr","state":"MO"},"type":"Feature","geometry":{"type":"Point","coordinates":[-90.35406,38.449973]}},{"properties":{"city":"Saint Louis","name":"Greg Hendricks","zip":"63129","last visit":"12/14/2011","geo_score":0.922,"level":3,"id":"a62dc2aywv1e","geo_precision":"range","address":"2541 Christopher Lake Ct","state":"MO"},"type":"Feature","geometry":{"type":"Point","coordinates":[-90.308097,38.44206]}},{"properties":{"city":"Saint Louis","name":"Jane Poelzl","zip":"63129","last visit":"12/13/2011","geo_score":0.922,"level":3,"id":"a62dc28f0t94","geo_precision":"range","address":"4558 Thicket Dr","state":"MO"},"type":"Feature","geometry":{"type":"Point","coordinates":[-90.301807,38.478569]}},{"properties":{"city":"Saint Louis","name":"Jeremy Durham","zip":"63129","last visit":"12/6/2011","geo_score":0.922,"level":3,"id":"a62dc28jlijx","geo_precision":"range","address":"7142 Shady Hill Dr","state":"MO"},"type":"Feature","geometry":{"type":"Point","coordinates":[-90.335939,38.435175]}},{"properties":{"city":"Arnold","name":"Chris Wolf","zip":"63010","last visit":"12/4/2011","geo_score":0.927,"level":3,"id":"a62dc1z7dchb","geo_precision":"range","address":"3059 Highland House Villas Ct","state":"MO"},"type":"Feature","geometry":{"type":"Point","coordinates":[-90.407384,38.417142]}},{"properties":{"city":"Saint Louis","name":"Dan Wallace","zip":"63129","last visit":"11/28/2011","geo_score":0.922,"level":3,"id":"a62dc23xp1zq","geo_precision":"range","address":"5933 Woodbrook Dr","state":"MO"},"type":"Feature","geometry":{"type":"Point","coordinates":[-90.349811,38.469849]}},{"properties":{"city":"Arnold","name":"Chris Bond","zip":"63010","last visit":"11/27/2011","geo_score":0.927,"level":3,"id":"a62dc27dq3nv","geo_precision":"range","address":"3501 Montego Ct","state":"MO"},"type":"Feature","geometry":{"type":"Point","coordinates":[-90.42478,38.43239]}},{"properties":{"city":"Saint Louis","name":"Charles Gasper","zip":"63129","last visit":"11/25/2011","geo_score":0.922,"level":3,"id":"a62dc26to33h","geo_precision":"range","address":"4837 Christoble Dr","state":"MO"},"type":"Feature","geometry":{"type":"Point","coordinates":[-90.345107,38.48967]}},{"properties":{"city":"Saint Louis","name":"Donna Byinton","zip":"63128","last visit":"11/23/2011","geo_score":0.893,"level":3,"id":"a62dc2d0ug3x","geo_precision":"range","address":"5735 Grey Dove Pl","state":"MO"},"type":"Feature","geometry":{"type":"Point","coordinates":[-90.371215,38.473319]}},{"properties":{"city":"Arnold","name":"Allan Mcqueen","zip":"63010","last visit":"11/19/2011","geo_score":0.61,"level":3,"id":"a62dc2ajv14e","geo_precision":"zip","address":"1748 Karpos St","state":"MO"},"type":"Feature","geometry":{"type":"Point","coordinates":[-90.350118,38.433665]}},{"properties":{"city":"Saint Louis","name":"Brian Keller","zip":"63129","last visit":"11/2/2011","geo_score":0.922,"level":3,"id":"a62dc2alpgwp","geo_precision":"range","address":"5726 Mango Dr","state":"MO"},"type":"Feature","geometry":{"type":"Point","coordinates":[-90.34795,38.469691]}},{"properties":{"city":"Arnold","name":"Kirk Zoph","zip":"63010","last visit":"11/1/2011","geo_score":0.927,"level":3,"id":"a62dc288tq0h","geo_precision":"range","address":"63 Hickory Bluff Ln","state":"MO"},"type":"Feature","geometry":{"type":"Point","coordinates":[-90.37832,38.42079]}},{"properties":{"city":"Saint Louis","name":"Greg Brighton","zip":"63129","last visit":"10/26/2011","geo_score":0.922,"level":3,"id":"a62dc29eioce","geo_precision":"range","address":"4821 Lowndes Dr","state":"MO"},"type":"Feature","geometry":{"type":"Point","coordinates":[-90.335437,38.492201]}},{"properties":{"city":"Arnold","name":"Jennifer Jones","zip":"63010","last visit":"10/20/2011","geo_score":0.927,"level":3,"id":"a62dc24ffx2o","geo_precision":"range","address":"3822 Baeumner Dr","state":"MO"},"type":"Feature","geometry":{"type":"Point","coordinates":[-90.37253,38.407931]}},{"properties":{"city":"Saint Louis","name":"Larry Limpert","zip":"63129","last visit":"10/7/2011","geo_score":0.526,"level":3,"id":"a62dc241rx99","geo_precision":"street","address":"329 Greycliff Bluff Dr","state":"MO"},"type":"Feature","geometry":{"type":"Point","coordinates":[-90.284392,38.48914]}},{"properties":{"city":"Arnold","name":"Mike Hoefler","zip":"63010","last visit":"9/22/2011","geo_score":0.927,"level":3,"id":"a62dc25svr4o","geo_precision":"range","address":"4380 Wicks Rd","state":"MO"},"type":"Feature","geometry":{"type":"Point","coordinates":[-90.362034,38.403966]}},{"properties":{"city":"Saint Louis","name":"Dave Naglich","zip":"63123","last visit":"9/20/2011","geo_score":0.902,"level":3,"id":"a62dc20sraiw","geo_precision":"range","address":"10846 Antrill Dr","state":"MO"},"type":"Feature","geometry":{"type":"Point","coordinates":[-90.337217,38.524056]}},{"properties":{"city":"Arnold","name":"Donna Holz","zip":"63010","last visit":"9/19/2011","geo_score":0.829,"level":3,"id":"a62dc2bd56d4","geo_precision":"street","address":"970 Southgate Dr","state":"MO"},"type":"Feature","geometry":{"type":"Point","coordinates":[-90.3603,38.42941]}},{"properties":{"city":"Arnold","name":"Dave Obrien","zip":"63010","last visit":"9/17/2011","geo_score":0.698,"level":3,"id":"a62dc1y1ejdg","geo_precision":"range","address":"140 Stone Oaks Dr","state":"MO"},"type":"Feature","geometry":{"type":"Point","coordinates":[-90.529035,38.614729]}},{"properties":{"city":"Arnold","name":"Nicholas Jackson","zip":"63010","last visit":"9/15/2011","geo_score":0.61,"level":3,"id":"a62dc24omcpv","geo_precision":"zip","address":"26 Berrywine Ct","state":"MO"},"type":"Feature","geometry":{"type":"Point","coordinates":[-90.350118,38.433665]}},{"properties":{"city":"Fenton","name":"Bryan Horn","zip":"63026","last visit":"9/12/2011","geo_score":0.902,"level":3,"id":"a62dc24tzpr9","geo_precision":"range","address":"1337 Summerpoint Ln","state":"MO"},"type":"Feature","geometry":{"type":"Point","coordinates":[-90.498409,38.514209]}},{"properties":{"city":"Arnold","name":"Arick &amp; Shelly Tuhro","zip":"63010","last visit":"9/11/2011","geo_score":0.698,"level":3,"id":"a62dc2ao3xog","geo_precision":"range","address":"136 Stone Oaks Dr","state":"MO"},"type":"Feature","geometry":{"type":"Point","coordinates":[-90.529107,38.614717]}},{"properties":{"city":"Arnold","name":"Bruce &amp; Pam Rinne","zip":"63010","last visit":"9/9/2011","geo_score":0.927,"level":3,"id":"a62dc2e0rmh6","geo_precision":"range","address":"3156 Theodore Dr","state":"MO"},"type":"Feature","geometry":{"type":"Point","coordinates":[-90.39679,38.42008]}},{"properties":{"city":"Arnold","name":"James Nobe","zip":"63010","last visit":"9/8/2011","geo_score":0.927,"level":3,"id":"a62dc256q0w8","geo_precision":"range","address":"4065 Brook Ridge Dr","state":"MO"},"type":"Feature","geometry":{"type":"Point","coordinates":[-90.369212,38.402883]}},{"properties":{"city":"Arnold","name":"Wayne Eldridge","zip":"63010","last visit":"9/6/2011","geo_score":0.927,"level":3,"id":"a62dc26q7iiy","geo_precision":"range","address":"1619 Kirkham Dr","state":"MO"},"type":"Feature","geometry":{"type":"Point","coordinates":[-90.405369,38.44327]}},{"properties":{"city":"Saint Louis","name":"William Wiltsch","zip":"63129","last visit":"9/3/2011","geo_score":0.853,"level":3,"id":"a62dc26dhgxu","geo_precision":"range","address":"3110 Wynfield Terrace Ct","state":"MO"},"type":"Feature","geometry":{"type":"Point","coordinates":[-90.335903,38.440544]}},{"properties":{"city":"Saint Louis","name":"Douglas Gerdes","zip":"63129","last visit":"9/3/2011","geo_score":0.922,"level":3,"id":"a62dc27g6fgi","geo_precision":"range","address":"2955 Flamelight Ct","state":"MO"},"type":"Feature","geometry":{"type":"Point","coordinates":[-90.322017,38.483257]}},{"properties":{"city":"Saint Louis","name":"Greg Hantak","zip":"63129","last visit":"9/3/2011","geo_score":0.922,"level":3,"id":"a62dc21qqiht","geo_precision":"range","address":"3519 Marian Way Ct","state":"MO"},"type":"Feature","geometry":{"type":"Point","coordinates":[-90.344493,38.491213]}},{"properties":{"city":"Saint Louis","name":"Jim Heimos","zip":"63129","last visit":"9/2/2011","geo_score":0.922,"level":3,"id":"a62dc1zit2sp","geo_precision":"range","address":"23 Freeman Dr","state":"MO"},"type":"Feature","geometry":{"type":"Point","coordinates":[-90.297779,38.483403]}},{"properties":{"city":"Saint Louis","name":"Elaine Greaving","zip":"63129","last visit":"9/2/2011","geo_score":0.922,"level":3,"id":"a62dc2dnwkss","geo_precision":"range","address":"2755 Bloomfield Dr","state":"MO"},"type":"Feature","geometry":{"type":"Point","coordinates":[-90.314458,38.482007]}},{"properties":{"city":"Saint Louis","name":"Tomothy Lembeck","zip":"63129","last visit":"8/21/2011","geo_score":0.873,"level":3,"id":"a62dc27nvska","geo_precision":"range","address":"3207 Forest Lane Ct","state":"MO"},"type":"Feature","geometry":{"type":"Point","coordinates":[-90.331586,38.423312]}},{"properties":{"city":"Arnold","name":"Cj Charbonneau","zip":"63010","last visit":"8/19/2011","geo_score":0.927,"level":3,"id":"a62dc2912zsz","geo_precision":"range","address":"1142 Hickory Ridge Trl","state":"MO"},"type":"Feature","geometry":{"type":"Point","coordinates":[-90.38376,38.420703]}},{"properties":{"city":"Arnold","name":"Allen Baumgartner","zip":"63010","last visit":"8/11/2011","geo_score":0.927,"level":3,"id":"a62dc24xsb33","geo_precision":"range","address":"198 Juanita Ln","state":"MO"},"type":"Feature","geometry":{"type":"Point","coordinates":[-90.40048,38.41211]}},{"properties":{"city":"Arnold","name":"Theresa Cavins","zip":"63010","last visit":"8/6/2011","geo_score":0.927,"level":3,"id":"a62dc23sdxgq","geo_precision":"range","address":"1945 Valmont Dr","state":"MO"},"type":"Feature","geometry":{"type":"Point","coordinates":[-90.400993,38.432658]}},{"properties":{"city":"Saint Louis","name":"Stephenie Whitaker","zip":"63129","last visit":"8/6/2011","geo_score":0.922,"level":3,"id":"a62dc2awlvtc","geo_precision":"range","address":"3644 Eileen Ann Dr","state":"MO"},"type":"Feature","geometry":{"type":"Point","coordinates":[-90.346584,38.488814]}},{"properties":{"city":"Fenton","name":"Bill Utterback","zip":"63026","last visit":"8/6/2011","geo_score":0.902,"level":3,"id":"a62dc28b4i3x","geo_precision":"range","address":"935 Four Oaks Dr","state":"MO"},"type":"Feature","geometry":{"type":"Point","coordinates":[-90.482322,38.503491]}},{"properties":{"city":"Saint Louis","name":"Dale Szymanski","zip":"63129","last visit":"8/4/2011","geo_score":0.922,"level":3,"id":"a62dc1y8d6i5","geo_precision":"range","address":"7438 Stream Valley Ct","state":"MO"},"type":"Feature","geometry":{"type":"Point","coordinates":[-90.330012,38.423234]}},{"properties":{"city":"Saint Louis","name":"Eric Jegel","zip":"63129","last visit":"8/3/2011","geo_score":0.922,"level":3,"id":"a62dc24rq1fc","geo_precision":"range","address":"4384 Hawkins Glen Way","state":"MO"},"type":"Feature","geometry":{"type":"Point","coordinates":[-90.362186,38.475591]}},{"properties":{"city":"Arnold","name":"Lily Ramirez","zip":"63010","last visit":"8/3/2011","geo_score":0.927,"level":3,"id":"a62dc2ebw1ko","geo_precision":"range","address":"115 Fox Chase","state":"MO"},"type":"Feature","geometry":{"type":"Point","coordinates":[-90.378987,38.448139]}},{"properties":{"city":"Arnold","name":"Rebecca Sheldon","zip":"63010","last visit":"7/30/2011","geo_score":0.927,"level":3,"id":"a62dc277p96i","geo_precision":"range","address":"3184 Wellington Way","state":"MO"},"type":"Feature","geometry":{"type":"Point","coordinates":[-90.403086,38.417292]}},{"properties":{"city":"Saint Louis","name":"Teri Haseltine","zip":"63129","last visit":"7/29/2011","geo_score":0.922,"level":3,"id":"a62dc21t7o4i","geo_precision":"range","address":"315 Buford Lndg","state":"MO"},"type":"Feature","geometry":{"type":"Point","coordinates":[-90.299138,38.449754]}},{"properties":{"city":"Arnold","name":"Dennis Botkin","zip":"63010","last visit":"7/28/2011","geo_score":0.927,"level":3,"id":"a62dc2329phj","geo_precision":"range","address":"2763 Rosewood Dr","state":"MO"},"type":"Feature","geometry":{"type":"Point","coordinates":[-90.364171,38.430524]}},{"properties":{"city":"Arnold","name":"Lisa Dabski","zip":"63010","last visit":"7/28/2011","geo_score":0.927,"level":3,"id":"a62dc284pgev","geo_precision":"range","address":"2057 Buck Dr","state":"MO"},"type":"Feature","geometry":{"type":"Point","coordinates":[-90.396578,38.43008]}},{"properties":{"city":"Arnold","name":"Linda Bouchie","zip":"63010","last visit":"7/23/2011","geo_score":0.927,"level":3,"id":"a62dc25hkyri","geo_precision":"range","address":"32 Hickory Ct","state":"MO"},"type":"Feature","geometry":{"type":"Point","coordinates":[-90.383213,38.419391]}},{"properties":{"city":"Saint Louis","name":"Craig Spear","zip":"63126","last visit":"7/23/2011","geo_score":0.905,"level":3,"id":"a62dc27v47h6","geo_precision":"range","address":"9657 Chancelorsville Dr","state":"MO"},"type":"Feature","geometry":{"type":"Point","coordinates":[-90.371127,38.541368]}},{"properties":{"city":"Arnold","name":"Larry Cordevant","zip":"63010","last visit":"7/21/2011","geo_score":0.927,"level":3,"id":"a62dc2bjecm3","geo_precision":"range","address":"1005 Paula Dr","state":"MO"},"type":"Feature","geometry":{"type":"Point","coordinates":[-90.41757,38.429398]}},{"properties":{"city":"Saint Louis","name":"Tom Kersting","zip":"63129","last visit":"7/20/2011","geo_score":0.922,"level":3,"id":"a62dc1yawsim","geo_precision":"range","address":"7595 Shadybridge Dr","state":"MO"},"type":"Feature","geometry":{"type":"Point","coordinates":[-90.329605,38.420506]}},{"properties":{"city":"Arnold","name":"Jenny Ream","zip":"63010","last visit":"7/19/2011","geo_score":0.927,"level":3,"id":"a62dc22fxx5z","geo_precision":"range","address":"1248 Surfside Dr","state":"MO"},"type":"Feature","geometry":{"type":"Point","coordinates":[-90.355562,38.414483]}},{"properties":{"city":"Fenton","name":"Raymond Taylor","zip":"63026","last visit":"7/16/2011","geo_score":0.902,"level":3,"id":"a62dc2befwjj","geo_precision":"range","address":"1508 Summer Chase Ln","state":"MO"},"type":"Feature","geometry":{"type":"Point","coordinates":[-90.497337,38.513625]}},{"properties":{"city":"Fenton","name":"Sue Haskins","zip":"63026","last visit":"7/16/2011","geo_score":0.622,"level":3,"id":"a62dc2dkzmxs","geo_precision":"street","address":"105 Lavernel Dr","state":"MO"},"type":"Feature","geometry":{"type":"Point","coordinates":[-90.43517,38.478249]}},{"properties":{"city":"Saint Louis","name":"Gerald Moss","zip":"63126","last visit":"7/16/2011","geo_score":0.922,"level":3,"id":"a62dc274d2w3","geo_precision":"range","address":"9222 Queenston Dr","state":"MO"},"type":"Feature","geometry":{"type":"Point","coordinates":[-90.368602,38.549921]}},{"properties":{"city":"Saint Louis","name":"Mike Wilde","zip":"63129","last visit":"7/15/2011","geo_score":0.922,"level":3,"id":"a62dc25sq0e9","geo_precision":"range","address":"2502 Meghan Ct","state":"MO"},"type":"Feature","geometry":{"type":"Point","coordinates":[-90.309523,38.450678]}},{"properties":{"city":"Saint Louis","name":"Craig Vahldieck","zip":"63128","last visit":"7/13/2011","geo_score":0.902,"level":3,"id":"a62dc26v5pb5","geo_precision":"range","address":"5136 Carriage Trace Dr","state":"MO"},"type":"Feature","geometry":{"type":"Point","coordinates":[-90.362165,38.48789]}},{"properties":{"city":"Arnold","name":"Paul Stika","zip":"63010","last visit":"7/12/2011","geo_score":0.434,"level":3,"id":"a62dc26xpevp","geo_precision":"street","address":"2414 Guardian Ct","state":"MO"},"type":"Feature","geometry":{"type":"Point","coordinates":[-90.42119,38.4496]}},{"properties":{"city":"Saint Louis","name":"Todd Daube","zip":"63129","last visit":"7/9/2011","geo_score":0.922,"level":3,"id":"a62dc1yj6xhn","geo_precision":"range","address":"454 Magoffin Rd","state":"MO"},"type":"Feature","geometry":{"type":"Point","coordinates":[-90.289435,38.478758]}},{"properties":{"city":"Saint Louis","name":"Dennis Kleine","zip":"63129","last visit":"7/9/2011","geo_score":0.876,"level":3,"id":"a62dc269lg8u","geo_precision":"range","address":"4307 Meadowgreen Trails Dr","state":"MO"},"type":"Feature","geometry":{"type":"Point","coordinates":[-90.363817,38.467356]}},{"properties":{"city":"Saint Louis","name":"John Garavaglia","zip":"63129","last visit":"7/7/2011","geo_score":0.922,"level":3,"id":"a62dc1yid650","geo_precision":"range","address":"2751 Storm Lake Dr","state":"MO"},"type":"Feature","geometry":{"type":"Point","coordinates":[-90.315431,38.438568]}},{"properties":{"city":"Arnold","name":"Chris Hamby","zip":"63010","last visit":"7/1/2011","geo_score":0.927,"level":3,"id":"a62dc27v1ge7","geo_precision":"range","address":"1532 Stonegate Manor Dr","state":"MO"},"type":"Feature","geometry":{"type":"Point","coordinates":[-90.385473,38.442722]}},{"properties":{"city":"Arnold","name":"Blaine Eastridge","zip":"63010","last visit":"6/30/2011","geo_score":0.927,"level":3,"id":"a62dc2e7q4ym","geo_precision":"range","address":"1161 Hickory Ridge Trl","state":"MO"},"type":"Feature","geometry":{"type":"Point","coordinates":[-90.384289,38.42004]}},{"properties":{"city":"Arnold","name":"Becky Nappier","zip":"63010","last visit":"6/28/2011","geo_score":0.927,"level":3,"id":"a62dc25p9pkk","geo_precision":"range","address":"4949 Ridgeview Dr","state":"MO"},"type":"Feature","geometry":{"type":"Point","coordinates":[-90.44807,38.431367]}},{"properties":{"city":"Arnold","name":"David Puettmann","zip":"63010","last visit":"6/28/2011","geo_score":0.537,"level":3,"id":"a62dc27o60ga","geo_precision":"street","address":"3039 Ems Glen Ln","state":"MO"},"type":"Feature","geometry":{"type":"Point","coordinates":[-90.371929,38.435829]}},{"properties":{"city":"Saint Louis","name":"Mark Nielsen","zip":"63129","last visit":"6/27/2011","geo_score":0.922,"level":3,"id":"a62dc27e6wxo","geo_precision":"range","address":"3042 Silver Bow Ct","state":"MO"},"type":"Feature","geometry":{"type":"Point","coordinates":[-90.327845,38.423137]}},{"properties":{"city":"Arnold","name":"Joseph Harrison","zip":"63010","last visit":"6/27/2011","geo_score":0.927,"level":3,"id":"a62dc26vw3na","geo_precision":"range","address":"2023 Pearl Dr","state":"MO"},"type":"Feature","geometry":{"type":"Point","coordinates":[-90.396143,38.433202]}},{"properties":{"city":"Saint Louis","name":"Lynn Hulsey","zip":"63129","last visit":"6/23/2011","geo_score":0.922,"level":3,"id":"a62dc22qfe9n","geo_precision":"range","address":"5837 Cinnamon Tree Ln","state":"MO"},"type":"Feature","geometry":{"type":"Point","coordinates":[-90.346196,38.466044]}},{"properties":{"city":"Arnold","name":"Dennis Mraz","zip":"63010","last visit":"6/20/2011","geo_score":0.927,"level":3,"id":"a62dc23qap8c","geo_precision":"range","address":"1375 Big Bill Rd","state":"MO"},"type":"Feature","geometry":{"type":"Point","coordinates":[-90.377957,38.442922]}},{"properties":{"city":"Saint Louis","name":"Amanda Esparza","zip":"63129","last visit":"6/20/2011","geo_score":0.8,"level":3,"id":"a62dc26ajn4s","geo_precision":"range","address":"6505 Christopher Dr","state":"MO"},"type":"Feature","geometry":{"type":"Point","coordinates":[-90.306382,38.446026]}},{"properties":{"city":"Arnold","name":"Sarah Brammer","zip":"63010","last visit":"6/19/2011","geo_score":0.927,"level":3,"id":"a62dc25lnimq","geo_precision":"range","address":"2932 Tenbrook Rd","state":"MO"},"type":"Feature","geometry":{"type":"Point","coordinates":[-90.360206,38.431124]}},{"properties":{"city":"Fenton","name":"Susan Cornock","zip":"63026","last visit":"6/16/2011","geo_score":0.537,"level":3,"id":"a62dc283ddgh","geo_precision":"street","address":"1026 Stone Bluff Dr","state":"MO"},"type":"Feature","geometry":{"type":"Point","coordinates":[-90.4982,38.497229]}},{"properties":{"city":"Saint Louis","name":"Harold Cole","zip":"63123","last visit":"6/15/2011","geo_score":0.78,"level":3,"id":"a62dc2a4hqwg","geo_precision":"range","address":"9735 Brookmere Dr","state":"MO"},"type":"Feature","geometry":{"type":"Point","coordinates":[-90.356757,38.542757]}},{"properties":{"city":"Saint Louis","name":"Joe Cichelero","zip":"63129","last visit":"6/14/2011","geo_score":0.8,"level":3,"id":"a62dc277f00n","geo_precision":"range","address":"4930 Southridge Park Dr","state":"MO"},"type":"Feature","geometry":{"type":"Point","coordinates":[-90.327578,38.490834]}},{"properties":{"city":"Arnold","name":"Nef Ramirez","zip":"63010","last visit":"6/13/2011","geo_score":0.927,"level":3,"id":"a62dc2e7xcul","geo_precision":"range","address":"3136 Lupine Dr","state":"MO"},"type":"Feature","geometry":{"type":"Point","coordinates":[-90.413827,38.41362]}},{"properties":{"city":"Fenton","name":"Don Schroers","zip":"63026","last visit":"6/11/2011","geo_score":0.902,"level":3,"id":"a62dc26xxm7w","geo_precision":"range","address":"11 New Sugar Creek Rd","state":"MO"},"type":"Feature","geometry":{"type":"Point","coordinates":[-90.490335,38.493106]}},{"properties":{"city":"Arnold","name":"Carl Schaeffer","zip":"63010","last visit":"6/9/2011","geo_score":0.927,"level":3,"id":"a62dc26klm4o","geo_precision":"range","address":"3554 Lonedell Rd","state":"MO"},"type":"Feature","geometry":{"type":"Point","coordinates":[-90.420558,38.433213]}},{"properties":{"city":"Saint Louis","name":"Wayne Van Sluys","zip":"63129","last visit":"6/9/2011","geo_score":0.922,"level":3,"id":"a62dc268qllr","geo_precision":"range","address":"6144 Clovergreen Pl","state":"MO"},"type":"Feature","geometry":{"type":"Point","coordinates":[-90.363279,38.46578]}},{"properties":{"city":"Arnold","name":"Nick Borella","zip":"63010","last visit":"5/28/2011","geo_score":0.927,"level":3,"id":"a62dc1yj18iv","geo_precision":"range","address":"1423 Appleton Ct","state":"MO"},"type":"Feature","geometry":{"type":"Point","coordinates":[-90.366567,38.399562]}},{"properties":{"city":"Arnold","name":"Linda Dudley","zip":"63010","last visit":"5/21/2011","geo_score":0.927,"level":3,"id":"a62dc2b9xyku","geo_precision":"range","address":"2727 Pomme Meadows Dr","state":"MO"},"type":"Feature","geometry":{"type":"Point","coordinates":[-90.366537,38.4314]}},{"properties":{"city":"Saint Louis","name":"Greg Vitt","zip":"63128","last visit":"5/17/2011","geo_score":0.452,"level":3,"id":"a62dc2biv6d6","geo_precision":"street","address":"12512 Arbour Knoll Pl","state":"MO"},"type":"Feature","geometry":{"type":"Point","coordinates":[-90.384181,38.539108]}},{"properties":{"city":"Arnold","name":"Jeff Keller","zip":"63010","last visit":"5/8/2011","geo_score":0.61,"level":3,"id":"a62dc23kw0v9","geo_precision":"street","address":"109 Bethany Ct","state":"MO"},"type":"Feature","geometry":{"type":"Point","coordinates":[-90.513741,38.549246]}},{"properties":{"city":"Saint Louis","name":"Shana Johnson","zip":"63129","last visit":"5/8/2011","geo_score":0.605,"level":3,"id":"a62dc1yt33sa","geo_precision":"zip","address":"4367 Northpoint Cir","state":"MO"},"type":"Feature","geometry":{"type":"Point","coordinates":[-90.304561,38.470053]}},{"properties":{"city":"Saint Louis","name":"Matthew Volz","zip":"63123","last visit":"5/7/2011","geo_score":0.902,"level":3,"id":"a62dc2b97iej","geo_precision":"range","address":"9204 Kit Dr","state":"MO"},"type":"Feature","geometry":{"type":"Point","coordinates":[-90.312509,38.551256]}},{"properties":{"city":"Arnold","name":"Brandon Dutton","zip":"63010","last visit":"4/23/2011","geo_score":0.927,"level":3,"id":"a62dc29m4lkg","geo_precision":"range","address":"3171 Vogel Rd","state":"MO"},"type":"Feature","geometry":{"type":"Point","coordinates":[-90.415276,38.423407]}},{"properties":{"city":"Saint Louis","name":"Allen Mcclain","zip":"63129","last visit":"4/7/2012","geo_score":0.922,"level":4,"id":"a62dc26od9zg","geo_precision":"range","address":"4871 Laurier Dr","state":"MO"},"type":"Feature","geometry":{"type":"Point","coordinates":[-90.344587,38.489052]}},{"properties":{"city":"Arnold","name":"Michelle Karguas","zip":"63010","last visit":"4/3/2012","geo_score":0.927,"level":4,"id":"a62dc22qiga6","geo_precision":"range","address":"3990 Scott Robert Dr","state":"MO"},"type":"Feature","geometry":{"type":"Point","coordinates":[-90.401488,38.403547]}},{"properties":{"city":"Saint Louis","name":"Ralph Altmann","zip":"63129","last visit":"3/29/2012","geo_score":0.922,"level":4,"id":"a62dc1yehug1","geo_precision":"range","address":"2429 Boardwalk Pl","state":"MO"},"type":"Feature","geometry":{"type":"Point","coordinates":[-90.302125,38.454798]}},{"properties":{"city":"Fenton","name":"Cathy Kunz","zip":"63026","last visit":"3/19/2012","geo_score":0.339,"level":4,"id":"a62dc2a80aza","geo_precision":"street","address":"PO Box 386","state":"MO"},"type":"Feature","geometry":{"type":"Point","coordinates":[-90.54745,38.584479]}},{"properties":{"city":"Arnold","name":"Jill Chesnut","zip":"63010","last visit":"1/28/2012","geo_score":0.927,"level":4,"id":"a62dc245c2jt","geo_precision":"range","address":"3041 Shelley Lynn Dr","state":"MO"},"type":"Feature","geometry":{"type":"Point","coordinates":[-90.410691,38.414322]}},{"properties":{"city":"Arnold","name":"Verna Keller","zip":"63010","last visit":"12/31/2011","geo_score":0.927,"level":4,"id":"a62dc29xpcla","geo_precision":"range","address":"1512 Fox Ridge Ct","state":"MO"},"type":"Feature","geometry":{"type":"Point","coordinates":[-90.373232,38.427562]}},{"properties":{"city":"Arnold","name":"Andrea Menning","zip":"63010","last visit":"12/19/2011","geo_score":0.927,"level":4,"id":"a62dc2b2nbm7","geo_precision":"range","address":"1924 Edgemont Dr","state":"MO"},"type":"Feature","geometry":{"type":"Point","coordinates":[-90.39932,38.43571]}},{"properties":{"city":"Arnold","name":"Tom Kreyling","zip":"63010","last visit":"12/13/2011","geo_score":0.868,"level":4,"id":"a62dc29c35qs","geo_precision":"range","address":"1588 Kingsway Dr","state":"MO"},"type":"Feature","geometry":{"type":"Point","coordinates":[-90.400591,38.445638]}},{"properties":{"city":"Fenton","name":"Pam Kuehler","zip":"63026","last visit":"11/14/2011","geo_score":0.902,"level":4,"id":"a62dc2a7fjl5","geo_precision":"range","address":"309 Bridlecrest Dr","state":"MO"},"type":"Feature","geometry":{"type":"Point","coordinates":[-90.47748,38.480829]}},{"properties":{"city":"Saint Louis","name":"Mark Halfmann","zip":"63129","last visit":"11/12/2011","geo_score":0.922,"level":4,"id":"a62dc2co9v99","geo_precision":"range","address":"3615 Cinnamon Tree Ln","state":"MO"},"type":"Feature","geometry":{"type":"Point","coordinates":[-90.346649,38.469494]}},{"properties":{"city":"Saint Louis","name":"Kelly Patten","zip":"63126","last visit":"11/9/2011","geo_score":0.922,"level":4,"id":"a62dc24bcg7s","geo_precision":"range","address":"9223 Lawndale Dr","state":"MO"},"type":"Feature","geometry":{"type":"Point","coordinates":[-90.370564,38.549788]}},{"properties":{"city":"Saint Louis","name":"Christy Mcarthy","zip":"63128","last visit":"11/6/2011","geo_score":0.824,"level":4,"id":"a62dc1z68gvh","geo_precision":"range","address":"4939 Towne South Rd","state":"MO"},"type":"Feature","geometry":{"type":"Point","coordinates":[-90.372101,38.498802]}},{"properties":{"city":"Arnold","name":"Barry Smith","zip":"63010","last visit":"11/5/2011","geo_score":0.927,"level":4,"id":"a62dc23uch45","geo_precision":"range","address":"1455 Timothy Dr","state":"MO"},"type":"Feature","geometry":{"type":"Point","coordinates":[-90.370953,38.428511]}},{"properties":{"city":"Saint Louis","name":"Ken Schmieder","zip":"63123","last visit":"11/4/2011","geo_score":0.902,"level":4,"id":"a62dc24pm9ag","geo_precision":"range","address":"4350 Kay Ln","state":"MO"},"type":"Feature","geometry":{"type":"Point","coordinates":[-90.298,38.546222]}},{"properties":{"city":"Saint Louis","name":"Joe Barnowski","zip":"63129","last visit":"10/29/2011","geo_score":0.922,"level":4,"id":"a62dc24v1kny","geo_precision":"range","address":"2137 Olde Winery Rd","state":"MO"},"type":"Feature","geometry":{"type":"Point","coordinates":[-90.293789,38.463131]}},{"properties":{"city":"Saint Louis","name":"Donna Kallal","zip":"63129","last visit":"10/29/2011","geo_score":0.922,"level":4,"id":"a62dc1y5x3pi","geo_precision":"range","address":"2936 Erb Rd","state":"MO"},"type":"Feature","geometry":{"type":"Point","coordinates":[-90.30878,38.45567]}},{"properties":{"city":"Arnold","name":"James Woodland","zip":"63010","last visit":"10/28/2011","geo_score":0.829,"level":4,"id":"a62dc25sea63","geo_precision":"range","address":"3235 Richardson Place Rd Apt 8","state":"MO"},"type":"Feature","geometry":{"type":"Point","coordinates":[-90.384621,38.414822]}},{"properties":{"city":"Fenton","name":"Keith Weik","zip":"63026","last visit":"10/28/2011","geo_score":0.71,"level":4,"id":"a62dc26bsawi","geo_precision":"street","address":"916 Green Arbor Dr","state":"MO"},"type":"Feature","geometry":{"type":"Point","coordinates":[-90.46641,38.514488]}},{"properties":{"city":"Arnold","name":"Kyle Mankowich","zip":"63010","last visit":"10/25/2011","geo_score":0.927,"level":4,"id":"a62dc2doetgd","geo_precision":"range","address":"2035 Peach Dr","state":"MO"},"type":"Feature","geometry":{"type":"Point","coordinates":[-90.404179,38.433317]}},{"properties":{"city":"Saint Louis","name":"David Earickson","zip":"63129","last visit":"10/24/2011","geo_score":0.695,"level":4,"id":"a62dc22haumo","geo_precision":"range","address":"3326 Rowan Dr","state":"MO"},"type":"Feature","geometry":{"type":"Point","coordinates":[-90.274114,38.683066]}},{"properties":{"city":"Arnold","name":"John Amsler","zip":"63010","last visit":"10/16/2011","geo_score":0.927,"level":4,"id":"a62dc23e8glk","geo_precision":"range","address":"2980 Northern Lights Dr","state":"MO"},"type":"Feature","geometry":{"type":"Point","coordinates":[-90.408413,38.41297]}},{"properties":{"city":"Saint Louis","name":"John Cullen","zip":"63129","last visit":"10/15/2011","geo_score":0.922,"level":4,"id":"a62dc211uuv0","geo_precision":"range","address":"7217 Emerald Hill Ct","state":"MO"},"type":"Feature","geometry":{"type":"Point","coordinates":[-90.324099,38.427651]}},{"properties":{"city":"Arnold","name":"Austin Terry","zip":"63010","last visit":"10/14/2011","geo_score":0.927,"level":4,"id":"a62dc23fdbrm","geo_precision":"range","address":"1471 Sunset Dr","state":"MO"},"type":"Feature","geometry":{"type":"Point","coordinates":[-90.377314,38.408849]}},{"properties":{"city":"Arnold","name":"Sam Echelberry","zip":"63010","last visit":"10/14/2011","geo_score":0.927,"level":4,"id":"a62dc21u0v7x","geo_precision":"range","address":"2969 Highland House Villas Ct","state":"MO"},"type":"Feature","geometry":{"type":"Point","coordinates":[-90.408373,38.416408]}},{"properties":{"city":"Arnold","name":"Justin Kreft","zip":"63010","last visit":"10/13/2011","geo_score":0.927,"level":4,"id":"a62dc1zby2lz","geo_precision":"range","address":"526 Blackberry Path","state":"MO"},"type":"Feature","geometry":{"type":"Point","coordinates":[-90.411948,38.444237]}},{"properties":{"city":"Arnold","name":"Rebecca Wotherspoon","zip":"63010","last visit":"10/10/2011","geo_score":0.927,"level":4,"id":"a62dc266f7e5","geo_precision":"range","address":"3774 Cindy Ct","state":"MO"},"type":"Feature","geometry":{"type":"Point","coordinates":[-90.402435,38.40929]}},{"properties":{"city":"Saint Louis","name":"Kevin Oconnell","zip":"63123","last visit":"10/9/2011","geo_score":0.902,"level":4,"id":"a62dc1yeexrq","geo_precision":"range","address":"6857 Aliceton Ave","state":"MO"},"type":"Feature","geometry":{"type":"Point","coordinates":[-90.334285,38.552965]}},{"properties":{"city":"Arnold","name":"Jeannette Reising","zip":"63010","last visit":"10/7/2011","geo_score":0.927,"level":4,"id":"a62dc27ts8db","geo_precision":"range","address":"853 Green Apple Ct","state":"MO"},"type":"Feature","geometry":{"type":"Point","coordinates":[-90.370308,38.404489]}},{"properties":{"city":"Saint Louis","name":"Charley Freshman","zip":"63125","last visit":"10/3/2011","geo_score":0.956,"level":4,"id":"a62dc21gtism","geo_precision":"range","address":"1105 Brookville Ct","state":"MO"},"type":"Feature","geometry":{"type":"Point","coordinates":[-90.314215,38.509687]}},{"properties":{"city":"Fenton","name":"Mike Wood","zip":"63026","last visit":"10/2/2011","geo_score":0.902,"level":4,"id":"a62dc23x9wfz","geo_precision":"range","address":"997 Willow Glen Dr","state":"MO"},"type":"Feature","geometry":{"type":"Point","coordinates":[-90.448641,38.459099]}},{"properties":{"city":"Saint Louis","name":"Kevin Lafata","zip":"63129","last visit":"10/1/2011","geo_score":0.922,"level":4,"id":"a62dc29or8k7","geo_precision":"range","address":"3058 Crystal Lake Dr","state":"MO"},"type":"Feature","geometry":{"type":"Point","coordinates":[-90.339159,38.433235]}},{"properties":{"city":"Saint Louis","name":"Todd Dickneite","zip":"63129","last visit":"9/27/2011","geo_score":0.502,"level":4,"id":"a62dc1zacehg","geo_precision":"street","address":"4412 Saddle Mount Dr","state":"MO"},"type":"Feature","geometry":{"type":"Point","coordinates":[-90.304825,38.447001]}},{"properties":{"city":"Arnold","name":"Brad Frank","zip":"63010","last visit":"9/27/2011","geo_score":0.927,"level":4,"id":"a62dc25je15s","geo_precision":"range","address":"2113 Glenwood Dr","state":"MO"},"type":"Feature","geometry":{"type":"Point","coordinates":[-90.39791,38.428073]}},{"properties":{"city":"Saint Louis","name":"Richard St. Louis","zip":"63128","last visit":"9/26/2011","geo_score":0.922,"level":4,"id":"a62dc21tepyg","geo_precision":"range","address":"5950 Summerhedge Pl","state":"MO"},"type":"Feature","geometry":{"type":"Point","coordinates":[-90.404924,38.480165]}},{"properties":{"city":"Saint Louis","name":"Mike Schwartzmeyer","zip":"63129","last visit":"9/22/2011","geo_score":0.605,"level":4,"id":"a62dc2cygbhg","geo_precision":"zip","address":"6515 Devonhurst Dr","state":"MO"},"type":"Feature","geometry":{"type":"Point","coordinates":[-90.304561,38.470053]}},{"properties":{"city":"Arnold","name":"Adam Riley","zip":"63010","last visit":"9/19/2011","geo_score":0.927,"level":4,"id":"a62dc1z0i4dk","geo_precision":"range","address":"3048 Highland House Villas Ct","state":"MO"},"type":"Feature","geometry":{"type":"Point","coordinates":[-90.409696,38.416772]}},{"properties":{"city":"Arnold","name":"Heath Fiedler","zip":"63010","last visit":"9/17/2011","geo_score":0.927,"level":4,"id":"a62dc2b8n6ec","geo_precision":"range","address":"2 Bridgeview Ct","state":"MO"},"type":"Feature","geometry":{"type":"Point","coordinates":[-90.363329,38.41476]}},{"properties":{"city":"Saint Louis","name":"Ed Welker","zip":"63129","last visit":"9/17/2011","geo_score":0.824,"level":4,"id":"a62dc22foa5b","geo_precision":"street","address":"5443 Yaeger Ct","state":"MO"},"type":"Feature","geometry":{"type":"Point","coordinates":[-90.329077,38.475576]}},{"properties":{"city":"Saint Louis","name":"Adam Meinershagen","zip":"63129","last visit":"9/13/2011","geo_score":0.464,"level":4,"id":"a62dc28iflks","geo_precision":"street","address":"2 Liawen Ct","state":"MO"},"type":"Feature","geometry":{"type":"Point","coordinates":[-90.352004,38.645281]}},{"properties":{"city":"Arnold","name":"George Lankford","zip":"63010","last visit":"9/13/2011","geo_score":0.927,"level":4,"id":"a62dc27r87b5","geo_precision":"range","address":"1586 Laverne Dr","state":"MO"},"type":"Feature","geometry":{"type":"Point","coordinates":[-90.379232,38.417873]}},{"properties":{"city":"Fenton","name":"Keith Lueck","zip":"63026","last visit":"9/2/2011","geo_score":0.844,"level":4,"id":"a62dc25yqweh","geo_precision":"range","address":"72 Sparrow Point Cir","state":"MO"},"type":"Feature","geometry":{"type":"Point","coordinates":[-90.44784,38.474669]}},{"properties":{"city":"Saint Louis","name":"Ed Magee","zip":"63129","last visit":"9/2/2011","geo_score":0.922,"level":4,"id":"a62dc23zdlua","geo_precision":"range","address":"3002 Kell Ln","state":"MO"},"type":"Feature","geometry":{"type":"Point","coordinates":[-90.330548,38.437356]}},{"properties":{"city":"Arnold","name":"Janet Roberts","zip":"63010","last visit":"8/27/2011","geo_score":0.927,"level":4,"id":"a62dc1za51uo","geo_precision":"range","address":"868 Green Apple Ct","state":"MO"},"type":"Feature","geometry":{"type":"Point","coordinates":[-90.370836,38.404585]}},{"properties":{"city":"Saint Louis","name":"Francesco Loforte","zip":"63129","last visit":"8/27/2011","geo_score":0.922,"level":4,"id":"a62dc23me5yq","geo_precision":"range","address":"7111 Underoak Rd","state":"MO"},"type":"Feature","geometry":{"type":"Point","coordinates":[-90.334489,38.436623]}},{"properties":{"city":"Arnold","name":"Carl Wayckerle","zip":"63010","last visit":"8/21/2011","geo_score":0.927,"level":4,"id":"a62dc2bm20ph","geo_precision":"range","address":"4320 Sunny Brook Ct","state":"MO"},"type":"Feature","geometry":{"type":"Point","coordinates":[-90.367153,38.402638]}},{"properties":{"city":"Saint Louis","name":"Jeff Cook","zip":"63125","last visit":"8/20/2011","geo_score":0.956,"level":4,"id":"a62dc2am2k1y","geo_precision":"range","address":"751 Southshire Dr","state":"MO"},"type":"Feature","geometry":{"type":"Point","coordinates":[-90.304436,38.511948]}},{"properties":{"city":"Fenton","name":"Michele Frankowski","zip":"63026","last visit":"8/20/2011","geo_score":0.902,"level":4,"id":"a62dc25088lh","geo_precision":"range","address":"2043 Meramec Meadows Dr","state":"MO"},"type":"Feature","geometry":{"type":"Point","coordinates":[-90.50409,38.533955]}},{"properties":{"city":"Saint Louis","name":"Alan Goers","zip":"63129","last visit":"8/17/2011","geo_score":0.849,"level":4,"id":"a62dc26fgiwd","geo_precision":"range","address":"5581 Baronridge Dr Apt 9","state":"MO"},"type":"Feature","geometry":{"type":"Point","coordinates":[-90.324998,38.470757]}},{"properties":{"city":"Arnold","name":"Jeff Nelson","zip":"63010","last visit":"8/13/2011","geo_score":0.927,"level":4,"id":"a62dc2dwc7gs","geo_precision":"range","address":"102 Heritage Hills Pl","state":"MO"},"type":"Feature","geometry":{"type":"Point","coordinates":[-90.429348,38.445471]}},{"properties":{"city":"Arnold","name":"Ken Jenner","zip":"63010","last visit":"8/9/2011","geo_score":0.927,"level":4,"id":"a62dc2167jy0","geo_precision":"range","address":"2850 Glen Haven Dr","state":"MO"},"type":"Feature","geometry":{"type":"Point","coordinates":[-90.404742,38.419333]}},{"properties":{"city":"Arnold","name":"Karen Keeven","zip":"63010","last visit":"8/6/2011","geo_score":0.927,"level":4,"id":"a62dc22johl2","geo_precision":"range","address":"1934 During Cir","state":"MO"},"type":"Feature","geometry":{"type":"Point","coordinates":[-90.381737,38.426069]}},{"properties":{"city":"Arnold","name":"Gary Miller","zip":"63010","last visit":"8/6/2011","geo_score":0.927,"level":4,"id":"a62dc2cfilbn","geo_precision":"range","address":"4235 Whitehall Dr","state":"MO"},"type":"Feature","geometry":{"type":"Point","coordinates":[-90.388587,38.399164]}},{"properties":{"city":"Arnold","name":"John Paschang","zip":"63010","last visit":"7/29/2011","geo_score":0.927,"level":4,"id":"a62dc21vzd2w","geo_precision":"range","address":"2772 Pomme Meadows Dr","state":"MO"},"type":"Feature","geometry":{"type":"Point","coordinates":[-90.366632,38.430748]}},{"properties":{"city":"Saint Louis","name":"James Adkins","zip":"63129","last visit":"7/28/2011","geo_score":0.922,"level":4,"id":"a62dc24nsbkx","geo_precision":"range","address":"7191 Tournament Dr","state":"MO"},"type":"Feature","geometry":{"type":"Point","coordinates":[-90.335757,38.428932]}},{"properties":{"city":"Saint Louis","name":"George Drady","zip":"63129","last visit":"7/25/2011","geo_score":0.922,"level":4,"id":"a62dc25vuok4","geo_precision":"range","address":"4255 Green Grove Ct","state":"MO"},"type":"Feature","geometry":{"type":"Point","coordinates":[-90.361201,38.467583]}},{"properties":{"city":"Arnold","name":"William Hezel","zip":"63010","last visit":"7/24/2011","geo_score":0.927,"level":4,"id":"a62dc22c9mdw","geo_precision":"range","address":"35 Anthony Ct","state":"MO"},"type":"Feature","geometry":{"type":"Point","coordinates":[-90.395736,38.441291]}},{"properties":{"city":"Saint Louis","name":"John Bertarelli","zip":"63126","last visit":"7/23/2011","geo_score":0.922,"level":4,"id":"a62dc21ku6p6","geo_precision":"range","address":"9556 Cinnabar Dr","state":"MO"},"type":"Feature","geometry":{"type":"Point","coordinates":[-90.372176,38.541611]}},{"properties":{"city":"Sappington","name":"Kyle Williams","zip":"63128","last visit":"7/22/2011","geo_score":0.829,"level":4,"id":"a62dc20xum40","geo_precision":"range","address":"10023 Chardin Way Apt 3","state":"MO"},"type":"Feature","geometry":{"type":"Point","coordinates":[-90.375177,38.510557]}},{"properties":{"city":"Affton","name":"Andrew Greenman","zip":"63123","last visit":"7/20/2011","geo_score":0.902,"level":4,"id":"a62dc20uga9a","geo_precision":"range","address":"7017 Rhodes Ave","state":"MO"},"type":"Feature","geometry":{"type":"Point","coordinates":[-90.314616,38.581227]}},{"properties":{"city":"Saint Louis","name":"Scott Schweiss","zip":"63128","last visit":"7/20/2011","geo_score":0.922,"level":4,"id":"a62dc2a67htc","geo_precision":"range","address":"4378 Berrywick Ter","state":"MO"},"type":"Feature","geometry":{"type":"Point","coordinates":[-90.348121,38.512036]}},{"properties":{"city":"Fenton","name":"Jason Key","zip":"63026","last visit":"7/19/2011","geo_score":0.634,"level":4,"id":"a62dc251dk21","geo_precision":"range","address":"1238 New Harvest Ct","state":"MO"},"type":"Feature","geometry":{"type":"Point","coordinates":[-90.896265,38.449598]}},{"properties":{"city":"Arnold","name":"Linda Hughes","zip":"63010","last visit":"7/19/2011","geo_score":0.561,"level":4,"id":"a62dc20tfugf","geo_precision":"street","address":"351 Oak Ridge Pkwy","state":"MO"},"type":"Feature","geometry":{"type":"Point","coordinates":[-90.44415,38.446518]}},{"properties":{"city":"Saint Louis","name":"Mark Schrum","zip":"63129","last visit":"7/18/2011","geo_score":0.83,"level":4,"id":"a62dc24ekjc4","geo_precision":"range","address":"3015 Becker Crossing Dr","state":"MO"},"type":"Feature","geometry":{"type":"Point","coordinates":[-90.32605,38.427025]}},{"properties":{"city":"Arnold","name":"James Schmidt","zip":"63010","last visit":"7/18/2011","geo_score":0.927,"level":4,"id":"a62dc1yheb81","geo_precision":"range","address":"3004 Northern Lights Dr","state":"MO"},"type":"Feature","geometry":{"type":"Point","coordinates":[-90.40898,38.41297]}},{"properties":{"city":"Arnold","name":"Billy Fisher","zip":"63010","last visit":"7/16/2011","geo_score":0.927,"level":4,"id":"a62dc29m1wld","geo_precision":"range","address":"3836 Autumn Set Dr","state":"MO"},"type":"Feature","geometry":{"type":"Point","coordinates":[-90.430636,38.436372]}},{"properties":{"city":"Arnold","name":"Jim Givens","zip":"63010","last visit":"7/16/2011","geo_score":0.927,"level":4,"id":"a62dc27gbcja","geo_precision":"range","address":"1912 Saint Johns Xing","state":"MO"},"type":"Feature","geometry":{"type":"Point","coordinates":[-90.381441,38.413824]}},{"properties":{"city":"Saint Louis","name":"Steve Brophy","zip":"63129","last visit":"7/15/2011","geo_score":0.922,"level":4,"id":"a62dc27mayin","geo_precision":"range","address":"3021 Silver Bow Ct","state":"MO"},"type":"Feature","geometry":{"type":"Point","coordinates":[-90.327034,38.423311]}},{"properties":{"city":"Saint Louis","name":"Jim Chambers","zip":"63128","last visit":"7/15/2011","geo_score":0.922,"level":4,"id":"a62dc262ayi0","geo_precision":"range","address":"4613 Parrot Ct","state":"MO"},"type":"Feature","geometry":{"type":"Point","coordinates":[-90.371677,38.476597]}},{"properties":{"city":"Arnold","name":"Lorna Wiegand","zip":"63010","last visit":"7/13/2011","geo_score":0.927,"level":4,"id":"a62dc2beeid9","geo_precision":"range","address":"3526 Saint Martin Dr","state":"MO"},"type":"Feature","geometry":{"type":"Point","coordinates":[-90.381216,38.415222]}},{"properties":{"city":"Saint Louis","name":"Timothy Sullivan","zip":"63129","last visit":"7/13/2011","geo_score":0.922,"level":4,"id":"a62dc2anjacx","geo_precision":"range","address":"7413 Summertime Dr","state":"MO"},"type":"Feature","geometry":{"type":"Point","coordinates":[-90.321628,38.422156]}},{"properties":{"city":"Saint Louis","name":"Timothy Clauss","zip":"63128","last visit":"7/12/2011","geo_score":0.922,"level":4,"id":"a62dc1yyu2dt","geo_precision":"range","address":"4231 Berrywick Ter","state":"MO"},"type":"Feature","geometry":{"type":"Point","coordinates":[-90.348005,38.512818]}},{"properties":{"city":"Saint Louis","name":"David Jackson","zip":"63128","last visit":"7/9/2011","geo_score":0.922,"level":4,"id":"a62dc1zvq5m7","geo_precision":"range","address":"5833 Hightower Dr","state":"MO"},"type":"Feature","geometry":{"type":"Point","coordinates":[-90.396754,38.485509]}},{"properties":{"city":"Saint Louis","name":"Don Sedlack","zip":"63129","last visit":"7/9/2011","geo_score":0.922,"level":4,"id":"a62dc29t3l2b","geo_precision":"range","address":"6426 Fordyce Bluffs Dr","state":"MO"},"type":"Feature","geometry":{"type":"Point","coordinates":[-90.298239,38.447271]}},{"properties":{"city":"Arnold","name":"David Smith","zip":"63010","last visit":"7/8/2011","geo_score":0.927,"level":4,"id":"a62dc2dm3b5q","geo_precision":"range","address":"3172 Wellington Way","state":"MO"},"type":"Feature","geometry":{"type":"Point","coordinates":[-90.402991,38.417264]}},{"properties":{"city":"Fenton","name":"Steve Wattles","zip":"63026","last visit":"7/6/2011","geo_score":0.902,"level":4,"id":"a62dc29myez8","geo_precision":"range","address":"705 Settler Rd","state":"MO"},"type":"Feature","geometry":{"type":"Point","coordinates":[-90.477119,38.521193]}},{"properties":{"city":"Saint Louis","name":"Liz Mciver","zip":"63129","last visit":"7/5/2011","geo_score":0.922,"level":4,"id":"a62dc2112qw2","geo_precision":"range","address":"2845 Championship Blvd","state":"MO"},"type":"Feature","geometry":{"type":"Point","coordinates":[-90.331614,38.429324]}},{"properties":{"city":"Arnold","name":"Bill Koch","zip":"63010","last visit":"7/3/2011","geo_score":0.927,"level":4,"id":"a62dc247zbdu","geo_precision":"range","address":"2827 Hazel Dr","state":"MO"},"type":"Feature","geometry":{"type":"Point","coordinates":[-90.374739,38.422962]}},{"properties":{"city":"Saint Louis","name":"Michael Herbig","zip":"63123","last visit":"7/2/2011","geo_score":0.834,"level":4,"id":"a62dc2e0t1w0","geo_precision":"range","address":"9810 Tiffany Square Pkwy","state":"MO"},"type":"Feature","geometry":{"type":"Point","coordinates":[-90.334225,38.532414]}},{"properties":{"city":"Arnold","name":"Brittany Goodwin","zip":"63010","last visit":"6/28/2011","geo_score":0.927,"level":4,"id":"a62dc2a2ch0p","geo_precision":"range","address":"307 Rockview Cir","state":"MO"},"type":"Feature","geometry":{"type":"Point","coordinates":[-90.406245,38.434064]}},{"properties":{"city":"Arnold","name":"John Zurbriggen","zip":"63010","last visit":"6/27/2011","geo_score":0.829,"level":4,"id":"a62dc2d6ui5p","geo_precision":"street","address":"1141 New Towne Rd","state":"MO"},"type":"Feature","geometry":{"type":"Point","coordinates":[-90.372891,38.395148]}},{"properties":{"city":"Saint Louis","name":"Sharon Moyer","zip":"63129","last visit":"6/27/2011","geo_score":0.922,"level":4,"id":"a62dc26pgeu4","geo_precision":"range","address":"6033 Bissonnet Ct","state":"MO"},"type":"Feature","geometry":{"type":"Point","coordinates":[-90.359968,38.469767]}},{"properties":{"city":"Arnold","name":"Brad Wilhelm","zip":"63010","last visit":"6/25/2011","geo_score":0.927,"level":4,"id":"a62dc1ysd4pb","geo_precision":"range","address":"2163 Christy Dr","state":"MO"},"type":"Feature","geometry":{"type":"Point","coordinates":[-90.377231,38.441491]}},{"properties":{"city":"Arnold","name":"Laura Schmid","zip":"63010","last visit":"6/24/2011","geo_score":0.868,"level":4,"id":"a62dc2ch59c8","geo_precision":"range","address":"1677 Stardust Dr","state":"MO"},"type":"Feature","geometry":{"type":"Point","coordinates":[-90.385741,38.434027]}},{"properties":{"city":"Arnold","name":"Joyce Burch","zip":"63010","last visit":"6/21/2011","geo_score":0.927,"level":4,"id":"a62dc2c06uj5","geo_precision":"range","address":"804 Edgewood Dr","state":"MO"},"type":"Feature","geometry":{"type":"Point","coordinates":[-90.360715,38.439563]}},{"properties":{"city":"Saint Louis","name":"Warren Rippey","zip":"63128","last visit":"6/20/2011","geo_score":0.922,"level":4,"id":"a62dc2cxa322","geo_precision":"range","address":"4753 Brookton Way","state":"MO"},"type":"Feature","geometry":{"type":"Point","coordinates":[-90.37581,38.479857]}},{"properties":{"city":"Saint Louis","name":"Jon Shelton","zip":"63129","last visit":"6/19/2011","geo_score":0.922,"level":4,"id":"a62dc21ylrnj","geo_precision":"range","address":"2816 Bear Creek Ct","state":"MO"},"type":"Feature","geometry":{"type":"Point","coordinates":[-90.318759,38.441454]}},{"properties":{"city":"Arnold","name":"Eric Niedbalski","zip":"63010","last visit":"6/19/2011","geo_score":0.61,"level":4,"id":"a62dc28cmc83","geo_precision":"zip","address":"2452 Tribute Dr","state":"MO"},"type":"Feature","geometry":{"type":"Point","coordinates":[-90.350118,38.433665]}},{"properties":{"city":"Saint Louis","name":"Jeff Burling","zip":"63129","last visit":"6/18/2011","geo_score":0.922,"level":4,"id":"a62dc21c90j5","geo_precision":"range","address":"5621 Wickershire Ln","state":"MO"},"type":"Feature","geometry":{"type":"Point","coordinates":[-90.355313,38.474319]}},{"properties":{"city":"Arnold","name":"Brenden Schneider","zip":"63010","last visit":"6/16/2011","geo_score":0.829,"level":4,"id":"a62dc274d2vc","geo_precision":"street","address":"2143 Doe Run Dr","state":"MO"},"type":"Feature","geometry":{"type":"Point","coordinates":[-90.394643,38.430792]}},{"properties":{"city":"Arnold","name":"Todd Finney","zip":"63010","last visit":"6/13/2011","geo_score":0.927,"level":4,"id":"a62dc23gi7e5","geo_precision":"range","address":"3506 Cascade Ct","state":"MO"},"type":"Feature","geometry":{"type":"Point","coordinates":[-90.377123,38.413597]}},{"properties":{"city":"Arnold","name":"Scott Peterson","zip":"63010","last visit":"6/13/2011","geo_score":0.927,"level":4,"id":"a62dc2aswn3t","geo_precision":"range","address":"4047 Apple Valley Dr","state":"MO"},"type":"Feature","geometry":{"type":"Point","coordinates":[-90.369705,38.401159]}},{"properties":{"city":"Saint Louis","name":"Paul Hoynacki","zip":"63129","last visit":"6/13/2011","geo_score":0.922,"level":4,"id":"a62dc2bzngi8","geo_precision":"range","address":"5514 Windford Dr","state":"MO"},"type":"Feature","geometry":{"type":"Point","coordinates":[-90.314653,38.473536]}},{"properties":{"city":"Saint Louis","name":"Pat Mckay","zip":"63129","last visit":"6/12/2011","geo_score":0.922,"level":4,"id":"a62dc1zzapkv","geo_precision":"range","address":"3134 Piney Pointe Dr","state":"MO"},"type":"Feature","geometry":{"type":"Point","coordinates":[-90.330177,38.420384]}},{"properties":{"city":"Arnold","name":"Steve Jerrell","zip":"63010","last visit":"6/11/2011","geo_score":0.339,"level":4,"id":"a62dc24cfwbt","geo_precision":"street","address":"PO Box 852","state":"MO"},"type":"Feature","geometry":{"type":"Point","coordinates":[-90.54745,38.584479]}},{"properties":{"city":"Arnold","name":"Robert Voyles","zip":"63010","last visit":"6/11/2011","geo_score":0.927,"level":4,"id":"a62dc1yvt0zq","geo_precision":"range","address":"1043 Crabapple Ct","state":"MO"},"type":"Feature","geometry":{"type":"Point","coordinates":[-90.370126,38.403388]}},{"properties":{"city":"Fenton","name":"Charlotte Ziegler","zip":"63026","last visit":"6/11/2011","geo_score":0.902,"level":4,"id":"a62dc21nom7q","geo_precision":"range","address":"27 Wallach Dr","state":"MO"},"type":"Feature","geometry":{"type":"Point","coordinates":[-90.473558,38.481086]}},{"properties":{"city":"Saint Louis","name":"Mandi Grummels","zip":"63128","last visit":"6/9/2011","geo_score":0.922,"level":4,"id":"a62dc20b0oog","geo_precision":"range","address":"4507 Coyle Ct","state":"MO"},"type":"Feature","geometry":{"type":"Point","coordinates":[-90.373833,38.46488]}},{"properties":{"city":"Fenton","name":"Matt Sander","zip":"63026","last visit":"6/9/2011","geo_score":0.79,"level":4,"id":"a62dc1yeut80","geo_precision":"range","address":"1042 Hawkins Bend Dr","state":"MO"},"type":"Feature","geometry":{"type":"Point","coordinates":[-90.484496,38.502966]}},{"properties":{"city":"Saint Louis","name":"Daniel Polokonis","zip":"63126","last visit":"6/8/2011","geo_score":0.922,"level":4,"id":"a62dc22gqb2r","geo_precision":"range","address":"9523 Garber Rd","state":"MO"},"type":"Feature","geometry":{"type":"Point","coordinates":[-90.377418,38.546882]}},{"properties":{"city":"Fenton","name":"Tim Long","zip":"63026","last visit":"6/8/2011","geo_score":0.902,"level":4,"id":"a62dc237fj0c","geo_precision":"range","address":"99 Forest Knoll Dr","state":"MO"},"type":"Feature","geometry":{"type":"Point","coordinates":[-90.447319,38.519038]}},{"properties":{"city":"Arnold","name":"Christine Kurtis","zip":"63010","last visit":"6/8/2011","geo_score":0.927,"level":4,"id":"a62dc2dr14wy","geo_precision":"range","address":"2831 Fox Meadow Ln","state":"MO"},"type":"Feature","geometry":{"type":"Point","coordinates":[-90.374999,38.426781]}},{"properties":{"city":"Saint Louis","name":"Don Howell","zip":"63129","last visit":"6/7/2011","geo_score":0.922,"level":4,"id":"a62dc2dxaqhe","geo_precision":"range","address":"4518 Candleglow Dr","state":"MO"},"type":"Feature","geometry":{"type":"Point","coordinates":[-90.328084,38.495531]}},{"properties":{"city":"Saint Louis","name":"Thomas Reed","zip":"63129","last visit":"6/7/2011","geo_score":0.853,"level":4,"id":"a62dc21oqlh3","geo_precision":"range","address":"4222 Summit Knoll Dr Apt C","state":"MO"},"type":"Feature","geometry":{"type":"Point","coordinates":[-90.344796,38.493337]}},{"properties":{"city":"Saint Louis","name":"Ken Leone","zip":"63129","last visit":"6/7/2011","geo_score":0.922,"level":4,"id":"a62dc2cw4ill","geo_precision":"range","address":"6955 Bluff Springs Ct","state":"MO"},"type":"Feature","geometry":{"type":"Point","coordinates":[-90.316665,38.435376]}},{"properties":{"city":"Saint Louis","name":"Tim Walsh","zip":"63128","last visit":"6/5/2011","geo_score":0.86,"level":4,"id":"a62dc2bs37qt","geo_precision":"range","address":"5244 Salinas Valley Dr Apt D","state":"MO"},"type":"Feature","geometry":{"type":"Point","coordinates":[-90.392474,38.476612]}},{"properties":{"city":"Arnold","name":"Donald Forshee","zip":"63010","last visit":"6/3/2011","geo_score":0.902,"level":4,"id":"a62dc26vk6jh","geo_precision":"range","address":"4314 Towne Crest Ct","state":"MO"},"type":"Feature","geometry":{"type":"Point","coordinates":[-90.367152,38.393721]}},{"properties":{"city":"Saint Louis","name":"Kim And Chuck Reitter","zip":"63129","last visit":"6/3/2011","geo_score":0.922,"level":4,"id":"a62dc1zjc7s1","geo_precision":"range","address":"7400 Summertime Dr","state":"MO"},"type":"Feature","geometry":{"type":"Point","coordinates":[-90.32163,38.422246]}},{"properties":{"city":"Arnold","name":"Mike Scheetz","zip":"63010","last visit":"6/3/2011","geo_score":0.927,"level":4,"id":"a62dc2cuqtmp","geo_precision":"range","address":"442 Constellation Dr","state":"MO"},"type":"Feature","geometry":{"type":"Point","coordinates":[-90.357634,38.451619]}},{"properties":{"city":"Saint Louis","name":"Anette And Walter Easter","zip":"63129","last visit":"6/2/2011","geo_score":0.898,"level":4,"id":"a62dc22xsoek","geo_precision":"range","address":"2591 Bluffwood Dr","state":"MO"},"type":"Feature","geometry":{"type":"Point","coordinates":[-90.310061,38.434445]}},{"properties":{"city":"Fenton","name":"Brian Neukirch","zip":"63026","last visit":"6/2/2011","geo_score":0.538,"level":4,"id":"a62dc2c7v7in","geo_precision":"street","address":"332 Winter Lake Ct","state":"MO"},"type":"Feature","geometry":{"type":"Point","coordinates":[-90.471302,38.483442]}},{"properties":{"city":"Fenton","name":"Josh Watson","zip":"63026","last visit":"6/1/2011","geo_score":0.902,"level":4,"id":"a62dc1zlh3qp","geo_precision":"range","address":"13 Chadoak Ct","state":"MO"},"type":"Feature","geometry":{"type":"Point","coordinates":[-90.476599,38.499911]}},{"properties":{"city":"Saint Louis","name":"Michael Duchek","zip":"63126","last visit":"6/1/2011","geo_score":0.922,"level":4,"id":"a62dc20j7r35","geo_precision":"range","address":"10217 Littie Rd","state":"MO"},"type":"Feature","geometry":{"type":"Point","coordinates":[-90.36765,38.532291]}},{"properties":{"city":"Saint Louis","name":"Bill Lampe","zip":"63123","last visit":"5/28/2011","geo_score":0.854,"level":4,"id":"a62dc2bbjtuf","geo_precision":"range","address":"9809 Affton View Ct","state":"MO"},"type":"Feature","geometry":{"type":"Point","coordinates":[-90.330371,38.533583]}},{"properties":{"city":"Saint Louis","name":"Ken Stuckmeyer","zip":"63129","last visit":"5/27/2011","geo_score":0.685,"level":4,"id":"a62dc25ler7g","geo_precision":"street","address":"124 Cripple Creek Ct","state":"MO"},"type":"Feature","geometry":{"type":"Point","coordinates":[-90.303868,38.44215]}},{"properties":{"city":"Saint Louis","name":"Greg Nauser","zip":"63123","last visit":"5/25/2011","geo_score":0.902,"level":4,"id":"a62dc2b6vc3q","geo_precision":"range","address":"9630 Radio Dr","state":"MO"},"type":"Feature","geometry":{"type":"Point","coordinates":[-90.317951,38.543665]}},{"properties":{"city":"Saint Louis","name":"Pat Olander","zip":"63128","last visit":"5/21/2011","geo_score":0.922,"level":4,"id":"a62dc286465r","geo_precision":"range","address":"5886 Chrisbrook Dr","state":"MO"},"type":"Feature","geometry":{"type":"Point","coordinates":[-90.375631,38.472527]}},{"properties":{"city":"Arnold","name":"Keith White","zip":"63010","last visit":"5/21/2011","geo_score":0.927,"level":4,"id":"a62dc1xzuic6","geo_precision":"range","address":"3214 Waycross Dr","state":"MO"},"type":"Feature","geometry":{"type":"Point","coordinates":[-90.359034,38.417979]}},{"properties":{"city":"Arnold","name":"Rodger Kluthe","zip":"63010","last visit":"5/21/2011","geo_score":0.927,"level":4,"id":"a62dc2awchs3","geo_precision":"range","address":"2040 Rosedale Ct","state":"MO"},"type":"Feature","geometry":{"type":"Point","coordinates":[-90.387765,38.421787]}},{"properties":{"city":"Arnold","name":"Chris Day","zip":"63010","last visit":"5/21/2011","geo_score":0.927,"level":4,"id":"a62dc2cabnrd","geo_precision":"range","address":"4308 Sunny Brook Ct","state":"MO"},"type":"Feature","geometry":{"type":"Point","coordinates":[-90.367583,38.403147]}},{"properties":{"city":"Saint Louis","name":"John Kaufman","zip":"63129","last visit":"5/20/2011","geo_score":0.922,"level":4,"id":"a62dc2dd7frp","geo_precision":"range","address":"6017 Amelia Pointe Way","state":"MO"},"type":"Feature","geometry":{"type":"Point","coordinates":[-90.327162,38.45809]}},{"properties":{"city":"Fenton","name":"Bonny Kehm","zip":"63026","last visit":"5/13/2011","geo_score":0.902,"level":4,"id":"a62dc2e76bcm","geo_precision":"range","address":"2183 Avalon Ridge Cir","state":"MO"},"type":"Feature","geometry":{"type":"Point","coordinates":[-90.506757,38.530718]}},{"properties":{"city":"Arnold","name":"Kevin&amp;Terry Reese","zip":"63010","last visit":"5/11/2011","geo_score":0.927,"level":4,"id":"a62dc277pi3i","geo_precision":"range","address":"3232 Lupine Dr","state":"MO"},"type":"Feature","geometry":{"type":"Point","coordinates":[-90.410513,38.413638]}},{"properties":{"city":"Arnold","name":"Sarah Marshall","zip":"63010","last visit":"5/10/2011","geo_score":0.927,"level":4,"id":"a62dc2apzogm","geo_precision":"range","address":"738 Leolia Dr","state":"MO"},"type":"Feature","geometry":{"type":"Point","coordinates":[-90.362936,38.444578]}},{"properties":{"city":"Saint Louis","name":"Gene Berra","zip":"63129","last visit":"5/9/2011","geo_score":0.922,"level":4,"id":"a62dc2c6zwjd","geo_precision":"range","address":"3773 Lemay Woods Dr","state":"MO"},"type":"Feature","geometry":{"type":"Point","coordinates":[-90.354637,38.469213]}},{"properties":{"city":"Arnold","name":"Gary Stokes","zip":"63010","last visit":"5/9/2011","geo_score":0.927,"level":4,"id":"a62dc2c4wgkx","geo_precision":"range","address":"2267 Sonora Dr","state":"MO"},"type":"Feature","geometry":{"type":"Point","coordinates":[-90.393536,38.403531]}},{"properties":{"city":"Arnold","name":"Carrie Jones","zip":"63010","last visit":"5/8/2011","geo_score":0.927,"level":4,"id":"a62dc29b1sws","geo_precision":"range","address":"1973 Valmont Dr","state":"MO"},"type":"Feature","geometry":{"type":"Point","coordinates":[-90.400661,38.432176]}},{"properties":{"city":"Saint Louis","name":"Michael Gawlak","zip":"63129","last visit":"5/7/2011","geo_score":0.922,"level":4,"id":"a62dc230l8ji","geo_precision":"range","address":"3033 Sugar Mill Ct","state":"MO"},"type":"Feature","geometry":{"type":"Point","coordinates":[-90.326157,38.433379]}},{"properties":{"city":"Swansea","name":"Steve Matthews","zip":"62226","last visit":"4/23/2012","geo_score":0.902,"level":1,"id":"a62dc24kwyi7","geo_precision":"range","address":"826 Kendra Ann Dr","state":"IL"},"type":"Feature","geometry":{"type":"Point","coordinates":[-89.994457,38.561058]}},{"properties":{"city":"Waterloo","name":"Mike Troupe","zip":"62298","last visit":"4/21/2012","geo_score":0.561,"level":1,"id":"a62dc28h1oc4","geo_precision":"street","address":"1309 Fieldstone","state":"IL"},"type":"Feature","geometry":{"type":"Point","coordinates":[-89.945366,38.54752]}},{"properties":{"city":"Columbia","name":"Gary Skoglund","zip":"62236","last visit":"4/14/2012","geo_score":0.929,"level":1,"id":"a62dc20zot5h","geo_precision":"range","address":"12 Country Ln","state":"IL"},"type":"Feature","geometry":{"type":"Point","coordinates":[-90.2282,38.402134]}},{"properties":{"city":"Dunlap","name":"Sarah Flanigan","zip":"61525","last visit":"4/14/2012","geo_score":0.683,"level":1,"id":"a62dc25retsz","geo_precision":"zip","address":"2124 Liams Way","state":"IL"},"type":"Feature","geometry":{"type":"Point","coordinates":[-89.678884,40.84674]}},{"properties":{"city":"Columbia","name":"Alejandro Acevedo","zip":"62236","last visit":"3/1/2012","geo_score":0.929,"level":1,"id":"a62dc24gvp96","geo_precision":"range","address":"618 Pines Way","state":"IL"},"type":"Feature","geometry":{"type":"Point","coordinates":[-90.225332,38.43659]}},{"properties":{"city":"Waterloo","name":"Dave Rowland","zip":"62298","last visit":"5/11/2012","geo_score":0.927,"level":2,"id":"a62dc2cwlgzv","geo_precision":"range","address":"14 Country Lakes Ln","state":"IL"},"type":"Feature","geometry":{"type":"Point","coordinates":[-90.126793,38.338714]}},{"properties":{"city":"Xenia","name":"Verle Mulvaney","zip":"62899","last visit":"5/5/2012","geo_score":0.951,"level":2,"id":"a62dc2538r1k","geo_precision":"range","address":"311 Redwood Ln","state":"IL"},"type":"Feature","geometry":{"type":"Point","coordinates":[-88.691693,38.708848]}},{"properties":{"city":"Columbia","name":"Brad Chumbley","zip":"62236","last visit":"5/5/2012","geo_score":0.929,"level":2,"id":"a62dc22xh2jj","geo_precision":"range","address":"119 N Main St","state":"IL"},"type":"Feature","geometry":{"type":"Point","coordinates":[-90.200454,38.443433]}},{"properties":{"city":"Columbia","name":"Tamara Arteaga","zip":"62236","last visit":"4/28/2012","geo_score":0.929,"level":2,"id":"a62dc202xk0i","geo_precision":"range","address":"145 W Cascade Dr","state":"IL"},"type":"Feature","geometry":{"type":"Point","coordinates":[-90.21635,38.450526]}},{"properties":{"city":"Alton","name":"Brandt Gvillo","zip":"62002","last visit":"4/15/2012","geo_score":0.951,"level":2,"id":"a62dc2cfazc5","geo_precision":"range","address":"3950 Gvillo Ln","state":"IL"},"type":"Feature","geometry":{"type":"Point","coordinates":[-90.081857,38.982429]}},{"properties":{"city":"Waterloo","name":"Daron Gotto","zip":"62298","last visit":"4/9/2012","geo_score":0.927,"level":2,"id":"a62dc28iw7iw","geo_precision":"range","address":"904 Stiening St","state":"IL"},"type":"Feature","geometry":{"type":"Point","coordinates":[-90.155041,38.328962]}},{"properties":{"city":"East Peoria","name":"Joe Manley","zip":"61611","last visit":"3/23/2012","geo_score":0.5,"level":2,"id":"a62dc26t22j4","geo_precision":"street","address":"109 Victory Dr","state":"IL"},"type":"Feature","geometry":{"type":"Point","coordinates":[-89.498325,40.63633]}},{"properties":{"city":"Greenville","name":"Cynthia Bachelier","zip":"62246","last visit":"3/1/2012","geo_score":0.902,"level":2,"id":"a62dc25smg9h","geo_precision":"range","address":"1357 Sunny Slope Rd","state":"IL"},"type":"Feature","geometry":{"type":"Point","coordinates":[-89.387282,38.940623]}},{"properties":{"city":"Columbia","name":"Shane Watson","zip":"62236","last visit":"2/12/2012","geo_score":0.929,"level":2,"id":"a62dc2atedui","geo_precision":"range","address":"2 Darwin Ct","state":"IL"},"type":"Feature","geometry":{"type":"Point","coordinates":[-90.198413,38.459747]}},{"properties":{"city":"Belleville","name":"Carmen Connors","zip":"62220","last visit":"12/31/2011","geo_score":1.0,"level":2,"id":"a62dc1z5lb99","geo_precision":"range","address":"2941 Old Freeburg Rd","state":"IL"},"type":"Feature","geometry":{"type":"Point","coordinates":[-89.949649,38.475536]}},{"properties":{"city":"Swansea","name":"Jason Stober","zip":"62226","last visit":"8/22/2011","geo_score":0.457,"level":2,"id":"a62dc1zwllf0","geo_precision":"street","address":"1463 Cantwell Ln Apt 3","state":"IL"},"type":"Feature","geometry":{"type":"Point","coordinates":[-89.988373,38.524418]}},{"properties":{"city":"Columbia","name":"Jack Pilarski","zip":"62236","last visit":"4/12/2012","geo_score":0.929,"level":3,"id":"a62dc25ixhfs","geo_precision":"range","address":"1 Seminole Dr","state":"IL"},"type":"Feature","geometry":{"type":"Point","coordinates":[-90.227098,38.448471]}},{"properties":{"city":"Columbia","name":"Heather Middleton","zip":"62236","last visit":"4/6/2012","geo_score":0.929,"level":3,"id":"a62dc2e2c6fs","geo_precision":"range","address":"542 S Main St","state":"IL"},"type":"Feature","geometry":{"type":"Point","coordinates":[-90.194116,38.44078]}},{"properties":{"city":"Marion","name":"Matt Throgmorton","zip":"62959","last visit":"3/20/2012","geo_score":0.902,"level":3,"id":"a62dc2cs2emj","geo_precision":"range","address":"16900 Caplinger Pond Rd","state":"IL"},"type":"Feature","geometry":{"type":"Point","coordinates":[-88.850321,37.711319]}},{"properties":{"city":"Glenview","name":"Richard M Shore","zip":"60026","last visit":"3/12/2012","geo_score":0.936,"level":3,"id":"a62dc21ml5wi","geo_precision":"range","address":"3513 Lawson Rd","state":"IL"},"type":"Feature","geometry":{"type":"Point","coordinates":[-87.843019,42.099793]}},{"properties":{"city":"Columbia","name":"Ryan Spitz","zip":"62236","last visit":"3/7/2012","geo_score":0.612,"level":3,"id":"a62dc26ym1z1","geo_precision":"zip","address":"224 Micahs Way","state":"IL"},"type":"Feature","geometry":{"type":"Point","coordinates":[-90.255115,38.387553]}},{"properties":{"city":"Fairview Hts","name":"David Kniepkamp","zip":"62208","last visit":"3/6/2012","geo_score":0.925,"level":3,"id":"a62dc267vcqo","geo_precision":"range","address":"25 Weinel Dr","state":"IL"},"type":"Feature","geometry":{"type":"Point","coordinates":[-90.017295,38.594937]}},{"properties":{"city":"Oak Lawn","name":"Jacqueline Ansari","zip":"60453","last visit":"1/23/2012","geo_score":0.927,"level":3,"id":"a62dc1y0iogm","geo_precision":"range","address":"9440 S 51st Ave","state":"IL"},"type":"Feature","geometry":{"type":"Point","coordinates":[-87.748137,41.721051]}},{"properties":{"city":"Columbia","name":"Kim Frich","zip":"62236","last visit":"1/7/2012","geo_score":0.659,"level":3,"id":"a62dc206cwo3","geo_precision":"street","address":"103 Sunset Ct","state":"IL"},"type":"Feature","geometry":{"type":"Point","coordinates":[-89.387277,38.610599]}},{"properties":{"city":"Waterloo","name":"Rich Hootselle","zip":"62298","last visit":"12/29/2011","geo_score":0.927,"level":3,"id":"a62dc26f14ws","geo_precision":"range","address":"313 Benjamin Ln","state":"IL"},"type":"Feature","geometry":{"type":"Point","coordinates":[-90.147308,38.354276]}},{"properties":{"city":"Cahokia","name":"Laurie Woldanski","zip":"62206","last visit":"12/21/2011","geo_score":0.506,"level":3,"id":"a62dc2airi14","geo_precision":"street","address":"20 Saint Ambrose Dr","state":"IL"},"type":"Feature","geometry":{"type":"Point","coordinates":[-89.859018,38.721841]}},{"properties":{"city":"Granite City","name":"David Hagopian","zip":"62040","last visit":"12/13/2011","geo_score":0.717,"level":3,"id":"a62dc26fdmjt","geo_precision":"street","address":"4801 Benning St","state":"IL"},"type":"Feature","geometry":{"type":"Point","coordinates":[-90.10826,38.745189]}},{"properties":{"city":"Granite City","name":"Jerry Mckechan","zip":"62040","last visit":"11/22/2011","geo_score":0.902,"level":3,"id":"a62dc2337bbz","geo_precision":"range","address":"2640 Angela Dr","state":"IL"},"type":"Feature","geometry":{"type":"Point","coordinates":[-90.095059,38.737455]}},{"properties":{"city":"Columbia","name":"Scot Mackenzie","zip":"62236","last visit":"10/8/2011","geo_score":0.929,"level":3,"id":"a62dc2adbq7e","geo_precision":"range","address":"1502 Gedern Dr","state":"IL"},"type":"Feature","geometry":{"type":"Point","coordinates":[-90.214224,38.460415]}},{"properties":{"city":"Springfield","name":"Holly Bruene","zip":"62711","last visit":"9/3/2011","geo_score":0.484,"level":3,"id":"a62dc29hafyd","geo_precision":"street","address":"2146 Smyth Dr","state":"IL"},"type":"Feature","geometry":{"type":"Point","coordinates":[-90.352524,41.501405]}},{"properties":{"city":"O Fallon","name":"Josh Rolph","zip":"62269","last visit":"8/30/2011","geo_score":0.613,"level":3,"id":"a62dc1zu9q01","geo_precision":"zip","address":"1145 Hearthstone Dr","state":"IL"},"type":"Feature","geometry":{"type":"Point","coordinates":[-89.897323,38.561438]}}],"is_temporal":false,"author":{"url":"","metadata":"","contact_name":"","contact_address":"","source":"","contact_phone":""},"source":"","pagination":{"sort":null,"start":0,"total":499,"limit":1000000},"state":"complete","tags":"","published":"2014-08-14T19:21:52-04:00","id":242956}