{"type":"FeatureCollection","data_type":"Dataset","url_type":null,"permissions":[{"permissions":{"download":true,"view":true},"group_id":"everyone"}],"classification":null,"title":"COGS top200","count":200,"stream_id":242913,"contributor":{"url":"http://geocommons.com/users/42047","name":"toczek"},"data_attributes":null,"calculation_params":null,"icon_link":null,"link":"http://geocommons.com/overlays/242913.json","extent":[-122.676,25.7743,-71.0598,48.7477],"geometry_types":["point"],"unique_name":null,"name":"COGS top200","feature_count":200,"description":"","next_feature":null,"is_raster":false,"short_classification":"Y","stats":{"cogs spend":{"max":49655979,"mean":4732322.98,"variance":24440854678323.0,"stdev":4943769.27842744,"min":1662305,"median":3379452}},"features":[{"properties":{"city":"HOUSTON","geo_score":0.816,"cogs spend":49655979,"id":"a698k0qnvhtz","geo_precision":"city","state":"TX"},"type":"Feature","geometry":{"type":"Point","coordinates":[-96.919704,29.845783]}},{"properties":{"city":"NEW YORK","geo_score":0.857,"cogs spend":30246627,"id":"a698k0uo5i68","geo_precision":"city","state":"NY"},"type":"Feature","geometry":{"type":"Point","coordinates":[-74.005973,40.714269]}},{"properties":{"city":"SAN ANTONIO","geo_score":0.857,"cogs spend":19979879,"id":"a698k0kdip9i","geo_precision":"city","state":"TX"},"type":"Feature","geometry":{"type":"Point","coordinates":[-98.493628,29.424122]}},{"properties":{"city":"CHICAGO","geo_score":0.857,"cogs spend":18611481,"id":"a698k0r0txa5","geo_precision":"city","state":"IL"},"type":"Feature","geometry":{"type":"Point","coordinates":[-87.650052,41.850033]}},{"properties":{"city":"BOSTON","geo_score":0.857,"cogs spend":17124652,"id":"a698k0p5qb6z","geo_precision":"city","state":"MA"},"type":"Feature","geometry":{"type":"Point","coordinates":[-71.059773,42.358431]}},{"properties":{"city":"BALTIMORE","geo_score":0.857,"cogs spend":16620128,"id":"a698k0xpyle8","geo_precision":"city","state":"MD"},"type":"Feature","geometry":{"type":"Point","coordinates":[-76.612189,39.290385]}},{"properties":{"city":"RICHMOND","geo_score":0.857,"cogs spend":14994262,"id":"a698k0vnk9gn","geo_precision":"city","state":"VA"},"type":"Feature","geometry":{"type":"Point","coordinates":[-77.460262,37.553758]}},{"properties":{"city":"COLUMBUS","geo_score":0.776,"cogs spend":13976497,"id":"a698k0oingu3","geo_precision":"city","state":"OH"},"type":"Feature","geometry":{"type":"Point","coordinates":[-82.695724,39.998397]}},{"properties":{"city":"PITTSBURGH","geo_score":0.857,"cogs spend":13152144,"id":"a698k0p86rbs","geo_precision":"city","state":"PA"},"type":"Feature","geometry":{"type":"Point","coordinates":[-79.995886,40.440625]}},{"properties":{"city":"INDIANAPOLIS","geo_score":0.857,"cogs spend":12838312,"id":"a698k0rxue7i","geo_precision":"city","state":"IN"},"type":"Feature","geometry":{"type":"Point","coordinates":[-86.158042,39.768377]}},{"properties":{"city":"TEMPE","geo_score":0.857,"cogs spend":12559800,"id":"a698k0rjww7b","geo_precision":"city","state":"AZ"},"type":"Feature","geometry":{"type":"Point","coordinates":[-111.90931,33.414768]}},{"properties":{"city":"WASHINGTON","geo_score":0.857,"cogs spend":12190322,"id":"a698k0s7gv83","geo_precision":"city","state":"DC"},"type":"Feature","geometry":{"type":"Point","coordinates":[-77.036366,38.895112]}},{"properties":{"city":"TAMPA","geo_score":0.857,"cogs spend":11895593,"id":"a698k0z2btpi","geo_precision":"city","state":"FL"},"type":"Feature","geometry":{"type":"Point","coordinates":[-82.458428,27.947522]}},{"properties":{"city":"ROCHESTER","geo_score":0.857,"cogs spend":10711297,"id":"a698k0zinptv","geo_precision":"city","state":"NY"},"type":"Feature","geometry":{"type":"Point","coordinates":[-77.615557,43.154785]}},{"properties":{"city":"CINCINNATI","geo_score":0.857,"cogs spend":10661966,"id":"a698k0tc76do","geo_precision":"city","state":"OH"},"type":"Feature","geometry":{"type":"Point","coordinates":[-84.456886,39.162004]}},{"properties":{"city":"GREENVILLE","geo_score":0.831,"cogs spend":10074125,"id":"a698k0n0xiev","geo_precision":"city","state":"NC"},"type":"Feature","geometry":{"type":"Point","coordinates":[-81.703445,36.408734]}},{"properties":{"city":"ATLANTA","geo_score":0.857,"cogs spend":9057634,"id":"a698k0td7ng7","geo_precision":"city","state":"GA"},"type":"Feature","geometry":{"type":"Point","coordinates":[-84.387982,33.748995]}},{"properties":{"city":"WILMINGTON","geo_score":0.857,"cogs spend":8974823,"id":"a698k0nf0yv3","geo_precision":"city","state":"MA"},"type":"Feature","geometry":{"type":"Point","coordinates":[-71.173888,42.561782]}},{"properties":{"city":"JESSUP","geo_score":0.857,"cogs spend":8820420,"id":"a698k0lypn5u","geo_precision":"city","state":"MD"},"type":"Feature","geometry":{"type":"Point","coordinates":[-76.813394,39.155266]}},{"properties":{"city":"HARRISONBURG","geo_score":0.857,"cogs spend":8805631,"id":"a698k0qogv6f","geo_precision":"city","state":"VA"},"type":"Feature","geometry":{"type":"Point","coordinates":[-78.877137,38.422777]}},{"properties":{"city":"DENVER","geo_score":0.857,"cogs spend":8749213,"id":"a698k0y6ooa2","geo_precision":"city","state":"CO"},"type":"Feature","geometry":{"type":"Point","coordinates":[-104.984703,39.739154]}},{"properties":{"city":"CARSON","geo_score":0.796,"cogs spend":8433706,"id":"a698k0qgcac4","geo_precision":"city","state":"CA"},"type":"Feature","geometry":{"type":"Point","coordinates":[-121.179381,37.56382]}},{"properties":{"city":"LUBBOCK","geo_score":0.857,"cogs spend":7930759,"id":"a698k0mlf1ie","geo_precision":"city","state":"TX"},"type":"Feature","geometry":{"type":"Point","coordinates":[-101.855167,33.577863]}},{"properties":{"city":"MEMPHIS","geo_score":0.857,"cogs spend":7913403,"id":"a698k0ptr5bw","geo_precision":"city","state":"TN"},"type":"Feature","geometry":{"type":"Point","coordinates":[-90.04898,35.149534]}},{"properties":{"city":"BLOOMINGTON","geo_score":0.857,"cogs spend":7862405,"id":"a698k0u5zgiv","geo_precision":"city","state":"MN"},"type":"Feature","geometry":{"type":"Point","coordinates":[-93.29828,44.840798]}},{"properties":{"city":"MINNEAPOLIS","geo_score":0.857,"cogs spend":7849074,"id":"a698k0ud8fl4","geo_precision":"city","state":"MN"},"type":"Feature","geometry":{"type":"Point","coordinates":[-93.263836,44.979965]}},{"properties":{"city":"CHARLOTTESVILLE","geo_score":0.857,"cogs spend":7679457,"id":"a698k0nx4p85","geo_precision":"city","state":"VA"},"type":"Feature","geometry":{"type":"Point","coordinates":[-78.476678,38.029306]}},{"properties":{"city":"FREMONT","geo_score":0.857,"cogs spend":7651078,"id":"a698k0k69x4p","geo_precision":"city","state":"CA"},"type":"Feature","geometry":{"type":"Point","coordinates":[-121.988572,37.54827]}},{"properties":{"city":"CARROLLTON","geo_score":0.857,"cogs spend":7525481,"id":"a698k0u2te7g","geo_precision":"city","state":"TX"},"type":"Feature","geometry":{"type":"Point","coordinates":[-96.777626,32.767268]}},{"properties":{"city":"MIAMI","geo_score":0.857,"cogs spend":7316910,"id":"a698k0uohq7w","geo_precision":"city","state":"FL"},"type":"Feature","geometry":{"type":"Point","coordinates":[-80.193659,25.774266]}},{"properties":{"city":"GAINESVILLE","geo_score":0.818,"cogs spend":7178694,"id":"a698k0r4plgt","geo_precision":"city","state":"FL"},"type":"Feature","geometry":{"type":"Point","coordinates":[-85.354651,30.731305]}},{"properties":{"city":"WESTBURY","geo_score":0.857,"cogs spend":7121782,"id":"a698k0jja93i","geo_precision":"city","state":"NY"},"type":"Feature","geometry":{"type":"Point","coordinates":[-76.710785,43.214789]}},{"properties":{"city":"SYOSSET","geo_score":0.857,"cogs spend":7091942,"id":"a698k0vma6cc","geo_precision":"city","state":"NY"},"type":"Feature","geometry":{"type":"Point","coordinates":[-73.601772,40.754757]}},{"properties":{"city":"CHAPEL HILL","geo_score":0.857,"cogs spend":6997584,"id":"a698k0kvwxr1","geo_precision":"city","state":"NC"},"type":"Feature","geometry":{"type":"Point","coordinates":[-79.038605,35.926939]}},{"properties":{"city":"NEWARK","geo_score":0.857,"cogs spend":6832882,"id":"a698k0mloob0","geo_precision":"city","state":"DE"},"type":"Feature","geometry":{"type":"Point","coordinates":[-75.749657,39.683723]}},{"properties":{"city":"NASHVILLE","geo_score":0.857,"cogs spend":6746082,"id":"a698k0x3dpcy","geo_precision":"city","state":"TN"},"type":"Feature","geometry":{"type":"Point","coordinates":[-86.784443,36.16589]}},{"properties":{"city":"FORT WORTH","geo_score":0.746,"cogs spend":6550941,"id":"a698k0y8w50x","geo_precision":"city","state":"TX"},"type":"Feature","geometry":{"type":"Point","coordinates":[-95.262161,31.108239]}},{"properties":{"city":"LAS VEGAS","geo_score":0.857,"cogs spend":6365658,"id":"a698k0mq1nl8","geo_precision":"city","state":"NV"},"type":"Feature","geometry":{"type":"Point","coordinates":[-115.137223,36.174971]}},{"properties":{"city":"NORRISTOWN","geo_score":0.857,"cogs spend":6096241,"id":"a698k0q645t3","geo_precision":"city","state":"PA"},"type":"Feature","geometry":{"type":"Point","coordinates":[-75.339905,40.121497]}},{"properties":{"city":"CHARLESTON","geo_score":0.798,"cogs spend":5991144,"id":"a698k0u8odbd","geo_precision":"city","state":"SC"},"type":"Feature","geometry":{"type":"Point","coordinates":[-79.970643,32.85712]}},{"properties":{"city":"NORFOLK","geo_score":0.857,"cogs spend":5850011,"id":"a698k0phx97c","geo_precision":"city","state":"VA"},"type":"Feature","geometry":{"type":"Point","coordinates":[-76.285218,36.846815]}},{"properties":{"city":"KNOXVILLE","geo_score":0.794,"cogs spend":5831823,"id":"a698k0nsdnyi","geo_precision":"city","state":"TN"},"type":"Feature","geometry":{"type":"Point","coordinates":[-86.784443,36.16589]}},{"properties":{"city":"IRVINE","geo_score":0.857,"cogs spend":5798543,"id":"a698k0ogsz4s","geo_precision":"city","state":"CA"},"type":"Feature","geometry":{"type":"Point","coordinates":[-117.823111,33.669465]}},{"properties":{"city":"ANAHEIM","geo_score":0.857,"cogs spend":5742942,"id":"a698k0tywmvz","geo_precision":"city","state":"CA"},"type":"Feature","geometry":{"type":"Point","coordinates":[-117.914504,33.835293]}},{"properties":{"city":"LOUISVILLE","geo_score":0.857,"cogs spend":5635297,"id":"a698k0nn8flw","geo_precision":"city","state":"KY"},"type":"Feature","geometry":{"type":"Point","coordinates":[-85.759407,38.254238]}},{"properties":{"city":"TALLAHASSEE","geo_score":0.857,"cogs spend":5563270,"id":"a698k0sfcfhl","geo_precision":"city","state":"FL"},"type":"Feature","geometry":{"type":"Point","coordinates":[-84.280733,30.438256]}},{"properties":{"city":"ALBANY","geo_score":0.857,"cogs spend":5388250,"id":"a698k0lohd2w","geo_precision":"city","state":"NY"},"type":"Feature","geometry":{"type":"Point","coordinates":[-73.756232,42.652579]}},{"properties":{"city":"MOUNT PLEASANT","geo_score":0.857,"cogs spend":5378826,"id":"a698k0vlaxk6","geo_precision":"city","state":"MI"},"type":"Feature","geometry":{"type":"Point","coordinates":[-86.247253,42.457251]}},{"properties":{"city":"ALLENDALE","geo_score":0.857,"cogs spend":5321341,"id":"a698k0wcsjdq","geo_precision":"city","state":"MI"},"type":"Feature","geometry":{"type":"Point","coordinates":[-85.93927,42.979522]}},{"properties":{"city":"VANCOUVER","geo_score":0.0,"cogs spend":5303592,"id":"a698k0p4px4j","geo_precision":"unmatched","state":"CN"},"type":"Feature","geometry":null},{"properties":{"city":"DALLAS","geo_score":0.857,"cogs spend":5267112,"id":"a698k0rtfp6r","geo_precision":"city","state":"TX"},"type":"Feature","geometry":{"type":"Point","coordinates":[-96.806667,32.783056]}},{"properties":{"city":"DURHAM","geo_score":0.857,"cogs spend":5228867,"id":"a698k0s4c5sx","geo_precision":"city","state":"NC"},"type":"Feature","geometry":{"type":"Point","coordinates":[-78.898619,35.994033]}},{"properties":{"city":"LAKE BUENA VISTA","geo_score":0.857,"cogs spend":5180352,"id":"a698k0u8gx13","geo_precision":"city","state":"FL"},"type":"Feature","geometry":{"type":"Point","coordinates":[-81.538684,28.393619]}},{"properties":{"city":"NEW ORLEANS","geo_score":0.857,"cogs spend":5144453,"id":"a698k0n9scrp","geo_precision":"city","state":"LA"},"type":"Feature","geometry":{"type":"Point","coordinates":[-89.930956,30.068812]}},{"properties":{"city":"WEST CHESTER","geo_score":0.857,"cogs spend":5117381,"id":"a698k0tb5tws","geo_precision":"city","state":"PA"},"type":"Feature","geometry":{"type":"Point","coordinates":[-75.610503,39.980107]}},{"properties":{"city":"WACO","geo_score":0.857,"cogs spend":5038449,"id":"a698k0y97loy","geo_precision":"city","state":"TX"},"type":"Feature","geometry":{"type":"Point","coordinates":[-97.14667,31.549333]}},{"properties":{"city":"KIRKLAND","geo_score":0.857,"cogs spend":5020353,"id":"a698k0wpnsqa","geo_precision":"city","state":"WA"},"type":"Feature","geometry":{"type":"Point","coordinates":[-122.208735,47.681488]}},{"properties":{"city":"ELK GROVE VILLAGE","geo_score":0.743,"cogs spend":4897414,"id":"a698k0wf4lsz","geo_precision":"city","state":"IL"},"type":"Feature","geometry":{"type":"Point","coordinates":[-89.265915,37.300605]}},{"properties":{"city":"TUSCALOOSA","geo_score":0.857,"cogs spend":4776173,"id":"a698k0xzw9a4","geo_precision":"city","state":"AL"},"type":"Feature","geometry":{"type":"Point","coordinates":[-87.569174,33.209841]}},{"properties":{"city":"KANATA","geo_score":0.0,"cogs spend":4739726,"id":"a698k0whuc8c","geo_precision":"unmatched","state":"CN"},"type":"Feature","geometry":null},{"properties":{"city":"AUSTIN","geo_score":0.857,"cogs spend":4686005,"id":"a698k0xewopf","geo_precision":"city","state":"TX"},"type":"Feature","geometry":{"type":"Point","coordinates":[-97.743061,30.267153]}},{"properties":{"city":"LEWISVILLE","geo_score":0.857,"cogs spend":4637510,"id":"a698k0s47m0n","geo_precision":"city","state":"TX"},"type":"Feature","geometry":{"type":"Point","coordinates":[-96.994174,33.046233]}},{"properties":{"city":"SCRANTON","geo_score":0.857,"cogs spend":4627976,"id":"a698k0lsxb0u","geo_precision":"city","state":"PA"},"type":"Feature","geometry":{"type":"Point","coordinates":[-75.662412,41.408969]}},{"properties":{"city":"ANN ARBOR","geo_score":0.75,"cogs spend":4457039,"id":"a698k0nwj81f","geo_precision":"city","state":"MI"},"type":"Feature","geometry":{"type":"Point","coordinates":[-86.176715,42.96502]}},{"properties":{"city":"PHOENIX","geo_score":0.857,"cogs spend":4433472,"id":"a698k0skdaaq","geo_precision":"city","state":"AZ"},"type":"Feature","geometry":{"type":"Point","coordinates":[-112.074037,33.448377]}},{"properties":{"city":"CLEMSON UNIVERSITY","geo_score":0.773,"cogs spend":4391903,"id":"a698k0wteyha","geo_precision":"city","state":"SC"},"type":"Feature","geometry":{"type":"Point","coordinates":[-82.802154,34.75974]}},{"properties":{"city":"LOWELL","geo_score":0.857,"cogs spend":4330168,"id":"a698k0q8f2j6","geo_precision":"city","state":"MA"},"type":"Feature","geometry":{"type":"Point","coordinates":[-71.459405,42.446396]}},{"properties":{"city":"ORLANDO","geo_score":0.857,"cogs spend":4250160,"id":"a698k0r8xpek","geo_precision":"city","state":"FL"},"type":"Feature","geometry":{"type":"Point","coordinates":[-81.379237,28.538336]}},{"properties":{"city":"GREENSBORO","geo_score":0.857,"cogs spend":4236019,"id":"a698k0tdxr9s","geo_precision":"city","state":"NC"},"type":"Feature","geometry":{"type":"Point","coordinates":[-79.791975,36.072636]}},{"properties":{"city":"ROUND ROCK","geo_score":0.857,"cogs spend":4164459,"id":"a698k0t7y1tf","geo_precision":"city","state":"TX"},"type":"Feature","geometry":{"type":"Point","coordinates":[-97.678896,30.508255]}},{"properties":{"city":"PORTLAND","geo_score":0.857,"cogs spend":4162296,"id":"a698k0jw42ik","geo_precision":"city","state":"OR"},"type":"Feature","geometry":{"type":"Point","coordinates":[-122.676207,45.523452]}},{"properties":{"city":"BELLINGHAM","geo_score":0.857,"cogs spend":4146514,"id":"a698k0q4mez6","geo_precision":"city","state":"WA"},"type":"Feature","geometry":{"type":"Point","coordinates":[-122.454297,48.747687]}},{"properties":{"city":"TOLEDO","geo_score":0.857,"cogs spend":4108002,"id":"a698k0okwagv","geo_precision":"city","state":"OH"},"type":"Feature","geometry":{"type":"Point","coordinates":[-83.555212,41.663938]}},{"properties":{"city":"BIRMINGHAM","geo_score":0.857,"cogs spend":4017855,"id":"a698k0th55zt","geo_precision":"city","state":"AL"},"type":"Feature","geometry":{"type":"Point","coordinates":[-86.80249,33.520661]}},{"properties":{"city":"NEW BERLIN","geo_score":0.746,"cogs spend":4007251,"id":"a698k0jcncgh","geo_precision":"city","state":"WI"},"type":"Feature","geometry":{"type":"Point","coordinates":[-88.133876,44.163209]}},{"properties":{"city":"KANSAS CITY","geo_score":0.857,"cogs spend":3909736,"id":"a698k0ui825i","geo_precision":"city","state":"MO"},"type":"Feature","geometry":{"type":"Point","coordinates":[-94.598583,39.102404]}},{"properties":{"city":"WINSTON SALEM","geo_score":0.857,"cogs spend":3828066,"id":"a698k0sr737l","geo_precision":"city","state":"NC"},"type":"Feature","geometry":{"type":"Point","coordinates":[-80.244216,36.09986]}},{"properties":{"city":"SPARKS","geo_score":0.857,"cogs spend":3805787,"id":"a698k0xk0x9m","geo_precision":"city","state":"NV"},"type":"Feature","geometry":{"type":"Point","coordinates":[-119.640601,40.039169]}},{"properties":{"city":"SCOTTSDALE","geo_score":0.857,"cogs spend":3788878,"id":"a698k0o4hr1k","geo_precision":"city","state":"AZ"},"type":"Feature","geometry":{"type":"Point","coordinates":[-111.899033,33.50921]}},{"properties":{"city":"ST PAUL","geo_score":0.762,"cogs spend":3787142,"id":"a698k0z0bldr","geo_precision":"city","state":"MN"},"type":"Feature","geometry":{"type":"Point","coordinates":[-92.259625,47.415205]}},{"properties":{"city":"ABILENE","geo_score":0.857,"cogs spend":3777804,"id":"a698k0uwp1jo","geo_precision":"city","state":"TX"},"type":"Feature","geometry":{"type":"Point","coordinates":[-99.80213,32.344457]}},{"properties":{"city":"MOLINE","geo_score":0.786,"cogs spend":3760018,"id":"a698k0zfuxop","geo_precision":"city","state":"IL"},"type":"Feature","geometry":{"type":"Point","coordinates":[-90.595736,41.420305]}},{"properties":{"city":"EDISON","geo_score":0.857,"cogs spend":3719977,"id":"a698k0o3dnkp","geo_precision":"city","state":"NJ"},"type":"Feature","geometry":{"type":"Point","coordinates":[-74.412095,40.518715]}},{"properties":{"city":"FORT LAUDERDALE","geo_score":0.857,"cogs spend":3705237,"id":"a698k0m11b4y","geo_precision":"city","state":"FL"},"type":"Feature","geometry":{"type":"Point","coordinates":[-80.143379,26.122308]}},{"properties":{"city":"SPRINGFIELD","geo_score":0.792,"cogs spend":3702729,"id":"a698k0xzby6i","geo_precision":"city","state":"MO"},"type":"Feature","geometry":{"type":"Point","coordinates":[-91.237925,38.295605]}},{"properties":{"city":"DANIA BEACH","geo_score":0.857,"cogs spend":3689706,"id":"a698k0pkkxob","geo_precision":"city","state":"FL"},"type":"Feature","geometry":{"type":"Point","coordinates":[-80.143934,26.052311]}},{"properties":{"city":"SAN JOSE","geo_score":0.857,"cogs spend":3685116,"id":"a698k0rz7enr","geo_precision":"city","state":"CA"},"type":"Feature","geometry":{"type":"Point","coordinates":[-121.894956,37.339386]}},{"properties":{"city":"SAN DIEGO","geo_score":0.857,"cogs spend":3665172,"id":"a698k0l6ueqx","geo_precision":"city","state":"CA"},"type":"Feature","geometry":{"type":"Point","coordinates":[-117.157255,32.715329]}},{"properties":{"city":"KANSAS CITY","geo_score":0.857,"cogs spend":3631770,"id":"a698k0r55if9","geo_precision":"city","state":"KS"},"type":"Feature","geometry":{"type":"Point","coordinates":[-94.627457,39.114171]}},{"properties":{"city":"MARYVILLE","geo_score":0.857,"cogs spend":3631060,"id":"a698k0ojyojr","geo_precision":"city","state":"MO"},"type":"Feature","geometry":{"type":"Point","coordinates":[-94.860299,40.277742]}},{"properties":{"city":"WILMINGTON","geo_score":0.857,"cogs spend":3630913,"id":"a698k0ww6ypi","geo_precision":"city","state":"NC"},"type":"Feature","geometry":{"type":"Point","coordinates":[-77.94471,34.225726]}},{"properties":{"city":"BOWLING GREEN","geo_score":0.738,"cogs spend":3560311,"id":"a698k0spvy99","geo_precision":"city","state":"KY"},"type":"Feature","geometry":{"type":"Point","coordinates":[-83.355181,38.067306]}},{"properties":{"city":"BAYTOWN","geo_score":0.857,"cogs spend":3548926,"id":"a698k0life61","geo_precision":"city","state":"TX"},"type":"Feature","geometry":{"type":"Point","coordinates":[-95.434241,29.83399]}},{"properties":{"city":"SPRINGFIELD","geo_score":0.857,"cogs spend":3529718,"id":"a698k0o457r6","geo_precision":"city","state":"MA"},"type":"Feature","geometry":{"type":"Point","coordinates":[-72.589811,42.101483]}},{"properties":{"city":"UNIVERSITY","geo_score":0.857,"cogs spend":3515223,"id":"a698k0pueg8u","geo_precision":"city","state":"MS"},"type":"Feature","geometry":{"type":"Point","coordinates":[-89.573605,34.33962]}},{"properties":{"city":"INDIANA","geo_score":0.857,"cogs spend":3472673,"id":"a698k0xv25ni","geo_precision":"city","state":"PA"},"type":"Feature","geometry":{"type":"Point","coordinates":[-79.080422,40.621272]}},{"properties":{"city":"CEDAR RAPIDS","geo_score":0.857,"cogs spend":3466137,"id":"a698k0ql7rfq","geo_precision":"city","state":"IA"},"type":"Feature","geometry":{"type":"Point","coordinates":[-91.644068,42.008333]}},{"properties":{"city":"HIGH POINT","geo_score":0.857,"cogs spend":3428361,"id":"a698k0kmezx1","geo_precision":"city","state":"NC"},"type":"Feature","geometry":{"type":"Point","coordinates":[-79.988711,35.993538]}},{"properties":{"city":"ROCKFORD","geo_score":0.857,"cogs spend":3420807,"id":"a698k0vcect4","geo_precision":"city","state":"IL"},"type":"Feature","geometry":{"type":"Point","coordinates":[-89.093995,42.271131]}},{"properties":{"city":"WILLIAMSBURG","geo_score":0.857,"cogs spend":3379452,"id":"a698k0nziyk0","geo_precision":"city","state":"VA"},"type":"Feature","geometry":{"type":"Point","coordinates":[-76.746769,37.310451]}},{"properties":{"city":"GOODLETTSVILLE","geo_score":0.765,"cogs spend":3354887,"id":"a698k0jozv0v","geo_precision":"city","state":"TN"},"type":"Feature","geometry":{"type":"Point","coordinates":[-83.581003,35.904534]}},{"properties":{"city":"OVERLAND PARK","geo_score":0.857,"cogs spend":3350673,"id":"a698k0qyqzm1","geo_precision":"city","state":"KS"},"type":"Feature","geometry":{"type":"Point","coordinates":[-94.670792,38.982228]}},{"properties":{"city":"EVANSTON","geo_score":0.857,"cogs spend":3327273,"id":"a698k0l37fyx","geo_precision":"city","state":"IL"},"type":"Feature","geometry":{"type":"Point","coordinates":[-87.702155,42.049148]}},{"properties":{"city":"CULLOWHEE","geo_score":0.857,"cogs spend":3279783,"id":"a698k0lttdzr","geo_precision":"city","state":"NC"},"type":"Feature","geometry":{"type":"Point","coordinates":[-83.132409,35.249256]}},{"properties":{"city":"CAMDEN","geo_score":0.857,"cogs spend":3279737,"id":"a698k0q46gmv","geo_precision":"city","state":"NJ"},"type":"Feature","geometry":{"type":"Point","coordinates":[-75.11962,39.925946]}},{"properties":{"city":"CLEVELAND","geo_score":0.857,"cogs spend":3268021,"id":"a698k0tx6gkj","geo_precision":"city","state":"OH"},"type":"Feature","geometry":{"type":"Point","coordinates":[-81.695409,41.499495]}},{"properties":{"city":"MISSISSIPPI STATE","geo_score":0.821,"cogs spend":3199300,"id":"a698k0xxi80d","geo_precision":"city","state":"MS"},"type":"Feature","geometry":{"type":"Point","coordinates":[-89.043925,30.381865]}},{"properties":{"city":"LITTLE ROCK","geo_score":0.857,"cogs spend":3123779,"id":"a698k0wl0syj","geo_precision":"city","state":"AR"},"type":"Feature","geometry":{"type":"Point","coordinates":[-92.289595,34.746481]}},{"properties":{"city":"CORPUS CHRISTI","geo_score":0.857,"cogs spend":3091809,"id":"a698k0z95pkm","geo_precision":"city","state":"TX"},"type":"Feature","geometry":{"type":"Point","coordinates":[-97.396381,27.800583]}},{"properties":{"city":"TUCSON","geo_score":0.857,"cogs spend":2979751,"id":"a698k0tqmkem","geo_precision":"city","state":"AZ"},"type":"Feature","geometry":{"type":"Point","coordinates":[-110.926479,32.221743]}},{"properties":{"city":"WALTHAM","geo_score":0.857,"cogs spend":2968197,"id":"a698k0wj4duo","geo_precision":"city","state":"MA"},"type":"Feature","geometry":{"type":"Point","coordinates":[-71.2398,42.388938]}},{"properties":{"city":"VALLEY VIEW","geo_score":0.8,"cogs spend":2946830,"id":"a698k0ndrsy9","geo_precision":"city","state":"OH"},"type":"Feature","geometry":{"type":"Point","coordinates":[-80.948144,40.865614]}},{"properties":{"city":"PFLUGERVILLE","geo_score":0.857,"cogs spend":2934240,"id":"a698k0lonlad","geo_precision":"city","state":"TX"},"type":"Feature","geometry":{"type":"Point","coordinates":[-97.597055,30.442737]}},{"properties":{"city":"WINSTON-SALEM","geo_score":0.857,"cogs spend":2891301,"id":"a698k0tkkrhu","geo_precision":"city","state":"NC"},"type":"Feature","geometry":{"type":"Point","coordinates":[-80.244216,36.09986]}},{"properties":{"city":"BLOOMSBURG","geo_score":0.857,"cogs spend":2884466,"id":"a698k0rb2g11","geo_precision":"city","state":"PA"},"type":"Feature","geometry":{"type":"Point","coordinates":[-76.430563,41.005609]}},{"properties":{"city":"ELON","geo_score":0.857,"cogs spend":2847058,"id":"a698k0qpsdmc","geo_precision":"city","state":"NC"},"type":"Feature","geometry":{"type":"Point","coordinates":[-79.50669,36.102913]}},{"properties":{"city":"BROOKINGS","geo_score":0.857,"cogs spend":2843939,"id":"a698k0unbdxg","geo_precision":"city","state":"SD"},"type":"Feature","geometry":{"type":"Point","coordinates":[-96.762102,44.355091]}},{"properties":{"city":"WEST HARTFORD","geo_score":0.81,"cogs spend":2805327,"id":"a698k0kiiuom","geo_precision":"city","state":"CT"},"type":"Feature","geometry":{"type":"Point","coordinates":[-72.685093,41.763711]}},{"properties":{"city":"RICHMOND","geo_score":0.857,"cogs spend":2765192,"id":"a698k0q8l4ig","geo_precision":"city","state":"KY"},"type":"Feature","geometry":{"type":"Point","coordinates":[-84.296913,37.764867]}},{"properties":{"city":"SAINT CHARLES","geo_score":0.857,"cogs spend":2758804,"id":"a698k0mexpdb","geo_precision":"city","state":"IL"},"type":"Feature","geometry":{"type":"Point","coordinates":[-88.430167,41.937151]}},{"properties":{"city":"ARLINGTON","geo_score":0.857,"cogs spend":2686544,"id":"a698k0jgagkh","geo_precision":"city","state":"VA"},"type":"Feature","geometry":{"type":"Point","coordinates":[-77.084145,38.89039]}},{"properties":{"city":"EARTH CITY","geo_score":0.857,"cogs spend":2679629,"id":"a698k0pxd9uf","geo_precision":"city","state":"MO"},"type":"Feature","geometry":{"type":"Point","coordinates":[-90.427118,38.638318]}},{"properties":{"city":"NACOGDOCHES","geo_score":0.857,"cogs spend":2650208,"id":"a698k0t8movz","geo_precision":"city","state":"TX"},"type":"Feature","geometry":{"type":"Point","coordinates":[-94.65055,31.615186]}},{"properties":{"city":"PRINCETON","geo_score":0.806,"cogs spend":2610060,"id":"a698k0lm6khb","geo_precision":"city","state":"NJ"},"type":"Feature","geometry":{"type":"Point","coordinates":[-74.64795,40.363882]}},{"properties":{"city":"MURFREESBORO","geo_score":0.857,"cogs spend":2595035,"id":"a698k0tzow2c","geo_precision":"city","state":"TN"},"type":"Feature","geometry":{"type":"Point","coordinates":[-86.372158,35.762951]}},{"properties":{"city":"HATTIESBURG","geo_score":0.857,"cogs spend":2578185,"id":"a698k0xbr63j","geo_precision":"city","state":"MS"},"type":"Feature","geometry":{"type":"Point","coordinates":[-89.28071,31.245138]}},{"properties":{"city":"DES MOINES","geo_score":0.857,"cogs spend":2571662,"id":"a698k0uklnw5","geo_precision":"city","state":"IA"},"type":"Feature","geometry":{"type":"Point","coordinates":[-93.609106,41.600545]}},{"properties":{"city":"BOISE","geo_score":0.857,"cogs spend":2568322,"id":"a698k0nda9wo","geo_precision":"city","state":"ID"},"type":"Feature","geometry":{"type":"Point","coordinates":[-116.203451,43.6135]}},{"properties":{"city":"LANSING","geo_score":0.857,"cogs spend":2567436,"id":"a698k0n6bl9f","geo_precision":"city","state":"MI"},"type":"Feature","geometry":{"type":"Point","coordinates":[-84.555535,42.732535]}},{"properties":{"city":"AUBURN HILLS","geo_score":0.753,"cogs spend":2504458,"id":"a698k0w2p4w8","geo_precision":"city","state":"MI"},"type":"Feature","geometry":{"type":"Point","coordinates":[-87.679576,45.957178]}},{"properties":{"city":"MCKINNEY","geo_score":0.857,"cogs spend":2503815,"id":"a698k0ub378f","geo_precision":"city","state":"TX"},"type":"Feature","geometry":{"type":"Point","coordinates":[-96.588295,33.141438]}},{"properties":{"city":"KUTZTOWN","geo_score":0.857,"cogs spend":2449989,"id":"a698k0v5wjs7","geo_precision":"city","state":"PA"},"type":"Feature","geometry":{"type":"Point","coordinates":[-76.321899,40.398703]}},{"properties":{"city":"MOBILE","geo_score":0.857,"cogs spend":2438932,"id":"a698k0xpfr6x","geo_precision":"city","state":"AL"},"type":"Feature","geometry":{"type":"Point","coordinates":[-88.043054,30.694357]}},{"properties":{"city":"SAN FRANCISCO","geo_score":0.857,"cogs spend":2414495,"id":"a698k0w3v5mw","geo_precision":"city","state":"CA"},"type":"Feature","geometry":{"type":"Point","coordinates":[-122.419416,37.77493]}},{"properties":{"city":"CHATTANOOGA","geo_score":0.857,"cogs spend":2411320,"id":"a698k0k6xsk7","geo_precision":"city","state":"TN"},"type":"Feature","geometry":{"type":"Point","coordinates":[-85.30968,35.04563]}},{"properties":{"city":"BROOKLYN","geo_score":0.857,"cogs spend":2389991,"id":"a698k0jko403","geo_precision":"city","state":"NY"},"type":"Feature","geometry":{"type":"Point","coordinates":[-78.748363,42.433118]}},{"properties":{"city":"STOCKTON","geo_score":0.857,"cogs spend":2366057,"id":"a698k0par7ka","geo_precision":"city","state":"CA"},"type":"Feature","geometry":{"type":"Point","coordinates":[-121.298794,37.672196]}},{"properties":{"city":"TORONTO","geo_score":0.0,"cogs spend":2362317,"id":"a698k0vkfkzd","geo_precision":"unmatched","state":"CN"},"type":"Feature","geometry":null},{"properties":{"city":"DECATUR","geo_score":0.857,"cogs spend":2349122,"id":"a698k0uw7xg0","geo_precision":"city","state":"IL"},"type":"Feature","geometry":{"type":"Point","coordinates":[-88.946486,39.839477]}},{"properties":{"city":"DAYTON","geo_score":0.857,"cogs spend":2340171,"id":"a698k0yu0ahc","geo_precision":"city","state":"OH"},"type":"Feature","geometry":{"type":"Point","coordinates":[-84.191607,39.758948]}},{"properties":{"city":"WINFIELD","geo_score":0.857,"cogs spend":2338338,"id":"a698k0nsypyr","geo_precision":"city","state":"IL"},"type":"Feature","geometry":{"type":"Point","coordinates":[-88.088716,41.839679]}},{"properties":{"city":"MOREHEAD","geo_score":0.857,"cogs spend":2299076,"id":"a698k0y1n6vv","geo_precision":"city","state":"KY"},"type":"Feature","geometry":{"type":"Point","coordinates":[-83.42039,38.210471]}},{"properties":{"city":"FLORISSANT","geo_score":0.857,"cogs spend":2294304,"id":"a698k0xjfwlm","geo_precision":"city","state":"MO"},"type":"Feature","geometry":{"type":"Point","coordinates":[-90.351314,38.805499]}},{"properties":{"city":"LOS ANGELES","geo_score":0.857,"cogs spend":2285508,"id":"a698k0wh4dao","geo_precision":"city","state":"CA"},"type":"Feature","geometry":{"type":"Point","coordinates":[-118.243685,34.052234]}},{"properties":{"city":"ARLINGTON","geo_score":0.857,"cogs spend":2273758,"id":"a698k0y8aemq","geo_precision":"city","state":"TX"},"type":"Feature","geometry":{"type":"Point","coordinates":[-97.108066,32.735687]}},{"properties":{"city":"SANTA CLARA","geo_score":0.757,"cogs spend":2217582,"id":"a698k0ul30q0","geo_precision":"city","state":"CA"},"type":"Feature","geometry":{"type":"Point","coordinates":[-119.045658,36.114674]}},{"properties":{"city":"GRANDVIEW","geo_score":0.786,"cogs spend":2216746,"id":"a698k0vcvcmr","geo_precision":"city","state":"MO"},"type":"Feature","geometry":{"type":"Point","coordinates":[-90.679846,37.650327]}},{"properties":{"city":"CONWAY","geo_score":0.857,"cogs spend":2178433,"id":"a698k0xzslex","geo_precision":"city","state":"AR"},"type":"Feature","geometry":{"type":"Point","coordinates":[-92.459422,35.081581]}},{"properties":{"city":"LIVONIA","geo_score":0.857,"cogs spend":2154359,"id":"a698k0w7i6v2","geo_precision":"city","state":"MI"},"type":"Feature","geometry":{"type":"Point","coordinates":[-83.371753,42.369351]}},{"properties":{"city":"RADNOR","geo_score":0.0,"cogs spend":2142333,"id":"a698k0jrhovo","geo_precision":"unmatched","state":"PA"},"type":"Feature","geometry":null},{"properties":{"city":"CANYON","geo_score":0.857,"cogs spend":2132720,"id":"a698k0tlwfio","geo_precision":"city","state":"TX"},"type":"Feature","geometry":{"type":"Point","coordinates":[-101.731553,33.592863]}},{"properties":{"city":"CROWLEY","geo_score":0.816,"cogs spend":2126995,"id":"a698k0rora8k","geo_precision":"city","state":"TX"},"type":"Feature","geometry":{"type":"Point","coordinates":[-94.394365,33.326234]}},{"properties":{"city":"CAMBRIDGE","geo_score":0.813,"cogs spend":2121721,"id":"a698k0t3n7sx","geo_precision":"city","state":"MA"},"type":"Feature","geometry":{"type":"Point","coordinates":[-71.103663,42.358431]}},{"properties":{"city":"UNIVERSITY CENTER","geo_score":0.768,"cogs spend":2108877,"id":"a698k0phgano","geo_precision":"city","state":"MI"},"type":"Feature","geometry":{"type":"Point","coordinates":[-88.435676,47.105482]}},{"properties":{"city":"BRONX","geo_score":0.857,"cogs spend":2090631,"id":"a698k0vcpu85","geo_precision":"city","state":"NY"},"type":"Feature","geometry":{"type":"Point","coordinates":[-73.920355,40.819329]}},{"properties":{"city":"MACON","geo_score":0.857,"cogs spend":2075104,"id":"a698k0lcs9yp","geo_precision":"city","state":"GA"},"type":"Feature","geometry":{"type":"Point","coordinates":[-83.632402,32.840695]}},{"properties":{"city":"CONWAY","geo_score":0.857,"cogs spend":2060651,"id":"a698k0vkzxog","geo_precision":"city","state":"SC"},"type":"Feature","geometry":{"type":"Point","coordinates":[-78.948287,33.868775]}},{"properties":{"city":"OAKLAND","geo_score":0.857,"cogs spend":2055358,"id":"a698k0xcah5r","geo_precision":"city","state":"CA"},"type":"Feature","geometry":{"type":"Point","coordinates":[-122.270803,37.804372]}},{"properties":{"city":"SACRAMENTO","geo_score":0.857,"cogs spend":2051818,"id":"a698k0kehsxd","geo_precision":"city","state":"CA"},"type":"Feature","geometry":{"type":"Point","coordinates":[-121.4944,38.581572]}},{"properties":{"city":"IRVING","geo_score":0.857,"cogs spend":2050110,"id":"a698k0tcr2qm","geo_precision":"city","state":"TX"},"type":"Feature","geometry":{"type":"Point","coordinates":[-96.948895,32.814018]}},{"properties":{"city":"EAST STROUDSBURG","geo_score":0.771,"cogs spend":2037480,"id":"a698k0puzie7","geo_precision":"city","state":"PA"},"type":"Feature","geometry":{"type":"Point","coordinates":[-75.76936,41.061473]}},{"properties":{"city":"SEARCY","geo_score":0.857,"cogs spend":2020743,"id":"a698k0v44vn2","geo_precision":"city","state":"AR"},"type":"Feature","geometry":{"type":"Point","coordinates":[-91.731729,35.243622]}},{"properties":{"city":"DUBLIN","geo_score":0.857,"cogs spend":2004208,"id":"a698k0y9nxbb","geo_precision":"city","state":"CA"},"type":"Feature","geometry":{"type":"Point","coordinates":[-121.906329,37.714402]}},{"properties":{"city":"POTSDAM","geo_score":0.857,"cogs spend":2002432,"id":"a698k0lg97ad","geo_precision":"city","state":"NY"},"type":"Feature","geometry":{"type":"Point","coordinates":[-75.142415,44.539717]}},{"properties":{"city":"LAWRENCEVILLE","geo_score":0.857,"cogs spend":1985986,"id":"a698k0ohdeeb","geo_precision":"city","state":"NJ"},"type":"Feature","geometry":{"type":"Point","coordinates":[-74.729605,40.29733]}},{"properties":{"city":"LEXINGTON","geo_score":0.857,"cogs spend":1954516,"id":"a698k0t9mnwq","geo_precision":"city","state":"VA"},"type":"Feature","geometry":{"type":"Point","coordinates":[-79.443495,37.779976]}},{"properties":{"city":"ESCONDIDO","geo_score":0.857,"cogs spend":1953643,"id":"a698k0ot3xfr","geo_precision":"city","state":"CA"},"type":"Feature","geometry":{"type":"Point","coordinates":[-117.086421,33.119207]}},{"properties":{"city":"MISSION VIEJO","geo_score":0.857,"cogs spend":1944260,"id":"a698k0z1q3qj","geo_precision":"city","state":"CA"},"type":"Feature","geometry":{"type":"Point","coordinates":[-117.769442,33.640302]}},{"properties":{"city":"FARMVILLE","geo_score":0.857,"cogs spend":1943053,"id":"a698k0ot84bs","geo_precision":"city","state":"VA"},"type":"Feature","geometry":{"type":"Point","coordinates":[-78.421284,37.280694]}},{"properties":{"city":"CARPENTERSVILLE","geo_score":0.8,"cogs spend":1941984,"id":"a698k0kjrsie","geo_precision":"city","state":"IL"},"type":"Feature","geometry":{"type":"Point","coordinates":[-89.894266,38.891991]}},{"properties":{"city":"DENTON","geo_score":0.857,"cogs spend":1935653,"id":"a698k0vgwq41","geo_precision":"city","state":"TX"},"type":"Feature","geometry":{"type":"Point","coordinates":[-99.539522,32.258742]}},{"properties":{"city":"HARTFORD","geo_score":0.857,"cogs spend":1931601,"id":"a698k0ngxb1q","geo_precision":"city","state":"CT"},"type":"Feature","geometry":{"type":"Point","coordinates":[-72.685093,41.763711]}},{"properties":{"city":"HUNTSVILLE","geo_score":0.857,"cogs spend":1929476,"id":"a698k0js0xfx","geo_precision":"city","state":"TX"},"type":"Feature","geometry":{"type":"Point","coordinates":[-95.597029,30.846986]}},{"properties":{"city":"CONCORD","geo_score":0.857,"cogs spend":1921002,"id":"a698k0ufep6r","geo_precision":"city","state":"NC"},"type":"Feature","geometry":{"type":"Point","coordinates":[-79.066402,36.445974]}},{"properties":{"city":"WARREN","geo_score":0.857,"cogs spend":1918011,"id":"a698k0teewx7","geo_precision":"city","state":"MI"},"type":"Feature","geometry":{"type":"Point","coordinates":[-82.995121,42.474786]}},{"properties":{"city":"WATERLOO","geo_score":0.857,"cogs spend":1898299,"id":"a698k0vb9eo7","geo_precision":"city","state":"IA"},"type":"Feature","geometry":{"type":"Point","coordinates":[-92.342963,42.492764]}},{"properties":{"city":"GREENVILLE","geo_score":0.857,"cogs spend":1882800,"id":"a698k0tv8qko","geo_precision":"city","state":"SC"},"type":"Feature","geometry":{"type":"Point","coordinates":[-82.402871,34.848567]}},{"properties":{"city":"APPLETON","geo_score":0.857,"cogs spend":1881445,"id":"a698k0ynhaus","geo_precision":"city","state":"WI"},"type":"Feature","geometry":{"type":"Point","coordinates":[-88.370856,44.275702]}},{"properties":{"city":"SAINT LOUIS","geo_score":0.857,"cogs spend":1870866,"id":"a698k0oglrvd","geo_precision":"city","state":"MO"},"type":"Feature","geometry":{"type":"Point","coordinates":[-90.197889,38.627273]}},{"properties":{"city":"FLUSHING","geo_score":0.857,"cogs spend":1851013,"id":"a698k0lwldl0","geo_precision":"city","state":"NY"},"type":"Feature","geometry":{"type":"Point","coordinates":[-73.817356,40.76538]}},{"properties":{"city":"POUGHKEEPSIE","geo_score":0.857,"cogs spend":1842772,"id":"a698k0xfyi2t","geo_precision":"city","state":"NY"},"type":"Feature","geometry":{"type":"Point","coordinates":[-73.896164,41.695839]}},{"properties":{"city":"WICHITA FALLS","geo_score":0.857,"cogs spend":1828365,"id":"a698k0ouj1m2","geo_precision":"city","state":"TX"},"type":"Feature","geometry":{"type":"Point","coordinates":[-98.493387,33.913709]}},{"properties":{"city":"DOVER","geo_score":0.857,"cogs spend":1824425,"id":"a698k0rw5saq","geo_precision":"city","state":"DE"},"type":"Feature","geometry":{"type":"Point","coordinates":[-75.49549,39.156376]}},{"properties":{"city":"BASKING RIDGE","geo_score":0.857,"cogs spend":1823865,"id":"a698k0jzcp9h","geo_precision":"city","state":"NJ"},"type":"Feature","geometry":{"type":"Point","coordinates":[-74.573001,40.682651]}},{"properties":{"city":"SEATTLE","geo_score":0.857,"cogs spend":1815949,"id":"a698k0yo7q1y","geo_precision":"city","state":"WA"},"type":"Feature","geometry":{"type":"Point","coordinates":[-122.332071,47.60621]}},{"properties":{"city":"FORT MYERS","geo_score":0.746,"cogs spend":1796263,"id":"a698k0jaqcek","geo_precision":"city","state":"FL"},"type":"Feature","geometry":{"type":"Point","coordinates":[-81.92122,30.435237]}},{"properties":{"city":"RUSTON","geo_score":0.857,"cogs spend":1721120,"id":"a698k0mn31vh","geo_precision":"city","state":"LA"},"type":"Feature","geometry":{"type":"Point","coordinates":[-92.639756,32.580553]}},{"properties":{"city":"GLENDALE","geo_score":0.857,"cogs spend":1718469,"id":"a698k0ymtl8u","geo_precision":"city","state":"AZ"},"type":"Feature","geometry":{"type":"Point","coordinates":[-112.185987,33.538652]}},{"properties":{"city":"LANSING","geo_score":0.857,"cogs spend":1714587,"id":"a698k0pr2zuk","geo_precision":"city","state":"IL"},"type":"Feature","geometry":{"type":"Point","coordinates":[-87.68732,41.811929]}},{"properties":{"city":"BROOKVILLE","geo_score":0.857,"cogs spend":1710952,"id":"a698k0tjpdn3","geo_precision":"city","state":"NY"},"type":"Feature","geometry":{"type":"Point","coordinates":[-73.567348,40.813155]}},{"properties":{"city":"DUBUQUE","geo_score":0.857,"cogs spend":1709154,"id":"a698k0kd3ldx","geo_precision":"city","state":"IA"},"type":"Feature","geometry":{"type":"Point","coordinates":[-90.877135,42.458876]}},{"properties":{"city":"RALEIGH","geo_score":0.857,"cogs spend":1706161,"id":"a698k0quwpj8","geo_precision":"city","state":"NC"},"type":"Feature","geometry":{"type":"Point","coordinates":[-78.638615,35.772096]}},{"properties":{"city":"SHERMAN","geo_score":0.857,"cogs spend":1704605,"id":"a698k0za3jov","geo_precision":"city","state":"TX"},"type":"Feature","geometry":{"type":"Point","coordinates":[-96.659726,33.647425]}},{"properties":{"city":"NAPERVILLE","geo_score":0.857,"cogs spend":1704426,"id":"a698k0yi5o2p","geo_precision":"city","state":"IL"},"type":"Feature","geometry":{"type":"Point","coordinates":[-88.152381,41.759029]}},{"properties":{"city":"LAKE FOREST","geo_score":0.786,"cogs spend":1695457,"id":"a698k0mtjsrq","geo_precision":"city","state":"IL"},"type":"Feature","geometry":{"type":"Point","coordinates":[-88.393085,40.754176]}},{"properties":{"city":"VERMILLION","geo_score":0.857,"cogs spend":1689365,"id":"a698k0luudb6","geo_precision":"city","state":"SD"},"type":"Feature","geometry":{"type":"Point","coordinates":[-96.973318,42.854124]}},{"properties":{"city":"MARIETTA","geo_score":0.857,"cogs spend":1687088,"id":"a698k0nzrbih","geo_precision":"city","state":"GA"},"type":"Feature","geometry":{"type":"Point","coordinates":[-84.549933,33.952602]}},{"properties":{"city":"JACKSONVILLE","geo_score":0.857,"cogs spend":1667032,"id":"a698k0k47rsa","geo_precision":"city","state":"FL"},"type":"Feature","geometry":{"type":"Point","coordinates":[-81.655651,30.332184]}},{"properties":{"city":"LOCK HAVEN","geo_score":0.762,"cogs spend":1663697,"id":"a698k0vpvcqk","geo_precision":"city","state":"PA"},"type":"Feature","geometry":{"type":"Point","coordinates":[-76.445519,39.903712]}},{"properties":{"city":"DUBLIN","geo_score":0.857,"cogs spend":1662305,"id":"a698k0uuoh4t","geo_precision":"city","state":"OH"},"type":"Feature","geometry":{"type":"Point","coordinates":[-83.011389,39.969036]}}],"is_temporal":false,"author":{"url":"","metadata":"","contact_name":"","contact_address":"","source":"","contact_phone":""},"source":"","pagination":{"sort":null,"start":0,"total":200,"limit":1000000},"state":"complete","tags":"","published":"2014-08-14T19:14:59-04:00","id":242913}