{"type":"FeatureCollection","data_type":"Dataset","url_type":null,"permissions":[{"permissions":{"download":true,"view":true},"group_id":"everyone"}],"classification":null,"title":"Sales top200","count":200,"stream_id":242917,"contributor":{"url":"http://geocommons.com/users/42047","name":"toczek"},"data_attributes":null,"calculation_params":null,"icon_link":null,"link":"http://geocommons.com/overlays/242917.json","extent":[-122.676,25.7743,-71.0598,48.7477],"geometry_types":["point"],"unique_name":null,"name":"Sales top200","feature_count":200,"description":"","next_feature":null,"is_raster":false,"short_classification":"Y","stats":{"sales (fy12)":{"max":172771030,"mean":15903676.61,"variance":314048552964989.0,"stdev":17721415.0948785,"min":5489662,"median":9854758},"id":{"max":200,"mean":100.5,"variance":3350.0,"stdev":57.8791845139511,"min":1,"median":101}},"features":[{"properties":{"city":"HOUSTON","geo_score":0.816,"sales (fy12)":172771030,"id":"a62eh2yz2vjc","geo_precision":"city","state":"TX"},"type":"Feature","geometry":{"type":"Point","coordinates":[-96.919704,29.845783]}},{"properties":{"city":"NEW YORK","geo_score":0.857,"sales (fy12)":95736818,"id":"a62eh347mom8","geo_precision":"city","state":"NY"},"type":"Feature","geometry":{"type":"Point","coordinates":[-74.005973,40.714269]}},{"properties":{"city":"PHILADELPHIA","geo_score":0.857,"sales (fy12)":81224894,"id":"a62eh3116lxp","geo_precision":"city","state":"PA"},"type":"Feature","geometry":{"type":"Point","coordinates":[-75.163789,39.952335]}},{"properties":{"city":"CHICAGO","geo_score":0.857,"sales (fy12)":68781026,"id":"a62eh3ahsi6b","geo_precision":"city","state":"IL"},"type":"Feature","geometry":{"type":"Point","coordinates":[-87.650052,41.850033]}},{"properties":{"city":"SAN ANTONIO","geo_score":0.857,"sales (fy12)":66229298,"id":"a62eh34g1da8","geo_precision":"city","state":"TX"},"type":"Feature","geometry":{"type":"Point","coordinates":[-98.493628,29.424122]}},{"properties":{"city":"WASHINGTON","geo_score":0.857,"sales (fy12)":65842141,"id":"a62eh3bx49a3","geo_precision":"city","state":"DC"},"type":"Feature","geometry":{"type":"Point","coordinates":[-77.036366,38.895112]}},{"properties":{"city":"BOSTON","geo_score":0.857,"sales (fy12)":56737406,"id":"a62eh35050ac","geo_precision":"city","state":"MA"},"type":"Feature","geometry":{"type":"Point","coordinates":[-71.059773,42.358431]}},{"properties":{"city":"PITTSBURGH","geo_score":0.857,"sales (fy12)":50128049,"id":"a62eh3942htw","geo_precision":"city","state":"PA"},"type":"Feature","geometry":{"type":"Point","coordinates":[-79.995886,40.440625]}},{"properties":{"city":"RICHMOND","geo_score":0.857,"sales (fy12)":49848969,"id":"a62eh32539vc","geo_precision":"city","state":"VA"},"type":"Feature","geometry":{"type":"Point","coordinates":[-77.460262,37.553758]}},{"properties":{"city":"CINCINNATI","geo_score":0.857,"sales (fy12)":46302860,"id":"a62eh30z4xwk","geo_precision":"city","state":"OH"},"type":"Feature","geometry":{"type":"Point","coordinates":[-84.456886,39.162004]}},{"properties":{"city":"DALLAS","geo_score":0.857,"sales (fy12)":43220594,"id":"a62eh32i6qs8","geo_precision":"city","state":"TX"},"type":"Feature","geometry":{"type":"Point","coordinates":[-96.806667,32.783056]}},{"properties":{"city":"CHAPEL HILL","geo_score":0.857,"sales (fy12)":41688754,"id":"a62eh2ymc1cz","geo_precision":"city","state":"NC"},"type":"Feature","geometry":{"type":"Point","coordinates":[-79.038605,35.926939]}},{"properties":{"city":"PHILA","geo_score":0.771,"sales (fy12)":41389608,"id":"a62eh3asygs6","geo_precision":"city","state":"PA"},"type":"Feature","geometry":{"type":"Point","coordinates":[-78.210846,40.705617]}},{"properties":{"city":"BALTIMORE","geo_score":0.857,"sales (fy12)":39632298,"id":"a62eh38lz39u","geo_precision":"city","state":"MD"},"type":"Feature","geometry":{"type":"Point","coordinates":[-76.612189,39.290385]}},{"properties":{"city":"TAMPA","geo_score":0.857,"sales (fy12)":37872753,"id":"a62eh33eeujo","geo_precision":"city","state":"FL"},"type":"Feature","geometry":{"type":"Point","coordinates":[-82.458428,27.947522]}},{"properties":{"city":"TEMPE","geo_score":0.857,"sales (fy12)":35766089,"id":"a62eh35btyts","geo_precision":"city","state":"AZ"},"type":"Feature","geometry":{"type":"Point","coordinates":[-111.90931,33.414768]}},{"properties":{"city":"HARRISONBURG","geo_score":0.857,"sales (fy12)":33699709,"id":"a62eh2wl8x0k","geo_precision":"city","state":"VA"},"type":"Feature","geometry":{"type":"Point","coordinates":[-78.877137,38.422777]}},{"properties":{"city":"DENVER","geo_score":0.857,"sales (fy12)":33043850,"id":"a62eh32rnxvc","geo_precision":"city","state":"CO"},"type":"Feature","geometry":{"type":"Point","coordinates":[-104.984703,39.739154]}},{"properties":{"city":"COLUMBUS","geo_score":0.776,"sales (fy12)":32347569,"id":"a62eh3asu4qg","geo_precision":"city","state":"OH"},"type":"Feature","geometry":{"type":"Point","coordinates":[-82.695724,39.998397]}},{"properties":{"city":"ATLANTA","geo_score":0.857,"sales (fy12)":31502000,"id":"a62eh2x8yvon","geo_precision":"city","state":"GA"},"type":"Feature","geometry":{"type":"Point","coordinates":[-84.387982,33.748995]}},{"properties":{"city":"INDIANAPOLIS","geo_score":0.857,"sales (fy12)":31500141,"id":"a62eh2xj3v8u","geo_precision":"city","state":"IN"},"type":"Feature","geometry":{"type":"Point","coordinates":[-86.158042,39.768377]}},{"properties":{"city":"MIAMI","geo_score":0.857,"sales (fy12)":29803734,"id":"a62eh30ln8jh","geo_precision":"city","state":"FL"},"type":"Feature","geometry":{"type":"Point","coordinates":[-80.193659,25.774266]}},{"properties":{"city":"LAS VEGAS","geo_score":0.857,"sales (fy12)":29743354,"id":"a62eh3cjiwxk","geo_precision":"city","state":"NV"},"type":"Feature","geometry":{"type":"Point","coordinates":[-115.137223,36.174971]}},{"properties":{"city":"MINNEAPOLIS","geo_score":0.857,"sales (fy12)":28369576,"id":"a62eh37odcjs","geo_precision":"city","state":"MN"},"type":"Feature","geometry":{"type":"Point","coordinates":[-93.263836,44.979965]}},{"properties":{"city":"ANAHEIM","geo_score":0.857,"sales (fy12)":27878236,"id":"a62eh37pd1lq","geo_precision":"city","state":"CA"},"type":"Feature","geometry":{"type":"Point","coordinates":[-117.914504,33.835293]}},{"properties":{"city":"CHARLOTTESVILLE","geo_score":0.857,"sales (fy12)":27691170,"id":"a62eh3335uoj","geo_precision":"city","state":"VA"},"type":"Feature","geometry":{"type":"Point","coordinates":[-78.476678,38.029306]}},{"properties":{"city":"EVANSTON","geo_score":0.857,"sales (fy12)":26661457,"id":"a62eh3aza3bi","geo_precision":"city","state":"IL"},"type":"Feature","geometry":{"type":"Point","coordinates":[-87.702155,42.049148]}},{"properties":{"city":"NEWARK","geo_score":0.857,"sales (fy12)":25734679,"id":"a62eh2w8fj10","geo_precision":"city","state":"DE"},"type":"Feature","geometry":{"type":"Point","coordinates":[-75.749657,39.683723]}},{"properties":{"city":"GREENVILLE","geo_score":0.831,"sales (fy12)":24882636,"id":"a62eh36vobrr","geo_precision":"city","state":"NC"},"type":"Feature","geometry":{"type":"Point","coordinates":[-81.703445,36.408734]}},{"properties":{"city":"NORFOLK","geo_score":0.857,"sales (fy12)":24224187,"id":"a62eh31r6lmg","geo_precision":"city","state":"VA"},"type":"Feature","geometry":{"type":"Point","coordinates":[-76.285218,36.846815]}},{"properties":{"city":"MEMPHIS","geo_score":0.857,"sales (fy12)":23878580,"id":"a62eh31w2p6z","geo_precision":"city","state":"TN"},"type":"Feature","geometry":{"type":"Point","coordinates":[-90.04898,35.149534]}},{"properties":{"city":"WACO","geo_score":0.857,"sales (fy12)":23680211,"id":"a62eh310st06","geo_precision":"city","state":"TX"},"type":"Feature","geometry":{"type":"Point","coordinates":[-97.14667,31.549333]}},{"properties":{"city":"LOUISVILLE","geo_score":0.857,"sales (fy12)":22829021,"id":"a62eh2xcuk8f","geo_precision":"city","state":"KY"},"type":"Feature","geometry":{"type":"Point","coordinates":[-85.759407,38.254238]}},{"properties":{"city":"GAINESVILLE","geo_score":0.818,"sales (fy12)":22542980,"id":"a62eh3947sja","geo_precision":"city","state":"FL"},"type":"Feature","geometry":{"type":"Point","coordinates":[-85.354651,30.731305]}},{"properties":{"city":"TALLAHASSEE","geo_score":0.857,"sales (fy12)":22509691,"id":"a62eh3cm73p0","geo_precision":"city","state":"FL"},"type":"Feature","geometry":{"type":"Point","coordinates":[-84.280733,30.438256]}},{"properties":{"city":"KANSAS CITY","geo_score":0.857,"sales (fy12)":22502365,"id":"a62eh319whqz","geo_precision":"city","state":"MO"},"type":"Feature","geometry":{"type":"Point","coordinates":[-94.598583,39.102404]}},{"properties":{"city":"IRVINE","geo_score":0.857,"sales (fy12)":21797028,"id":"a62eh39wa6ai","geo_precision":"city","state":"CA"},"type":"Feature","geometry":{"type":"Point","coordinates":[-117.823111,33.669465]}},{"properties":{"city":"BATON ROUGE","geo_score":0.857,"sales (fy12)":21591648,"id":"a62eh38j8r3c","geo_precision":"city","state":"LA"},"type":"Feature","geometry":{"type":"Point","coordinates":[-91.154551,30.450746]}},{"properties":{"city":"KNOXVILLE","geo_score":0.794,"sales (fy12)":21459598,"id":"a62eh34ei9u2","geo_precision":"city","state":"TN"},"type":"Feature","geometry":{"type":"Point","coordinates":[-86.784443,36.16589]}},{"properties":{"city":"LOS ANGELES","geo_score":0.857,"sales (fy12)":20516379,"id":"a62eh311lai9","geo_precision":"city","state":"CA"},"type":"Feature","geometry":{"type":"Point","coordinates":[-118.243685,34.052234]}},{"properties":{"city":"VANCOUVER","geo_score":0.0,"sales (fy12)":19451010,"id":"a62eh36qvc5m","geo_precision":"unmatched","state":"CN"},"type":"Feature","geometry":null},{"properties":{"city":"TUSCALOOSA","geo_score":0.857,"sales (fy12)":18137865,"id":"a62eh34ghgzv","geo_precision":"city","state":"AL"},"type":"Feature","geometry":{"type":"Point","coordinates":[-87.569174,33.209841]}},{"properties":{"city":"PHOENIX","geo_score":0.857,"sales (fy12)":17832324,"id":"a62eh31f1vo5","geo_precision":"city","state":"AZ"},"type":"Feature","geometry":{"type":"Point","coordinates":[-112.074037,33.448377]}},{"properties":{"city":"FORT WORTH","geo_score":0.746,"sales (fy12)":17664674,"id":"a62eh32a0r4k","geo_precision":"city","state":"TX"},"type":"Feature","geometry":{"type":"Point","coordinates":[-95.262161,31.108239]}},{"properties":{"city":"JESSUP","geo_score":0.857,"sales (fy12)":17634624,"id":"a62eh38oz1aq","geo_precision":"city","state":"MD"},"type":"Feature","geometry":{"type":"Point","coordinates":[-76.813394,39.155266]}},{"properties":{"city":"SAN FRANCISCO","geo_score":0.857,"sales (fy12)":17414434,"id":"a62eh2w8uye9","geo_precision":"city","state":"CA"},"type":"Feature","geometry":{"type":"Point","coordinates":[-122.419416,37.77493]}},{"properties":{"city":"BLOOMINGTON","geo_score":0.857,"sales (fy12)":17398810,"id":"a62eh2wdsobb","geo_precision":"city","state":"MN"},"type":"Feature","geometry":{"type":"Point","coordinates":[-93.29828,44.840798]}},{"properties":{"city":"KANATA","geo_score":0.0,"sales (fy12)":17383843,"id":"a62eh357wpb4","geo_precision":"unmatched","state":"CN"},"type":"Feature","geometry":null},{"properties":{"city":"LUBBOCK","geo_score":0.857,"sales (fy12)":17321464,"id":"a62eh3bpg5n2","geo_precision":"city","state":"TX"},"type":"Feature","geometry":{"type":"Point","coordinates":[-101.855167,33.577863]}},{"properties":{"city":"NASHVILLE","geo_score":0.857,"sales (fy12)":17057100,"id":"a62eh3bfhxqm","geo_precision":"city","state":"TN"},"type":"Feature","geometry":{"type":"Point","coordinates":[-86.784443,36.16589]}},{"properties":{"city":"WILMINGTON","geo_score":0.857,"sales (fy12)":16515170,"id":"a62eh33zzo7r","geo_precision":"city","state":"MA"},"type":"Feature","geometry":{"type":"Point","coordinates":[-71.173888,42.561782]}},{"properties":{"city":"CHARLESTON","geo_score":0.798,"sales (fy12)":16106561,"id":"a62eh33wqebn","geo_precision":"city","state":"SC"},"type":"Feature","geometry":{"type":"Point","coordinates":[-79.970643,32.85712]}},{"properties":{"city":"PORTLAND","geo_score":0.857,"sales (fy12)":15978972,"id":"a62eh3bb0l37","geo_precision":"city","state":"OR"},"type":"Feature","geometry":{"type":"Point","coordinates":[-122.676207,45.523452]}},{"properties":{"city":"CARROLLTON","geo_score":0.857,"sales (fy12)":15855918,"id":"a62eh3bhflod","geo_precision":"city","state":"TX"},"type":"Feature","geometry":{"type":"Point","coordinates":[-96.777626,32.767268]}},{"properties":{"city":"CARSON","geo_score":0.796,"sales (fy12)":15712110,"id":"a62eh2x2g67v","geo_precision":"city","state":"CA"},"type":"Feature","geometry":{"type":"Point","coordinates":[-121.179381,37.56382]}},{"properties":{"city":"CLEMSON UNIVERSITY","geo_score":0.773,"sales (fy12)":15660507,"id":"a62eh3au2whi","geo_precision":"city","state":"SC"},"type":"Feature","geometry":{"type":"Point","coordinates":[-82.802154,34.75974]}},{"properties":{"city":"SAINT LOUIS","geo_score":0.857,"sales (fy12)":15264570,"id":"a62eh34vcp26","geo_precision":"city","state":"MO"},"type":"Feature","geometry":{"type":"Point","coordinates":[-90.197889,38.627273]}},{"properties":{"city":"AUSTIN","geo_score":0.857,"sales (fy12)":15060993,"id":"a62eh396pppa","geo_precision":"city","state":"TX"},"type":"Feature","geometry":{"type":"Point","coordinates":[-97.743061,30.267153]}},{"properties":{"city":"ROCHESTER","geo_score":0.857,"sales (fy12)":14682732,"id":"a62eh3352988","geo_precision":"city","state":"NY"},"type":"Feature","geometry":{"type":"Point","coordinates":[-77.615557,43.154785]}},{"properties":{"city":"SAN JOSE","geo_score":0.857,"sales (fy12)":14616158,"id":"a62eh2z4x4on","geo_precision":"city","state":"CA"},"type":"Feature","geometry":{"type":"Point","coordinates":[-121.894956,37.339386]}},{"properties":{"city":"WINSTON SALEM","geo_score":0.857,"sales (fy12)":14604302,"id":"a62eh2zxfarn","geo_precision":"city","state":"NC"},"type":"Feature","geometry":{"type":"Point","coordinates":[-80.244216,36.09986]}},{"properties":{"city":"BOWLING GREEN","geo_score":0.738,"sales (fy12)":14541020,"id":"a62eh34w8p8d","geo_precision":"city","state":"KY"},"type":"Feature","geometry":{"type":"Point","coordinates":[-83.355181,38.067306]}},{"properties":{"city":"SEATTLE","geo_score":0.857,"sales (fy12)":14478734,"id":"a62eh30s457i","geo_precision":"city","state":"WA"},"type":"Feature","geometry":{"type":"Point","coordinates":[-122.332071,47.60621]}},{"properties":{"city":"ALBANY","geo_score":0.857,"sales (fy12)":14312576,"id":"a62eh398fvim","geo_precision":"city","state":"NY"},"type":"Feature","geometry":{"type":"Point","coordinates":[-73.756232,42.652579]}},{"properties":{"city":"NAPERVILLE","geo_score":0.857,"sales (fy12)":13771250,"id":"a62eh38vj3xd","geo_precision":"city","state":"IL"},"type":"Feature","geometry":{"type":"Point","coordinates":[-88.152381,41.759029]}},{"properties":{"city":"ALLENDALE","geo_score":0.857,"sales (fy12)":13615457,"id":"a62eh32d5hj6","geo_precision":"city","state":"MI"},"type":"Feature","geometry":{"type":"Point","coordinates":[-85.93927,42.979522]}},{"properties":{"city":"FREMONT","geo_score":0.857,"sales (fy12)":13594251,"id":"a62eh2zma9ps","geo_precision":"city","state":"CA"},"type":"Feature","geometry":{"type":"Point","coordinates":[-121.988572,37.54827]}},{"properties":{"city":"NEW ORLEANS","geo_score":0.857,"sales (fy12)":13491799,"id":"a62eh38yxhgi","geo_precision":"city","state":"LA"},"type":"Feature","geometry":{"type":"Point","coordinates":[-89.930956,30.068812]}},{"properties":{"city":"SCRANTON","geo_score":0.857,"sales (fy12)":13388505,"id":"a62eh37nu0cd","geo_precision":"city","state":"PA"},"type":"Feature","geometry":{"type":"Point","coordinates":[-75.662412,41.408969]}},{"properties":{"city":"WESTBURY","geo_score":0.857,"sales (fy12)":13328566,"id":"a62eh36imn5t","geo_precision":"city","state":"NY"},"type":"Feature","geometry":{"type":"Point","coordinates":[-76.710785,43.214789]}},{"properties":{"city":"WEST CHESTER","geo_score":0.857,"sales (fy12)":13198312,"id":"a62eh2zhnceb","geo_precision":"city","state":"PA"},"type":"Feature","geometry":{"type":"Point","coordinates":[-75.610503,39.980107]}},{"properties":{"city":"ORLANDO","geo_score":0.857,"sales (fy12)":12936113,"id":"a62eh36r9m0z","geo_precision":"city","state":"FL"},"type":"Feature","geometry":{"type":"Point","coordinates":[-81.379237,28.538336]}},{"properties":{"city":"NORRISTOWN","geo_score":0.857,"sales (fy12)":12866403,"id":"a62eh32adccb","geo_precision":"city","state":"PA"},"type":"Feature","geometry":{"type":"Point","coordinates":[-75.339905,40.121497]}},{"properties":{"city":"CLEVELAND","geo_score":0.857,"sales (fy12)":12785353,"id":"a62eh3b3kfyb","geo_precision":"city","state":"OH"},"type":"Feature","geometry":{"type":"Point","coordinates":[-81.695409,41.499495]}},{"properties":{"city":"DURHAM","geo_score":0.857,"sales (fy12)":12757360,"id":"a62eh2w3v5d7","geo_precision":"city","state":"NC"},"type":"Feature","geometry":{"type":"Point","coordinates":[-78.898619,35.994033]}},{"properties":{"city":"BELLINGHAM","geo_score":0.857,"sales (fy12)":12732840,"id":"a62eh393kt1y","geo_precision":"city","state":"WA"},"type":"Feature","geometry":{"type":"Point","coordinates":[-122.454297,48.747687]}},{"properties":{"city":"UNIVERSITY","geo_score":0.857,"sales (fy12)":12645507,"id":"a62eh32k9ya5","geo_precision":"city","state":"MS"},"type":"Feature","geometry":{"type":"Point","coordinates":[-89.573605,34.33962]}},{"properties":{"city":"SCOTTSDALE","geo_score":0.857,"sales (fy12)":11826904,"id":"a62eh3cfhiuk","geo_precision":"city","state":"AZ"},"type":"Feature","geometry":{"type":"Point","coordinates":[-111.899033,33.50921]}},{"properties":{"city":"LOWELL","geo_score":0.857,"sales (fy12)":11793944,"id":"a62eh32zd9p0","geo_precision":"city","state":"MA"},"type":"Feature","geometry":{"type":"Point","coordinates":[-71.459405,42.446396]}},{"properties":{"city":"SPRINGFIELD","geo_score":0.857,"sales (fy12)":11703527,"id":"a62eh2xby39i","geo_precision":"city","state":"MA"},"type":"Feature","geometry":{"type":"Point","coordinates":[-72.589811,42.101483]}},{"properties":{"city":"SYOSSET","geo_score":0.857,"sales (fy12)":11691580,"id":"a62eh31lgz95","geo_precision":"city","state":"NY"},"type":"Feature","geometry":{"type":"Point","coordinates":[-73.601772,40.754757]}},{"properties":{"city":"SAINT CHARLES","geo_score":0.857,"sales (fy12)":11455088,"id":"a62eh2w5dghj","geo_precision":"city","state":"IL"},"type":"Feature","geometry":{"type":"Point","coordinates":[-88.430167,41.937151]}},{"properties":{"city":"MISSISSIPPI STATE","geo_score":0.821,"sales (fy12)":11406646,"id":"a62eh2ww1z1o","geo_precision":"city","state":"MS"},"type":"Feature","geometry":{"type":"Point","coordinates":[-89.043925,30.381865]}},{"properties":{"city":"ABILENE","geo_score":0.857,"sales (fy12)":11358642,"id":"a62eh2yt5cm4","geo_precision":"city","state":"TX"},"type":"Feature","geometry":{"type":"Point","coordinates":[-99.80213,32.344457]}},{"properties":{"city":"ARLINGTON","geo_score":0.857,"sales (fy12)":11325917,"id":"a62eh33eully","geo_precision":"city","state":"VA"},"type":"Feature","geometry":{"type":"Point","coordinates":[-77.084145,38.89039]}},{"properties":{"city":"ANN ARBOR","geo_score":0.75,"sales (fy12)":11212547,"id":"a62eh350caps","geo_precision":"city","state":"MI"},"type":"Feature","geometry":{"type":"Point","coordinates":[-86.176715,42.96502]}},{"properties":{"city":"WEST HARTFORD","geo_score":0.81,"sales (fy12)":11098015,"id":"a62eh32wtgmk","geo_precision":"city","state":"CT"},"type":"Feature","geometry":{"type":"Point","coordinates":[-72.685093,41.763711]}},{"properties":{"city":"LAKE BUENA VISTA","geo_score":0.857,"sales (fy12)":11082026,"id":"a62eh33g1csk","geo_precision":"city","state":"FL"},"type":"Feature","geometry":{"type":"Point","coordinates":[-81.538684,28.393619]}},{"properties":{"city":"KIRKLAND","geo_score":0.857,"sales (fy12)":11075172,"id":"a62eh37qz5o7","geo_precision":"city","state":"WA"},"type":"Feature","geometry":{"type":"Point","coordinates":[-122.208735,47.681488]}},{"properties":{"city":"HARLINGEN","geo_score":0.857,"sales (fy12)":10886673,"id":"a62eh38yoglo","geo_precision":"city","state":"TX"},"type":"Feature","geometry":{"type":"Point","coordinates":[-97.536807,26.185202]}},{"properties":{"city":"ELK GROVE VILLAGE","geo_score":0.743,"sales (fy12)":10683646,"id":"a62eh3177wk8","geo_precision":"city","state":"IL"},"type":"Feature","geometry":{"type":"Point","coordinates":[-89.265915,37.300605]}},{"properties":{"city":"TOLEDO","geo_score":0.857,"sales (fy12)":10568038,"id":"a62eh32cv6hl","geo_precision":"city","state":"OH"},"type":"Feature","geometry":{"type":"Point","coordinates":[-83.555212,41.663938]}},{"properties":{"city":"PROVIDENCE","geo_score":0.857,"sales (fy12)":10545923,"id":"a62eh316sfou","geo_precision":"city","state":"RI"},"type":"Feature","geometry":{"type":"Point","coordinates":[-71.412834,41.823989]}},{"properties":{"city":"INDIANA","geo_score":0.857,"sales (fy12)":10476986,"id":"a62eh39dx6cn","geo_precision":"city","state":"PA"},"type":"Feature","geometry":{"type":"Point","coordinates":[-79.080422,40.621272]}},{"properties":{"city":"HARTFORD","geo_score":0.857,"sales (fy12)":10266960,"id":"a62eh38eviwl","geo_precision":"city","state":"CT"},"type":"Feature","geometry":{"type":"Point","coordinates":[-72.685093,41.763711]}},{"properties":{"city":"WICHITA","geo_score":0.857,"sales (fy12)":9944700,"id":"a62eh2w9zeyz","geo_precision":"city","state":"KS"},"type":"Feature","geometry":{"type":"Point","coordinates":[-97.337545,37.692236]}},{"properties":{"city":"WILLIAMSPORT","geo_score":0.857,"sales (fy12)":9930905,"id":"a62eh32txrif","geo_precision":"city","state":"PA"},"type":"Feature","geometry":{"type":"Point","coordinates":[-76.958314,41.266716]}},{"properties":{"city":"WILLIAMSBURG","geo_score":0.857,"sales (fy12)":9922876,"id":"a62eh368lby3","geo_precision":"city","state":"VA"},"type":"Feature","geometry":{"type":"Point","coordinates":[-76.746769,37.310451]}},{"properties":{"city":"MOUNT PLEASANT","geo_score":0.857,"sales (fy12)":9866235,"id":"a62eh39l9cpc","geo_precision":"city","state":"MI"},"type":"Feature","geometry":{"type":"Point","coordinates":[-86.247253,42.457251]}},{"properties":{"city":"CULLOWHEE","geo_score":0.857,"sales (fy12)":9854758,"id":"a62eh31bumgl","geo_precision":"city","state":"NC"},"type":"Feature","geometry":{"type":"Point","coordinates":[-83.132409,35.249256]}},{"properties":{"city":"SAN DIEGO","geo_score":0.857,"sales (fy12)":9839713,"id":"a62eh2wg5evv","geo_precision":"city","state":"CA"},"type":"Feature","geometry":{"type":"Point","coordinates":[-117.157255,32.715329]}},{"properties":{"city":"RICHMOND","geo_score":0.857,"sales (fy12)":9779228,"id":"a62eh318a1eo","geo_precision":"city","state":"KY"},"type":"Feature","geometry":{"type":"Point","coordinates":[-84.296913,37.764867]}},{"properties":{"city":"WILMINGTON","geo_score":0.857,"sales (fy12)":9757967,"id":"a62eh33v90ci","geo_precision":"city","state":"NC"},"type":"Feature","geometry":{"type":"Point","coordinates":[-77.94471,34.225726]}},{"properties":{"city":"OVERLAND PARK","geo_score":0.857,"sales (fy12)":9663448,"id":"a62eh3a3abvg","geo_precision":"city","state":"KS"},"type":"Feature","geometry":{"type":"Point","coordinates":[-94.670792,38.982228]}},{"properties":{"city":"GREENVILLE","geo_score":0.857,"sales (fy12)":9632782,"id":"a62eh31wpq30","geo_precision":"city","state":"SC"},"type":"Feature","geometry":{"type":"Point","coordinates":[-82.402871,34.848567]}},{"properties":{"city":"HATTIESBURG","geo_score":0.857,"sales (fy12)":9594432,"id":"a62eh39tx7st","geo_precision":"city","state":"MS"},"type":"Feature","geometry":{"type":"Point","coordinates":[-89.28071,31.245138]}},{"properties":{"city":"PRINCETON","geo_score":0.806,"sales (fy12)":9573676,"id":"a62eh2ydxg11","geo_precision":"city","state":"NJ"},"type":"Feature","geometry":{"type":"Point","coordinates":[-74.64795,40.363882]}},{"properties":{"city":"OAKLAND","geo_score":0.857,"sales (fy12)":9491698,"id":"a62eh2z23jpu","geo_precision":"city","state":"CA"},"type":"Feature","geometry":{"type":"Point","coordinates":[-122.270803,37.804372]}},{"properties":{"city":"CAMDEN","geo_score":0.857,"sales (fy12)":9471877,"id":"a62eh38ghhgw","geo_precision":"city","state":"NJ"},"type":"Feature","geometry":{"type":"Point","coordinates":[-75.11962,39.925946]}},{"properties":{"city":"WALTHAM","geo_score":0.857,"sales (fy12)":9300010,"id":"a62eh33ita1o","geo_precision":"city","state":"MA"},"type":"Feature","geometry":{"type":"Point","coordinates":[-71.2398,42.388938]}},{"properties":{"city":"ELON","geo_score":0.857,"sales (fy12)":9252706,"id":"a62eh31b6or5","geo_precision":"city","state":"NC"},"type":"Feature","geometry":{"type":"Point","coordinates":[-79.50669,36.102913]}},{"properties":{"city":"CHATTANOOGA","geo_score":0.857,"sales (fy12)":9248205,"id":"a62eh3519kkp","geo_precision":"city","state":"TN"},"type":"Feature","geometry":{"type":"Point","coordinates":[-85.30968,35.04563]}},{"properties":{"city":"MURFREESBORO","geo_score":0.857,"sales (fy12)":9186810,"id":"a62eh38fy4kz","geo_precision":"city","state":"TN"},"type":"Feature","geometry":{"type":"Point","coordinates":[-86.372158,35.762951]}},{"properties":{"city":"MOLINE","geo_score":0.786,"sales (fy12)":9139055,"id":"a62eh2xvr255","geo_precision":"city","state":"IL"},"type":"Feature","geometry":{"type":"Point","coordinates":[-90.595736,41.420305]}},{"properties":{"city":"HIGH POINT","geo_score":0.857,"sales (fy12)":9009072,"id":"a62eh36pofuq","geo_precision":"city","state":"NC"},"type":"Feature","geometry":{"type":"Point","coordinates":[-79.988711,35.993538]}},{"properties":{"city":"MCKINNEY","geo_score":0.857,"sales (fy12)":8934342,"id":"a62eh38hyetz","geo_precision":"city","state":"TX"},"type":"Feature","geometry":{"type":"Point","coordinates":[-96.588295,33.141438]}},{"properties":{"city":"BIRMINGHAM","geo_score":0.857,"sales (fy12)":8882916,"id":"a62eh35n2z4w","geo_precision":"city","state":"AL"},"type":"Feature","geometry":{"type":"Point","coordinates":[-86.80249,33.520661]}},{"properties":{"city":"NEW BERLIN","geo_score":0.746,"sales (fy12)":8852137,"id":"a62eh39n0nz6","geo_precision":"city","state":"WI"},"type":"Feature","geometry":{"type":"Point","coordinates":[-88.133876,44.163209]}},{"properties":{"city":"MOBILE","geo_score":0.857,"sales (fy12)":8844266,"id":"a62eh3atp04j","geo_precision":"city","state":"AL"},"type":"Feature","geometry":{"type":"Point","coordinates":[-88.043054,30.694357]}},{"properties":{"city":"HARVEY","geo_score":0.857,"sales (fy12)":8833739,"id":"a62eh3bsivq5","geo_precision":"city","state":"IL"},"type":"Feature","geometry":{"type":"Point","coordinates":[-87.68732,41.811929]}},{"properties":{"city":"PACIFIC GROVE","geo_score":0.798,"sales (fy12)":8799500,"id":"a62eh38ghhs5","geo_precision":"city","state":"CA"},"type":"Feature","geometry":{"type":"Point","coordinates":[-122.480015,37.616774]}},{"properties":{"city":"MARYVILLE","geo_score":0.857,"sales (fy12)":8787480,"id":"a62eh2wv4sag","geo_precision":"city","state":"MO"},"type":"Feature","geometry":{"type":"Point","coordinates":[-94.860299,40.277742]}},{"properties":{"city":"PAGE","geo_score":0.857,"sales (fy12)":8768184,"id":"a62eh34u4w3e","geo_precision":"city","state":"AZ"},"type":"Feature","geometry":{"type":"Point","coordinates":[-111.502009,36.910804]}},{"properties":{"city":"GREENSBORO","geo_score":0.857,"sales (fy12)":8577603,"id":"a62eh31w54mc","geo_precision":"city","state":"NC"},"type":"Feature","geometry":{"type":"Point","coordinates":[-79.791975,36.072636]}},{"properties":{"city":"DES MOINES","geo_score":0.857,"sales (fy12)":8536618,"id":"a62eh326pf0a","geo_precision":"city","state":"IA"},"type":"Feature","geometry":{"type":"Point","coordinates":[-93.609106,41.600545]}},{"properties":{"city":"IRVING","geo_score":0.857,"sales (fy12)":8517009,"id":"a62eh306i3jr","geo_precision":"city","state":"TX"},"type":"Feature","geometry":{"type":"Point","coordinates":[-96.948895,32.814018]}},{"properties":{"city":"DECATUR","geo_score":0.857,"sales (fy12)":8496390,"id":"a62eh39ja63t","geo_precision":"city","state":"IL"},"type":"Feature","geometry":{"type":"Point","coordinates":[-88.946486,39.839477]}},{"properties":{"city":"RADNOR","geo_score":0.0,"sales (fy12)":8303352,"id":"a62eh308ypur","geo_precision":"unmatched","state":"PA"},"type":"Feature","geometry":null},{"properties":{"city":"LANSING","geo_score":0.857,"sales (fy12)":8275086,"id":"a62eh3b9a0ss","geo_precision":"city","state":"MI"},"type":"Feature","geometry":{"type":"Point","coordinates":[-84.555535,42.732535]}},{"properties":{"city":"FLORISSANT","geo_score":0.857,"sales (fy12)":8097230,"id":"a62eh34tq47g","geo_precision":"city","state":"MO"},"type":"Feature","geometry":{"type":"Point","coordinates":[-90.351314,38.805499]}},{"properties":{"city":"BROOKLYN","geo_score":0.857,"sales (fy12)":8077062,"id":"a62eh2w5xdri","geo_precision":"city","state":"NY"},"type":"Feature","geometry":{"type":"Point","coordinates":[-78.748363,42.433118]}},{"properties":{"city":"NACOGDOCHES","geo_score":0.857,"sales (fy12)":7956946,"id":"a62eh36cblta","geo_precision":"city","state":"TX"},"type":"Feature","geometry":{"type":"Point","coordinates":[-94.65055,31.615186]}},{"properties":{"city":"TEXARKANA","geo_score":0.857,"sales (fy12)":7908176,"id":"a62eh3345ivb","geo_precision":"city","state":"TX"},"type":"Feature","geometry":{"type":"Point","coordinates":[-94.047688,33.425125]}},{"properties":{"city":"BLOOMSBURG","geo_score":0.857,"sales (fy12)":7836120,"id":"a62eh37e9lnr","geo_precision":"city","state":"PA"},"type":"Feature","geometry":{"type":"Point","coordinates":[-76.430563,41.005609]}},{"properties":{"city":"FORT MYERS","geo_score":0.746,"sales (fy12)":7792750,"id":"a62eh3ah9nxb","geo_precision":"city","state":"FL"},"type":"Feature","geometry":{"type":"Point","coordinates":[-81.92122,30.435237]}},{"properties":{"city":"WINSTON-SALEM","geo_score":0.857,"sales (fy12)":7733302,"id":"a62eh3bos060","geo_precision":"city","state":"NC"},"type":"Feature","geometry":{"type":"Point","coordinates":[-80.244216,36.09986]}},{"properties":{"city":"SANTA CLARA","geo_score":0.757,"sales (fy12)":7717397,"id":"a62eh32deeih","geo_precision":"city","state":"CA"},"type":"Feature","geometry":{"type":"Point","coordinates":[-119.045658,36.114674]}},{"properties":{"city":"DETROIT","geo_score":0.857,"sales (fy12)":7703691,"id":"a62eh35a2hme","geo_precision":"city","state":"MI"},"type":"Feature","geometry":{"type":"Point","coordinates":[-83.045754,42.331427]}},{"properties":{"city":"BROOKINGS","geo_score":0.857,"sales (fy12)":7683849,"id":"a62eh33tjoj6","geo_precision":"city","state":"SD"},"type":"Feature","geometry":{"type":"Point","coordinates":[-96.762102,44.355091]}},{"properties":{"city":"CAMBRIDGE","geo_score":0.813,"sales (fy12)":7660876,"id":"a62eh2wwdpg5","geo_precision":"city","state":"MA"},"type":"Feature","geometry":{"type":"Point","coordinates":[-71.103663,42.358431]}},{"properties":{"city":"MAPLEWOOD","geo_score":0.857,"sales (fy12)":7645157,"id":"a62eh32vfccp","geo_precision":"city","state":"MN"},"type":"Feature","geometry":{"type":"Point","coordinates":[-92.995215,44.953022]}},{"properties":{"city":"LAKE FOREST","geo_score":0.786,"sales (fy12)":7618171,"id":"a62eh345q1ty","geo_precision":"city","state":"IL"},"type":"Feature","geometry":{"type":"Point","coordinates":[-88.393085,40.754176]}},{"properties":{"city":"WINFIELD","geo_score":0.857,"sales (fy12)":7607624,"id":"a62eh2x6ylvd","geo_precision":"city","state":"IL"},"type":"Feature","geometry":{"type":"Point","coordinates":[-88.088716,41.839679]}},{"properties":{"city":"TORONTO","geo_score":0.0,"sales (fy12)":7420669,"id":"a62eh39m68ay","geo_precision":"unmatched","state":"CN"},"type":"Feature","geometry":null},{"properties":{"city":"HIGHLAND PARK","geo_score":0.774,"sales (fy12)":7364698,"id":"a62eh30rxz8r","geo_precision":"city","state":"IL"},"type":"Feature","geometry":{"type":"Point","coordinates":[-88.748949,39.215876]}},{"properties":{"city":"PFLUGERVILLE","geo_score":0.857,"sales (fy12)":7363498,"id":"a62eh31byoem","geo_precision":"city","state":"TX"},"type":"Feature","geometry":{"type":"Point","coordinates":[-97.597055,30.442737]}},{"properties":{"city":"GLENDALE","geo_score":0.857,"sales (fy12)":7363454,"id":"a62eh2wam6h1","geo_precision":"city","state":"AZ"},"type":"Feature","geometry":{"type":"Point","coordinates":[-112.185987,33.538652]}},{"properties":{"city":"GLENVIEW","geo_score":0.857,"sales (fy12)":7326879,"id":"a62eh2yt4dcs","geo_precision":"city","state":"IL"},"type":"Feature","geometry":{"type":"Point","coordinates":[-89.937325,38.586994]}},{"properties":{"city":"NORMAL","geo_score":0.857,"sales (fy12)":7248629,"id":"a62eh3a2jdlf","geo_precision":"city","state":"AL"},"type":"Feature","geometry":{"type":"Point","coordinates":[-86.522913,34.733964]}},{"properties":{"city":"HUNTSVILLE","geo_score":0.857,"sales (fy12)":7247306,"id":"a62eh3b6h0yt","geo_precision":"city","state":"TX"},"type":"Feature","geometry":{"type":"Point","coordinates":[-95.597029,30.846986]}},{"properties":{"city":"BOISE","geo_score":0.857,"sales (fy12)":7246104,"id":"a62eh3bntu5e","geo_precision":"city","state":"ID"},"type":"Feature","geometry":{"type":"Point","coordinates":[-116.203451,43.6135]}},{"properties":{"city":"OTTAWA","geo_score":0.0,"sales (fy12)":7221344,"id":"a62eh315hrdy","geo_precision":"unmatched","state":"CN"},"type":"Feature","geometry":null},{"properties":{"city":"FLINT","geo_score":0.857,"sales (fy12)":7195638,"id":"a62eh2x5vqc6","geo_precision":"city","state":"MI"},"type":"Feature","geometry":{"type":"Point","coordinates":[-83.687456,43.012527]}},{"properties":{"city":"BASKING RIDGE","geo_score":0.857,"sales (fy12)":7185552,"id":"a62eh37vjmek","geo_precision":"city","state":"NJ"},"type":"Feature","geometry":{"type":"Point","coordinates":[-74.573001,40.682651]}},{"properties":{"city":"ST PAUL","geo_score":0.762,"sales (fy12)":7109030,"id":"a62eh3839im8","geo_precision":"city","state":"MN"},"type":"Feature","geometry":{"type":"Point","coordinates":[-92.259625,47.415205]}},{"properties":{"city":"DEARBORN","geo_score":0.857,"sales (fy12)":7103927,"id":"a62eh33gouxf","geo_precision":"city","state":"MI"},"type":"Feature","geometry":{"type":"Point","coordinates":[-83.177625,42.310037]}},{"properties":{"city":"SKOKIE","geo_score":0.857,"sales (fy12)":7096986,"id":"a62eh2yztllh","geo_precision":"city","state":"IL"},"type":"Feature","geometry":{"type":"Point","coordinates":[-87.883566,42.057878]}},{"properties":{"city":"BRONX","geo_score":0.857,"sales (fy12)":7018344,"id":"a62eh2wfkcqo","geo_precision":"city","state":"NY"},"type":"Feature","geometry":{"type":"Point","coordinates":[-73.920355,40.819329]}},{"properties":{"city":"LIVONIA","geo_score":0.857,"sales (fy12)":7002318,"id":"a62eh35la58c","geo_precision":"city","state":"MI"},"type":"Feature","geometry":{"type":"Point","coordinates":[-83.371753,42.369351]}},{"properties":{"city":"LEWISVILLE","geo_score":0.857,"sales (fy12)":6964399,"id":"a62eh3ch73r7","geo_precision":"city","state":"TX"},"type":"Feature","geometry":{"type":"Point","coordinates":[-96.994174,33.046233]}},{"properties":{"city":"CEDAR RAPIDS","geo_score":0.857,"sales (fy12)":6946203,"id":"a62eh30z53n3","geo_precision":"city","state":"IA"},"type":"Feature","geometry":{"type":"Point","coordinates":[-91.644068,42.008333]}},{"properties":{"city":"OMAHA","geo_score":0.857,"sales (fy12)":6937404,"id":"a62eh39kz7nj","geo_precision":"city","state":"NE"},"type":"Feature","geometry":{"type":"Point","coordinates":[-95.937792,41.25861]}},{"properties":{"city":"KANSAS CITY","geo_score":0.857,"sales (fy12)":6925123,"id":"a62eh36vir9c","geo_precision":"city","state":"KS"},"type":"Feature","geometry":{"type":"Point","coordinates":[-94.627457,39.114171]}},{"properties":{"city":"FLUSHING","geo_score":0.857,"sales (fy12)":6907701,"id":"a62eh3apmvb6","geo_precision":"city","state":"NY"},"type":"Feature","geometry":{"type":"Point","coordinates":[-73.817356,40.76538]}},{"properties":{"city":"EDISON","geo_score":0.857,"sales (fy12)":6905098,"id":"a62eh3a3nbxz","geo_precision":"city","state":"NJ"},"type":"Feature","geometry":{"type":"Point","coordinates":[-74.412095,40.518715]}},{"properties":{"city":"DANIA BEACH","geo_score":0.857,"sales (fy12)":6892978,"id":"a62eh3cfatwc","geo_precision":"city","state":"FL"},"type":"Feature","geometry":{"type":"Point","coordinates":[-80.143934,26.052311]}},{"properties":{"city":"FARMVILLE","geo_score":0.857,"sales (fy12)":6871003,"id":"a62eh33a62qv","geo_precision":"city","state":"VA"},"type":"Feature","geometry":{"type":"Point","coordinates":[-78.421284,37.280694]}},{"properties":{"city":"TUCSON","geo_score":0.857,"sales (fy12)":6857678,"id":"a62eh346wv4x","geo_precision":"city","state":"AZ"},"type":"Feature","geometry":{"type":"Point","coordinates":[-110.926479,32.221743]}},{"properties":{"city":"CHARLOTTE","geo_score":0.857,"sales (fy12)":6840660,"id":"a62eh31cwv04","geo_precision":"city","state":"NC"},"type":"Feature","geometry":{"type":"Point","coordinates":[-80.843127,35.227087]}},{"properties":{"city":"ARLINGTON","geo_score":0.857,"sales (fy12)":6800275,"id":"a62eh2zdmzht","geo_precision":"city","state":"TX"},"type":"Feature","geometry":{"type":"Point","coordinates":[-97.108066,32.735687]}},{"properties":{"city":"PLANO","geo_score":0.857,"sales (fy12)":6756314,"id":"a62eh31pps3w","geo_precision":"city","state":"TX"},"type":"Feature","geometry":{"type":"Point","coordinates":[-96.698886,33.019843]}},{"properties":{"city":"SPARTANBURG","geo_score":0.857,"sales (fy12)":6751361,"id":"a62eh31k1zx8","geo_precision":"city","state":"SC"},"type":"Feature","geometry":{"type":"Point","coordinates":[-81.932048,34.949567]}},{"properties":{"city":"BROOKVILLE","geo_score":0.857,"sales (fy12)":6702161,"id":"a62eh2yyzkgb","geo_precision":"city","state":"NY"},"type":"Feature","geometry":{"type":"Point","coordinates":[-73.567348,40.813155]}},{"properties":{"city":"TRENTON","geo_score":0.857,"sales (fy12)":6600100,"id":"a62eh39nze21","geo_precision":"city","state":"NJ"},"type":"Feature","geometry":{"type":"Point","coordinates":[-74.742939,40.217053]}},{"properties":{"city":"WYNNEWOOD","geo_score":0.857,"sales (fy12)":6505165,"id":"a62eh33943ch","geo_precision":"city","state":"PA"},"type":"Feature","geometry":{"type":"Point","coordinates":[-75.164822,40.051411]}},{"properties":{"city":"MACON","geo_score":0.857,"sales (fy12)":6473550,"id":"a62eh386a65h","geo_precision":"city","state":"GA"},"type":"Feature","geometry":{"type":"Point","coordinates":[-83.632402,32.840695]}},{"properties":{"city":"LEESBURG","geo_score":0.857,"sales (fy12)":6436650,"id":"a62eh35dz7cj","geo_precision":"city","state":"VA"},"type":"Feature","geometry":{"type":"Point","coordinates":[-77.605404,39.041987]}},{"properties":{"city":"JACKSON","geo_score":0.857,"sales (fy12)":6408795,"id":"a62eh34wvtsc","geo_precision":"city","state":"MS"},"type":"Feature","geometry":{"type":"Point","coordinates":[-90.18481,32.298757]}},{"properties":{"city":"CONWAY","geo_score":0.857,"sales (fy12)":6371652,"id":"a62eh3am1mf8","geo_precision":"city","state":"SC"},"type":"Feature","geometry":{"type":"Point","coordinates":[-78.948287,33.868775]}},{"properties":{"city":"JACKSONVILLE","geo_score":0.857,"sales (fy12)":6235683,"id":"a62eh31d3f5o","geo_precision":"city","state":"FL"},"type":"Feature","geometry":{"type":"Point","coordinates":[-81.655651,30.332184]}},{"properties":{"city":"SEARCY","geo_score":0.857,"sales (fy12)":6234856,"id":"a62eh35nr7m7","geo_precision":"city","state":"AR"},"type":"Feature","geometry":{"type":"Point","coordinates":[-91.731729,35.243622]}},{"properties":{"city":"KUTZTOWN","geo_score":0.857,"sales (fy12)":6167310,"id":"a62eh37hflry","geo_precision":"city","state":"PA"},"type":"Feature","geometry":{"type":"Point","coordinates":[-76.321899,40.398703]}},{"properties":{"city":"MILWAUKEE","geo_score":0.857,"sales (fy12)":6047318,"id":"a62eh3bknsf6","geo_precision":"city","state":"WI"},"type":"Feature","geometry":{"type":"Point","coordinates":[-87.906474,43.038903]}},{"properties":{"city":"FAYETTEVILLE","geo_score":0.857,"sales (fy12)":5961370,"id":"a62eh37lbrsg","geo_precision":"city","state":"NC"},"type":"Feature","geometry":{"type":"Point","coordinates":[-78.878359,35.052664]}},{"properties":{"city":"FORT LAUDERDALE","geo_score":0.857,"sales (fy12)":5947105,"id":"a62eh32zjhbg","geo_precision":"city","state":"FL"},"type":"Feature","geometry":{"type":"Point","coordinates":[-80.143379,26.122308]}},{"properties":{"city":"ROUND ROCK","geo_score":0.857,"sales (fy12)":5935825,"id":"a62eh35eaaab","geo_precision":"city","state":"TX"},"type":"Feature","geometry":{"type":"Point","coordinates":[-97.678896,30.508255]}},{"properties":{"city":"ROCKFORD","geo_score":0.857,"sales (fy12)":5918440,"id":"a62eh35y1e80","geo_precision":"city","state":"IL"},"type":"Feature","geometry":{"type":"Point","coordinates":[-89.093995,42.271131]}},{"properties":{"city":"MOREHEAD","geo_score":0.857,"sales (fy12)":5865244,"id":"a62eh2wd4e31","geo_precision":"city","state":"KY"},"type":"Feature","geometry":{"type":"Point","coordinates":[-83.42039,38.210471]}},{"properties":{"city":"CONWAY","geo_score":0.857,"sales (fy12)":5824868,"id":"a62eh38ic7zp","geo_precision":"city","state":"AR"},"type":"Feature","geometry":{"type":"Point","coordinates":[-92.459422,35.081581]}},{"properties":{"city":"CARROLLTON","geo_score":0.857,"sales (fy12)":5815562,"id":"a62eh320gv4u","geo_precision":"city","state":"GA"},"type":"Feature","geometry":{"type":"Point","coordinates":[-85.04987,33.604458]}},{"properties":{"city":"THE WOODLANDS","geo_score":0.857,"sales (fy12)":5766793,"id":"a62eh38u1vnn","geo_precision":"city","state":"TX"},"type":"Feature","geometry":{"type":"Point","coordinates":[-95.489385,30.157994]}},{"properties":{"city":"LITTLE ROCK","geo_score":0.857,"sales (fy12)":5752331,"id":"a62eh35ts9qz","geo_precision":"city","state":"AR"},"type":"Feature","geometry":{"type":"Point","coordinates":[-92.289595,34.746481]}},{"properties":{"city":"GRAND RAPIDS","geo_score":0.857,"sales (fy12)":5752088,"id":"a62eh3206gfx","geo_precision":"city","state":"MI"},"type":"Feature","geometry":{"type":"Point","coordinates":[-85.668086,42.96336]}},{"properties":{"city":"VALLEY VIEW","geo_score":0.8,"sales (fy12)":5742271,"id":"a62eh32ujf8w","geo_precision":"city","state":"OH"},"type":"Feature","geometry":{"type":"Point","coordinates":[-80.948144,40.865614]}},{"properties":{"city":"POUGHKEEPSIE","geo_score":0.857,"sales (fy12)":5721547,"id":"a62eh3c3bhbe","geo_precision":"city","state":"NY"},"type":"Feature","geometry":{"type":"Point","coordinates":[-73.896164,41.695839]}},{"properties":{"city":"EARTH CITY","geo_score":0.857,"sales (fy12)":5661381,"id":"a62eh351mdjn","geo_precision":"city","state":"MO"},"type":"Feature","geometry":{"type":"Point","coordinates":[-90.427118,38.638318]}},{"properties":{"city":"AUBURN HILLS","geo_score":0.753,"sales (fy12)":5638053,"id":"a62eh32yad1l","geo_precision":"city","state":"MI"},"type":"Feature","geometry":{"type":"Point","coordinates":[-87.679576,45.957178]}},{"properties":{"city":"FAIRFAX","geo_score":0.857,"sales (fy12)":5610758,"id":"a62eh369jd30","geo_precision":"city","state":"VA"},"type":"Feature","geometry":{"type":"Point","coordinates":[-77.305097,38.853231]}},{"properties":{"city":"RALEIGH","geo_score":0.857,"sales (fy12)":5552278,"id":"a62eh32bj9zb","geo_precision":"city","state":"NC"},"type":"Feature","geometry":{"type":"Point","coordinates":[-78.638615,35.772096]}},{"properties":{"city":"WINCHESTER","geo_score":0.857,"sales (fy12)":5489662,"id":"a62eh3c0d2gh","geo_precision":"city","state":"VA"},"type":"Feature","geometry":{"type":"Point","coordinates":[-78.16856,39.169668]}}],"is_temporal":false,"author":{"url":"","metadata":"","contact_name":"","contact_address":"","source":"","contact_phone":""},"source":"","pagination":{"sort":null,"start":0,"total":200,"limit":1000000},"state":"complete","tags":"","published":"2014-08-14T19:15:15-04:00","id":242917}