{"type":"FeatureCollection","data_type":"Dataset","url_type":null,"permissions":[{"permissions":{"download":true,"view":true},"group_id":"everyone"}],"classification":null,"title":"ZCoo","count":988,"stream_id":243149,"contributor":{"url":"http://geocommons.com/users/44675","name":"efelde"},"data_attributes":null,"calculation_params":null,"icon_link":null,"link":"http://geocommons.com/overlays/243149.json","extent":[-87.917,37.9036,-84.8225,41.7598],"geometry_types":["point"],"unique_name":null,"name":"ZCoo","feature_count":988,"description":"","next_feature":null,"is_raster":false,"short_classification":"Y","stats":{"distribution":{"max":509,"variance":2305.99597500298,"mean":21.415991902834,"stdev":48.0207869052869,"min":0,"median":3}},"features":[{"properties":{"zip":"46001","geo_score":0.714,"distribution":29,"id":"a62j4e1wlzyh","geo_precision":"zip"},"type":"Feature","geometry":{"type":"Point","coordinates":[-85.601364,40.193931]}},{"properties":{"zip":"46011","geo_score":0.714,"distribution":68,"id":"a62j4e6t20pk","geo_precision":"zip"},"type":"Feature","geometry":{"type":"Point","coordinates":[-85.693588,40.11893]}},{"properties":{"zip":"46012","geo_score":0.714,"distribution":67,"id":"a62j4e4ngxiw","geo_precision":"zip"},"type":"Feature","geometry":{"type":"Point","coordinates":[-85.633225,40.165726]}},{"properties":{"zip":"46013","geo_score":0.714,"distribution":44,"id":"a62j4ednt1d8","geo_precision":"zip"},"type":"Feature","geometry":{"type":"Point","coordinates":[-85.674976,40.05668]}},{"properties":{"zip":"46014","geo_score":0.714,"distribution":1,"id":"a62j4e5k20cx","geo_precision":"zip"},"type":"Feature","geometry":{"type":"Point","coordinates":[-85.719659,40.161733]}},{"properties":{"zip":"46015","geo_score":0.714,"distribution":1,"id":"a62j4eaua9n4","geo_precision":"zip"},"type":"Feature","geometry":{"type":"Point","coordinates":[-85.657825,40.093792]}},{"properties":{"zip":"46016","geo_score":0.714,"distribution":13,"id":"a62j4e1r1fdm","geo_precision":"zip"},"type":"Feature","geometry":{"type":"Point","coordinates":[-85.742377,40.144894]}},{"properties":{"zip":"46017","geo_score":0.714,"distribution":16,"id":"a62j4ed3hpgl","geo_precision":"zip"},"type":"Feature","geometry":{"type":"Point","coordinates":[-85.59692,40.112543]}},{"properties":{"zip":"46018","geo_score":0.714,"distribution":0,"id":"a62j4e1p9ahz","geo_precision":"zip"},"type":"Feature","geometry":{"type":"Point","coordinates":[-85.719659,40.161733]}},{"properties":{"zip":"46030","geo_score":0.714,"distribution":10,"id":"a62j4e5tjjwk","geo_precision":"zip"},"type":"Feature","geometry":{"type":"Point","coordinates":[-85.939705,40.161982]}},{"properties":{"zip":"46031","geo_score":0.714,"distribution":8,"id":"a62j4efqvk9z","geo_precision":"zip"},"type":"Feature","geometry":{"type":"Point","coordinates":[-86.161658,40.216981]}},{"properties":{"zip":"46032","geo_score":0.714,"distribution":509,"id":"a62j4e5k2fay","geo_precision":"zip"},"type":"Feature","geometry":{"type":"Point","coordinates":[-86.061652,39.961427]}},{"properties":{"zip":"46033","geo_score":0.714,"distribution":378,"id":"a62j4ebydk41","geo_precision":"zip"},"type":"Feature","geometry":{"type":"Point","coordinates":[-86.082936,39.974404]}},{"properties":{"zip":"46034","geo_score":0.714,"distribution":48,"id":"a62j4e7pza8v","geo_precision":"zip"},"type":"Feature","geometry":{"type":"Point","coordinates":[-86.098599,40.115315]}},{"properties":{"zip":"46035","geo_score":0.714,"distribution":2,"id":"a62j4ec3v8ff","geo_precision":"zip"},"type":"Feature","geometry":{"type":"Point","coordinates":[-86.64787,40.211041]}},{"properties":{"zip":"46036","geo_score":0.714,"distribution":20,"id":"a62j4e1g6vma","geo_precision":"zip"},"type":"Feature","geometry":{"type":"Point","coordinates":[-85.860536,40.279761]}},{"properties":{"zip":"46037","geo_score":0.0,"distribution":321,"id":"a62j4eb4jrvo","geo_precision":"unmatched"},"type":"Feature","geometry":null},{"properties":{"zip":"46038","geo_score":0.714,"distribution":327,"id":"a62j4e3rz4cj","geo_precision":"zip"},"type":"Feature","geometry":{"type":"Point","coordinates":[-85.964894,39.967406]}},{"properties":{"zip":"46039","geo_score":0.714,"distribution":1,"id":"a62j4e1uoyfm","geo_precision":"zip"},"type":"Feature","geometry":{"type":"Point","coordinates":[-86.309246,40.373825]}},{"properties":{"zip":"46040","geo_score":0.714,"distribution":68,"id":"a62j4e5w11t1","geo_precision":"zip"},"type":"Feature","geometry":{"type":"Point","coordinates":[-85.83998,39.948929]}},{"properties":{"zip":"46041","geo_score":0.714,"distribution":58,"id":"a62j4e4i40dv","geo_precision":"zip"},"type":"Feature","geometry":{"type":"Point","coordinates":[-86.488613,40.275592]}},{"properties":{"zip":"46044","geo_score":0.714,"distribution":6,"id":"a62j4egkp41x","geo_precision":"zip"},"type":"Feature","geometry":{"type":"Point","coordinates":[-85.786049,40.213173]}},{"properties":{"zip":"46045","geo_score":0.714,"distribution":1,"id":"a62j4e081u3e","geo_precision":"zip"},"type":"Feature","geometry":{"type":"Point","coordinates":[-86.149423,40.289836]}},{"properties":{"zip":"46047","geo_score":0.714,"distribution":0,"id":"a62j4e52un4g","geo_precision":"zip"},"type":"Feature","geometry":{"type":"Point","coordinates":[-85.945505,40.284101]}},{"properties":{"zip":"46048","geo_score":0.714,"distribution":1,"id":"a62j4eeet1he","geo_precision":"zip"},"type":"Feature","geometry":{"type":"Point","coordinates":[-85.798078,39.95729]}},{"properties":{"zip":"46049","geo_score":0.714,"distribution":1,"id":"a62j4eeayp0p","geo_precision":"zip"},"type":"Feature","geometry":{"type":"Point","coordinates":[-86.202772,40.345871]}},{"properties":{"zip":"46050","geo_score":0.714,"distribution":9,"id":"a62j4ecmyo9p","geo_precision":"zip"},"type":"Feature","geometry":{"type":"Point","coordinates":[-86.261384,40.223092]}},{"properties":{"zip":"46051","geo_score":0.714,"distribution":4,"id":"a62j4eapll40","geo_precision":"zip"},"type":"Feature","geometry":{"type":"Point","coordinates":[-85.843313,40.019762]}},{"properties":{"zip":"46052","geo_score":0.714,"distribution":77,"id":"a62j4ecu1ovm","geo_precision":"zip"},"type":"Feature","geometry":{"type":"Point","coordinates":[-86.464445,40.063096]}},{"properties":{"zip":"46055","geo_score":0.714,"distribution":78,"id":"a62j4e10py65","geo_precision":"zip"},"type":"Feature","geometry":{"type":"Point","coordinates":[-85.894981,39.908651]}},{"properties":{"zip":"46056","geo_score":0.714,"distribution":4,"id":"a62j4e4978tv","geo_precision":"zip"},"type":"Feature","geometry":{"type":"Point","coordinates":[-85.633865,40.004488]}},{"properties":{"zip":"46057","geo_score":0.714,"distribution":0,"id":"a62j4e7tcoqb","geo_precision":"zip"},"type":"Feature","geometry":{"type":"Point","coordinates":[-86.394721,40.286426]}},{"properties":{"zip":"46058","geo_score":0.714,"distribution":8,"id":"a62j4e0awtsx","geo_precision":"zip"},"type":"Feature","geometry":{"type":"Point","coordinates":[-86.618059,40.344758]}},{"properties":{"zip":"46060","geo_score":0.714,"distribution":190,"id":"a62j4e0jjk8v","geo_precision":"zip"},"type":"Feature","geometry":{"type":"Point","coordinates":[-86.020818,40.048092]}},{"properties":{"zip":"46061","geo_score":0.714,"distribution":3,"id":"a62j4efaho2k","geo_precision":"zip"},"type":"Feature","geometry":{"type":"Point","coordinates":[-86.052285,40.072462]}},{"properties":{"zip":"46062","geo_score":0.0,"distribution":227,"id":"a62j4e5snc3g","geo_precision":"unmatched"},"type":"Feature","geometry":null},{"properties":{"zip":"46063","geo_score":0.714,"distribution":1,"id":"a62j4eadq1if","geo_precision":"zip"},"type":"Feature","geometry":{"type":"Point","coordinates":[-85.72808,40.271524]}},{"properties":{"zip":"46064","geo_score":0.714,"distribution":57,"id":"a62j4e5oyd9b","geo_precision":"zip"},"type":"Feature","geometry":{"type":"Point","coordinates":[-85.730255,40.008653]}},{"properties":{"zip":"46065","geo_score":0.714,"distribution":12,"id":"a62j4e0r7esv","geo_precision":"zip"},"type":"Feature","geometry":{"type":"Point","coordinates":[-86.628058,40.460869]}},{"properties":{"zip":"46067","geo_score":0.714,"distribution":1,"id":"a62j4ea8cnre","geo_precision":"zip"},"type":"Feature","geometry":{"type":"Point","coordinates":[-86.469044,40.304473]}},{"properties":{"zip":"46068","geo_score":0.714,"distribution":12,"id":"a62j4efurwjn","geo_precision":"zip"},"type":"Feature","geometry":{"type":"Point","coordinates":[-86.004154,40.395316]}},{"properties":{"zip":"46069","geo_score":0.714,"distribution":29,"id":"a62j4eeot3hc","geo_precision":"zip"},"type":"Feature","geometry":{"type":"Point","coordinates":[-86.280273,40.165315]}},{"properties":{"zip":"46070","geo_score":0.714,"distribution":2,"id":"a62j4eeof7o0","geo_precision":"zip"},"type":"Feature","geometry":{"type":"Point","coordinates":[-85.666794,40.314012]}},{"properties":{"zip":"46071","geo_score":0.714,"distribution":6,"id":"a62j4ec9pkkl","geo_precision":"zip"},"type":"Feature","geometry":{"type":"Point","coordinates":[-86.58186,40.068631]}},{"properties":{"zip":"46072","geo_score":0.714,"distribution":21,"id":"a62j4eafg54j","geo_precision":"zip"},"type":"Feature","geometry":{"type":"Point","coordinates":[-86.151103,40.275315]}},{"properties":{"zip":"46074","geo_score":0.714,"distribution":204,"id":"a62j4e1aub40","geo_precision":"zip"},"type":"Feature","geometry":{"type":"Point","coordinates":[-86.193602,40.04226]}},{"properties":{"zip":"46075","geo_score":0.714,"distribution":14,"id":"a62j4e6cifor","geo_precision":"zip"},"type":"Feature","geometry":{"type":"Point","coordinates":[-86.306662,40.084483]}},{"properties":{"zip":"46076","geo_score":0.714,"distribution":1,"id":"a62j4e440i3w","geo_precision":"zip"},"type":"Feature","geometry":{"type":"Point","coordinates":[-85.957166,40.362523]}},{"properties":{"zip":"46077","geo_score":0.714,"distribution":229,"id":"a62j4e9zygir","geo_precision":"zip"},"type":"Feature","geometry":{"type":"Point","coordinates":[-86.301661,39.948652]}},{"properties":{"zip":"46082","geo_score":0.714,"distribution":12,"id":"a62j4e3ljh05","geo_precision":"zip"},"type":"Feature","geometry":{"type":"Point","coordinates":[-86.052285,40.072462]}},{"properties":{"zip":"46102","geo_score":0.714,"distribution":0,"id":"a62j4e4s6a5y","geo_precision":"zip"},"type":"Feature","geometry":{"type":"Point","coordinates":[-86.619774,39.995599]}},{"properties":{"zip":"46103","geo_score":0.714,"distribution":0,"id":"a62j4e06su65","geo_precision":"zip"},"type":"Feature","geometry":{"type":"Point","coordinates":[-86.483474,39.736926]}},{"properties":{"zip":"46104","geo_score":0.714,"distribution":1,"id":"a62j4e3fuptj","geo_precision":"zip"},"type":"Feature","geometry":{"type":"Point","coordinates":[-85.590869,39.663342]}},{"properties":{"zip":"46105","geo_score":0.714,"distribution":10,"id":"a62j4e6davog","geo_precision":"zip"},"type":"Feature","geometry":{"type":"Point","coordinates":[-86.720006,39.760602]}},{"properties":{"zip":"46106","geo_score":0.714,"distribution":42,"id":"a62j4e9vsucy","geo_precision":"zip"},"type":"Feature","geometry":{"type":"Point","coordinates":[-86.176655,39.490882]}},{"properties":{"zip":"46107","geo_score":0.714,"distribution":32,"id":"a62j4e6o8lc8","geo_precision":"zip"},"type":"Feature","geometry":{"type":"Point","coordinates":[-86.093293,39.713893]}},{"properties":{"zip":"46110","geo_score":0.714,"distribution":4,"id":"a62j4e1bukwz","geo_precision":"zip"},"type":"Feature","geometry":{"type":"Point","coordinates":[-85.91406,39.566614]}},{"properties":{"zip":"46111","geo_score":0.714,"distribution":0,"id":"a62j4e56dgca","geo_precision":"zip"},"type":"Feature","geometry":{"type":"Point","coordinates":[-86.375827,39.532547]}},{"properties":{"zip":"46112","geo_score":0.714,"distribution":198,"id":"a62j4e60o6bk","geo_precision":"zip"},"type":"Feature","geometry":{"type":"Point","coordinates":[-86.338328,39.926986]}},{"properties":{"zip":"46113","geo_score":0.714,"distribution":41,"id":"a62j4eaz3r5p","geo_precision":"zip"},"type":"Feature","geometry":{"type":"Point","coordinates":[-86.33277,39.646435]}},{"properties":{"zip":"46115","geo_score":0.714,"distribution":5,"id":"a62j4e4e6qfp","geo_precision":"zip"},"type":"Feature","geometry":{"type":"Point","coordinates":[-85.478305,39.691157]}},{"properties":{"zip":"46117","geo_score":0.714,"distribution":3,"id":"a62j4e37gk3n","geo_precision":"zip"},"type":"Feature","geometry":{"type":"Point","coordinates":[-85.58692,39.866989]}},{"properties":{"zip":"46118","geo_score":0.714,"distribution":19,"id":"a62j4e3ygw0l","geo_precision":"zip"},"type":"Feature","geometry":{"type":"Point","coordinates":[-86.574167,39.688102]}},{"properties":{"zip":"46120","geo_score":0.714,"distribution":16,"id":"a62j4eg5qxsu","geo_precision":"zip"},"type":"Feature","geometry":{"type":"Point","coordinates":[-86.631946,39.471158]}},{"properties":{"zip":"46121","geo_score":0.714,"distribution":17,"id":"a62j4e6ucb1o","geo_precision":"zip"},"type":"Feature","geometry":{"type":"Point","coordinates":[-86.670282,39.710324]}},{"properties":{"zip":"46122","geo_score":0.714,"distribution":73,"id":"a62j4ed8wmoa","geo_precision":"zip"},"type":"Feature","geometry":{"type":"Point","coordinates":[-86.438886,39.821433]}},{"properties":{"zip":"46123","geo_score":0.714,"distribution":210,"id":"a62j4e7heqpe","geo_precision":"zip"},"type":"Feature","geometry":{"type":"Point","coordinates":[-86.488881,39.721434]}},{"properties":{"zip":"46124","geo_score":0.714,"distribution":16,"id":"a62j4e3vy7qn","geo_precision":"zip"},"type":"Feature","geometry":{"type":"Point","coordinates":[-85.973604,39.333662]}},{"properties":{"zip":"46125","geo_score":0.714,"distribution":0,"id":"a62j4eadw7ym","geo_precision":"zip"},"type":"Feature","geometry":{"type":"Point","coordinates":[-86.641773,39.506641]}},{"properties":{"zip":"46126","geo_score":0.714,"distribution":13,"id":"a62j4ed2qm3h","geo_precision":"zip"},"type":"Feature","geometry":{"type":"Point","coordinates":[-85.913037,39.640602]}},{"properties":{"zip":"46127","geo_score":0.714,"distribution":0,"id":"a62j4eet2nr3","geo_precision":"zip"},"type":"Feature","geometry":{"type":"Point","coordinates":[-85.333088,39.729032]}},{"properties":{"zip":"46128","geo_score":0.714,"distribution":6,"id":"a62j4e3e5jvm","geo_precision":"zip"},"type":"Feature","geometry":{"type":"Point","coordinates":[-86.73796,39.652271]}},{"properties":{"zip":"46129","geo_score":0.714,"distribution":0,"id":"a62j4e7tl78m","geo_precision":"zip"},"type":"Feature","geometry":{"type":"Point","coordinates":[-85.765169,39.821516]}},{"properties":{"zip":"46130","geo_score":0.714,"distribution":12,"id":"a62j4e0b87w4","geo_precision":"zip"},"type":"Feature","geometry":{"type":"Point","coordinates":[-85.809775,39.580663]}},{"properties":{"zip":"46131","geo_score":0.714,"distribution":114,"id":"a62j4e8twvdb","geo_precision":"zip"},"type":"Feature","geometry":{"type":"Point","coordinates":[-85.985262,39.521994]}},{"properties":{"zip":"46133","geo_score":0.714,"distribution":2,"id":"a62j4eaf624e","geo_precision":"zip"},"type":"Feature","geometry":{"type":"Point","coordinates":[-85.276882,39.58598]}},{"properties":{"zip":"46135","geo_score":0.714,"distribution":65,"id":"a62j4e4i2s2t","geo_precision":"zip"},"type":"Feature","geometry":{"type":"Point","coordinates":[-87.009178,39.7781]}},{"properties":{"zip":"46140","geo_score":0.714,"distribution":155,"id":"a62j4efbewon","geo_precision":"zip"},"type":"Feature","geometry":{"type":"Point","coordinates":[-85.687755,39.750322]}},{"properties":{"zip":"46142","geo_score":0.714,"distribution":230,"id":"a62j4e9xoyyu","geo_precision":"zip"},"type":"Feature","geometry":{"type":"Point","coordinates":[-86.159154,39.577825]}},{"properties":{"zip":"46143","geo_score":0.714,"distribution":295,"id":"a62j4e3haa8k","geo_precision":"zip"},"type":"Feature","geometry":{"type":"Point","coordinates":[-86.10149,39.50708]}},{"properties":{"zip":"46144","geo_score":0.714,"distribution":0,"id":"a62j4e605nrn","geo_precision":"zip"},"type":"Feature","geometry":{"type":"Point","coordinates":[-85.647634,39.66172]}},{"properties":{"zip":"46146","geo_score":0.714,"distribution":0,"id":"a62j4e2qjgvz","geo_precision":"zip"},"type":"Feature","geometry":{"type":"Point","coordinates":[-85.46554,39.619923]}},{"properties":{"zip":"46147","geo_score":0.714,"distribution":14,"id":"a62j4edf57s3","geo_precision":"zip"},"type":"Feature","geometry":{"type":"Point","coordinates":[-86.563204,39.988674]}},{"properties":{"zip":"46148","geo_score":0.714,"distribution":14,"id":"a62j4e1o2fo1","geo_precision":"zip"},"type":"Feature","geometry":{"type":"Point","coordinates":[-85.512474,39.796156]}},{"properties":{"zip":"46149","geo_score":0.714,"distribution":6,"id":"a62j4e2sgldb","geo_precision":"zip"},"type":"Feature","geometry":{"type":"Point","coordinates":[-86.566946,39.8481]}},{"properties":{"zip":"46150","geo_score":0.714,"distribution":2,"id":"a62j4e8en754","geo_precision":"zip"},"type":"Feature","geometry":{"type":"Point","coordinates":[-85.583666,39.546509]}},{"properties":{"zip":"46151","geo_score":0.714,"distribution":163,"id":"a62j4e3pe97t","geo_precision":"zip"},"type":"Feature","geometry":{"type":"Point","coordinates":[-86.394716,39.437548]}},{"properties":{"zip":"46154","geo_score":0.714,"distribution":0,"id":"a62j4e4yqnj7","geo_precision":"zip"},"type":"Feature","geometry":{"type":"Point","coordinates":[-85.768357,39.856763]}},{"properties":{"zip":"46155","geo_score":0.714,"distribution":0,"id":"a62j4e193aff","geo_precision":"zip"},"type":"Feature","geometry":{"type":"Point","coordinates":[-85.431184,39.743769]}},{"properties":{"zip":"46156","geo_score":0.714,"distribution":4,"id":"a62j4eatq662","geo_precision":"zip"},"type":"Feature","geometry":{"type":"Point","coordinates":[-85.55664,39.485326]}},{"properties":{"zip":"46157","geo_score":0.714,"distribution":11,"id":"a62j4eb7hi2o","geo_precision":"zip"},"type":"Feature","geometry":{"type":"Point","coordinates":[-86.589723,39.579491]}},{"properties":{"zip":"46158","geo_score":0.714,"distribution":105,"id":"a62j4e32ezm2","geo_precision":"zip"},"type":"Feature","geometry":{"type":"Point","coordinates":[-86.337492,39.610324]}},{"properties":{"zip":"46160","geo_score":0.714,"distribution":15,"id":"a62j4eaq9id8","geo_precision":"zip"},"type":"Feature","geometry":{"type":"Point","coordinates":[-86.257768,39.321993]}},{"properties":{"zip":"46161","geo_score":0.714,"distribution":7,"id":"a62j4e9unbkn","geo_precision":"zip"},"type":"Feature","geometry":{"type":"Point","coordinates":[-85.725811,39.658657]}},{"properties":{"zip":"46162","geo_score":0.714,"distribution":4,"id":"a62j4e47ec2g","geo_precision":"zip"},"type":"Feature","geometry":{"type":"Point","coordinates":[-85.96563,39.560511]}},{"properties":{"zip":"46163","geo_score":0.714,"distribution":73,"id":"a62j4e9ct15z","geo_precision":"zip"},"type":"Feature","geometry":{"type":"Point","coordinates":[-85.893869,39.737543]}},{"properties":{"zip":"46164","geo_score":0.714,"distribution":20,"id":"a62j4e8ht7eo","geo_precision":"zip"},"type":"Feature","geometry":{"type":"Point","coordinates":[-86.12916,39.30005]}},{"properties":{"zip":"46165","geo_score":0.714,"distribution":7,"id":"a62j4eeefxk9","geo_precision":"zip"},"type":"Feature","geometry":{"type":"Point","coordinates":[-86.640794,39.839162]}},{"properties":{"zip":"46166","geo_score":0.714,"distribution":4,"id":"a62j4e6eewlq","geo_precision":"zip"},"type":"Feature","geometry":{"type":"Point","coordinates":[-86.607501,39.379769]}},{"properties":{"zip":"46167","geo_score":0.714,"distribution":49,"id":"a62j4ebfhvn5","geo_precision":"zip"},"type":"Feature","geometry":{"type":"Point","coordinates":[-86.505277,39.834489]}},{"properties":{"zip":"46168","geo_score":0.714,"distribution":153,"id":"a62j4e5ip4o4","geo_precision":"zip"},"type":"Feature","geometry":{"type":"Point","coordinates":[-86.399717,39.762823]}},{"properties":{"zip":"46170","geo_score":0.714,"distribution":0,"id":"a62j4e0ivs8x","geo_precision":"zip"},"type":"Feature","geometry":{"type":"Point","coordinates":[-86.828402,39.668441]}},{"properties":{"zip":"46171","geo_score":0.714,"distribution":2,"id":"a62j4ef3467x","geo_precision":"zip"},"type":"Feature","geometry":{"type":"Point","coordinates":[-86.964457,39.551433]}},{"properties":{"zip":"46172","geo_score":0.714,"distribution":5,"id":"a62j4e9ttxfr","geo_precision":"zip"},"type":"Feature","geometry":{"type":"Point","coordinates":[-86.896398,39.856156]}},{"properties":{"zip":"46173","geo_score":0.714,"distribution":30,"id":"a62j4e3t1zvv","geo_precision":"zip"},"type":"Feature","geometry":{"type":"Point","coordinates":[-85.434693,39.700046]}},{"properties":{"zip":"46175","geo_score":0.714,"distribution":1,"id":"a62j4e7egjud","geo_precision":"zip"},"type":"Feature","geometry":{"type":"Point","coordinates":[-86.973306,39.822491]}},{"properties":{"zip":"46176","geo_score":0.714,"distribution":95,"id":"a62j4ecbsclt","geo_precision":"zip"},"type":"Feature","geometry":{"type":"Point","coordinates":[-85.763312,39.517548]}},{"properties":{"zip":"46180","geo_score":0.714,"distribution":4,"id":"a62j4ee6oghg","geo_precision":"zip"},"type":"Feature","geometry":{"type":"Point","coordinates":[-86.607678,39.632997]}},{"properties":{"zip":"46181","geo_score":0.714,"distribution":30,"id":"a62j4e3rg5h3","geo_precision":"zip"},"type":"Feature","geometry":{"type":"Point","coordinates":[-86.19638,39.330604]}},{"properties":{"zip":"46182","geo_score":0.714,"distribution":3,"id":"a62j4e9fxhip","geo_precision":"zip"},"type":"Feature","geometry":{"type":"Point","coordinates":[-85.717479,39.396716]}},{"properties":{"zip":"46183","geo_score":0.714,"distribution":0,"id":"a62j4e3yc6uz","geo_precision":"zip"},"type":"Feature","geometry":{"type":"Point","coordinates":[-86.28509,39.648251]}},{"properties":{"zip":"46184","geo_score":0.714,"distribution":39,"id":"a62j4eantkxa","geo_precision":"zip"},"type":"Feature","geometry":{"type":"Point","coordinates":[-86.095264,39.558104]}},{"properties":{"zip":"46186","geo_score":0.714,"distribution":10,"id":"a62j4eg9u8gn","geo_precision":"zip"},"type":"Feature","geometry":{"type":"Point","coordinates":[-85.633865,39.907544]}},{"properties":{"zip":"46201","geo_score":0.714,"distribution":48,"id":"a62j4ebcm5pz","geo_precision":"zip"},"type":"Feature","geometry":{"type":"Point","coordinates":[-86.136654,39.876429]}},{"properties":{"zip":"46202","geo_score":0.714,"distribution":59,"id":"a62j4edkze7c","geo_precision":"zip"},"type":"Feature","geometry":{"type":"Point","coordinates":[-86.143736,39.762392]}},{"properties":{"zip":"46203","geo_score":0.714,"distribution":54,"id":"a62j4e1p97b6","geo_precision":"zip"},"type":"Feature","geometry":{"type":"Point","coordinates":[-86.113535,39.743493]}},{"properties":{"zip":"46204","geo_score":0.714,"distribution":51,"id":"a62j4ee4k2ad","geo_precision":"zip"},"type":"Feature","geometry":{"type":"Point","coordinates":[-86.158038,39.772692]}},{"properties":{"zip":"46205","geo_score":0.714,"distribution":116,"id":"a62j4e33gcpp","geo_precision":"zip"},"type":"Feature","geometry":{"type":"Point","coordinates":[-86.129886,39.822641]}},{"properties":{"zip":"46206","geo_score":0.714,"distribution":3,"id":"a62j4e8cbzpe","geo_precision":"zip"},"type":"Feature","geometry":{"type":"Point","coordinates":[-86.161336,39.761293]}},{"properties":{"zip":"46207","geo_score":0.714,"distribution":1,"id":"a62j4ee9zbw6","geo_precision":"zip"},"type":"Feature","geometry":{"type":"Point","coordinates":[-86.160616,39.767293]}},{"properties":{"zip":"46208","geo_score":0.714,"distribution":70,"id":"a62j4e5tjpa2","geo_precision":"zip"},"type":"Feature","geometry":{"type":"Point","coordinates":[-86.197489,39.831153]}},{"properties":{"zip":"46209","geo_score":0.714,"distribution":0,"id":"a62j4e32l9e5","geo_precision":"zip"},"type":"Feature","geometry":{"type":"Point","coordinates":[-86.132837,39.779492]}},{"properties":{"zip":"46211","geo_score":0.714,"distribution":0,"id":"a62j4e6tfw4h","geo_precision":"zip"},"type":"Feature","geometry":{"type":"Point","coordinates":[-86.132837,39.779492]}},{"properties":{"zip":"46214","geo_score":0.714,"distribution":90,"id":"a62j4efzhfx7","geo_precision":"zip"},"type":"Feature","geometry":{"type":"Point","coordinates":[-86.287465,39.792379]}},{"properties":{"zip":"46216","geo_score":0.714,"distribution":3,"id":"a62j4ee6nfkg","geo_precision":"zip"},"type":"Feature","geometry":{"type":"Point","coordinates":[-86.013632,39.864689]}},{"properties":{"zip":"46217","geo_score":0.714,"distribution":142,"id":"a62j4e6yh0o0","geo_precision":"zip"},"type":"Feature","geometry":{"type":"Point","coordinates":[-86.211099,39.688101]}},{"properties":{"zip":"46218","geo_score":0.714,"distribution":37,"id":"a62j4e35g8j6","geo_precision":"zip"},"type":"Feature","geometry":{"type":"Point","coordinates":[-86.100535,39.806991]}},{"properties":{"zip":"46219","geo_score":0.714,"distribution":106,"id":"a62j4e14jopy","geo_precision":"zip"},"type":"Feature","geometry":{"type":"Point","coordinates":[-86.016372,39.776987]}},{"properties":{"zip":"46220","geo_score":0.714,"distribution":335,"id":"a62j4e2shndu","geo_precision":"zip"},"type":"Feature","geometry":{"type":"Point","coordinates":[-86.073319,39.899762]}},{"properties":{"zip":"46221","geo_score":0.714,"distribution":51,"id":"a62j4e4ftkak","geo_precision":"zip"},"type":"Feature","geometry":{"type":"Point","coordinates":[-86.130655,39.764258]}},{"properties":{"zip":"46222","geo_score":0.714,"distribution":37,"id":"a62j4e20d1qr","geo_precision":"zip"},"type":"Feature","geometry":{"type":"Point","coordinates":[-86.206655,39.765321]}},{"properties":{"zip":"46223","geo_score":0.714,"distribution":0,"id":"a62j4e1okjyu","geo_precision":"zip"},"type":"Feature","geometry":{"type":"Point","coordinates":[-86.132837,39.779492]}},{"properties":{"zip":"46224","geo_score":0.714,"distribution":63,"id":"a62j4e0y2ggq","geo_precision":"zip"},"type":"Feature","geometry":{"type":"Point","coordinates":[-86.281935,39.775044]}},{"properties":{"zip":"46225","geo_score":0.714,"distribution":15,"id":"a62j4e6vve0b","geo_precision":"zip"},"type":"Feature","geometry":{"type":"Point","coordinates":[-86.167886,39.743793]}},{"properties":{"zip":"46226","geo_score":0.714,"distribution":118,"id":"a62j4e1cf0y0","geo_precision":"zip"},"type":"Feature","geometry":{"type":"Point","coordinates":[-86.091652,39.853096]}},{"properties":{"zip":"46227","geo_score":0.714,"distribution":168,"id":"a62j4e546hsc","geo_precision":"zip"},"type":"Feature","geometry":{"type":"Point","coordinates":[-86.13443,39.704767]}},{"properties":{"zip":"46228","geo_score":0.714,"distribution":90,"id":"a62j4eeygqd6","geo_precision":"zip"},"type":"Feature","geometry":{"type":"Point","coordinates":[-86.195081,39.846191]}},{"properties":{"zip":"46229","geo_score":0.714,"distribution":71,"id":"a62j4e7y0u46","geo_precision":"zip"},"type":"Feature","geometry":{"type":"Point","coordinates":[-85.997482,39.781986]}},{"properties":{"zip":"46230","geo_score":0.714,"distribution":1,"id":"a62j4ecu1fkp","geo_precision":"zip"},"type":"Feature","geometry":{"type":"Point","coordinates":[-86.132837,39.779492]}},{"properties":{"zip":"46231","geo_score":0.714,"distribution":42,"id":"a62j4efnqtrw","geo_precision":"zip"},"type":"Feature","geometry":{"type":"Point","coordinates":[-86.317214,39.732267]}},{"properties":{"zip":"46234","geo_score":0.714,"distribution":101,"id":"a62j4ebc4c1z","geo_precision":"zip"},"type":"Feature","geometry":{"type":"Point","coordinates":[-86.322493,39.809766]}},{"properties":{"zip":"46235","geo_score":0.714,"distribution":44,"id":"a62j4e3a9g4z","geo_precision":"zip"},"type":"Feature","geometry":{"type":"Point","coordinates":[-85.974081,39.84709]}},{"properties":{"zip":"46236","geo_score":0.714,"distribution":232,"id":"a62j4e6u7jpk","geo_precision":"zip"},"type":"Feature","geometry":{"type":"Point","coordinates":[-85.99665,39.879206]}},{"properties":{"zip":"46237","geo_score":0.714,"distribution":164,"id":"a62j4ea7h8h4","geo_precision":"zip"},"type":"Feature","geometry":{"type":"Point","coordinates":[-86.171117,39.742726]}},{"properties":{"zip":"46239","geo_score":0.714,"distribution":143,"id":"a62j4edeaga3","geo_precision":"zip"},"type":"Feature","geometry":{"type":"Point","coordinates":[-86.044983,39.724766]}},{"properties":{"zip":"46240","geo_score":0.714,"distribution":191,"id":"a62j4ec8k77k","geo_precision":"zip"},"type":"Feature","geometry":{"type":"Point","coordinates":[-86.150266,39.899762]}},{"properties":{"zip":"46241","geo_score":0.714,"distribution":47,"id":"a62j4eedupmc","geo_precision":"zip"},"type":"Feature","geometry":{"type":"Point","coordinates":[-86.261378,39.747544]}},{"properties":{"zip":"46242","geo_score":0.714,"distribution":1,"id":"a62j4e8ng6kn","geo_precision":"zip"},"type":"Feature","geometry":{"type":"Point","coordinates":[-86.132837,39.779492]}},{"properties":{"zip":"46244","geo_score":0.714,"distribution":3,"id":"a62j4e06nqos","geo_precision":"zip"},"type":"Feature","geometry":{"type":"Point","coordinates":[-86.132837,39.779492]}},{"properties":{"zip":"46247","geo_score":0.714,"distribution":2,"id":"a62j4e2pytrn","geo_precision":"zip"},"type":"Feature","geometry":{"type":"Point","coordinates":[-86.132837,39.779492]}},{"properties":{"zip":"46249","geo_score":0.714,"distribution":0,"id":"a62j4ebqrpxs","geo_precision":"zip"},"type":"Feature","geometry":{"type":"Point","coordinates":[-86.006082,39.858989]}},{"properties":{"zip":"46250","geo_score":0.714,"distribution":146,"id":"a62j4e4anmhg","geo_precision":"zip"},"type":"Feature","geometry":{"type":"Point","coordinates":[-86.055818,39.878095]}},{"properties":{"zip":"46251","geo_score":0.714,"distribution":0,"id":"a62j4e493nyv","geo_precision":"zip"},"type":"Feature","geometry":{"type":"Point","coordinates":[-86.132837,39.779492]}},{"properties":{"zip":"46253","geo_score":0.714,"distribution":5,"id":"a62j4ee1zl65","geo_precision":"zip"},"type":"Feature","geometry":{"type":"Point","coordinates":[-86.132837,39.779492]}},{"properties":{"zip":"46254","geo_score":0.714,"distribution":122,"id":"a62j4e03ely0","geo_precision":"zip"},"type":"Feature","geometry":{"type":"Point","coordinates":[-86.25638,39.845875]}},{"properties":{"zip":"46255","geo_score":0.714,"distribution":0,"id":"a62j4e8i7trr","geo_precision":"zip"},"type":"Feature","geometry":{"type":"Point","coordinates":[-86.132837,39.779492]}},{"properties":{"zip":"46256","geo_score":0.714,"distribution":178,"id":"a62j4e0xylto","geo_precision":"zip"},"type":"Feature","geometry":{"type":"Point","coordinates":[-86.029984,39.883373]}},{"properties":{"zip":"46259","geo_score":0.714,"distribution":66,"id":"a62j4e3hqi81","geo_precision":"zip"},"type":"Feature","geometry":{"type":"Point","coordinates":[-85.974427,39.678656]}},{"properties":{"zip":"46260","geo_score":0.714,"distribution":190,"id":"a62j4e4ubakt","geo_precision":"zip"},"type":"Feature","geometry":{"type":"Point","coordinates":[-86.166933,39.875596]}},{"properties":{"zip":"46262","geo_score":0.714,"distribution":0,"id":"a62j4e7pzth1","geo_precision":"zip"},"type":"Feature","geometry":{"type":"Point","coordinates":[-86.158042,39.768377]}},{"properties":{"zip":"46266","geo_score":0.714,"distribution":0,"id":"a62j4e058dev","geo_precision":"zip"},"type":"Feature","geometry":{"type":"Point","coordinates":[-86.132837,39.779492]}},{"properties":{"zip":"46268","geo_score":0.714,"distribution":80,"id":"a62j4e3crei8","geo_precision":"zip"},"type":"Feature","geometry":{"type":"Point","coordinates":[-86.212212,39.890041]}},{"properties":{"zip":"46274","geo_score":0.714,"distribution":0,"id":"a62j4e701e9t","geo_precision":"zip"},"type":"Feature","geometry":{"type":"Point","coordinates":[-86.132837,39.779492]}},{"properties":{"zip":"46275","geo_score":0.714,"distribution":0,"id":"a62j4e54g6il","geo_precision":"zip"},"type":"Feature","geometry":{"type":"Point","coordinates":[-86.132837,39.779492]}},{"properties":{"zip":"46277","geo_score":0.714,"distribution":0,"id":"a62j4edm9i3z","geo_precision":"zip"},"type":"Feature","geometry":{"type":"Point","coordinates":[-86.132837,39.779492]}},{"properties":{"zip":"46278","geo_score":0.714,"distribution":61,"id":"a62j4e96579z","geo_precision":"zip"},"type":"Feature","geometry":{"type":"Point","coordinates":[-86.302771,39.893653]}},{"properties":{"zip":"46280","geo_score":0.714,"distribution":63,"id":"a62j4e71cip5","geo_precision":"zip"},"type":"Feature","geometry":{"type":"Point","coordinates":[-86.129988,39.937539]}},{"properties":{"zip":"46282","geo_score":0.714,"distribution":2,"id":"a62j4e8ogv4y","geo_precision":"zip"},"type":"Feature","geometry":{"type":"Point","coordinates":[-86.132837,39.779492]}},{"properties":{"zip":"46283","geo_score":0.714,"distribution":0,"id":"a62j4e1sql12","geo_precision":"zip"},"type":"Feature","geometry":{"type":"Point","coordinates":[-86.132837,39.779492]}},{"properties":{"zip":"46285","geo_score":0.714,"distribution":0,"id":"a62j4e3uzbvv","geo_precision":"zip"},"type":"Feature","geometry":{"type":"Point","coordinates":[-86.132837,39.779492]}},{"properties":{"zip":"46290","geo_score":0.714,"distribution":3,"id":"a62j4eb9gog9","geo_precision":"zip"},"type":"Feature","geometry":{"type":"Point","coordinates":[-86.161824,39.933778]}},{"properties":{"zip":"46291","geo_score":0.714,"distribution":0,"id":"a62j4e9iydff","geo_precision":"zip"},"type":"Feature","geometry":{"type":"Point","coordinates":[-86.132837,39.779492]}},{"properties":{"zip":"46295","geo_score":0.714,"distribution":0,"id":"a62j4e7jgf9b","geo_precision":"zip"},"type":"Feature","geometry":{"type":"Point","coordinates":[-86.132837,39.779492]}},{"properties":{"zip":"46296","geo_score":0.714,"distribution":0,"id":"a62j4e53sy2k","geo_precision":"zip"},"type":"Feature","geometry":{"type":"Point","coordinates":[-86.158042,39.768377]}},{"properties":{"zip":"46298","geo_score":0.714,"distribution":0,"id":"a62j4ed5f8yo","geo_precision":"zip"},"type":"Feature","geometry":{"type":"Point","coordinates":[-86.132837,39.779492]}},{"properties":{"zip":"46301","geo_score":0.714,"distribution":4,"id":"a62j4eb1r0h5","geo_precision":"zip"},"type":"Feature","geometry":{"type":"Point","coordinates":[-86.975178,41.683796]}},{"properties":{"zip":"46302","geo_score":0.714,"distribution":0,"id":"a62j4e644git","geo_precision":"zip"},"type":"Feature","geometry":{"type":"Point","coordinates":[-87.130431,41.354186]}},{"properties":{"zip":"46303","geo_score":0.714,"distribution":63,"id":"a62j4e6rvy5q","geo_precision":"zip"},"type":"Feature","geometry":{"type":"Point","coordinates":[-87.517537,41.355868]}},{"properties":{"zip":"46304","geo_score":0.714,"distribution":111,"id":"a62j4egeot1u","geo_precision":"zip"},"type":"Feature","geometry":{"type":"Point","coordinates":[-87.04142,41.562817]}},{"properties":{"zip":"46307","geo_score":0.714,"distribution":352,"id":"a62j4e7an1q9","geo_precision":"zip"},"type":"Feature","geometry":{"type":"Point","coordinates":[-87.275312,41.405315]}},{"properties":{"zip":"46308","geo_score":0.714,"distribution":3,"id":"a62j4e1zwnnm","geo_precision":"zip"},"type":"Feature","geometry":{"type":"Point","coordinates":[-87.372779,41.461543]}},{"properties":{"zip":"46310","geo_score":0.714,"distribution":49,"id":"a62j4ebn8dzi","geo_precision":"zip"},"type":"Feature","geometry":{"type":"Point","coordinates":[-87.156417,41.194204]}},{"properties":{"zip":"46311","geo_score":0.714,"distribution":113,"id":"a62j4e27bn5m","geo_precision":"zip"},"type":"Feature","geometry":{"type":"Point","coordinates":[-87.52115,41.435869]}},{"properties":{"zip":"46312","geo_score":0.714,"distribution":22,"id":"a62j4e7ekpv5","geo_precision":"zip"},"type":"Feature","geometry":{"type":"Point","coordinates":[-87.46149,41.640835]}},{"properties":{"zip":"46319","geo_score":0.714,"distribution":46,"id":"a62j4e56fif9","geo_precision":"zip"},"type":"Feature","geometry":{"type":"Point","coordinates":[-87.417538,41.493092]}},{"properties":{"zip":"46320","geo_score":0.714,"distribution":11,"id":"a62j4effyk89","geo_precision":"zip"},"type":"Feature","geometry":{"type":"Point","coordinates":[-87.487242,41.444246]}},{"properties":{"zip":"46321","geo_score":0.714,"distribution":125,"id":"a62j4e4v09ff","geo_precision":"zip"},"type":"Feature","geometry":{"type":"Point","coordinates":[-87.508652,41.541424]}},{"properties":{"zip":"46322","geo_score":0.714,"distribution":81,"id":"a62j4e7mzzln","geo_precision":"zip"},"type":"Feature","geometry":{"type":"Point","coordinates":[-87.47744,41.577699]}},{"properties":{"zip":"46323","geo_score":0.714,"distribution":37,"id":"a62j4e8uedm4","geo_precision":"zip"},"type":"Feature","geometry":{"type":"Point","coordinates":[-87.461707,41.595591]}},{"properties":{"zip":"46324","geo_score":0.714,"distribution":44,"id":"a62j4e95s01o","geo_precision":"zip"},"type":"Feature","geometry":{"type":"Point","coordinates":[-87.496665,41.585185]}},{"properties":{"zip":"46325","geo_score":0.714,"distribution":1,"id":"a62j4efxhu1u","geo_precision":"zip"},"type":"Feature","geometry":{"type":"Point","coordinates":[-87.372779,41.461543]}},{"properties":{"zip":"46327","geo_score":0.714,"distribution":9,"id":"a62j4edk6ozh","geo_precision":"zip"},"type":"Feature","geometry":{"type":"Point","coordinates":[-87.49039,41.615085]}},{"properties":{"zip":"46340","geo_score":0.714,"distribution":4,"id":"a62j4egco5if","geo_precision":"zip"},"type":"Feature","geometry":{"type":"Point","coordinates":[-86.788687,41.378592]}},{"properties":{"zip":"46341","geo_score":0.714,"distribution":39,"id":"a62j4e5m60fx","geo_precision":"zip"},"type":"Feature","geometry":{"type":"Point","coordinates":[-87.2967,41.333092]}},{"properties":{"zip":"46342","geo_score":0.714,"distribution":99,"id":"a62j4e51re7p","geo_precision":"zip"},"type":"Feature","geometry":{"type":"Point","coordinates":[-87.274481,41.55837]}},{"properties":{"zip":"46345","geo_score":0.714,"distribution":0,"id":"a62j4e3sfn40","geo_precision":"zip"},"type":"Feature","geometry":{"type":"Point","coordinates":[-86.699703,41.526023]}},{"properties":{"zip":"46346","geo_score":0.714,"distribution":2,"id":"a62j4efwyz2k","geo_precision":"zip"},"type":"Feature","geometry":{"type":"Point","coordinates":[-86.691914,41.480172]}},{"properties":{"zip":"46347","geo_score":0.714,"distribution":18,"id":"a62j4e6lwah0","geo_precision":"zip"},"type":"Feature","geometry":{"type":"Point","coordinates":[-87.03586,41.332817]}},{"properties":{"zip":"46348","geo_score":0.714,"distribution":1,"id":"a62j4e4hck5w","geo_precision":"zip"},"type":"Feature","geometry":{"type":"Point","coordinates":[-86.896132,41.266707]}},{"properties":{"zip":"46349","geo_score":0.714,"distribution":6,"id":"a62j4e9vm92x","geo_precision":"zip"},"type":"Feature","geometry":{"type":"Point","coordinates":[-87.418963,41.108242]}},{"properties":{"zip":"46350","geo_score":0.714,"distribution":154,"id":"a62j4e4l568w","geo_precision":"zip"},"type":"Feature","geometry":{"type":"Point","coordinates":[-86.690024,41.716987]}},{"properties":{"zip":"46352","geo_score":0.714,"distribution":1,"id":"a62j4ea53kaq","geo_precision":"zip"},"type":"Feature","geometry":{"type":"Point","coordinates":[-86.709883,41.498992]}},{"properties":{"zip":"46355","geo_score":0.714,"distribution":0,"id":"a62j4ebj9e7x","geo_precision":"zip"},"type":"Feature","geometry":{"type":"Point","coordinates":[-87.27081,41.359415]}},{"properties":{"zip":"46356","geo_score":0.714,"distribution":84,"id":"a62j4ebs8kyc","geo_precision":"zip"},"type":"Feature","geometry":{"type":"Point","coordinates":[-87.458369,41.290035]}},{"properties":{"zip":"46360","geo_score":0.714,"distribution":107,"id":"a62j4e4b5855","geo_precision":"zip"},"type":"Feature","geometry":{"type":"Point","coordinates":[-86.845028,41.671429]}},{"properties":{"zip":"46361","geo_score":0.714,"distribution":5,"id":"a62j4e6y5zzh","geo_precision":"zip"},"type":"Feature","geometry":{"type":"Point","coordinates":[-86.915077,41.70354]}},{"properties":{"zip":"46365","geo_score":0.714,"distribution":6,"id":"a62j4e1gd789","geo_precision":"zip"},"type":"Feature","geometry":{"type":"Point","coordinates":[-86.543956,41.609081]}},{"properties":{"zip":"46366","geo_score":0.714,"distribution":21,"id":"a62j4e8xk5q9","geo_precision":"zip"},"type":"Feature","geometry":{"type":"Point","coordinates":[-86.82363,41.265874]}},{"properties":{"zip":"46368","geo_score":0.714,"distribution":140,"id":"a62j4e2poc8x","geo_precision":"zip"},"type":"Feature","geometry":{"type":"Point","coordinates":[-87.159201,41.61976]}},{"properties":{"zip":"46371","geo_score":0.714,"distribution":6,"id":"a62j4eewr9mz","geo_precision":"zip"},"type":"Feature","geometry":{"type":"Point","coordinates":[-86.624743,41.656155]}},{"properties":{"zip":"46372","geo_score":0.714,"distribution":0,"id":"a62j4efsw5jb","geo_precision":"zip"},"type":"Feature","geometry":{"type":"Point","coordinates":[-87.322049,41.143358]}},{"properties":{"zip":"46373","geo_score":0.714,"distribution":86,"id":"a62j4e0xzrt8","geo_precision":"zip"},"type":"Feature","geometry":{"type":"Point","coordinates":[-87.453086,41.453965]}},{"properties":{"zip":"46374","geo_score":0.714,"distribution":1,"id":"a62j4e8ktiq0","geo_precision":"zip"},"type":"Feature","geometry":{"type":"Point","coordinates":[-86.894188,41.256151]}},{"properties":{"zip":"46375","geo_score":0.714,"distribution":127,"id":"a62j4e1fqt98","geo_precision":"zip"},"type":"Feature","geometry":{"type":"Point","coordinates":[-87.446149,41.464203]}},{"properties":{"zip":"46376","geo_score":0.714,"distribution":1,"id":"a62j4ea4cy5k","geo_precision":"zip"},"type":"Feature","geometry":{"type":"Point","coordinates":[-87.477881,41.189953]}},{"properties":{"zip":"46377","geo_score":0.714,"distribution":0,"id":"a62j4eerdqxg","geo_precision":"zip"},"type":"Feature","geometry":{"type":"Point","coordinates":[-87.339778,41.191734]}},{"properties":{"zip":"46379","geo_score":0.714,"distribution":0,"id":"a62j4e0hvs25","geo_precision":"zip"},"type":"Feature","geometry":{"type":"Point","coordinates":[-87.43355,41.167119]}},{"properties":{"zip":"46380","geo_score":0.714,"distribution":0,"id":"a62j4ec9ow4q","geo_precision":"zip"},"type":"Feature","geometry":{"type":"Point","coordinates":[-86.973912,41.225595]}},{"properties":{"zip":"46381","geo_score":0.714,"distribution":0,"id":"a62j4e0glkw4","geo_precision":"zip"},"type":"Feature","geometry":{"type":"Point","coordinates":[-87.331323,41.17115]}},{"properties":{"zip":"46382","geo_score":0.714,"distribution":3,"id":"a62j4e25cfly","geo_precision":"zip"},"type":"Feature","geometry":{"type":"Point","coordinates":[-86.7653,41.497265]}},{"properties":{"zip":"46383","geo_score":0.714,"distribution":173,"id":"a62j4eg2iv2t","geo_precision":"zip"},"type":"Feature","geometry":{"type":"Point","coordinates":[-87.097253,41.464761]}},{"properties":{"zip":"46384","geo_score":0.714,"distribution":3,"id":"a62j4e37a64r","geo_precision":"zip"},"type":"Feature","geometry":{"type":"Point","coordinates":[-87.076094,41.490545]}},{"properties":{"zip":"46385","geo_score":0.714,"distribution":235,"id":"a62j4e4qdcxu","geo_precision":"zip"},"type":"Feature","geometry":{"type":"Point","coordinates":[-87.078309,41.470567]}},{"properties":{"zip":"46390","geo_score":0.714,"distribution":10,"id":"a62j4eb0h746","geo_precision":"zip"},"type":"Feature","geometry":{"type":"Point","coordinates":[-86.814188,41.378375]}},{"properties":{"zip":"46391","geo_score":0.714,"distribution":20,"id":"a62j4ecm2eaa","geo_precision":"zip"},"type":"Feature","geometry":{"type":"Point","coordinates":[-86.903082,41.510597]}},{"properties":{"zip":"46392","geo_score":0.714,"distribution":24,"id":"a62j4e6mpglk","geo_precision":"zip"},"type":"Feature","geometry":{"type":"Point","coordinates":[-87.137527,41.144204]}},{"properties":{"zip":"46393","geo_score":0.714,"distribution":0,"id":"a62j4ea6hvvz","geo_precision":"zip"},"type":"Feature","geometry":{"type":"Point","coordinates":[-87.179177,41.511578]}},{"properties":{"zip":"46394","geo_score":0.714,"distribution":19,"id":"a62j4e1dk47w","geo_precision":"zip"},"type":"Feature","geometry":{"type":"Point","coordinates":[-87.508099,41.683091]}},{"properties":{"zip":"46401","geo_score":0.714,"distribution":0,"id":"a62j4e4y9hak","geo_precision":"zip"},"type":"Feature","geometry":{"type":"Point","coordinates":[-86.675005,40.261147]}},{"properties":{"zip":"46402","geo_score":0.714,"distribution":6,"id":"a62j4e2wf4ql","geo_precision":"zip"},"type":"Feature","geometry":{"type":"Point","coordinates":[-87.336338,41.599336]}},{"properties":{"zip":"46403","geo_score":0.714,"distribution":36,"id":"a62j4ebc7ba4","geo_precision":"zip"},"type":"Feature","geometry":{"type":"Point","coordinates":[-87.25837,41.602259]}},{"properties":{"zip":"46404","geo_score":0.714,"distribution":24,"id":"a62j4e91micd","geo_precision":"zip"},"type":"Feature","geometry":{"type":"Point","coordinates":[-87.36615,41.593092]}},{"properties":{"zip":"46405","geo_score":0.714,"distribution":16,"id":"a62j4ee02goq","geo_precision":"zip"},"type":"Feature","geometry":{"type":"Point","coordinates":[-87.354587,41.555785]}},{"properties":{"zip":"46406","geo_score":0.714,"distribution":0,"id":"a62j4e2o5jq3","geo_precision":"zip"},"type":"Feature","geometry":{"type":"Point","coordinates":[-87.39365,41.566147]}},{"properties":{"zip":"46407","geo_score":0.714,"distribution":7,"id":"a62j4ecey1zd","geo_precision":"zip"},"type":"Feature","geometry":{"type":"Point","coordinates":[-87.319987,41.578886]}},{"properties":{"zip":"46408","geo_score":0.714,"distribution":21,"id":"a62j4e6am7id","geo_precision":"zip"},"type":"Feature","geometry":{"type":"Point","coordinates":[-87.294759,41.552537]}},{"properties":{"zip":"46409","geo_score":0.714,"distribution":6,"id":"a62j4e0p8c5h","geo_precision":"zip"},"type":"Feature","geometry":{"type":"Point","coordinates":[-87.304186,41.545636]}},{"properties":{"zip":"46410","geo_score":0.714,"distribution":119,"id":"a62j4ec2jg6i","geo_precision":"zip"},"type":"Feature","geometry":{"type":"Point","coordinates":[-87.34337,41.495314]}},{"properties":{"zip":"46411","geo_score":0.714,"distribution":1,"id":"a62j4e4g0rr2","geo_precision":"zip"},"type":"Feature","geometry":{"type":"Point","coordinates":[-87.372779,41.461543]}},{"properties":{"zip":"46501","geo_score":0.714,"distribution":4,"id":"a62j4edwac56","geo_precision":"zip"},"type":"Feature","geometry":{"type":"Point","coordinates":[-86.211946,41.176154]}},{"properties":{"zip":"46502","geo_score":0.714,"distribution":0,"id":"a62j4ed4ge97","geo_precision":"zip"},"type":"Feature","geometry":{"type":"Point","coordinates":[-85.969708,41.254035]}},{"properties":{"zip":"46504","geo_score":0.714,"distribution":5,"id":"a62j4e0sju2o","geo_precision":"zip"},"type":"Feature","geometry":{"type":"Point","coordinates":[-86.150818,41.323904]}},{"properties":{"zip":"46506","geo_score":0.714,"distribution":18,"id":"a62j4e8igtyc","geo_precision":"zip"},"type":"Feature","geometry":{"type":"Point","coordinates":[-86.242235,41.40577]}},{"properties":{"zip":"46507","geo_score":0.714,"distribution":32,"id":"a62j4e8fvz97","geo_precision":"zip"},"type":"Feature","geometry":{"type":"Point","coordinates":[-85.728047,41.749217]}},{"properties":{"zip":"46508","geo_score":0.714,"distribution":0,"id":"a62j4ebrcyd9","geo_precision":"zip"},"type":"Feature","geometry":{"type":"Point","coordinates":[-85.969282,41.154726]}},{"properties":{"zip":"46510","geo_score":0.714,"distribution":3,"id":"a62j4edu8b8d","geo_precision":"zip"},"type":"Feature","geometry":{"type":"Point","coordinates":[-86.018884,41.12921]}},{"properties":{"zip":"46511","geo_score":0.714,"distribution":10,"id":"a62j4e8mw8rh","geo_precision":"zip"},"type":"Feature","geometry":{"type":"Point","coordinates":[-86.486121,41.28782]}},{"properties":{"zip":"46513","geo_score":0.714,"distribution":0,"id":"a62j4e11hcg6","geo_precision":"zip"},"type":"Feature","geometry":{"type":"Point","coordinates":[-86.444254,41.361903]}},{"properties":{"zip":"46514","geo_score":0.714,"distribution":117,"id":"a62j4e7a52bq","geo_precision":"zip"},"type":"Feature","geometry":{"type":"Point","coordinates":[-85.975001,41.754216]}},{"properties":{"zip":"46515","geo_score":0.714,"distribution":1,"id":"a62j4eb8rj08","geo_precision":"zip"},"type":"Feature","geometry":{"type":"Point","coordinates":[-85.938348,41.641449]}},{"properties":{"zip":"46516","geo_score":0.714,"distribution":55,"id":"a62j4e4vjch6","geo_precision":"zip"},"type":"Feature","geometry":{"type":"Point","coordinates":[-85.897236,41.620856]}},{"properties":{"zip":"46517","geo_score":0.714,"distribution":32,"id":"a62j4eftsqay","geo_precision":"zip"},"type":"Feature","geometry":{"type":"Point","coordinates":[-85.921665,41.637827]}},{"properties":{"zip":"46524","geo_score":0.714,"distribution":1,"id":"a62j4edh6oxa","geo_precision":"zip"},"type":"Feature","geometry":{"type":"Point","coordinates":[-85.99843,41.296306]}},{"properties":{"zip":"46526","geo_score":0.714,"distribution":43,"id":"a62j4efv63ho","geo_precision":"zip"},"type":"Feature","geometry":{"type":"Point","coordinates":[-85.830549,41.543105]}},{"properties":{"zip":"46527","geo_score":0.714,"distribution":0,"id":"a62j4e9ulnc0","geo_precision":"zip"},"type":"Feature","geometry":{"type":"Point","coordinates":[-85.858076,41.597739]}},{"properties":{"zip":"46528","geo_score":0.714,"distribution":55,"id":"a62j4ecfi291","geo_precision":"zip"},"type":"Feature","geometry":{"type":"Point","coordinates":[-85.839139,41.624763]}},{"properties":{"zip":"46530","geo_score":0.714,"distribution":155,"id":"a62j4ec3z2dg","geo_precision":"zip"},"type":"Feature","geometry":{"type":"Point","coordinates":[-86.139868,41.734912]}},{"properties":{"zip":"46531","geo_score":0.714,"distribution":1,"id":"a62j4e3u8pbd","geo_precision":"zip"},"type":"Feature","geometry":{"type":"Point","coordinates":[-86.524321,41.34963]}},{"properties":{"zip":"46532","geo_score":0.714,"distribution":2,"id":"a62j4ebo7xqf","geo_precision":"zip"},"type":"Feature","geometry":{"type":"Point","coordinates":[-86.682519,41.485321]}},{"properties":{"zip":"46534","geo_score":0.714,"distribution":41,"id":"a62j4edw1iou","geo_precision":"zip"},"type":"Feature","geometry":{"type":"Point","coordinates":[-86.569456,41.236153]}},{"properties":{"zip":"46536","geo_score":0.714,"distribution":8,"id":"a62j4e8fprod","geo_precision":"zip"},"type":"Feature","geometry":{"type":"Point","coordinates":[-86.270086,41.526373]}},{"properties":{"zip":"46537","geo_score":0.714,"distribution":0,"id":"a62j4e9idbep","geo_precision":"zip"},"type":"Feature","geometry":{"type":"Point","coordinates":[-86.309368,41.455431]}},{"properties":{"zip":"46538","geo_score":0.714,"distribution":17,"id":"a62j4eapc1my","geo_precision":"zip"},"type":"Feature","geometry":{"type":"Point","coordinates":[-85.753322,41.329491]}},{"properties":{"zip":"46539","geo_score":0.714,"distribution":2,"id":"a62j4e6g70zw","geo_precision":"zip"},"type":"Feature","geometry":{"type":"Point","coordinates":[-85.949716,41.178378]}},{"properties":{"zip":"46540","geo_score":0.714,"distribution":28,"id":"a62j4e44qdyo","geo_precision":"zip"},"type":"Feature","geometry":{"type":"Point","coordinates":[-85.831327,41.646192]}},{"properties":{"zip":"46542","geo_score":0.714,"distribution":11,"id":"a62j4e6tgoz1","geo_precision":"zip"},"type":"Feature","geometry":{"type":"Point","coordinates":[-85.841937,41.428381]}},{"properties":{"zip":"46543","geo_score":0.714,"distribution":4,"id":"a62j4ecpw85m","geo_precision":"zip"},"type":"Feature","geometry":{"type":"Point","coordinates":[-85.601653,41.581717]}},{"properties":{"zip":"46544","geo_score":0.714,"distribution":70,"id":"a62j4ebuhopg","geo_precision":"zip"},"type":"Feature","geometry":{"type":"Point","coordinates":[-86.287884,41.61536]}},{"properties":{"zip":"46545","geo_score":0.714,"distribution":60,"id":"a62j4e45u87m","geo_precision":"zip"},"type":"Feature","geometry":{"type":"Point","coordinates":[-86.304735,41.696407]}},{"properties":{"zip":"46546","geo_score":0.714,"distribution":4,"id":"a62j4eaptmjt","geo_precision":"zip"},"type":"Feature","geometry":{"type":"Point","coordinates":[-86.196485,41.688432]}},{"properties":{"zip":"46550","geo_score":0.714,"distribution":17,"id":"a62j4ebpv5wr","geo_precision":"zip"},"type":"Feature","geometry":{"type":"Point","coordinates":[-86.012221,41.471715]}},{"properties":{"zip":"46552","geo_score":0.714,"distribution":14,"id":"a62j4e2tnecx","geo_precision":"zip"},"type":"Feature","geometry":{"type":"Point","coordinates":[-86.549741,41.704767]}},{"properties":{"zip":"46553","geo_score":0.714,"distribution":11,"id":"a62j4eg2m2s3","geo_precision":"zip"},"type":"Feature","geometry":{"type":"Point","coordinates":[-85.817215,41.516994]}},{"properties":{"zip":"46554","geo_score":0.714,"distribution":7,"id":"a62j4egb8ep1","geo_precision":"zip"},"type":"Feature","geometry":{"type":"Point","coordinates":[-86.408068,41.624213]}},{"properties":{"zip":"46555","geo_score":0.714,"distribution":8,"id":"a62j4e7659qn","geo_precision":"zip"},"type":"Feature","geometry":{"type":"Point","coordinates":[-85.678875,41.321713]}},{"properties":{"zip":"46556","geo_score":0.714,"distribution":0,"id":"a62j4e7qvowy","geo_precision":"zip"},"type":"Feature","geometry":{"type":"Point","coordinates":[-86.292991,41.596769]}},{"properties":{"zip":"46561","geo_score":0.714,"distribution":47,"id":"a62j4ea5i2g7","geo_precision":"zip"},"type":"Feature","geometry":{"type":"Point","coordinates":[-86.074447,41.694215]}},{"properties":{"zip":"46562","geo_score":0.714,"distribution":3,"id":"a62j4e3eq7l2","geo_precision":"zip"},"type":"Feature","geometry":{"type":"Point","coordinates":[-85.742765,41.209212]}},{"properties":{"zip":"46563","geo_score":0.714,"distribution":64,"id":"a62j4edoga5q","geo_precision":"zip"},"type":"Feature","geometry":{"type":"Point","coordinates":[-86.357229,41.30421]}},{"properties":{"zip":"46565","geo_score":0.714,"distribution":8,"id":"a62j4eaji16p","geo_precision":"zip"},"type":"Feature","geometry":{"type":"Point","coordinates":[-85.55693,41.733662]}},{"properties":{"zip":"46567","geo_score":0.714,"distribution":49,"id":"a62j4efvu27x","geo_precision":"zip"},"type":"Feature","geometry":{"type":"Point","coordinates":[-85.692487,41.387548]}},{"properties":{"zip":"46570","geo_score":0.714,"distribution":1,"id":"a62j4e4gyadg","geo_precision":"zip"},"type":"Feature","geometry":{"type":"Point","coordinates":[-86.115277,41.223655]}},{"properties":{"zip":"46571","geo_score":0.714,"distribution":2,"id":"a62j4e4ej2hg","geo_precision":"zip"},"type":"Feature","geometry":{"type":"Point","coordinates":[-85.541095,41.611161]}},{"properties":{"zip":"46572","geo_score":0.714,"distribution":0,"id":"a62j4ebwzvde","geo_precision":"zip"},"type":"Feature","geometry":{"type":"Point","coordinates":[-86.260569,41.325513]}},{"properties":{"zip":"46573","geo_score":0.714,"distribution":7,"id":"a62j4e8h7ejt","geo_precision":"zip"},"type":"Feature","geometry":{"type":"Point","coordinates":[-85.882695,41.58574]}},{"properties":{"zip":"46574","geo_score":0.714,"distribution":24,"id":"a62j4e3yaf7b","geo_precision":"zip"},"type":"Feature","geometry":{"type":"Point","coordinates":[-86.377509,41.465046]}},{"properties":{"zip":"46580","geo_score":0.714,"distribution":60,"id":"a62j4efm83dk","geo_precision":"zip"},"type":"Feature","geometry":{"type":"Point","coordinates":[-85.776656,41.285045]}},{"properties":{"zip":"46581","geo_score":0.714,"distribution":2,"id":"a62j4eg526jf","geo_precision":"zip"},"type":"Feature","geometry":{"type":"Point","coordinates":[-85.864267,41.239365]}},{"properties":{"zip":"46582","geo_score":0.714,"distribution":18,"id":"a62j4e58ny2s","geo_precision":"zip"},"type":"Feature","geometry":{"type":"Point","coordinates":[-85.849508,41.254225]}},{"properties":{"zip":"46590","geo_score":0.714,"distribution":13,"id":"a62j4eeavls4","geo_precision":"zip"},"type":"Feature","geometry":{"type":"Point","coordinates":[-85.826346,41.232725]}},{"properties":{"zip":"46595","geo_score":0.714,"distribution":0,"id":"a62j4e451kyh","geo_precision":"zip"},"type":"Feature","geometry":{"type":"Point","coordinates":[-86.165227,41.518136]}},{"properties":{"zip":"46601","geo_score":0.714,"distribution":6,"id":"a62j4e54dhol","geo_precision":"zip"},"type":"Feature","geometry":{"type":"Point","coordinates":[-86.251654,41.673383]}},{"properties":{"zip":"46604","geo_score":0.714,"distribution":0,"id":"a62j4e1oun6e","geo_precision":"zip"},"type":"Feature","geometry":{"type":"Point","coordinates":[-86.221805,41.664198]}},{"properties":{"zip":"46613","geo_score":0.714,"distribution":8,"id":"a62j4eedaync","geo_precision":"zip"},"type":"Feature","geometry":{"type":"Point","coordinates":[-86.255696,41.656573]}},{"properties":{"zip":"46614","geo_score":0.714,"distribution":75,"id":"a62j4efelide","geo_precision":"zip"},"type":"Feature","geometry":{"type":"Point","coordinates":[-86.236117,41.598937]}},{"properties":{"zip":"46615","geo_score":0.714,"distribution":39,"id":"a62j4edvku5s","geo_precision":"zip"},"type":"Feature","geometry":{"type":"Point","coordinates":[-86.216105,41.677046]}},{"properties":{"zip":"46616","geo_score":0.714,"distribution":8,"id":"a62j4edqzfub","geo_precision":"zip"},"type":"Feature","geometry":{"type":"Point","coordinates":[-86.264293,41.695957]}},{"properties":{"zip":"46617","geo_score":0.714,"distribution":21,"id":"a62j4ebdvcat","geo_precision":"zip"},"type":"Feature","geometry":{"type":"Point","coordinates":[-86.238906,41.682897]}},{"properties":{"zip":"46619","geo_score":0.714,"distribution":23,"id":"a62j4e2ci4vw","geo_precision":"zip"},"type":"Feature","geometry":{"type":"Point","coordinates":[-86.177226,41.564493]}},{"properties":{"zip":"46620","geo_score":0.714,"distribution":0,"id":"a62j4e7d4nqn","geo_precision":"zip"},"type":"Feature","geometry":{"type":"Point","coordinates":[-86.292991,41.596769]}},{"properties":{"zip":"46624","geo_score":0.714,"distribution":9,"id":"a62j4e0dqm18","geo_precision":"zip"},"type":"Feature","geometry":{"type":"Point","coordinates":[-86.251673,41.61977]}},{"properties":{"zip":"46626","geo_score":0.714,"distribution":0,"id":"a62j4ecwy6b5","geo_precision":"zip"},"type":"Feature","geometry":{"type":"Point","coordinates":[-86.252506,41.677397]}},{"properties":{"zip":"46628","geo_score":0.714,"distribution":51,"id":"a62j4e2u28lv","geo_precision":"zip"},"type":"Feature","geometry":{"type":"Point","coordinates":[-86.380012,41.69338]}},{"properties":{"zip":"46634","geo_score":0.714,"distribution":1,"id":"a62j4e3nbjyr","geo_precision":"zip"},"type":"Feature","geometry":{"type":"Point","coordinates":[-86.292991,41.596769]}},{"properties":{"zip":"46635","geo_score":0.714,"distribution":30,"id":"a62j4eeysuqs","geo_precision":"zip"},"type":"Feature","geometry":{"type":"Point","coordinates":[-86.21695,41.700048]}},{"properties":{"zip":"46637","geo_score":0.714,"distribution":51,"id":"a62j4ebfaetl","geo_precision":"zip"},"type":"Feature","geometry":{"type":"Point","coordinates":[-86.252507,41.716159]}},{"properties":{"zip":"46660","geo_score":0.714,"distribution":2,"id":"a62j4ee5iq0j","geo_precision":"zip"},"type":"Feature","geometry":{"type":"Point","coordinates":[-86.292991,41.596769]}},{"properties":{"zip":"46680","geo_score":0.714,"distribution":1,"id":"a62j4egh85k0","geo_precision":"zip"},"type":"Feature","geometry":{"type":"Point","coordinates":[-86.292991,41.596769]}},{"properties":{"zip":"46699","geo_score":0.714,"distribution":0,"id":"a62j4e8qcc3o","geo_precision":"zip"},"type":"Feature","geometry":{"type":"Point","coordinates":[-86.292991,41.596769]}},{"properties":{"zip":"46701","geo_score":0.714,"distribution":25,"id":"a62j4e6i05yx","geo_precision":"zip"},"type":"Feature","geometry":{"type":"Point","coordinates":[-85.434424,41.28727]}},{"properties":{"zip":"46702","geo_score":0.714,"distribution":8,"id":"a62j4ecr4ng0","geo_precision":"zip"},"type":"Feature","geometry":{"type":"Point","coordinates":[-85.597862,40.820278]}},{"properties":{"zip":"46703","geo_score":0.714,"distribution":69,"id":"a62j4eb7q1q7","geo_precision":"zip"},"type":"Feature","geometry":{"type":"Point","coordinates":[-84.822458,41.688383]}},{"properties":{"zip":"46704","geo_score":0.714,"distribution":1,"id":"a62j4ed066km","geo_precision":"zip"},"type":"Feature","geometry":{"type":"Point","coordinates":[-85.292474,41.103797]}},{"properties":{"zip":"46705","geo_score":0.714,"distribution":2,"id":"a62j4een9pez","geo_precision":"zip"},"type":"Feature","geometry":{"type":"Point","coordinates":[-85.022744,41.532273]}},{"properties":{"zip":"46706","geo_score":0.714,"distribution":58,"id":"a62j4eg5x9o8","geo_precision":"zip"},"type":"Feature","geometry":{"type":"Point","coordinates":[-85.074691,41.351994]}},{"properties":{"zip":"46710","geo_score":0.714,"distribution":9,"id":"a62j4e6h0jer","geo_precision":"zip"},"type":"Feature","geometry":{"type":"Point","coordinates":[-85.391019,41.368123]}},{"properties":{"zip":"46711","geo_score":0.714,"distribution":11,"id":"a62j4eei3gj5","geo_precision":"zip"},"type":"Feature","geometry":{"type":"Point","coordinates":[-84.934331,40.671628]}},{"properties":{"zip":"46713","geo_score":0.714,"distribution":0,"id":"a62j4ecfrmc3","geo_precision":"zip"},"type":"Feature","geometry":{"type":"Point","coordinates":[-85.489198,40.829196]}},{"properties":{"zip":"46714","geo_score":0.714,"distribution":44,"id":"a62j4ef00x0h","geo_precision":"zip"},"type":"Feature","geometry":{"type":"Point","coordinates":[-85.079136,40.701158]}},{"properties":{"zip":"46721","geo_score":0.714,"distribution":8,"id":"a62j4e3pmrr3","geo_precision":"zip"},"type":"Feature","geometry":{"type":"Point","coordinates":[-84.844961,41.348662]}},{"properties":{"zip":"46723","geo_score":0.714,"distribution":17,"id":"a62j4e1nuq7t","geo_precision":"zip"},"type":"Feature","geometry":{"type":"Point","coordinates":[-85.249419,41.26366]}},{"properties":{"zip":"46725","geo_score":0.714,"distribution":68,"id":"a62j4eex6bwy","geo_precision":"zip"},"type":"Feature","geometry":{"type":"Point","coordinates":[-85.509423,41.048379]}},{"properties":{"zip":"46730","geo_score":0.714,"distribution":3,"id":"a62j4eg1szd2","geo_precision":"zip"},"type":"Feature","geometry":{"type":"Point","coordinates":[-85.128026,41.48255]}},{"properties":{"zip":"46731","geo_score":0.714,"distribution":1,"id":"a62j4e0qy9m0","geo_precision":"zip"},"type":"Feature","geometry":{"type":"Point","coordinates":[-85.071913,40.786436]}},{"properties":{"zip":"46732","geo_score":0.714,"distribution":6,"id":"a62j4e2ly5hy","geo_precision":"zip"},"type":"Feature","geometry":{"type":"Point","coordinates":[-85.63943,41.365881]}},{"properties":{"zip":"46733","geo_score":0.714,"distribution":40,"id":"a62j4ee5m4f8","geo_precision":"zip"},"type":"Feature","geometry":{"type":"Point","coordinates":[-84.975245,40.918937]}},{"properties":{"zip":"46737","geo_score":0.714,"distribution":27,"id":"a62j4e6sf38x","geo_precision":"zip"},"type":"Feature","geometry":{"type":"Point","coordinates":[-84.871904,41.759772]}},{"properties":{"zip":"46738","geo_score":0.714,"distribution":12,"id":"a62j4e62kc3i","geo_precision":"zip"},"type":"Feature","geometry":{"type":"Point","coordinates":[-85.113582,41.308661]}},{"properties":{"zip":"46740","geo_score":0.714,"distribution":6,"id":"a62j4e2ivev9","geo_precision":"zip"},"type":"Feature","geometry":{"type":"Point","coordinates":[-84.953301,40.606713]}},{"properties":{"zip":"46741","geo_score":0.714,"distribution":5,"id":"a62j4e1f06pp","geo_precision":"zip"},"type":"Feature","geometry":{"type":"Point","coordinates":[-84.865519,41.231994]}},{"properties":{"zip":"46742","geo_score":0.714,"distribution":20,"id":"a62j4e4tvfny","geo_precision":"zip"},"type":"Feature","geometry":{"type":"Point","coordinates":[-84.924129,41.553939]}},{"properties":{"zip":"46743","geo_score":0.714,"distribution":10,"id":"a62j4eby0lme","geo_precision":"zip"},"type":"Feature","geometry":{"type":"Point","coordinates":[-84.987882,41.227324]}},{"properties":{"zip":"46745","geo_score":0.714,"distribution":3,"id":"a62j4e13j8bv","geo_precision":"zip"},"type":"Feature","geometry":{"type":"Point","coordinates":[-85.002148,40.957347]}},{"properties":{"zip":"46746","geo_score":0.714,"distribution":6,"id":"a62j4e291zk9","geo_precision":"zip"},"type":"Feature","geometry":{"type":"Point","coordinates":[-85.382479,41.702273]}},{"properties":{"zip":"46747","geo_score":0.714,"distribution":6,"id":"a62j4ed5ol77","geo_precision":"zip"},"type":"Feature","geometry":{"type":"Point","coordinates":[-85.139693,41.58505]}},{"properties":{"zip":"46748","geo_score":0.714,"distribution":31,"id":"a62j4eg0zo3a","geo_precision":"zip"},"type":"Feature","geometry":{"type":"Point","coordinates":[-85.159437,41.237988]}},{"properties":{"zip":"46750","geo_score":0.714,"distribution":52,"id":"a62j4eaksmec","geo_precision":"zip"},"type":"Feature","geometry":{"type":"Point","coordinates":[-85.41303,40.855046]}},{"properties":{"zip":"46755","geo_score":0.714,"distribution":38,"id":"a62j4e7dfmic","geo_precision":"zip"},"type":"Feature","geometry":{"type":"Point","coordinates":[-85.250808,41.481717]}},{"properties":{"zip":"46759","geo_score":0.714,"distribution":0,"id":"a62j4ed1dpzb","geo_precision":"zip"},"type":"Feature","geometry":{"type":"Point","coordinates":[-85.205635,40.603317]}},{"properties":{"zip":"46760","geo_score":0.714,"distribution":3,"id":"a62j4efryuox","geo_precision":"zip"},"type":"Feature","geometry":{"type":"Point","coordinates":[-85.543448,41.369423]}},{"properties":{"zip":"46761","geo_score":0.714,"distribution":20,"id":"a62j4e4t4ma3","geo_precision":"zip"},"type":"Feature","geometry":{"type":"Point","coordinates":[-85.386923,41.590328]}},{"properties":{"zip":"46763","geo_score":0.714,"distribution":5,"id":"a62j4e13otum","geo_precision":"zip"},"type":"Feature","geometry":{"type":"Point","coordinates":[-85.212474,41.315882]}},{"properties":{"zip":"46764","geo_score":0.714,"distribution":5,"id":"a62j4e7yroqv","geo_precision":"zip"},"type":"Feature","geometry":{"type":"Point","coordinates":[-85.591994,41.206938]}},{"properties":{"zip":"46765","geo_score":0.714,"distribution":31,"id":"a62j4effx92e","geo_precision":"zip"},"type":"Feature","geometry":{"type":"Point","coordinates":[-85.016635,41.212549]}},{"properties":{"zip":"46766","geo_score":0.714,"distribution":3,"id":"a62j4edjpshl","geo_precision":"zip"},"type":"Feature","geometry":{"type":"Point","coordinates":[-85.278222,40.698551]}},{"properties":{"zip":"46767","geo_score":0.714,"distribution":8,"id":"a62j4e6jasd2","geo_precision":"zip"},"type":"Feature","geometry":{"type":"Point","coordinates":[-85.42573,41.405478]}},{"properties":{"zip":"46769","geo_score":0.714,"distribution":0,"id":"a62j4e8pwlgd","geo_precision":"zip"},"type":"Feature","geometry":{"type":"Point","coordinates":[-84.937926,40.74532]}},{"properties":{"zip":"46770","geo_score":0.714,"distribution":6,"id":"a62j4ecgn9q7","geo_precision":"zip"},"type":"Feature","geometry":{"type":"Point","coordinates":[-85.354611,40.862309]}},{"properties":{"zip":"46771","geo_score":0.714,"distribution":2,"id":"a62j4e1zqmuu","geo_precision":"zip"},"type":"Feature","geometry":{"type":"Point","coordinates":[-85.267567,41.665489]}},{"properties":{"zip":"46772","geo_score":0.714,"distribution":2,"id":"a62j4ecub5js","geo_precision":"zip"},"type":"Feature","geometry":{"type":"Point","coordinates":[-84.956912,40.745047]}},{"properties":{"zip":"46773","geo_score":0.714,"distribution":5,"id":"a62j4e8x9vvs","geo_precision":"zip"},"type":"Feature","geometry":{"type":"Point","coordinates":[-84.892187,41.036993]}},{"properties":{"zip":"46774","geo_score":0.714,"distribution":42,"id":"a62j4e5qfwuh","geo_precision":"zip"},"type":"Feature","geometry":{"type":"Point","coordinates":[-85.004135,41.120049]}},{"properties":{"zip":"46776","geo_score":0.714,"distribution":1,"id":"a62j4e5uynfo","geo_precision":"zip"},"type":"Feature","geometry":{"type":"Point","coordinates":[-85.140168,41.71364]}},{"properties":{"zip":"46777","geo_score":0.714,"distribution":11,"id":"a62j4e1lmd9e","geo_precision":"zip"},"type":"Feature","geometry":{"type":"Point","coordinates":[-85.177193,40.830047]}},{"properties":{"zip":"46778","geo_score":0.714,"distribution":0,"id":"a62j4e5iijro","geo_precision":"zip"},"type":"Feature","geometry":{"type":"Point","coordinates":[-85.152604,40.611419]}},{"properties":{"zip":"46779","geo_score":0.714,"distribution":5,"id":"a62j4eexl4s6","geo_precision":"zip"},"type":"Feature","geometry":{"type":"Point","coordinates":[-85.031873,41.577443]}},{"properties":{"zip":"46780","geo_score":0.714,"distribution":0,"id":"a62j4e1m3hou","geo_precision":"zip"},"type":"Feature","geometry":{"type":"Point","coordinates":[-84.937926,40.74532]}},{"properties":{"zip":"46781","geo_score":0.714,"distribution":3,"id":"a62j4edxdhwe","geo_precision":"zip"},"type":"Feature","geometry":{"type":"Point","coordinates":[-85.259163,40.639684]}},{"properties":{"zip":"46782","geo_score":0.714,"distribution":0,"id":"a62j4edhc6xq","geo_precision":"zip"},"type":"Feature","geometry":{"type":"Point","coordinates":[-85.005402,40.83204]}},{"properties":{"zip":"46783","geo_score":0.714,"distribution":32,"id":"a62j4e2h8wqa","geo_precision":"zip"},"type":"Feature","geometry":{"type":"Point","coordinates":[-85.318029,41.000881]}},{"properties":{"zip":"46784","geo_score":0.714,"distribution":6,"id":"a62j4e1iqdyx","geo_precision":"zip"},"type":"Feature","geometry":{"type":"Point","coordinates":[-85.401402,41.401296]}},{"properties":{"zip":"46785","geo_score":0.714,"distribution":5,"id":"a62j4ecyevwu","geo_precision":"zip"},"type":"Feature","geometry":{"type":"Point","coordinates":[-84.945243,41.326161]}},{"properties":{"zip":"46786","geo_score":0.714,"distribution":0,"id":"a62j4e42y5b2","geo_precision":"zip"},"type":"Feature","geometry":{"type":"Point","coordinates":[-85.319241,41.536899]}},{"properties":{"zip":"46787","geo_score":0.714,"distribution":7,"id":"a62j4e84x6zp","geo_precision":"zip"},"type":"Feature","geometry":{"type":"Point","coordinates":[-85.55748,41.048657]}},{"properties":{"zip":"46788","geo_score":0.714,"distribution":10,"id":"a62j4e9j6rto","geo_precision":"zip"},"type":"Feature","geometry":{"type":"Point","coordinates":[-84.902416,41.302927]}},{"properties":{"zip":"46789","geo_score":0.714,"distribution":1,"id":"a62j4edr3kiz","geo_precision":"zip"},"type":"Feature","geometry":{"type":"Point","coordinates":[-85.199186,41.583493]}},{"properties":{"zip":"46791","geo_score":0.714,"distribution":4,"id":"a62j4e0l8xsb","geo_precision":"zip"},"type":"Feature","geometry":{"type":"Point","coordinates":[-85.270039,40.859358]}},{"properties":{"zip":"46792","geo_score":0.714,"distribution":3,"id":"a62j4e073pup","geo_precision":"zip"},"type":"Feature","geometry":{"type":"Point","coordinates":[-85.392473,40.742268]}},{"properties":{"zip":"46793","geo_score":0.714,"distribution":5,"id":"a62j4e07eomc","geo_precision":"zip"},"type":"Feature","geometry":{"type":"Point","coordinates":[-85.099414,41.436439]}},{"properties":{"zip":"46794","geo_score":0.714,"distribution":0,"id":"a62j4eciwouw","geo_precision":"zip"},"type":"Feature","geometry":{"type":"Point","coordinates":[-85.474148,41.480883]}},{"properties":{"zip":"46795","geo_score":0.714,"distribution":16,"id":"a62j4e9t5xt3","geo_precision":"zip"},"type":"Feature","geometry":{"type":"Point","coordinates":[-85.328866,41.573383]}},{"properties":{"zip":"46796","geo_score":0.714,"distribution":0,"id":"a62j4e9ch6xq","geo_precision":"zip"},"type":"Feature","geometry":{"type":"Point","coordinates":[-85.500246,41.336115]}},{"properties":{"zip":"46797","geo_score":0.714,"distribution":11,"id":"a62j4egafakr","geo_precision":"zip"},"type":"Feature","geometry":{"type":"Point","coordinates":[-84.940244,41.123382]}},{"properties":{"zip":"46798","geo_score":0.714,"distribution":3,"id":"a62j4ebfou53","geo_precision":"zip"},"type":"Feature","geometry":{"type":"Point","coordinates":[-85.086518,41.009498]}},{"properties":{"zip":"46799","geo_score":0.714,"distribution":1,"id":"a62j4e3gh5b2","geo_precision":"zip"},"type":"Feature","geometry":{"type":"Point","coordinates":[-85.282422,40.918797]}},{"properties":{"zip":"46801","geo_score":0.714,"distribution":0,"id":"a62j4eahq5uz","geo_precision":"zip"},"type":"Feature","geometry":{"type":"Point","coordinates":[-85.070713,41.093763]}},{"properties":{"zip":"46802","geo_score":0.714,"distribution":14,"id":"a62j4e4ytpvv","geo_precision":"zip"},"type":"Feature","geometry":{"type":"Point","coordinates":[-85.15842,41.065397]}},{"properties":{"zip":"46803","geo_score":0.714,"distribution":2,"id":"a62j4e752rd8","geo_precision":"zip"},"type":"Feature","geometry":{"type":"Point","coordinates":[-85.06608,41.065326]}},{"properties":{"zip":"46804","geo_score":0.714,"distribution":126,"id":"a62j4e3ng9fd","geo_precision":"zip"},"type":"Feature","geometry":{"type":"Point","coordinates":[-85.210528,41.069215]}},{"properties":{"zip":"46805","geo_score":0.714,"distribution":47,"id":"a62j4e149ewc","geo_precision":"zip"},"type":"Feature","geometry":{"type":"Point","coordinates":[-85.134971,41.123104]}},{"properties":{"zip":"46806","geo_score":0.714,"distribution":21,"id":"a62j4e8d7fc8","geo_precision":"zip"},"type":"Feature","geometry":{"type":"Point","coordinates":[-85.082319,41.049248]}},{"properties":{"zip":"46807","geo_score":0.714,"distribution":31,"id":"a62j4e1yn6hv","geo_precision":"zip"},"type":"Feature","geometry":{"type":"Point","coordinates":[-85.14682,41.042342]}},{"properties":{"zip":"46808","geo_score":0.714,"distribution":31,"id":"a62j4e8yx46c","geo_precision":"zip"},"type":"Feature","geometry":{"type":"Point","coordinates":[-85.184121,41.093898]}},{"properties":{"zip":"46809","geo_score":0.714,"distribution":15,"id":"a62j4ebdgp3u","geo_precision":"zip"},"type":"Feature","geometry":{"type":"Point","coordinates":[-85.175527,41.021992]}},{"properties":{"zip":"46814","geo_score":0.714,"distribution":84,"id":"a62j4e1caf5b","geo_precision":"zip"},"type":"Feature","geometry":{"type":"Point","coordinates":[-85.305823,41.045647]}},{"properties":{"zip":"46815","geo_score":0.714,"distribution":88,"id":"a62j4e4dybt9","geo_precision":"zip"},"type":"Feature","geometry":{"type":"Point","coordinates":[-85.095248,41.13116]}},{"properties":{"zip":"46816","geo_score":0.714,"distribution":17,"id":"a62j4e1rt6ci","geo_precision":"zip"},"type":"Feature","geometry":{"type":"Point","coordinates":[-84.969133,41.012826]}},{"properties":{"zip":"46818","geo_score":0.714,"distribution":54,"id":"a62j4ebn085i","geo_precision":"zip"},"type":"Feature","geometry":{"type":"Point","coordinates":[-85.166083,41.16116]}},{"properties":{"zip":"46819","geo_score":0.714,"distribution":12,"id":"a62j4eftxabh","geo_precision":"zip"},"type":"Feature","geometry":{"type":"Point","coordinates":[-85.086914,40.935881]}},{"properties":{"zip":"46825","geo_score":0.714,"distribution":86,"id":"a62j4e88f9b0","geo_precision":"zip"},"type":"Feature","geometry":{"type":"Point","coordinates":[-85.154138,41.136437]}},{"properties":{"zip":"46835","geo_score":0.714,"distribution":135,"id":"a62j4efkt3ap","geo_precision":"zip"},"type":"Feature","geometry":{"type":"Point","coordinates":[-85.071914,41.15616]}},{"properties":{"zip":"46845","geo_score":0.714,"distribution":141,"id":"a62j4eeudotv","geo_precision":"zip"},"type":"Feature","geometry":{"type":"Point","coordinates":[-85.084581,41.095957]}},{"properties":{"zip":"46850","geo_score":0.714,"distribution":0,"id":"a62j4ecptpcc","geo_precision":"zip"},"type":"Feature","geometry":{"type":"Point","coordinates":[-85.070713,41.093763]}},{"properties":{"zip":"46851","geo_score":0.714,"distribution":0,"id":"a62j4e10m2wp","geo_precision":"zip"},"type":"Feature","geometry":{"type":"Point","coordinates":[-85.070713,41.093763]}},{"properties":{"zip":"46852","geo_score":0.714,"distribution":0,"id":"a62j4ecc70n5","geo_precision":"zip"},"type":"Feature","geometry":{"type":"Point","coordinates":[-85.070713,41.093763]}},{"properties":{"zip":"46853","geo_score":0.714,"distribution":0,"id":"a62j4e0e2q1k","geo_precision":"zip"},"type":"Feature","geometry":{"type":"Point","coordinates":[-85.070713,41.093763]}},{"properties":{"zip":"46854","geo_score":0.714,"distribution":0,"id":"a62j4e4e6fkr","geo_precision":"zip"},"type":"Feature","geometry":{"type":"Point","coordinates":[-85.070713,41.093763]}},{"properties":{"zip":"46855","geo_score":0.714,"distribution":0,"id":"a62j4e3f3gwh","geo_precision":"zip"},"type":"Feature","geometry":{"type":"Point","coordinates":[-85.070713,41.093763]}},{"properties":{"zip":"46856","geo_score":0.714,"distribution":0,"id":"a62j4e4xyd1k","geo_precision":"zip"},"type":"Feature","geometry":{"type":"Point","coordinates":[-85.070713,41.093763]}},{"properties":{"zip":"46857","geo_score":0.714,"distribution":0,"id":"a62j4e0y23u8","geo_precision":"zip"},"type":"Feature","geometry":{"type":"Point","coordinates":[-85.070713,41.093763]}},{"properties":{"zip":"46858","geo_score":0.714,"distribution":0,"id":"a62j4ecp1z7e","geo_precision":"zip"},"type":"Feature","geometry":{"type":"Point","coordinates":[-85.070713,41.093763]}},{"properties":{"zip":"46859","geo_score":0.714,"distribution":0,"id":"a62j4egcq48l","geo_precision":"zip"},"type":"Feature","geometry":{"type":"Point","coordinates":[-85.070713,41.093763]}},{"properties":{"zip":"46860","geo_score":0.714,"distribution":0,"id":"a62j4ec2wf9a","geo_precision":"zip"},"type":"Feature","geometry":{"type":"Point","coordinates":[-85.070713,41.093763]}},{"properties":{"zip":"46861","geo_score":0.714,"distribution":0,"id":"a62j4e7tssg2","geo_precision":"zip"},"type":"Feature","geometry":{"type":"Point","coordinates":[-85.070713,41.093763]}},{"properties":{"zip":"46862","geo_score":0.714,"distribution":0,"id":"a62j4e03ad31","geo_precision":"zip"},"type":"Feature","geometry":{"type":"Point","coordinates":[-85.070713,41.093763]}},{"properties":{"zip":"46863","geo_score":0.714,"distribution":0,"id":"a62j4e7tu3u0","geo_precision":"zip"},"type":"Feature","geometry":{"type":"Point","coordinates":[-85.070713,41.093763]}},{"properties":{"zip":"46864","geo_score":0.714,"distribution":1,"id":"a62j4e4vdp28","geo_precision":"zip"},"type":"Feature","geometry":{"type":"Point","coordinates":[-85.070713,41.093763]}},{"properties":{"zip":"46865","geo_score":0.714,"distribution":0,"id":"a62j4edcpa2r","geo_precision":"zip"},"type":"Feature","geometry":{"type":"Point","coordinates":[-85.090669,41.126298]}},{"properties":{"zip":"46866","geo_score":0.714,"distribution":0,"id":"a62j4e2kzaz0","geo_precision":"zip"},"type":"Feature","geometry":{"type":"Point","coordinates":[-85.070713,41.093763]}},{"properties":{"zip":"46867","geo_score":0.714,"distribution":1,"id":"a62j4ec7iky9","geo_precision":"zip"},"type":"Feature","geometry":{"type":"Point","coordinates":[-85.070713,41.093763]}},{"properties":{"zip":"46868","geo_score":0.714,"distribution":0,"id":"a62j4eeg2235","geo_precision":"zip"},"type":"Feature","geometry":{"type":"Point","coordinates":[-85.070713,41.093763]}},{"properties":{"zip":"46869","geo_score":0.714,"distribution":1,"id":"a62j4eg2fnbf","geo_precision":"zip"},"type":"Feature","geometry":{"type":"Point","coordinates":[-85.070713,41.093763]}},{"properties":{"zip":"46885","geo_score":0.714,"distribution":2,"id":"a62j4ecqu7sf","geo_precision":"zip"},"type":"Feature","geometry":{"type":"Point","coordinates":[-85.070713,41.093763]}},{"properties":{"zip":"46895","geo_score":0.714,"distribution":0,"id":"a62j4edafyxa","geo_precision":"zip"},"type":"Feature","geometry":{"type":"Point","coordinates":[-85.070713,41.093763]}},{"properties":{"zip":"46896","geo_score":0.714,"distribution":0,"id":"a62j4e87ogsl","geo_precision":"zip"},"type":"Feature","geometry":{"type":"Point","coordinates":[-85.070713,41.093763]}},{"properties":{"zip":"46897","geo_score":0.714,"distribution":0,"id":"a62j4e12yebv","geo_precision":"zip"},"type":"Feature","geometry":{"type":"Point","coordinates":[-85.070713,41.093763]}},{"properties":{"zip":"46898","geo_score":0.714,"distribution":3,"id":"a62j4efza7nn","geo_precision":"zip"},"type":"Feature","geometry":{"type":"Point","coordinates":[-87.243344,40.01143]}},{"properties":{"zip":"46899","geo_score":0.714,"distribution":1,"id":"a62j4e9tawp2","geo_precision":"zip"},"type":"Feature","geometry":{"type":"Point","coordinates":[-85.070713,41.093763]}},{"properties":{"zip":"46901","geo_score":0.714,"distribution":74,"id":"a62j4edbk3ge","geo_precision":"zip"},"type":"Feature","geometry":{"type":"Point","coordinates":[-86.042212,40.578373]}},{"properties":{"zip":"46902","geo_score":0.714,"distribution":80,"id":"a62j4e2dp3wf","geo_precision":"zip"},"type":"Feature","geometry":{"type":"Point","coordinates":[-86.17559,40.444291]}},{"properties":{"zip":"46903","geo_score":0.714,"distribution":0,"id":"a62j4e9ep2vg","geo_precision":"zip"},"type":"Feature","geometry":{"type":"Point","coordinates":[-86.11894,40.469625]}},{"properties":{"zip":"46904","geo_score":0.714,"distribution":0,"id":"a62j4e36yc7c","geo_precision":"zip"},"type":"Feature","geometry":{"type":"Point","coordinates":[-86.11894,40.469625]}},{"properties":{"zip":"46910","geo_score":0.714,"distribution":2,"id":"a62j4e939ebo","geo_precision":"zip"},"type":"Feature","geometry":{"type":"Point","coordinates":[-86.069172,41.047932]}},{"properties":{"zip":"46911","geo_score":0.714,"distribution":1,"id":"a62j4e742cjr","geo_precision":"zip"},"type":"Feature","geometry":{"type":"Point","coordinates":[-85.966099,40.612263]}},{"properties":{"zip":"46912","geo_score":0.714,"distribution":0,"id":"a62j4e0g7wiu","geo_precision":"zip"},"type":"Feature","geometry":{"type":"Point","coordinates":[-86.206925,41.040988]}},{"properties":{"zip":"46913","geo_score":0.714,"distribution":2,"id":"a62j4e77pi5i","geo_precision":"zip"},"type":"Feature","geometry":{"type":"Point","coordinates":[-86.391941,40.517815]}},{"properties":{"zip":"46914","geo_score":0.714,"distribution":4,"id":"a62j4e7dxpcp","geo_precision":"zip"},"type":"Feature","geometry":{"type":"Point","coordinates":[-86.058047,40.645596]}},{"properties":{"zip":"46915","geo_score":0.714,"distribution":0,"id":"a62j4eakxrk6","geo_precision":"zip"},"type":"Feature","geometry":{"type":"Point","coordinates":[-86.394248,40.495181]}},{"properties":{"zip":"46916","geo_score":0.714,"distribution":0,"id":"a62j4e39x6zf","geo_precision":"zip"},"type":"Feature","geometry":{"type":"Point","coordinates":[-86.573952,40.584272]}},{"properties":{"zip":"46917","geo_score":0.714,"distribution":5,"id":"a62j4e1dm9lx","geo_precision":"zip"},"type":"Feature","geometry":{"type":"Point","coordinates":[-86.391109,40.614205]}},{"properties":{"zip":"46919","geo_score":0.714,"distribution":2,"id":"a62j4e5zgyu2","geo_precision":"zip"},"type":"Feature","geometry":{"type":"Point","coordinates":[-85.825539,40.575318]}},{"properties":{"zip":"46920","geo_score":0.714,"distribution":3,"id":"a62j4e5ftaqs","geo_precision":"zip"},"type":"Feature","geometry":{"type":"Point","coordinates":[-86.488887,40.458925]}},{"properties":{"zip":"46921","geo_score":0.714,"distribution":0,"id":"a62j4e3fkwzm","geo_precision":"zip"},"type":"Feature","geometry":{"type":"Point","coordinates":[-86.12908,40.960538]}},{"properties":{"zip":"46922","geo_score":0.714,"distribution":0,"id":"a62j4e3co7tq","geo_precision":"zip"},"type":"Feature","geometry":{"type":"Point","coordinates":[-86.206925,41.040988]}},{"properties":{"zip":"46923","geo_score":0.714,"distribution":15,"id":"a62j4eebvjpd","geo_precision":"zip"},"type":"Feature","geometry":{"type":"Point","coordinates":[-86.717509,40.649205]}},{"properties":{"zip":"46926","geo_score":0.714,"distribution":1,"id":"a62j4e3kej9f","geo_precision":"zip"},"type":"Feature","geometry":{"type":"Point","coordinates":[-86.026381,40.860043]}},{"properties":{"zip":"46928","geo_score":0.714,"distribution":4,"id":"a62j4eg51bhk","geo_precision":"zip"},"type":"Feature","geometry":{"type":"Point","coordinates":[-85.824426,40.421705]}},{"properties":{"zip":"46929","geo_score":0.714,"distribution":7,"id":"a62j4e8sw432","geo_precision":"zip"},"type":"Feature","geometry":{"type":"Point","coordinates":[-86.391664,40.566149]}},{"properties":{"zip":"46930","geo_score":0.714,"distribution":0,"id":"a62j4e4gr6i7","geo_precision":"zip"},"type":"Feature","geometry":{"type":"Point","coordinates":[-85.571035,40.40993]}},{"properties":{"zip":"46931","geo_score":0.714,"distribution":0,"id":"a62j4e8d50nm","geo_precision":"zip"},"type":"Feature","geometry":{"type":"Point","coordinates":[-86.265814,40.948405]}},{"properties":{"zip":"46932","geo_score":0.714,"distribution":7,"id":"a62j4eciddws","geo_precision":"zip"},"type":"Feature","geometry":{"type":"Point","coordinates":[-86.269625,40.634254]}},{"properties":{"zip":"46933","geo_score":0.714,"distribution":7,"id":"a62j4ee2raye","geo_precision":"zip"},"type":"Feature","geometry":{"type":"Point","coordinates":[-85.585245,40.54429]}},{"properties":{"zip":"46935","geo_score":0.714,"distribution":0,"id":"a62j4ed4y81h","geo_precision":"zip"},"type":"Feature","geometry":{"type":"Point","coordinates":[-86.206925,41.040988]}},{"properties":{"zip":"46936","geo_score":0.714,"distribution":12,"id":"a62j4e8jvsop","geo_precision":"zip"},"type":"Feature","geometry":{"type":"Point","coordinates":[-85.890539,40.430594]}},{"properties":{"zip":"46937","geo_score":0.714,"distribution":2,"id":"a62j4eblgpgi","geo_precision":"zip"},"type":"Feature","geometry":{"type":"Point","coordinates":[-86.018139,40.418662]}},{"properties":{"zip":"46938","geo_score":0.714,"distribution":3,"id":"a62j4e2c4qjz","geo_precision":"zip"},"type":"Feature","geometry":{"type":"Point","coordinates":[-85.73359,40.436428]}},{"properties":{"zip":"46939","geo_score":0.714,"distribution":2,"id":"a62j4e8b9qcn","geo_precision":"zip"},"type":"Feature","geometry":{"type":"Point","coordinates":[-86.46445,41.070319]}},{"properties":{"zip":"46940","geo_score":0.714,"distribution":6,"id":"a62j4e6azeq9","geo_precision":"zip"},"type":"Feature","geometry":{"type":"Point","coordinates":[-85.6197,40.696432]}},{"properties":{"zip":"46941","geo_score":0.714,"distribution":2,"id":"a62j4e805tp5","geo_precision":"zip"},"type":"Feature","geometry":{"type":"Point","coordinates":[-85.700909,40.826475]}},{"properties":{"zip":"46942","geo_score":0.714,"distribution":0,"id":"a62j4e7wm1nu","geo_precision":"zip"},"type":"Feature","geometry":{"type":"Point","coordinates":[-86.37341,40.736111]}},{"properties":{"zip":"46943","geo_score":0.714,"distribution":0,"id":"a62j4ec9fstn","geo_precision":"zip"},"type":"Feature","geometry":{"type":"Point","coordinates":[-85.837546,40.974279]}},{"properties":{"zip":"46945","geo_score":0.714,"distribution":0,"id":"a62j4e4o2pmb","geo_precision":"zip"},"type":"Feature","geometry":{"type":"Point","coordinates":[-86.206925,41.040988]}},{"properties":{"zip":"46946","geo_score":0.714,"distribution":0,"id":"a62j4e9y5v3k","geo_precision":"zip"},"type":"Feature","geometry":{"type":"Point","coordinates":[-85.735756,41.035629]}},{"properties":{"zip":"46947","geo_score":0.714,"distribution":40,"id":"a62j4e0twuj4","geo_precision":"zip"},"type":"Feature","geometry":{"type":"Point","coordinates":[-86.298053,40.750873]}},{"properties":{"zip":"46950","geo_score":0.714,"distribution":0,"id":"a62j4e4yois5","geo_precision":"zip"},"type":"Feature","geometry":{"type":"Point","coordinates":[-86.309444,40.869207]}},{"properties":{"zip":"46951","geo_score":0.714,"distribution":5,"id":"a62j4e7zf5ly","geo_precision":"zip"},"type":"Feature","geometry":{"type":"Point","coordinates":[-86.14944,40.89782]}},{"properties":{"zip":"46952","geo_score":0.714,"distribution":36,"id":"a62j4e2x5i6d","geo_precision":"zip"},"type":"Feature","geometry":{"type":"Point","coordinates":[-85.674145,40.589485]}},{"properties":{"zip":"46953","geo_score":0.714,"distribution":20,"id":"a62j4e2yb9by","geo_precision":"zip"},"type":"Feature","geometry":{"type":"Point","coordinates":[-85.626401,40.499959]}},{"properties":{"zip":"46957","geo_score":0.714,"distribution":1,"id":"a62j4edc4hb1","geo_precision":"zip"},"type":"Feature","geometry":{"type":"Point","coordinates":[-85.476619,40.389831]}},{"properties":{"zip":"46958","geo_score":0.714,"distribution":1,"id":"a62j4eas57n2","geo_precision":"zip"},"type":"Feature","geometry":{"type":"Point","coordinates":[-86.116189,40.822384]}},{"properties":{"zip":"46959","geo_score":0.714,"distribution":0,"id":"a62j4e266byf","geo_precision":"zip"},"type":"Feature","geometry":{"type":"Point","coordinates":[-86.106432,40.61466]}},{"properties":{"zip":"46960","geo_score":0.714,"distribution":1,"id":"a62j4e6r0744","geo_precision":"zip"},"type":"Feature","geometry":{"type":"Point","coordinates":[-86.544617,41.124552]}},{"properties":{"zip":"46961","geo_score":0.714,"distribution":0,"id":"a62j4e262c84","geo_precision":"zip"},"type":"Feature","geometry":{"type":"Point","coordinates":[-86.193648,40.762054]}},{"properties":{"zip":"46962","geo_score":0.714,"distribution":15,"id":"a62j4eg4dsbc","geo_precision":"zip"},"type":"Feature","geometry":{"type":"Point","coordinates":[-85.832765,40.959766]}},{"properties":{"zip":"46965","geo_score":0.714,"distribution":0,"id":"a62j4e11fg1s","geo_precision":"zip"},"type":"Feature","geometry":{"type":"Point","coordinates":[-86.101484,40.412741]}},{"properties":{"zip":"46967","geo_score":0.714,"distribution":0,"id":"a62j4e3g00tk","geo_precision":"zip"},"type":"Feature","geometry":{"type":"Point","coordinates":[-86.204238,40.694298]}},{"properties":{"zip":"46968","geo_score":0.714,"distribution":0,"id":"a62j4e68b8an","geo_precision":"zip"},"type":"Feature","geometry":{"type":"Point","coordinates":[-86.554326,41.175557]}},{"properties":{"zip":"46970","geo_score":0.714,"distribution":54,"id":"a62j4eb312l6","geo_precision":"zip"},"type":"Feature","geometry":{"type":"Point","coordinates":[-86.111104,40.732263]}},{"properties":{"zip":"46971","geo_score":0.714,"distribution":0,"id":"a62j4e8lrcl7","geo_precision":"zip"},"type":"Feature","geometry":{"type":"Point","coordinates":[-86.016441,40.780955]}},{"properties":{"zip":"46974","geo_score":0.714,"distribution":4,"id":"a62j4e7mterh","geo_precision":"zip"},"type":"Feature","geometry":{"type":"Point","coordinates":[-85.944157,40.915043]}},{"properties":{"zip":"46975","geo_score":0.714,"distribution":27,"id":"a62j4e0nwwcp","geo_precision":"zip"},"type":"Feature","geometry":{"type":"Point","coordinates":[-86.205556,41.152821]}},{"properties":{"zip":"46977","geo_score":0.714,"distribution":0,"id":"a62j4e7cup8a","geo_precision":"zip"},"type":"Feature","geometry":{"type":"Point","coordinates":[-86.573952,40.584272]}},{"properties":{"zip":"46978","geo_score":0.714,"distribution":6,"id":"a62j4e77dv4n","geo_precision":"zip"},"type":"Feature","geometry":{"type":"Point","coordinates":[-86.492019,40.851622]}},{"properties":{"zip":"46979","geo_score":0.714,"distribution":9,"id":"a62j4e403hmj","geo_precision":"zip"},"type":"Feature","geometry":{"type":"Point","coordinates":[-86.271385,40.443371]}},{"properties":{"zip":"46980","geo_score":0.714,"distribution":0,"id":"a62j4e0ktqem","geo_precision":"zip"},"type":"Feature","geometry":{"type":"Point","coordinates":[-85.792501,40.848927]}},{"properties":{"zip":"46982","geo_score":0.714,"distribution":4,"id":"a62j4eb11i6l","geo_precision":"zip"},"type":"Feature","geometry":{"type":"Point","coordinates":[-85.944436,41.002266]}},{"properties":{"zip":"46984","geo_score":0.714,"distribution":0,"id":"a62j4e1zmbob","geo_precision":"zip"},"type":"Feature","geometry":{"type":"Point","coordinates":[-85.828846,40.671369]}},{"properties":{"zip":"46985","geo_score":0.714,"distribution":1,"id":"a62j4e27jcpe","geo_precision":"zip"},"type":"Feature","geometry":{"type":"Point","coordinates":[-86.52945,40.925874]}},{"properties":{"zip":"46986","geo_score":0.714,"distribution":3,"id":"a62j4e9mn4qu","geo_precision":"zip"},"type":"Feature","geometry":{"type":"Point","coordinates":[-85.82526,40.465039]}},{"properties":{"zip":"46987","geo_score":0.714,"distribution":4,"id":"a62j4eb3rvjb","geo_precision":"zip"},"type":"Feature","geometry":{"type":"Point","coordinates":[-85.765569,40.564673]}},{"properties":{"zip":"46988","geo_score":0.714,"distribution":1,"id":"a62j4ec1i4df","geo_precision":"zip"},"type":"Feature","geometry":{"type":"Point","coordinates":[-86.233899,40.866096]}},{"properties":{"zip":"46989","geo_score":0.714,"distribution":5,"id":"a62j4e4vimrh","geo_precision":"zip"},"type":"Feature","geometry":{"type":"Point","coordinates":[-85.62512,40.455985]}},{"properties":{"zip":"46990","geo_score":0.714,"distribution":1,"id":"a62j4e6dsae7","geo_precision":"zip"},"type":"Feature","geometry":{"type":"Point","coordinates":[-85.736386,40.886571]}},{"properties":{"zip":"46991","geo_score":0.714,"distribution":0,"id":"a62j4e24vykb","geo_precision":"zip"},"type":"Feature","geometry":{"type":"Point","coordinates":[-85.468307,40.653933]}},{"properties":{"zip":"46992","geo_score":0.714,"distribution":32,"id":"a62j4ef5bd3e","geo_precision":"zip"},"type":"Feature","geometry":{"type":"Point","coordinates":[-85.844431,40.805599]}},{"properties":{"zip":"46994","geo_score":0.714,"distribution":2,"id":"a62j4e6s8p7i","geo_precision":"zip"},"type":"Feature","geometry":{"type":"Point","coordinates":[-86.209995,40.615595]}},{"properties":{"zip":"46995","geo_score":0.714,"distribution":0,"id":"a62j4e2a76kk","geo_precision":"zip"},"type":"Feature","geometry":{"type":"Point","coordinates":[-86.215482,40.442117]}},{"properties":{"zip":"46996","geo_score":0.714,"distribution":28,"id":"a62j4eagtapk","geo_precision":"zip"},"type":"Feature","geometry":{"type":"Point","coordinates":[-86.568064,41.085875]}},{"properties":{"zip":"46998","geo_score":0.714,"distribution":0,"id":"a62j4efk4lav","geo_precision":"zip"},"type":"Feature","geometry":{"type":"Point","coordinates":[-86.225982,40.866023]}},{"properties":{"zip":"47001","geo_score":0.714,"distribution":35,"id":"a62j4e2o6run","geo_precision":"zip"},"type":"Feature","geometry":{"type":"Point","coordinates":[-84.957176,39.135611]}},{"properties":{"zip":"47003","geo_score":0.714,"distribution":0,"id":"a62j4e8pp6f9","geo_precision":"zip"},"type":"Feature","geometry":{"type":"Point","coordinates":[-84.862979,39.515851]}},{"properties":{"zip":"47006","geo_score":0.714,"distribution":24,"id":"a62j4e653uh1","geo_precision":"zip"},"type":"Feature","geometry":{"type":"Point","coordinates":[-85.233018,39.303662]}},{"properties":{"zip":"47010","geo_score":0.714,"distribution":0,"id":"a62j4ec6u5qe","geo_precision":"zip"},"type":"Feature","geometry":{"type":"Point","coordinates":[-84.853529,39.490701]}},{"properties":{"zip":"47011","geo_score":0.714,"distribution":0,"id":"a62j4e3sr2d7","geo_precision":"zip"},"type":"Feature","geometry":{"type":"Point","coordinates":[-85.080786,38.873393]}},{"properties":{"zip":"47012","geo_score":0.714,"distribution":27,"id":"a62j4e8vinb1","geo_precision":"zip"},"type":"Feature","geometry":{"type":"Point","coordinates":[-85.031626,39.321719]}},{"properties":{"zip":"47016","geo_score":0.714,"distribution":2,"id":"a62j4e61y1yc","geo_precision":"zip"},"type":"Feature","geometry":{"type":"Point","coordinates":[-84.956624,39.321164]}},{"properties":{"zip":"47017","geo_score":0.714,"distribution":4,"id":"a62j4eaj91cs","geo_precision":"zip"},"type":"Feature","geometry":{"type":"Point","coordinates":[-85.191159,38.945037]}},{"properties":{"zip":"47018","geo_score":0.714,"distribution":23,"id":"a62j4eblgc74","geo_precision":"zip"},"type":"Feature","geometry":{"type":"Point","coordinates":[-85.014397,38.978392]}},{"properties":{"zip":"47019","geo_score":0.714,"distribution":0,"id":"a62j4e4izs0i","geo_precision":"zip"},"type":"Feature","geometry":{"type":"Point","coordinates":[-84.925998,38.868591]}},{"properties":{"zip":"47020","geo_score":0.714,"distribution":5,"id":"a62j4e2ki5il","geo_precision":"zip"},"type":"Feature","geometry":{"type":"Point","coordinates":[-84.986616,38.782007]}},{"properties":{"zip":"47021","geo_score":0.714,"distribution":0,"id":"a62j4e2385q9","geo_precision":"zip"},"type":"Feature","geometry":{"type":"Point","coordinates":[-85.15039,38.970266]}},{"properties":{"zip":"47022","geo_score":0.714,"distribution":13,"id":"a62j4e78tgf2","geo_precision":"zip"},"type":"Feature","geometry":{"type":"Point","coordinates":[-84.967455,39.204499]}},{"properties":{"zip":"47023","geo_score":0.714,"distribution":5,"id":"a62j4eg462pb","geo_precision":"zip"},"type":"Feature","geometry":{"type":"Point","coordinates":[-85.331351,39.118665]}},{"properties":{"zip":"47024","geo_score":0.714,"distribution":3,"id":"a62j4e26xb35","geo_precision":"zip"},"type":"Feature","geometry":{"type":"Point","coordinates":[-85.248297,39.485605]}},{"properties":{"zip":"47025","geo_score":0.714,"distribution":78,"id":"a62j4e0f96bl","geo_precision":"zip"},"type":"Feature","geometry":{"type":"Point","coordinates":[-84.846895,39.09478]}},{"properties":{"zip":"47030","geo_score":0.714,"distribution":1,"id":"a62j4e2ag5ee","geo_precision":"zip"},"type":"Feature","geometry":{"type":"Point","coordinates":[-85.174129,39.398939]}},{"properties":{"zip":"47031","geo_score":0.714,"distribution":10,"id":"a62j4e1od199","geo_precision":"zip"},"type":"Feature","geometry":{"type":"Point","coordinates":[-85.163291,39.098388]}},{"properties":{"zip":"47032","geo_score":0.714,"distribution":13,"id":"a62j4ea6u8jt","geo_precision":"zip"},"type":"Feature","geometry":{"type":"Point","coordinates":[-85.045233,39.105333]}},{"properties":{"zip":"47033","geo_score":0.714,"distribution":0,"id":"a62j4efr6m3o","geo_precision":"zip"},"type":"Feature","geometry":{"type":"Point","coordinates":[-85.1739,39.281429]}},{"properties":{"zip":"47034","geo_score":0.714,"distribution":2,"id":"a62j4e4uubfs","geo_precision":"zip"},"type":"Feature","geometry":{"type":"Point","coordinates":[-85.326962,39.204833]}},{"properties":{"zip":"47035","geo_score":0.714,"distribution":0,"id":"a62j4e2bqln3","geo_precision":"zip"},"type":"Feature","geometry":{"type":"Point","coordinates":[-84.900711,39.309983]}},{"properties":{"zip":"47036","geo_score":0.714,"distribution":1,"id":"a62j4e3vai79","geo_precision":"zip"},"type":"Feature","geometry":{"type":"Point","coordinates":[-85.250796,39.380883]}},{"properties":{"zip":"47037","geo_score":0.714,"distribution":5,"id":"a62j4e0kdqcl","geo_precision":"zip"},"type":"Feature","geometry":{"type":"Point","coordinates":[-85.207182,39.147831]}},{"properties":{"zip":"47038","geo_score":0.714,"distribution":2,"id":"a62j4e8z64br","geo_precision":"zip"},"type":"Feature","geometry":{"type":"Point","coordinates":[-84.881782,38.84188]}},{"properties":{"zip":"47039","geo_score":0.714,"distribution":0,"id":"a62j4e29t8q0","geo_precision":"zip"},"type":"Feature","geometry":{"type":"Point","coordinates":[-85.255114,39.111625]}},{"properties":{"zip":"47040","geo_score":0.714,"distribution":15,"id":"a62j4eefdwl1","geo_precision":"zip"},"type":"Feature","geometry":{"type":"Point","coordinates":[-84.922727,38.853395]}},{"properties":{"zip":"47041","geo_score":0.714,"distribution":6,"id":"a62j4edjei15","geo_precision":"zip"},"type":"Feature","geometry":{"type":"Point","coordinates":[-85.046069,39.218109]}},{"properties":{"zip":"47042","geo_score":0.714,"distribution":10,"id":"a62j4e82copd","geo_precision":"zip"},"type":"Feature","geometry":{"type":"Point","coordinates":[-85.218568,38.990334]}},{"properties":{"zip":"47043","geo_score":0.714,"distribution":9,"id":"a62j4e7p1wa5","geo_precision":"zip"},"type":"Feature","geometry":{"type":"Point","coordinates":[-85.07384,38.795895]}},{"properties":{"zip":"47060","geo_score":0.714,"distribution":12,"id":"a62j4e613c2r","geo_precision":"zip"},"type":"Feature","geometry":{"type":"Point","coordinates":[-84.846898,39.316998]}},{"properties":{"zip":"47102","geo_score":0.714,"distribution":3,"id":"a62j4e42mbx1","geo_precision":"zip"},"type":"Feature","geometry":{"type":"Point","coordinates":[-85.750469,38.748455]}},{"properties":{"zip":"47104","geo_score":0.714,"distribution":1,"id":"a62j4edvjh76","geo_precision":"zip"},"type":"Feature","geometry":{"type":"Point","coordinates":[-85.421753,38.539899]}},{"properties":{"zip":"47106","geo_score":0.714,"distribution":8,"id":"a62j4ee43nta","geo_precision":"zip"},"type":"Feature","geometry":{"type":"Point","coordinates":[-85.829689,38.444508]}},{"properties":{"zip":"47107","geo_score":0.714,"distribution":0,"id":"a62j4e4d8g9x","geo_precision":"zip"},"type":"Feature","geometry":{"type":"Point","coordinates":[-86.115257,38.190314]}},{"properties":{"zip":"47108","geo_score":0.714,"distribution":5,"id":"a62j4ecnoerp","geo_precision":"zip"},"type":"Feature","geometry":{"type":"Point","coordinates":[-86.215815,38.633112]}},{"properties":{"zip":"47110","geo_score":0.714,"distribution":0,"id":"a62j4eg2sssb","geo_precision":"zip"},"type":"Feature","geometry":{"type":"Point","coordinates":[-86.22275,38.093957]}},{"properties":{"zip":"47111","geo_score":0.714,"distribution":42,"id":"a62j4e6qxooy","geo_precision":"zip"},"type":"Feature","geometry":{"type":"Point","coordinates":[-85.550516,38.485064]}},{"properties":{"zip":"47112","geo_score":0.714,"distribution":49,"id":"a62j4e98gak2","geo_precision":"zip"},"type":"Feature","geometry":{"type":"Point","coordinates":[-86.224419,38.228122]}},{"properties":{"zip":"47114","geo_score":0.714,"distribution":1,"id":"a62j4eddszrn","geo_precision":"zip"},"type":"Feature","geometry":{"type":"Point","coordinates":[-86.08239,38.289882]}},{"properties":{"zip":"47115","geo_score":0.714,"distribution":2,"id":"a62j4e4shmpp","geo_precision":"zip"},"type":"Feature","geometry":{"type":"Point","coordinates":[-86.209419,38.269788]}},{"properties":{"zip":"47116","geo_score":0.714,"distribution":1,"id":"a62j4ebylj8w","geo_precision":"zip"},"type":"Feature","geometry":{"type":"Point","coordinates":[-86.6411,38.36839]}},{"properties":{"zip":"47117","geo_score":0.714,"distribution":3,"id":"a62j4e70y1gf","geo_precision":"zip"},"type":"Feature","geometry":{"type":"Point","coordinates":[-85.929131,38.038127]}},{"properties":{"zip":"47118","geo_score":0.714,"distribution":3,"id":"a62j4e3lhpc9","geo_precision":"zip"},"type":"Feature","geometry":{"type":"Point","coordinates":[-86.526372,38.233672]}},{"properties":{"zip":"47119","geo_score":0.714,"distribution":67,"id":"a62j4e7eko2o","geo_precision":"zip"},"type":"Feature","geometry":{"type":"Point","coordinates":[-85.864689,38.3559]}},{"properties":{"zip":"47120","geo_score":0.714,"distribution":0,"id":"a62j4e6eyorm","geo_precision":"zip"},"type":"Feature","geometry":{"type":"Point","coordinates":[-86.185333,38.46772]}},{"properties":{"zip":"47122","geo_score":0.714,"distribution":43,"id":"a62j4e4yswvq","geo_precision":"zip"},"type":"Feature","geometry":{"type":"Point","coordinates":[-85.909411,38.284235]}},{"properties":{"zip":"47123","geo_score":0.714,"distribution":0,"id":"a62j4e3deq3k","geo_precision":"zip"},"type":"Feature","geometry":{"type":"Point","coordinates":[-86.484327,38.281966]}},{"properties":{"zip":"47124","geo_score":0.714,"distribution":12,"id":"a62j4efi4kcw","geo_precision":"zip"},"type":"Feature","geometry":{"type":"Point","coordinates":[-85.986626,38.373209]}},{"properties":{"zip":"47125","geo_score":0.714,"distribution":1,"id":"a62j4efdrc63","geo_precision":"zip"},"type":"Feature","geometry":{"type":"Point","coordinates":[-86.397206,38.438947]}},{"properties":{"zip":"47126","geo_score":0.714,"distribution":13,"id":"a62j4e53j056","geo_precision":"zip"},"type":"Feature","geometry":{"type":"Point","coordinates":[-85.804689,38.508395]}},{"properties":{"zip":"47129","geo_score":0.714,"distribution":28,"id":"a62j4e3833zi","geo_precision":"zip"},"type":"Feature","geometry":{"type":"Point","coordinates":[-85.764463,38.310958]}},{"properties":{"zip":"47130","geo_score":0.714,"distribution":108,"id":"a62j4e5ttgqj","geo_precision":"zip"},"type":"Feature","geometry":{"type":"Point","coordinates":[-85.699963,38.348679]}},{"properties":{"zip":"47131","geo_score":0.714,"distribution":1,"id":"a62j4efzvk4e","geo_precision":"zip"},"type":"Feature","geometry":{"type":"Point","coordinates":[-85.704973,38.437021]}},{"properties":{"zip":"47132","geo_score":0.714,"distribution":0,"id":"a62j4e99i02o","geo_precision":"zip"},"type":"Feature","geometry":{"type":"Point","coordinates":[-85.732062,38.286819]}},{"properties":{"zip":"47133","geo_score":0.714,"distribution":0,"id":"a62j4e1uzq5j","geo_precision":"zip"},"type":"Feature","geometry":{"type":"Point","coordinates":[-85.732062,38.286819]}},{"properties":{"zip":"47134","geo_score":0.714,"distribution":0,"id":"a62j4e7q1m95","geo_precision":"zip"},"type":"Feature","geometry":{"type":"Point","coordinates":[-85.732062,38.286819]}},{"properties":{"zip":"47135","geo_score":0.714,"distribution":1,"id":"a62j4e58os1k","geo_precision":"zip"},"type":"Feature","geometry":{"type":"Point","coordinates":[-86.084413,38.105348]}},{"properties":{"zip":"47136","geo_score":0.714,"distribution":16,"id":"a62j4eclwu4f","geo_precision":"zip"},"type":"Feature","geometry":{"type":"Point","coordinates":[-85.990389,38.227684]}},{"properties":{"zip":"47137","geo_score":0.714,"distribution":0,"id":"a62j4e4v8nqb","geo_precision":"zip"},"type":"Feature","geometry":{"type":"Point","coordinates":[-86.383034,38.17812]}},{"properties":{"zip":"47138","geo_score":0.714,"distribution":9,"id":"a62j4e6m3z7r","geo_precision":"zip"},"type":"Feature","geometry":{"type":"Point","coordinates":[-85.524961,38.650616]}},{"properties":{"zip":"47139","geo_score":0.714,"distribution":0,"id":"a62j4e749w7g","geo_precision":"zip"},"type":"Feature","geometry":{"type":"Point","coordinates":[-86.078828,38.600666]}},{"properties":{"zip":"47140","geo_score":0.714,"distribution":5,"id":"a62j4e7x681n","geo_precision":"zip"},"type":"Feature","geometry":{"type":"Point","coordinates":[-86.39165,38.420892]}},{"properties":{"zip":"47141","geo_score":0.714,"distribution":1,"id":"a62j4edwcgqs","geo_precision":"zip"},"type":"Feature","geometry":{"type":"Point","coordinates":[-85.597466,38.549871]}},{"properties":{"zip":"47142","geo_score":0.714,"distribution":0,"id":"a62j4e5tlz8i","geo_precision":"zip"},"type":"Feature","geometry":{"type":"Point","coordinates":[-86.204065,38.073945]}},{"properties":{"zip":"47143","geo_score":0.714,"distribution":15,"id":"a62j4e2feqjk","geo_precision":"zip"},"type":"Feature","geometry":{"type":"Point","coordinates":[-85.808577,38.42562]}},{"properties":{"zip":"47144","geo_score":0.714,"distribution":0,"id":"a62j4ef6eqzh","geo_precision":"zip"},"type":"Feature","geometry":{"type":"Point","coordinates":[-85.732062,38.286819]}},{"properties":{"zip":"47145","geo_score":0.714,"distribution":5,"id":"a62j4e4nc829","geo_precision":"zip"},"type":"Feature","geometry":{"type":"Point","coordinates":[-86.349701,38.282563]}},{"properties":{"zip":"47146","geo_score":0.0,"distribution":0,"id":"a62j4e2sjplf","geo_precision":"unmatched"},"type":"Feature","geometry":null},{"properties":{"zip":"47147","geo_score":0.714,"distribution":1,"id":"a62j4ec1iwh4","geo_precision":"zip"},"type":"Feature","geometry":{"type":"Point","coordinates":[-85.532171,38.580326]}},{"properties":{"zip":"47150","geo_score":0.714,"distribution":156,"id":"a62j4e8c7e7o","geo_precision":"zip"},"type":"Feature","geometry":{"type":"Point","coordinates":[-85.845243,38.282569]}},{"properties":{"zip":"47151","geo_score":0.714,"distribution":0,"id":"a62j4e6mjy6v","geo_precision":"zip"},"type":"Feature","geometry":{"type":"Point","coordinates":[-85.896961,38.298486]}},{"properties":{"zip":"47160","geo_score":0.714,"distribution":1,"id":"a62j4ebgaafv","geo_precision":"zip"},"type":"Feature","geometry":{"type":"Point","coordinates":[-86.049282,38.148843]}},{"properties":{"zip":"47161","geo_score":0.714,"distribution":7,"id":"a62j4e6qg113","geo_precision":"zip"},"type":"Feature","geometry":{"type":"Point","coordinates":[-86.090527,38.298121]}},{"properties":{"zip":"47162","geo_score":0.714,"distribution":0,"id":"a62j4eeerjz7","geo_precision":"zip"},"type":"Feature","geometry":{"type":"Point","coordinates":[-85.466904,38.570896]}},{"properties":{"zip":"47163","geo_score":0.714,"distribution":2,"id":"a62j4ebb3w3u","geo_precision":"zip"},"type":"Feature","geometry":{"type":"Point","coordinates":[-85.669829,38.535058]}},{"properties":{"zip":"47164","geo_score":0.714,"distribution":7,"id":"a62j4e4oxqum","geo_precision":"zip"},"type":"Feature","geometry":{"type":"Point","coordinates":[-86.105954,38.380353]}},{"properties":{"zip":"47165","geo_score":0.714,"distribution":6,"id":"a62j4eby072k","geo_precision":"zip"},"type":"Feature","geometry":{"type":"Point","coordinates":[-86.003307,38.497282]}},{"properties":{"zip":"47166","geo_score":0.714,"distribution":2,"id":"a62j4eam4rl5","geo_precision":"zip"},"type":"Feature","geometry":{"type":"Point","coordinates":[-86.168979,38.303364]}},{"properties":{"zip":"47167","geo_score":0.714,"distribution":32,"id":"a62j4e8hdcym","geo_precision":"zip"},"type":"Feature","geometry":{"type":"Point","coordinates":[-85.979141,38.582837]}},{"properties":{"zip":"47170","geo_score":0.714,"distribution":29,"id":"a62j4e9fvvo6","geo_precision":"zip"},"type":"Feature","geometry":{"type":"Point","coordinates":[-85.768856,38.648948]}},{"properties":{"zip":"47172","geo_score":0.714,"distribution":80,"id":"a62j4egi2v94","geo_precision":"zip"},"type":"Feature","geometry":{"type":"Point","coordinates":[-85.767464,38.3834]}},{"properties":{"zip":"47174","geo_score":0.714,"distribution":0,"id":"a62j4e0k7ozt","geo_precision":"zip"},"type":"Feature","geometry":{"type":"Point","coordinates":[-86.490751,38.22588]}},{"properties":{"zip":"47175","geo_score":0.714,"distribution":0,"id":"a62j4e3a0i7j","geo_precision":"zip"},"type":"Feature","geometry":{"type":"Point","coordinates":[-86.54608,38.345487]}},{"properties":{"zip":"47177","geo_score":0.714,"distribution":2,"id":"a62j4edtwm5w","geo_precision":"zip"},"type":"Feature","geometry":{"type":"Point","coordinates":[-85.748631,38.584823]}},{"properties":{"zip":"47190","geo_score":0.714,"distribution":0,"id":"a62j4e3uotxb","geo_precision":"zip"},"type":"Feature","geometry":{"type":"Point","coordinates":[-85.704973,38.437021]}},{"properties":{"zip":"47199","geo_score":0.714,"distribution":0,"id":"a62j4eci2qxh","geo_precision":"zip"},"type":"Feature","geometry":{"type":"Point","coordinates":[-85.732062,38.286819]}},{"properties":{"zip":"47201","geo_score":0.714,"distribution":114,"id":"a62j4e8s7q8c","geo_precision":"zip"},"type":"Feature","geometry":{"type":"Point","coordinates":[-85.891338,39.191447]}},{"properties":{"zip":"47202","geo_score":0.714,"distribution":4,"id":"a62j4edzjdjm","geo_precision":"zip"},"type":"Feature","geometry":{"type":"Point","coordinates":[-85.885168,39.192972]}},{"properties":{"zip":"47203","geo_score":0.714,"distribution":105,"id":"a62j4e29de4y","geo_precision":"zip"},"type":"Feature","geometry":{"type":"Point","coordinates":[-85.827439,39.241129]}},{"properties":{"zip":"47220","geo_score":0.714,"distribution":12,"id":"a62j4e4sc6r9","geo_precision":"zip"},"type":"Feature","geometry":{"type":"Point","coordinates":[-86.019145,38.826999]}},{"properties":{"zip":"47223","geo_score":0.714,"distribution":2,"id":"a62j4e9bq7ha","geo_precision":"zip"},"type":"Feature","geometry":{"type":"Point","coordinates":[-85.474966,39.120053]}},{"properties":{"zip":"47224","geo_score":0.714,"distribution":1,"id":"a62j4ed9b63z","geo_precision":"zip"},"type":"Feature","geometry":{"type":"Point","coordinates":[-85.183844,38.870892]}},{"properties":{"zip":"47225","geo_score":0.714,"distribution":0,"id":"a62j4ebnyjkp","geo_precision":"zip"},"type":"Feature","geometry":{"type":"Point","coordinates":[-85.347677,39.424072]}},{"properties":{"zip":"47226","geo_score":0.714,"distribution":0,"id":"a62j4e9kg3z1","geo_precision":"zip"},"type":"Feature","geometry":{"type":"Point","coordinates":[-85.868533,39.282609]}},{"properties":{"zip":"47227","geo_score":0.714,"distribution":3,"id":"a62j4e96xxeb","geo_precision":"zip"},"type":"Feature","geometry":{"type":"Point","coordinates":[-85.660004,38.868992]}},{"properties":{"zip":"47228","geo_score":0.714,"distribution":0,"id":"a62j4e6nnoka","geo_precision":"zip"},"type":"Feature","geometry":{"type":"Point","coordinates":[-85.962761,38.974458]}},{"properties":{"zip":"47229","geo_score":0.714,"distribution":3,"id":"a62j4e5t9fl3","geo_precision":"zip"},"type":"Feature","geometry":{"type":"Point","coordinates":[-85.825805,38.845889]}},{"properties":{"zip":"47230","geo_score":0.714,"distribution":3,"id":"a62j4e9wrzt6","geo_precision":"zip"},"type":"Feature","geometry":{"type":"Point","coordinates":[-85.633854,38.824223]}},{"properties":{"zip":"47231","geo_score":0.714,"distribution":1,"id":"a62j4e428du8","geo_precision":"zip"},"type":"Feature","geometry":{"type":"Point","coordinates":[-85.472183,38.853946]}},{"properties":{"zip":"47232","geo_score":0.714,"distribution":8,"id":"a62j4e0o6ifl","geo_precision":"zip"},"type":"Feature","geometry":{"type":"Point","coordinates":[-85.847203,39.091719]}},{"properties":{"zip":"47234","geo_score":0.714,"distribution":5,"id":"a62j4egbidm0","geo_precision":"zip"},"type":"Feature","geometry":{"type":"Point","coordinates":[-85.760537,39.365328]}},{"properties":{"zip":"47235","geo_score":0.714,"distribution":4,"id":"a62j4ee4ie14","geo_precision":"zip"},"type":"Feature","geometry":{"type":"Point","coordinates":[-86.144987,39.070884]}},{"properties":{"zip":"47236","geo_score":0.714,"distribution":0,"id":"a62j4ecj3n8g","geo_precision":"zip"},"type":"Feature","geometry":{"type":"Point","coordinates":[-85.726135,39.152228]}},{"properties":{"zip":"47240","geo_score":0.714,"distribution":57,"id":"a62j4e0j1ob0","geo_precision":"zip"},"type":"Feature","geometry":{"type":"Point","coordinates":[-85.33441,39.366161]}},{"properties":{"zip":"47243","geo_score":0.714,"distribution":7,"id":"a62j4eacvcqe","geo_precision":"zip"},"type":"Feature","geometry":{"type":"Point","coordinates":[-85.48496,38.650616]}},{"properties":{"zip":"47244","geo_score":0.714,"distribution":3,"id":"a62j4e6wel0y","geo_precision":"zip"},"type":"Feature","geometry":{"type":"Point","coordinates":[-85.669422,39.211163]}},{"properties":{"zip":"47245","geo_score":0.714,"distribution":0,"id":"a62j4e1ihjex","geo_precision":"zip"},"type":"Feature","geometry":{"type":"Point","coordinates":[-85.619906,39.001301]}},{"properties":{"zip":"47246","geo_score":0.714,"distribution":6,"id":"a62j4ee72mgh","geo_precision":"zip"},"type":"Feature","geometry":{"type":"Point","coordinates":[-85.785539,39.320606]}},{"properties":{"zip":"47247","geo_score":0.714,"distribution":0,"id":"a62j4e63hgwz","geo_precision":"zip"},"type":"Feature","geometry":{"type":"Point","coordinates":[-85.888579,39.059349]}},{"properties":{"zip":"47249","geo_score":0.714,"distribution":1,"id":"a62j4eax69ps","geo_precision":"zip"},"type":"Feature","geometry":{"type":"Point","coordinates":[-86.056681,38.897974]}},{"properties":{"zip":"47250","geo_score":0.714,"distribution":59,"id":"a62j4e39k0rn","geo_precision":"zip"},"type":"Feature","geometry":{"type":"Point","coordinates":[-85.518017,38.783947]}},{"properties":{"zip":"47260","geo_score":0.714,"distribution":1,"id":"a62j4ef1xaqo","geo_precision":"zip"},"type":"Feature","geometry":{"type":"Point","coordinates":[-86.237206,38.777832]}},{"properties":{"zip":"47261","geo_score":0.714,"distribution":0,"id":"a62j4edxr1el","geo_precision":"zip"},"type":"Feature","geometry":{"type":"Point","coordinates":[-85.491788,39.292004]}},{"properties":{"zip":"47263","geo_score":0.714,"distribution":0,"id":"a62j4e1oogr4","geo_precision":"zip"},"type":"Feature","geometry":{"type":"Point","coordinates":[-85.329695,39.308252]}},{"properties":{"zip":"47264","geo_score":0.714,"distribution":0,"id":"a62j4e2113hd","geo_precision":"zip"},"type":"Feature","geometry":{"type":"Point","coordinates":[-86.301932,38.93394]}},{"properties":{"zip":"47265","geo_score":0.714,"distribution":31,"id":"a62j4e2mph8r","geo_precision":"zip"},"type":"Feature","geometry":{"type":"Point","coordinates":[-85.556076,38.925056]}},{"properties":{"zip":"47270","geo_score":0.714,"distribution":0,"id":"a62j4eakt540","geo_precision":"zip"},"type":"Feature","geometry":{"type":"Point","coordinates":[-85.662189,38.837001]}},{"properties":{"zip":"47272","geo_score":0.714,"distribution":2,"id":"a62j4ecs6vbq","geo_precision":"zip"},"type":"Feature","geometry":{"type":"Point","coordinates":[-85.595808,39.435605]}},{"properties":{"zip":"47273","geo_score":0.714,"distribution":1,"id":"a62j4e054ufb","geo_precision":"zip"},"type":"Feature","geometry":{"type":"Point","coordinates":[-85.733853,39.064795]}},{"properties":{"zip":"47274","geo_score":0.714,"distribution":66,"id":"a62j4e8upka0","geo_precision":"zip"},"type":"Feature","geometry":{"type":"Point","coordinates":[-86.058871,38.970608]}},{"properties":{"zip":"47280","geo_score":0.714,"distribution":1,"id":"a62j4e7hugr7","geo_precision":"zip"},"type":"Feature","geometry":{"type":"Point","coordinates":[-85.949844,39.295266]}},{"properties":{"zip":"47281","geo_score":0.714,"distribution":2,"id":"a62j4e57c9jk","geo_precision":"zip"},"type":"Feature","geometry":{"type":"Point","coordinates":[-86.089701,38.7195]}},{"properties":{"zip":"47282","geo_score":0.714,"distribution":2,"id":"a62j4ea6rmt0","geo_precision":"zip"},"type":"Feature","geometry":{"type":"Point","coordinates":[-85.616595,38.982509]}},{"properties":{"zip":"47283","geo_score":0.714,"distribution":7,"id":"a62j4e3xz1dr","geo_precision":"zip"},"type":"Feature","geometry":{"type":"Point","coordinates":[-85.631085,39.153941]}},{"properties":{"zip":"47302","geo_score":0.714,"distribution":20,"id":"a62j4ebexne9","geo_precision":"zip"},"type":"Feature","geometry":{"type":"Point","coordinates":[-85.518029,40.215043]}},{"properties":{"zip":"47303","geo_score":0.714,"distribution":24,"id":"a62j4efuxoed","geo_precision":"zip"},"type":"Feature","geometry":{"type":"Point","coordinates":[-85.308025,40.19671]}},{"properties":{"zip":"47304","geo_score":0.714,"distribution":76,"id":"a62j4e2fndbz","geo_precision":"zip"},"type":"Feature","geometry":{"type":"Point","coordinates":[-85.492473,40.209765]}},{"properties":{"zip":"47305","geo_score":0.714,"distribution":1,"id":"a62j4eegwdoj","geo_precision":"zip"},"type":"Feature","geometry":{"type":"Point","coordinates":[-85.433223,40.247979]}},{"properties":{"zip":"47306","geo_score":0.714,"distribution":0,"id":"a62j4e2yjxxd","geo_precision":"zip"},"type":"Feature","geometry":{"type":"Point","coordinates":[-85.408221,40.202293]}},{"properties":{"zip":"47307","geo_score":0.714,"distribution":0,"id":"a62j4edb193x","geo_precision":"zip"},"type":"Feature","geometry":{"type":"Point","coordinates":[-85.442772,40.162093]}},{"properties":{"zip":"47308","geo_score":0.714,"distribution":3,"id":"a62j4ecpzds4","geo_precision":"zip"},"type":"Feature","geometry":{"type":"Point","coordinates":[-85.396685,40.227938]}},{"properties":{"zip":"47320","geo_score":0.714,"distribution":10,"id":"a62j4eg1z3xr","geo_precision":"zip"},"type":"Feature","geometry":{"type":"Point","coordinates":[-85.274125,40.277967]}},{"properties":{"zip":"47322","geo_score":0.714,"distribution":0,"id":"a62j4e8uelcl","geo_precision":"zip"},"type":"Feature","geometry":{"type":"Point","coordinates":[-85.167996,39.656994]}},{"properties":{"zip":"47324","geo_score":0.714,"distribution":0,"id":"a62j4e7y563t","geo_precision":"zip"},"type":"Feature","geometry":{"type":"Point","coordinates":[-84.848442,39.757864]}},{"properties":{"zip":"47325","geo_score":0.714,"distribution":0,"id":"a62j4efzq7ak","geo_precision":"zip"},"type":"Feature","geometry":{"type":"Point","coordinates":[-85.053852,39.65727]}},{"properties":{"zip":"47326","geo_score":0.714,"distribution":0,"id":"a62j4e45o12r","geo_precision":"zip"},"type":"Feature","geometry":{"type":"Point","coordinates":[-84.99608,40.533379]}},{"properties":{"zip":"47327","geo_score":0.714,"distribution":6,"id":"a62j4e54sjhl","geo_precision":"zip"},"type":"Feature","geometry":{"type":"Point","coordinates":[-85.111353,39.813936]}},{"properties":{"zip":"47330","geo_score":0.714,"distribution":14,"id":"a62j4eet5jbz","geo_precision":"zip"},"type":"Feature","geometry":{"type":"Point","coordinates":[-84.963017,39.733103]}},{"properties":{"zip":"47331","geo_score":0.714,"distribution":52,"id":"a62j4ee1jo48","geo_precision":"zip"},"type":"Feature","geometry":{"type":"Point","coordinates":[-85.103019,39.703658]}},{"properties":{"zip":"47334","geo_score":0.714,"distribution":2,"id":"a62j4e1j4tg2","geo_precision":"zip"},"type":"Feature","geometry":{"type":"Point","coordinates":[-85.508457,40.143843]}},{"properties":{"zip":"47335","geo_score":0.714,"distribution":3,"id":"a62j4e7um7eh","geo_precision":"zip"},"type":"Feature","geometry":{"type":"Point","coordinates":[-85.204359,39.812688]}},{"properties":{"zip":"47336","geo_score":0.714,"distribution":8,"id":"a62j4e9peicd","geo_precision":"zip"},"type":"Feature","geometry":{"type":"Point","coordinates":[-85.091124,40.43525]}},{"properties":{"zip":"47337","geo_score":0.714,"distribution":1,"id":"a62j4e9fz877","geo_precision":"zip"},"type":"Feature","geometry":{"type":"Point","coordinates":[-85.43711,39.803063]}},{"properties":{"zip":"47338","geo_score":0.714,"distribution":5,"id":"a62j4ebp1xs2","geo_precision":"zip"},"type":"Feature","geometry":{"type":"Point","coordinates":[-85.359693,40.306154]}},{"properties":{"zip":"47339","geo_score":0.714,"distribution":1,"id":"a62j4e4lwqtj","geo_precision":"zip"},"type":"Feature","geometry":{"type":"Point","coordinates":[-85.102314,39.961044]}},{"properties":{"zip":"47340","geo_score":0.714,"distribution":0,"id":"a62j4ecg363a","geo_precision":"zip"},"type":"Feature","geometry":{"type":"Point","coordinates":[-85.096355,40.120878]}},{"properties":{"zip":"47341","geo_score":0.714,"distribution":5,"id":"a62j4e48oyuc","geo_precision":"zip"},"type":"Feature","geometry":{"type":"Point","coordinates":[-84.830238,39.986715]}},{"properties":{"zip":"47342","geo_score":0.714,"distribution":2,"id":"a62j4e1ad4ue","geo_precision":"zip"},"type":"Feature","geometry":{"type":"Point","coordinates":[-85.464139,40.363653]}},{"properties":{"zip":"47344","geo_score":0.714,"distribution":0,"id":"a62j4eeqdli4","geo_precision":"zip"},"type":"Feature","geometry":{"type":"Point","coordinates":[-85.464036,39.878933]}},{"properties":{"zip":"47345","geo_score":0.714,"distribution":3,"id":"a62j4e7g8ohw","geo_precision":"zip"},"type":"Feature","geometry":{"type":"Point","coordinates":[-85.013775,39.893845]}},{"properties":{"zip":"47346","geo_score":0.714,"distribution":7,"id":"a62j4edyzfrp","geo_precision":"zip"},"type":"Feature","geometry":{"type":"Point","coordinates":[-85.191076,39.973936]}},{"properties":{"zip":"47348","geo_score":0.714,"distribution":18,"id":"a62j4e854u02","geo_precision":"zip"},"type":"Feature","geometry":{"type":"Point","coordinates":[-85.23886,40.450044]}},{"properties":{"zip":"47351","geo_score":0.714,"distribution":0,"id":"a62j4eczjy38","geo_precision":"zip"},"type":"Feature","geometry":{"type":"Point","coordinates":[-85.520548,39.904018]}},{"properties":{"zip":"47352","geo_score":0.714,"distribution":0,"id":"a62j4eflvdga","geo_precision":"zip"},"type":"Feature","geometry":{"type":"Point","coordinates":[-85.372732,39.830372]}},{"properties":{"zip":"47353","geo_score":0.714,"distribution":5,"id":"a62j4eddd5hj","geo_precision":"zip"},"type":"Feature","geometry":{"type":"Point","coordinates":[-84.890236,39.596439]}},{"properties":{"zip":"47354","geo_score":0.714,"distribution":0,"id":"a62j4e2w3d12","geo_precision":"zip"},"type":"Feature","geometry":{"type":"Point","coordinates":[-85.240244,40.060046]}},{"properties":{"zip":"47355","geo_score":0.714,"distribution":1,"id":"a62j4e5p3gr6","geo_precision":"zip"},"type":"Feature","geometry":{"type":"Point","coordinates":[-84.851628,40.066158]}},{"properties":{"zip":"47356","geo_score":0.714,"distribution":14,"id":"a62j4e66z9sv","geo_precision":"zip"},"type":"Feature","geometry":{"type":"Point","coordinates":[-85.557198,40.005045]}},{"properties":{"zip":"47357","geo_score":0.714,"distribution":1,"id":"a62j4e969qb0","geo_precision":"zip"},"type":"Feature","geometry":{"type":"Point","coordinates":[-85.109015,39.764911]}},{"properties":{"zip":"47358","geo_score":0.714,"distribution":0,"id":"a62j4ee2wmzm","geo_precision":"zip"},"type":"Feature","geometry":{"type":"Point","coordinates":[-85.072188,40.071157]}},{"properties":{"zip":"47359","geo_score":0.714,"distribution":1,"id":"a62j4e8a0nc4","geo_precision":"zip"},"type":"Feature","geometry":{"type":"Point","coordinates":[-85.150248,40.581157]}},{"properties":{"zip":"47360","geo_score":0.714,"distribution":5,"id":"a62j4ebj9ony","geo_precision":"zip"},"type":"Feature","geometry":{"type":"Point","coordinates":[-85.293037,40.01641]}},{"properties":{"zip":"47361","geo_score":0.714,"distribution":0,"id":"a62j4e6ervcl","geo_precision":"zip"},"type":"Feature","geometry":{"type":"Point","coordinates":[-85.319923,40.001295]}},{"properties":{"zip":"47362","geo_score":0.714,"distribution":50,"id":"a62j4egepl2y","geo_precision":"zip"},"type":"Feature","geometry":{"type":"Point","coordinates":[-85.416916,39.919213]}},{"properties":{"zip":"47366","geo_score":0.714,"distribution":1,"id":"a62j4e316ys1","geo_precision":"zip"},"type":"Feature","geometry":{"type":"Point","coordinates":[-85.398625,39.931785]}},{"properties":{"zip":"47367","geo_score":0.714,"distribution":0,"id":"a62j4e66n0iv","geo_precision":"zip"},"type":"Feature","geometry":{"type":"Point","coordinates":[-85.389978,40.079197]}},{"properties":{"zip":"47368","geo_score":0.714,"distribution":3,"id":"a62j4ecku3gu","geo_precision":"zip"},"type":"Feature","geometry":{"type":"Point","coordinates":[-85.212746,40.154489]}},{"properties":{"zip":"47369","geo_score":0.714,"distribution":1,"id":"a62j4e84idny","geo_precision":"zip"},"type":"Feature","geometry":{"type":"Point","coordinates":[-85.133813,40.457413]}},{"properties":{"zip":"47370","geo_score":0.714,"distribution":1,"id":"a62j4eeyf3qr","geo_precision":"zip"},"type":"Feature","geometry":{"type":"Point","coordinates":[-85.137464,39.812547]}},{"properties":{"zip":"47371","geo_score":0.714,"distribution":41,"id":"a62j4eelgxgm","geo_precision":"zip"},"type":"Feature","geometry":{"type":"Point","coordinates":[-84.894966,40.498379]}},{"properties":{"zip":"47373","geo_score":0.714,"distribution":8,"id":"a62j4e0n5ad5","geo_precision":"zip"},"type":"Feature","geometry":{"type":"Point","coordinates":[-85.195248,40.298099]}},{"properties":{"zip":"47374","geo_score":0.714,"distribution":146,"id":"a62j4eds6cwm","geo_precision":"zip"},"type":"Feature","geometry":{"type":"Point","coordinates":[-84.831071,39.94477]}},{"properties":{"zip":"47375","geo_score":0.714,"distribution":5,"id":"a62j4ef8q9x6","geo_precision":"zip"},"type":"Feature","geometry":{"type":"Point","coordinates":[-85.015983,39.860417]}},{"properties":{"zip":"47380","geo_score":0.714,"distribution":1,"id":"a62j4ea8wt7x","geo_precision":"zip"},"type":"Feature","geometry":{"type":"Point","coordinates":[-84.9758,40.266155]}},{"properties":{"zip":"47381","geo_score":0.714,"distribution":0,"id":"a62j4eayegvy","geo_precision":"zip"},"type":"Feature","geometry":{"type":"Point","coordinates":[-84.882263,40.378574]}},{"properties":{"zip":"47382","geo_score":0.714,"distribution":0,"id":"a62j4e7q38fh","geo_precision":"zip"},"type":"Feature","geometry":{"type":"Point","coordinates":[-84.91848,40.234703]}},{"properties":{"zip":"47383","geo_score":0.714,"distribution":7,"id":"a62j4e0lnib9","geo_precision":"zip"},"type":"Feature","geometry":{"type":"Point","coordinates":[-85.26858,40.170044]}},{"properties":{"zip":"47384","geo_score":0.714,"distribution":8,"id":"a62j4e04remr","geo_precision":"zip"},"type":"Feature","geometry":{"type":"Point","coordinates":[-85.542475,39.866434]}},{"properties":{"zip":"47385","geo_score":0.714,"distribution":2,"id":"a62j4e2fyul1","geo_precision":"zip"},"type":"Feature","geometry":{"type":"Point","coordinates":[-85.450834,39.91725]}},{"properties":{"zip":"47386","geo_score":0.714,"distribution":3,"id":"a62j4e8uot38","geo_precision":"zip"},"type":"Feature","geometry":{"type":"Point","coordinates":[-85.366915,40.071157]}},{"properties":{"zip":"47387","geo_score":0.714,"distribution":1,"id":"a62j4ebh0wz4","geo_precision":"zip"},"type":"Feature","geometry":{"type":"Point","coordinates":[-85.284275,39.83059]}},{"properties":{"zip":"47388","geo_score":0.714,"distribution":0,"id":"a62j4eaqmuby","geo_precision":"zip"},"type":"Feature","geometry":{"type":"Point","coordinates":[-85.44341,40.005999]}},{"properties":{"zip":"47390","geo_score":0.714,"distribution":2,"id":"a62j4egkhn0z","geo_precision":"zip"},"type":"Feature","geometry":{"type":"Point","coordinates":[-84.841073,40.151158]}},{"properties":{"zip":"47392","geo_score":0.714,"distribution":0,"id":"a62j4ebd4cjq","geo_precision":"zip"},"type":"Feature","geometry":{"type":"Point","coordinates":[-84.935057,39.911895]}},{"properties":{"zip":"47393","geo_score":0.714,"distribution":6,"id":"a62j4e6aqnaa","geo_precision":"zip"},"type":"Feature","geometry":{"type":"Point","coordinates":[-85.005241,39.962269]}},{"properties":{"zip":"47394","geo_score":0.714,"distribution":17,"id":"a62j4e3mccvg","geo_precision":"zip"},"type":"Feature","geometry":{"type":"Point","coordinates":[-85.004412,40.236711]}},{"properties":{"zip":"47396","geo_score":0.714,"distribution":17,"id":"a62j4ebuafkz","geo_precision":"zip"},"type":"Feature","geometry":{"type":"Point","coordinates":[-85.481362,40.170877]}},{"properties":{"zip":"47401","geo_score":0.714,"distribution":179,"id":"a62j4e1e1avh","geo_precision":"zip"},"type":"Feature","geometry":{"type":"Point","coordinates":[-86.383326,39.150326]}},{"properties":{"zip":"47402","geo_score":0.714,"distribution":6,"id":"a62j4e64agu4","geo_precision":"zip"},"type":"Feature","geometry":{"type":"Point","coordinates":[-86.501543,39.173234]}},{"properties":{"zip":"47403","geo_score":0.714,"distribution":84,"id":"a62j4e5f6g9w","geo_precision":"zip"},"type":"Feature","geometry":{"type":"Point","coordinates":[-86.592389,39.07884]}},{"properties":{"zip":"47404","geo_score":0.714,"distribution":60,"id":"a62j4e0eiqkj","geo_precision":"zip"},"type":"Feature","geometry":{"type":"Point","coordinates":[-86.580849,39.25007]}},{"properties":{"zip":"47405","geo_score":0.714,"distribution":0,"id":"a62j4e0rjf1s","geo_precision":"zip"},"type":"Feature","geometry":{"type":"Point","coordinates":[-86.515145,39.173447]}},{"properties":{"zip":"47406","geo_score":0.714,"distribution":0,"id":"a62j4e481e8e","geo_precision":"zip"},"type":"Feature","geometry":{"type":"Point","coordinates":[-86.518296,39.174541]}},{"properties":{"zip":"47407","geo_score":0.714,"distribution":2,"id":"a62j4e2uigdv","geo_precision":"zip"},"type":"Feature","geometry":{"type":"Point","coordinates":[-86.501543,39.173234]}},{"properties":{"zip":"47408","geo_score":0.714,"distribution":52,"id":"a62j4e8wwtkp","geo_precision":"zip"},"type":"Feature","geometry":{"type":"Point","coordinates":[-86.469187,39.230326]}},{"properties":{"zip":"47420","geo_score":0.714,"distribution":1,"id":"a62j4e02qrhs","geo_precision":"zip"},"type":"Feature","geometry":{"type":"Point","coordinates":[-86.47943,38.839482]}},{"properties":{"zip":"47421","geo_score":0.714,"distribution":85,"id":"a62j4eebpwyc","geo_precision":"zip"},"type":"Feature","geometry":{"type":"Point","coordinates":[-86.414435,38.895607]}},{"properties":{"zip":"47424","geo_score":0.714,"distribution":18,"id":"a62j4eb9j196","geo_precision":"zip"},"type":"Feature","geometry":{"type":"Point","coordinates":[-86.886673,39.08199]}},{"properties":{"zip":"47426","geo_score":0.714,"distribution":2,"id":"a62j4eajxsln","geo_precision":"zip"},"type":"Feature","geometry":{"type":"Point","coordinates":[-86.501543,39.173234]}},{"properties":{"zip":"47427","geo_score":0.714,"distribution":1,"id":"a62j4e2j9h7t","geo_precision":"zip"},"type":"Feature","geometry":{"type":"Point","coordinates":[-87.012232,39.183099]}},{"properties":{"zip":"47429","geo_score":0.714,"distribution":33,"id":"a62j4edc7jck","geo_precision":"zip"},"type":"Feature","geometry":{"type":"Point","coordinates":[-86.62658,39.276356]}},{"properties":{"zip":"47430","geo_score":0.714,"distribution":0,"id":"a62j4e85x8am","geo_precision":"zip"},"type":"Feature","geometry":{"type":"Point","coordinates":[-86.47943,38.839482]}},{"properties":{"zip":"47431","geo_score":0.714,"distribution":2,"id":"a62j4e5p141n","geo_precision":"zip"},"type":"Feature","geometry":{"type":"Point","coordinates":[-86.891674,39.175322]}},{"properties":{"zip":"47432","geo_score":0.714,"distribution":24,"id":"a62j4e6i3tl4","geo_precision":"zip"},"type":"Feature","geometry":{"type":"Point","coordinates":[-86.683048,38.494499]}},{"properties":{"zip":"47433","geo_score":0.714,"distribution":9,"id":"a62j4e70hfao","geo_precision":"zip"},"type":"Feature","geometry":{"type":"Point","coordinates":[-86.701332,39.346964]}},{"properties":{"zip":"47434","geo_score":0.714,"distribution":2,"id":"a62j4e8ol038","geo_precision":"zip"},"type":"Feature","geometry":{"type":"Point","coordinates":[-86.545732,39.012984]}},{"properties":{"zip":"47435","geo_score":0.714,"distribution":1,"id":"a62j4e3xovec","geo_precision":"zip"},"type":"Feature","geometry":{"type":"Point","coordinates":[-86.230212,39.196272]}},{"properties":{"zip":"47436","geo_score":0.714,"distribution":3,"id":"a62j4e05qs8v","geo_precision":"zip"},"type":"Feature","geometry":{"type":"Point","coordinates":[-86.44916,38.998383]}},{"properties":{"zip":"47437","geo_score":0.714,"distribution":0,"id":"a62j4e9hc9zd","geo_precision":"zip"},"type":"Feature","geometry":{"type":"Point","coordinates":[-86.670987,38.722153]}},{"properties":{"zip":"47438","geo_score":0.714,"distribution":2,"id":"a62j4ec3hqu8","geo_precision":"zip"},"type":"Feature","geometry":{"type":"Point","coordinates":[-87.128901,39.125877]}},{"properties":{"zip":"47439","geo_score":0.714,"distribution":0,"id":"a62j4e6n0xlq","geo_precision":"zip"},"type":"Feature","geometry":{"type":"Point","coordinates":[-86.961577,39.037144]}},{"properties":{"zip":"47441","geo_score":0.714,"distribution":8,"id":"a62j4efebzu7","geo_precision":"zip"},"type":"Feature","geometry":{"type":"Point","coordinates":[-87.222792,39.046433]}},{"properties":{"zip":"47443","geo_score":0.714,"distribution":0,"id":"a62j4eai8tlc","geo_precision":"zip"},"type":"Feature","geometry":{"type":"Point","coordinates":[-87.142234,38.935879]}},{"properties":{"zip":"47445","geo_score":0.714,"distribution":1,"id":"a62j4e9zbfuo","geo_precision":"zip"},"type":"Feature","geometry":{"type":"Point","coordinates":[-86.961577,39.037144]}},{"properties":{"zip":"47446","geo_score":0.714,"distribution":20,"id":"a62j4e5x3iwf","geo_precision":"zip"},"type":"Feature","geometry":{"type":"Point","coordinates":[-86.493048,38.788107]}},{"properties":{"zip":"47448","geo_score":0.714,"distribution":40,"id":"a62j4e5aoqei","geo_precision":"zip"},"type":"Feature","geometry":{"type":"Point","coordinates":[-86.336937,39.265603]}},{"properties":{"zip":"47449","geo_score":0.714,"distribution":0,"id":"a62j4ecq0a2a","geo_precision":"zip"},"type":"Feature","geometry":{"type":"Point","coordinates":[-86.961577,39.037144]}},{"properties":{"zip":"47451","geo_score":0.714,"distribution":3,"id":"a62j4eblmkpq","geo_precision":"zip"},"type":"Feature","geometry":{"type":"Point","coordinates":[-86.525522,38.895608]}},{"properties":{"zip":"47452","geo_score":0.714,"distribution":9,"id":"a62j4e6u0pxe","geo_precision":"zip"},"type":"Feature","geometry":{"type":"Point","coordinates":[-86.401653,38.586167]}},{"properties":{"zip":"47453","geo_score":0.714,"distribution":1,"id":"a62j4ec36ajv","geo_precision":"zip"},"type":"Feature","geometry":{"type":"Point","coordinates":[-86.961577,39.037144]}},{"properties":{"zip":"47454","geo_score":0.714,"distribution":34,"id":"a62j4eb8v2m9","geo_precision":"zip"},"type":"Feature","geometry":{"type":"Point","coordinates":[-86.495543,38.476723]}},{"properties":{"zip":"47455","geo_score":0.714,"distribution":0,"id":"a62j4e758i5e","geo_precision":"zip"},"type":"Feature","geometry":{"type":"Point","coordinates":[-86.842743,39.319527]}},{"properties":{"zip":"47456","geo_score":0.714,"distribution":2,"id":"a62j4e14jdfb","geo_precision":"zip"},"type":"Feature","geometry":{"type":"Point","coordinates":[-86.669559,39.442888]}},{"properties":{"zip":"47457","geo_score":0.714,"distribution":0,"id":"a62j4ecwii9j","geo_precision":"zip"},"type":"Feature","geometry":{"type":"Point","coordinates":[-86.961577,39.037144]}},{"properties":{"zip":"47458","geo_score":0.714,"distribution":1,"id":"a62j4egemx26","geo_precision":"zip"},"type":"Feature","geometry":{"type":"Point","coordinates":[-86.501543,39.173234]}},{"properties":{"zip":"47459","geo_score":0.714,"distribution":5,"id":"a62j4e7wwztn","geo_precision":"zip"},"type":"Feature","geometry":{"type":"Point","coordinates":[-86.807227,39.128934]}},{"properties":{"zip":"47460","geo_score":0.714,"distribution":32,"id":"a62j4egbpf6r","geo_precision":"zip"},"type":"Feature","geometry":{"type":"Point","coordinates":[-86.840006,39.170045]}},{"properties":{"zip":"47462","geo_score":0.714,"distribution":13,"id":"a62j4e38f02l","geo_precision":"zip"},"type":"Feature","geometry":{"type":"Point","coordinates":[-86.656944,38.975881]}},{"properties":{"zip":"47463","geo_score":0.714,"distribution":0,"id":"a62j4eedag5n","geo_precision":"zip"},"type":"Feature","geometry":{"type":"Point","coordinates":[-86.6689,39.085896]}},{"properties":{"zip":"47464","geo_score":0.714,"distribution":1,"id":"a62j4e39nzge","geo_precision":"zip"},"type":"Feature","geometry":{"type":"Point","coordinates":[-86.631947,39.565047]}},{"properties":{"zip":"47465","geo_score":0.714,"distribution":0,"id":"a62j4e2twcgc","geo_precision":"zip"},"type":"Feature","geometry":{"type":"Point","coordinates":[-86.961577,39.037144]}},{"properties":{"zip":"47467","geo_score":0.714,"distribution":0,"id":"a62j4e1k8ei8","geo_precision":"zip"},"type":"Feature","geometry":{"type":"Point","coordinates":[-86.509161,38.976716]}},{"properties":{"zip":"47468","geo_score":0.714,"distribution":7,"id":"a62j4e5q6fs6","geo_precision":"zip"},"type":"Feature","geometry":{"type":"Point","coordinates":[-86.42106,39.274735]}},{"properties":{"zip":"47469","geo_score":0.714,"distribution":10,"id":"a62j4e70mndq","geo_precision":"zip"},"type":"Feature","geometry":{"type":"Point","coordinates":[-86.681938,38.595331]}},{"properties":{"zip":"47470","geo_score":0.714,"distribution":3,"id":"a62j4e5lshv8","geo_precision":"zip"},"type":"Feature","geometry":{"type":"Point","coordinates":[-86.665276,38.85755]}},{"properties":{"zip":"47471","geo_score":0.714,"distribution":3,"id":"a62j4e7kruh7","geo_precision":"zip"},"type":"Feature","geometry":{"type":"Point","coordinates":[-86.965286,39.125322]}},{"properties":{"zip":"47490","geo_score":0.714,"distribution":0,"id":"a62j4efqhayz","geo_precision":"zip"},"type":"Feature","geometry":{"type":"Point","coordinates":[-86.501543,39.173234]}},{"properties":{"zip":"47501","geo_score":0.714,"distribution":43,"id":"a62j4e0vkqeh","geo_precision":"zip"},"type":"Feature","geometry":{"type":"Point","coordinates":[-87.178622,38.634771]}},{"properties":{"zip":"47512","geo_score":0.714,"distribution":1,"id":"a62j4ef2dae8","geo_precision":"zip"},"type":"Feature","geometry":{"type":"Point","coordinates":[-87.32335,38.764491]}},{"properties":{"zip":"47513","geo_score":0.714,"distribution":2,"id":"a62j4eg7dkrh","geo_precision":"zip"},"type":"Feature","geometry":{"type":"Point","coordinates":[-86.665544,38.324502]}},{"properties":{"zip":"47514","geo_score":0.714,"distribution":1,"id":"a62j4e5gm59d","geo_precision":"zip"},"type":"Feature","geometry":{"type":"Point","coordinates":[-86.600262,38.137282]}},{"properties":{"zip":"47515","geo_score":0.714,"distribution":1,"id":"a62j4e0n0ftb","geo_precision":"zip"},"type":"Feature","geometry":{"type":"Point","coordinates":[-86.660821,38.225336]}},{"properties":{"zip":"47516","geo_score":0.714,"distribution":4,"id":"a62j4ef6hzcq","geo_precision":"zip"},"type":"Feature","geometry":{"type":"Point","coordinates":[-87.417076,38.761354]}},{"properties":{"zip":"47519","geo_score":0.714,"distribution":0,"id":"a62j4e266wwh","geo_precision":"zip"},"type":"Feature","geometry":{"type":"Point","coordinates":[-87.091762,38.697289]}},{"properties":{"zip":"47520","geo_score":0.714,"distribution":4,"id":"a62j4e030d7m","geo_precision":"zip"},"type":"Feature","geometry":{"type":"Point","coordinates":[-86.715557,37.949544]}},{"properties":{"zip":"47521","geo_score":0.714,"distribution":1,"id":"a62j4e8vprf1","geo_precision":"zip"},"type":"Feature","geometry":{"type":"Point","coordinates":[-86.742618,38.406745]}},{"properties":{"zip":"47522","geo_score":0.714,"distribution":0,"id":"a62j4e3pkwiy","geo_precision":"zip"},"type":"Feature","geometry":{"type":"Point","coordinates":[-86.900174,38.894879]}},{"properties":{"zip":"47523","geo_score":0.714,"distribution":5,"id":"a62j4e147bty","geo_precision":"zip"},"type":"Feature","geometry":{"type":"Point","coordinates":[-87.106112,38.204218]}},{"properties":{"zip":"47524","geo_score":0.714,"distribution":0,"id":"a62j4ecakzel","geo_precision":"zip"},"type":"Feature","geometry":{"type":"Point","coordinates":[-87.511863,38.626138]}},{"properties":{"zip":"47525","geo_score":0.714,"distribution":1,"id":"a62j4e6kc43a","geo_precision":"zip"},"type":"Feature","geometry":{"type":"Point","coordinates":[-86.47859,38.05923]}},{"properties":{"zip":"47527","geo_score":0.714,"distribution":6,"id":"a62j4e53g2zn","geo_precision":"zip"},"type":"Feature","geometry":{"type":"Point","coordinates":[-86.831663,38.48172]}},{"properties":{"zip":"47528","geo_score":0.714,"distribution":0,"id":"a62j4eelc37z","geo_precision":"zip"},"type":"Feature","geometry":{"type":"Point","coordinates":[-87.38271,38.786795]}},{"properties":{"zip":"47529","geo_score":0.714,"distribution":1,"id":"a62j4eda7x4l","geo_precision":"zip"},"type":"Feature","geometry":{"type":"Point","coordinates":[-87.085001,38.877167]}},{"properties":{"zip":"47531","geo_score":0.714,"distribution":2,"id":"a62j4edesbkj","geo_precision":"zip"},"type":"Feature","geometry":{"type":"Point","coordinates":[-86.810268,38.058667]}},{"properties":{"zip":"47532","geo_score":0.714,"distribution":10,"id":"a62j4e6mw1y6","geo_precision":"zip"},"type":"Feature","geometry":{"type":"Point","coordinates":[-86.928606,38.217554]}},{"properties":{"zip":"47535","geo_score":0.714,"distribution":1,"id":"a62j4eezjecm","geo_precision":"zip"},"type":"Feature","geometry":{"type":"Point","coordinates":[-87.312678,38.862735]}},{"properties":{"zip":"47536","geo_score":0.714,"distribution":0,"id":"a62j4ea73q2r","geo_precision":"zip"},"type":"Feature","geometry":{"type":"Point","coordinates":[-87.016971,37.993813]}},{"properties":{"zip":"47537","geo_score":0.714,"distribution":0,"id":"a62j4ebiueoy","geo_precision":"zip"},"type":"Feature","geometry":{"type":"Point","coordinates":[-87.049834,38.080052]}},{"properties":{"zip":"47541","geo_score":0.714,"distribution":2,"id":"a62j4e0vnypr","geo_precision":"zip"},"type":"Feature","geometry":{"type":"Point","coordinates":[-87.007734,38.249617]}},{"properties":{"zip":"47542","geo_score":0.714,"distribution":18,"id":"a62j4e6rc1oo","geo_precision":"zip"},"type":"Feature","geometry":{"type":"Point","coordinates":[-86.889718,38.346443]}},{"properties":{"zip":"47545","geo_score":0.714,"distribution":0,"id":"a62j4eb6jv1e","geo_precision":"zip"},"type":"Feature","geometry":{"type":"Point","coordinates":[-87.000879,38.413687]}},{"properties":{"zip":"47546","geo_score":0.714,"distribution":57,"id":"a62j4e0kzkkx","geo_precision":"zip"},"type":"Feature","geometry":{"type":"Point","coordinates":[-86.978335,38.499496]}},{"properties":{"zip":"47547","geo_score":0.714,"distribution":1,"id":"a62j4e7theix","geo_precision":"zip"},"type":"Feature","geometry":{"type":"Point","coordinates":[-86.876173,38.364749]}},{"properties":{"zip":"47549","geo_score":0.714,"distribution":0,"id":"a62j4ecukotc","geo_precision":"zip"},"type":"Feature","geometry":{"type":"Point","coordinates":[-86.876173,38.364749]}},{"properties":{"zip":"47550","geo_score":0.714,"distribution":1,"id":"a62j4e87iu3w","geo_precision":"zip"},"type":"Feature","geometry":{"type":"Point","coordinates":[-86.922494,38.081442]}},{"properties":{"zip":"47551","geo_score":0.714,"distribution":1,"id":"a62j4e4id8bn","geo_precision":"zip"},"type":"Feature","geometry":{"type":"Point","coordinates":[-86.504703,38.168951]}},{"properties":{"zip":"47552","geo_score":0.714,"distribution":0,"id":"a62j4ebqeefa","geo_precision":"zip"},"type":"Feature","geometry":{"type":"Point","coordinates":[-86.995988,38.124192]}},{"properties":{"zip":"47553","geo_score":0.714,"distribution":17,"id":"a62j4efyzp7r","geo_precision":"zip"},"type":"Feature","geometry":{"type":"Point","coordinates":[-86.91278,38.618662]}},{"properties":{"zip":"47556","geo_score":0.714,"distribution":0,"id":"a62j4eb6p0ts","geo_precision":"zip"},"type":"Feature","geometry":{"type":"Point","coordinates":[-86.917205,38.16644]}},{"properties":{"zip":"47557","geo_score":0.714,"distribution":2,"id":"a62j4ecjheas","geo_precision":"zip"},"type":"Feature","geometry":{"type":"Point","coordinates":[-87.348072,38.610326]}},{"properties":{"zip":"47558","geo_score":0.714,"distribution":3,"id":"a62j4efifslg","geo_precision":"zip"},"type":"Feature","geometry":{"type":"Point","coordinates":[-87.072784,38.538939]}},{"properties":{"zip":"47561","geo_score":0.714,"distribution":3,"id":"a62j4e8bseh2","geo_precision":"zip"},"type":"Feature","geometry":{"type":"Point","coordinates":[-87.449186,38.835601]}},{"properties":{"zip":"47562","geo_score":0.714,"distribution":4,"id":"a62j4ee64hii","geo_precision":"zip"},"type":"Feature","geometry":{"type":"Point","coordinates":[-86.961395,38.803382]}},{"properties":{"zip":"47564","geo_score":0.714,"distribution":0,"id":"a62j4efditzx","geo_precision":"zip"},"type":"Feature","geometry":{"type":"Point","coordinates":[-87.119452,38.502828]}},{"properties":{"zip":"47567","geo_score":0.714,"distribution":5,"id":"a62j4e6qyx8m","geo_precision":"zip"},"type":"Feature","geometry":{"type":"Point","coordinates":[-87.295569,38.450882]}},{"properties":{"zip":"47568","geo_score":0.714,"distribution":0,"id":"a62j4e5vqq4m","geo_precision":"zip"},"type":"Feature","geometry":{"type":"Point","coordinates":[-87.063065,38.785326]}},{"properties":{"zip":"47573","geo_score":0.714,"distribution":0,"id":"a62j4e0pfu7k","geo_precision":"zip"},"type":"Feature","geometry":{"type":"Point","coordinates":[-87.321357,38.744136]}},{"properties":{"zip":"47574","geo_score":0.714,"distribution":0,"id":"a62j4e3b0iw1","geo_precision":"zip"},"type":"Feature","geometry":{"type":"Point","coordinates":[-86.534002,37.937193]}},{"properties":{"zip":"47575","geo_score":0.714,"distribution":2,"id":"a62j4ecflqba","geo_precision":"zip"},"type":"Feature","geometry":{"type":"Point","coordinates":[-86.818049,38.305611]}},{"properties":{"zip":"47576","geo_score":0.714,"distribution":0,"id":"a62j4eby8qtn","geo_precision":"zip"},"type":"Feature","geometry":{"type":"Point","coordinates":[-86.64902,38.152479]}},{"properties":{"zip":"47577","geo_score":0.714,"distribution":2,"id":"a62j4ebaos3o","geo_precision":"zip"},"type":"Feature","geometry":{"type":"Point","coordinates":[-86.821891,38.141725]}},{"properties":{"zip":"47578","geo_score":0.714,"distribution":4,"id":"a62j4e09njgx","geo_precision":"zip"},"type":"Feature","geometry":{"type":"Point","coordinates":[-87.19594,38.881471]}},{"properties":{"zip":"47579","geo_score":0.714,"distribution":25,"id":"a62j4e39vtzq","geo_precision":"zip"},"type":"Feature","geometry":{"type":"Point","coordinates":[-86.928645,38.117579]}},{"properties":{"zip":"47580","geo_score":0.714,"distribution":0,"id":"a62j4e8nk14i","geo_precision":"zip"},"type":"Feature","geometry":{"type":"Point","coordinates":[-86.912488,38.352759]}},{"properties":{"zip":"47581","geo_score":0.714,"distribution":2,"id":"a62j4eg3ku1c","geo_precision":"zip"},"type":"Feature","geometry":{"type":"Point","coordinates":[-86.797775,38.573942]}},{"properties":{"zip":"47584","geo_score":0.714,"distribution":0,"id":"a62j4ef6hrtw","geo_precision":"zip"},"type":"Feature","geometry":{"type":"Point","coordinates":[-87.230482,38.26376]}},{"properties":{"zip":"47585","geo_score":0.714,"distribution":1,"id":"a62j4e80apo0","geo_precision":"zip"},"type":"Feature","geometry":{"type":"Point","coordinates":[-87.073056,38.269219]}},{"properties":{"zip":"47586","geo_score":0.714,"distribution":33,"id":"a62j4e67ldp6","geo_precision":"zip"},"type":"Feature","geometry":{"type":"Point","coordinates":[-86.651373,38.011726]}},{"properties":{"zip":"47588","geo_score":0.714,"distribution":1,"id":"a62j4edfi6h2","geo_precision":"zip"},"type":"Feature","geometry":{"type":"Point","coordinates":[-86.776934,38.102001]}},{"properties":{"zip":"47590","geo_score":0.714,"distribution":1,"id":"a62j4e5l4xrp","geo_precision":"zip"},"type":"Feature","geometry":{"type":"Point","coordinates":[-87.111392,38.321996]}},{"properties":{"zip":"47591","geo_score":0.714,"distribution":52,"id":"a62j4e23u8qs","geo_precision":"zip"},"type":"Feature","geometry":{"type":"Point","coordinates":[-87.429463,38.636714]}},{"properties":{"zip":"47596","geo_score":0.714,"distribution":0,"id":"a62j4ec8few5","geo_precision":"zip"},"type":"Feature","geometry":{"type":"Point","coordinates":[-87.3318,38.791556]}},{"properties":{"zip":"47597","geo_score":0.714,"distribution":3,"id":"a62j4e1fcxza","geo_precision":"zip"},"type":"Feature","geometry":{"type":"Point","coordinates":[-87.329395,38.656969]}},{"properties":{"zip":"47598","geo_score":0.714,"distribution":7,"id":"a62j4ebqv6hr","geo_precision":"zip"},"type":"Feature","geometry":{"type":"Point","coordinates":[-87.146396,38.409495]}},{"properties":{"zip":"47601","geo_score":0.714,"distribution":39,"id":"a62j4efxs7y7","geo_precision":"zip"},"type":"Feature","geometry":{"type":"Point","coordinates":[-87.270839,38.066714]}},{"properties":{"zip":"47610","geo_score":0.714,"distribution":11,"id":"a62j4e0liq31","geo_precision":"zip"},"type":"Feature","geometry":{"type":"Point","coordinates":[-87.433345,38.01671]}},{"properties":{"zip":"47611","geo_score":0.714,"distribution":1,"id":"a62j4e2epm83","geo_precision":"zip"},"type":"Feature","geometry":{"type":"Point","coordinates":[-87.063331,37.994217]}},{"properties":{"zip":"47612","geo_score":0.714,"distribution":4,"id":"a62j4e5a3cz7","geo_precision":"zip"},"type":"Feature","geometry":{"type":"Point","coordinates":[-87.711423,38.175698]}},{"properties":{"zip":"47613","geo_score":0.714,"distribution":5,"id":"a62j4e71jz2e","geo_precision":"zip"},"type":"Feature","geometry":{"type":"Point","coordinates":[-87.461405,38.187267]}},{"properties":{"zip":"47614","geo_score":0.714,"distribution":0,"id":"a62j4eabas6f","geo_precision":"zip"},"type":"Feature","geometry":{"type":"Point","coordinates":[-87.163636,38.130034]}},{"properties":{"zip":"47615","geo_score":0.714,"distribution":2,"id":"a62j4e6dz9el","geo_precision":"zip"},"type":"Feature","geometry":{"type":"Point","coordinates":[-86.943327,38.001997]}},{"properties":{"zip":"47616","geo_score":0.714,"distribution":1,"id":"a62j4ec7j44g","geo_precision":"zip"},"type":"Feature","geometry":{"type":"Point","coordinates":[-87.91701,38.190994]}},{"properties":{"zip":"47617","geo_score":0.714,"distribution":0,"id":"a62j4e3c6goc","geo_precision":"zip"},"type":"Feature","geometry":{"type":"Point","coordinates":[-87.249886,37.903557]}},{"properties":{"zip":"47618","geo_score":0.714,"distribution":0,"id":"a62j4ecsh3rs","geo_precision":"zip"},"type":"Feature","geometry":{"type":"Point","coordinates":[-87.574963,37.997128]}},{"properties":{"zip":"47619","geo_score":0.714,"distribution":2,"id":"a62j4ef7ivy8","geo_precision":"zip"},"type":"Feature","geometry":{"type":"Point","coordinates":[-87.283955,38.162899]}},{"properties":{"zip":"47620","geo_score":0.714,"distribution":37,"id":"a62j4ectkpup","geo_precision":"zip"},"type":"Feature","geometry":{"type":"Point","coordinates":[-87.715854,37.986987]}},{"properties":{"zip":"47629","geo_score":0.714,"distribution":2,"id":"a62j4e1mhzf9","geo_precision":"zip"},"type":"Feature","geometry":{"type":"Point","coordinates":[-87.245214,38.06242]}},{"properties":{"zip":"47630","geo_score":0.714,"distribution":231,"id":"a62j4e0b4ps0","geo_precision":"zip"},"type":"Feature","geometry":{"type":"Point","coordinates":[-87.297782,37.917546]}},{"properties":{"zip":"47631","geo_score":0.714,"distribution":5,"id":"a62j4e6u2r8v","geo_precision":"zip"},"type":"Feature","geometry":{"type":"Point","coordinates":[-87.898765,38.101827]}},{"properties":{"zip":"47633","geo_score":0.714,"distribution":0,"id":"a62j4e7v1w54","geo_precision":"zip"},"type":"Feature","geometry":{"type":"Point","coordinates":[-87.832806,38.184767]}},{"properties":{"zip":"47634","geo_score":0.714,"distribution":2,"id":"a62j4ebjrvub","geo_precision":"zip"},"type":"Feature","geometry":{"type":"Point","coordinates":[-87.136282,37.975392]}},{"properties":{"zip":"47635","geo_score":0.714,"distribution":12,"id":"a62j4ecxdoyv","geo_precision":"zip"},"type":"Feature","geometry":{"type":"Point","coordinates":[-87.071386,37.915883]}},{"properties":{"zip":"47637","geo_score":0.714,"distribution":2,"id":"a62j4egji8ix","geo_precision":"zip"},"type":"Feature","geometry":{"type":"Point","coordinates":[-87.163336,38.178383]}},{"properties":{"zip":"47638","geo_score":0.714,"distribution":14,"id":"a62j4e3sm1wd","geo_precision":"zip"},"type":"Feature","geometry":{"type":"Point","coordinates":[-87.716133,38.04671]}},{"properties":{"zip":"47639","geo_score":0.714,"distribution":10,"id":"a62j4ebe5vzh","geo_precision":"zip"},"type":"Feature","geometry":{"type":"Point","coordinates":[-87.57752,38.176711]}},{"properties":{"zip":"47640","geo_score":0.714,"distribution":1,"id":"a62j4e1tpmqi","geo_precision":"zip"},"type":"Feature","geometry":{"type":"Point","coordinates":[-87.434741,38.465325]}},{"properties":{"zip":"47647","geo_score":0.714,"distribution":0,"id":"a62j4eewb8j8","geo_precision":"zip"},"type":"Feature","geometry":{"type":"Point","coordinates":[-87.651777,38.34949]}},{"properties":{"zip":"47648","geo_score":0.714,"distribution":12,"id":"a62j4e7xb69i","geo_precision":"zip"},"type":"Feature","geometry":{"type":"Point","coordinates":[-87.518339,38.30512]}},{"properties":{"zip":"47649","geo_score":0.714,"distribution":1,"id":"a62j4e74ycki","geo_precision":"zip"},"type":"Feature","geometry":{"type":"Point","coordinates":[-87.447826,38.331581]}},{"properties":{"zip":"47654","geo_score":0.714,"distribution":0,"id":"a62j4e548hoh","geo_precision":"zip"},"type":"Feature","geometry":{"type":"Point","coordinates":[-87.651777,38.34949]}},{"properties":{"zip":"47660","geo_score":0.714,"distribution":4,"id":"a62j4e0tx2qg","geo_precision":"zip"},"type":"Feature","geometry":{"type":"Point","coordinates":[-87.26112,38.289216]}},{"properties":{"zip":"47665","geo_score":0.714,"distribution":9,"id":"a62j4e48qt9r","geo_precision":"zip"},"type":"Feature","geometry":{"type":"Point","coordinates":[-87.781695,38.341435]}},{"properties":{"zip":"47666","geo_score":0.714,"distribution":6,"id":"a62j4e98d7kh","geo_precision":"zip"},"type":"Feature","geometry":{"type":"Point","coordinates":[-87.583761,38.401233]}},{"properties":{"zip":"47670","geo_score":0.714,"distribution":30,"id":"a62j4e4y7x8a","geo_precision":"zip"},"type":"Feature","geometry":{"type":"Point","coordinates":[-87.501687,38.330601]}},{"properties":{"zip":"47683","geo_score":0.714,"distribution":0,"id":"a62j4e5nyzrk","geo_precision":"zip"},"type":"Feature","geometry":{"type":"Point","coordinates":[-87.37734,38.281095]}},{"properties":{"zip":"47701","geo_score":0.714,"distribution":0,"id":"a62j4e0kf0cf","geo_precision":"zip"},"type":"Feature","geometry":{"type":"Point","coordinates":[-87.574963,37.997128]}},{"properties":{"zip":"47702","geo_score":0.714,"distribution":0,"id":"a62j4e1o3z1b","geo_precision":"zip"},"type":"Feature","geometry":{"type":"Point","coordinates":[-87.574963,37.997128]}},{"properties":{"zip":"47703","geo_score":0.714,"distribution":0,"id":"a62j4ebaxr8y","geo_precision":"zip"},"type":"Feature","geometry":{"type":"Point","coordinates":[-87.574963,37.997128]}},{"properties":{"zip":"47704","geo_score":0.714,"distribution":0,"id":"a62j4eboeo1u","geo_precision":"zip"},"type":"Feature","geometry":{"type":"Point","coordinates":[-87.574963,37.997128]}},{"properties":{"zip":"47705","geo_score":0.714,"distribution":0,"id":"a62j4ef8v55o","geo_precision":"zip"},"type":"Feature","geometry":{"type":"Point","coordinates":[-87.574963,37.997128]}},{"properties":{"zip":"47706","geo_score":0.714,"distribution":0,"id":"a62j4e2v0wdg","geo_precision":"zip"},"type":"Feature","geometry":{"type":"Point","coordinates":[-87.574963,37.997128]}},{"properties":{"zip":"47708","geo_score":0.714,"distribution":3,"id":"a62j4e53m76i","geo_precision":"zip"},"type":"Feature","geometry":{"type":"Point","coordinates":[-87.564842,37.976692]}},{"properties":{"zip":"47710","geo_score":0.714,"distribution":30,"id":"a62j4e5red8m","geo_precision":"zip"},"type":"Feature","geometry":{"type":"Point","coordinates":[-87.573073,38.039765]}},{"properties":{"zip":"47711","geo_score":0.714,"distribution":113,"id":"a62j4ed9xd2s","geo_precision":"zip"},"type":"Feature","geometry":{"type":"Point","coordinates":[-87.515848,38.026153]}},{"properties":{"zip":"47712","geo_score":0.714,"distribution":64,"id":"a62j4e8q49ob","geo_precision":"zip"},"type":"Feature","geometry":{"type":"Point","coordinates":[-87.697245,38.105599]}},{"properties":{"zip":"47713","geo_score":0.714,"distribution":14,"id":"a62j4ec6d1l3","geo_precision":"zip"},"type":"Feature","geometry":{"type":"Point","coordinates":[-87.547564,37.95219]}},{"properties":{"zip":"47714","geo_score":0.714,"distribution":77,"id":"a62j4eb32dem","geo_precision":"zip"},"type":"Feature","geometry":{"type":"Point","coordinates":[-87.519682,37.959092]}},{"properties":{"zip":"47715","geo_score":0.714,"distribution":142,"id":"a62j4e5epfff","geo_precision":"zip"},"type":"Feature","geometry":{"type":"Point","coordinates":[-87.489212,37.984202]}},{"properties":{"zip":"47716","geo_score":0.714,"distribution":5,"id":"a62j4e4fbo1g","geo_precision":"zip"},"type":"Feature","geometry":{"type":"Point","coordinates":[-87.574963,37.997128]}},{"properties":{"zip":"47719","geo_score":0.714,"distribution":1,"id":"a62j4e4ejl5l","geo_precision":"zip"},"type":"Feature","geometry":{"type":"Point","coordinates":[-87.574963,37.997128]}},{"properties":{"zip":"47720","geo_score":0.714,"distribution":62,"id":"a62j4e95wi8u","geo_precision":"zip"},"type":"Feature","geometry":{"type":"Point","coordinates":[-87.637962,38.059937]}},{"properties":{"zip":"47721","geo_score":0.714,"distribution":0,"id":"a62j4ebyhz8o","geo_precision":"zip"},"type":"Feature","geometry":{"type":"Point","coordinates":[-87.600791,37.978035]}},{"properties":{"zip":"47722","geo_score":0.714,"distribution":0,"id":"a62j4ee4kazl","geo_precision":"zip"},"type":"Feature","geometry":{"type":"Point","coordinates":[-87.542014,37.970192]}},{"properties":{"zip":"47724","geo_score":0.714,"distribution":2,"id":"a62j4ebu0qz5","geo_precision":"zip"},"type":"Feature","geometry":{"type":"Point","coordinates":[-87.574963,37.997128]}},{"properties":{"zip":"47725","geo_score":0.714,"distribution":102,"id":"a62j4e8pukhu","geo_precision":"zip"},"type":"Feature","geometry":{"type":"Point","coordinates":[-87.547704,38.045237]}},{"properties":{"zip":"47727","geo_score":0.714,"distribution":0,"id":"a62j4e6cp9gx","geo_precision":"zip"},"type":"Feature","geometry":{"type":"Point","coordinates":[-87.538915,38.031942]}},{"properties":{"zip":"47728","geo_score":0.714,"distribution":1,"id":"a62j4e9vi1m2","geo_precision":"zip"},"type":"Feature","geometry":{"type":"Point","coordinates":[-87.574963,37.997128]}},{"properties":{"zip":"47730","geo_score":0.714,"distribution":0,"id":"a62j4ee5zdqu","geo_precision":"zip"},"type":"Feature","geometry":{"type":"Point","coordinates":[-87.574963,37.997128]}},{"properties":{"zip":"47731","geo_score":0.714,"distribution":0,"id":"a62j4edu943g","geo_precision":"zip"},"type":"Feature","geometry":{"type":"Point","coordinates":[-87.574963,37.997128]}},{"properties":{"zip":"47732","geo_score":0.714,"distribution":0,"id":"a62j4e53giyk","geo_precision":"zip"},"type":"Feature","geometry":{"type":"Point","coordinates":[-87.574963,37.997128]}},{"properties":{"zip":"47733","geo_score":0.714,"distribution":0,"id":"a62j4e42d8xr","geo_precision":"zip"},"type":"Feature","geometry":{"type":"Point","coordinates":[-87.574963,37.997128]}},{"properties":{"zip":"47734","geo_score":0.714,"distribution":0,"id":"a62j4eb65l57","geo_precision":"zip"},"type":"Feature","geometry":{"type":"Point","coordinates":[-87.574963,37.997128]}},{"properties":{"zip":"47735","geo_score":0.714,"distribution":0,"id":"a62j4eg2vc2s","geo_precision":"zip"},"type":"Feature","geometry":{"type":"Point","coordinates":[-87.574963,37.997128]}},{"properties":{"zip":"47736","geo_score":0.714,"distribution":0,"id":"a62j4eezp42f","geo_precision":"zip"},"type":"Feature","geometry":{"type":"Point","coordinates":[-87.574963,37.997128]}},{"properties":{"zip":"47737","geo_score":0.714,"distribution":0,"id":"a62j4ec7ppb0","geo_precision":"zip"},"type":"Feature","geometry":{"type":"Point","coordinates":[-87.574963,37.997128]}},{"properties":{"zip":"47739","geo_score":0.714,"distribution":0,"id":"a62j4ea7gx7j","geo_precision":"zip"},"type":"Feature","geometry":{"type":"Point","coordinates":[-87.574963,37.997128]}},{"properties":{"zip":"47740","geo_score":0.714,"distribution":0,"id":"a62j4e486apw","geo_precision":"zip"},"type":"Feature","geometry":{"type":"Point","coordinates":[-87.574963,37.997128]}},{"properties":{"zip":"47741","geo_score":0.714,"distribution":0,"id":"a62j4e2znr8d","geo_precision":"zip"},"type":"Feature","geometry":{"type":"Point","coordinates":[-87.574963,37.997128]}},{"properties":{"zip":"47744","geo_score":0.714,"distribution":0,"id":"a62j4ecw35ay","geo_precision":"zip"},"type":"Feature","geometry":{"type":"Point","coordinates":[-87.597316,37.977492]}},{"properties":{"zip":"47747","geo_score":0.714,"distribution":0,"id":"a62j4eake75k","geo_precision":"zip"},"type":"Feature","geometry":{"type":"Point","coordinates":[-87.574963,37.997128]}},{"properties":{"zip":"47750","geo_score":0.714,"distribution":0,"id":"a62j4e0n2bb7","geo_precision":"zip"},"type":"Feature","geometry":{"type":"Point","coordinates":[-87.505512,37.962292]}},{"properties":{"zip":"47801","geo_score":0.714,"distribution":2,"id":"a62j4e1jzfj7","geo_precision":"zip"},"type":"Feature","geometry":{"type":"Point","coordinates":[-87.410094,39.433602]}},{"properties":{"zip":"47802","geo_score":0.714,"distribution":79,"id":"a62j4ebi1x78","geo_precision":"zip"},"type":"Feature","geometry":{"type":"Point","coordinates":[-87.382242,39.362261]}},{"properties":{"zip":"47803","geo_score":0.714,"distribution":66,"id":"a62j4edc9eqq","geo_precision":"zip"},"type":"Feature","geometry":{"type":"Point","coordinates":[-87.292796,39.476427]}},{"properties":{"zip":"47804","geo_score":0.714,"distribution":8,"id":"a62j4ef0fmgk","geo_precision":"zip"},"type":"Feature","geometry":{"type":"Point","coordinates":[-87.397798,39.492259]}},{"properties":{"zip":"47805","geo_score":0.714,"distribution":31,"id":"a62j4edmsoii","geo_precision":"zip"},"type":"Feature","geometry":{"type":"Point","coordinates":[-87.398353,39.527814]}},{"properties":{"zip":"47807","geo_score":0.714,"distribution":7,"id":"a62j4e7van6r","geo_precision":"zip"},"type":"Feature","geometry":{"type":"Point","coordinates":[-87.392019,39.467536]}},{"properties":{"zip":"47808","geo_score":0.714,"distribution":1,"id":"a62j4e3ba3xg","geo_precision":"zip"},"type":"Feature","geometry":{"type":"Point","coordinates":[-87.410094,39.433602]}},{"properties":{"zip":"47809","geo_score":0.714,"distribution":0,"id":"a62j4efhk0wf","geo_precision":"zip"},"type":"Feature","geometry":{"type":"Point","coordinates":[-87.41107,39.470986]}},{"properties":{"zip":"47811","geo_score":0.714,"distribution":0,"id":"a62j4e48i7hg","geo_precision":"zip"},"type":"Feature","geometry":{"type":"Point","coordinates":[-87.410094,39.433602]}},{"properties":{"zip":"47812","geo_score":0.714,"distribution":0,"id":"a62j4eec4vqb","geo_precision":"zip"},"type":"Feature","geometry":{"type":"Point","coordinates":[-87.410094,39.433602]}},{"properties":{"zip":"47813","geo_score":0.714,"distribution":0,"id":"a62j4e04xzil","geo_precision":"zip"},"type":"Feature","geometry":{"type":"Point","coordinates":[-87.410094,39.433602]}},{"properties":{"zip":"47814","geo_score":0.714,"distribution":0,"id":"a62j4ec7th6c","geo_precision":"zip"},"type":"Feature","geometry":{"type":"Point","coordinates":[-87.410094,39.433602]}},{"properties":{"zip":"47830","geo_score":0.714,"distribution":0,"id":"a62j4e44aan4","geo_precision":"zip"},"type":"Feature","geometry":{"type":"Point","coordinates":[-87.221819,39.779078]}},{"properties":{"zip":"47831","geo_score":0.714,"distribution":0,"id":"a62j4e3fuxdr","geo_precision":"zip"},"type":"Feature","geometry":{"type":"Point","coordinates":[-87.443566,39.877847]}},{"properties":{"zip":"47832","geo_score":0.714,"distribution":2,"id":"a62j4edn4wp0","geo_precision":"zip"},"type":"Feature","geometry":{"type":"Point","coordinates":[-87.294457,39.918929]}},{"properties":{"zip":"47833","geo_score":0.714,"distribution":3,"id":"a62j4efddlzb","geo_precision":"zip"},"type":"Feature","geometry":{"type":"Point","coordinates":[-87.065524,39.415414]}},{"properties":{"zip":"47834","geo_score":0.714,"distribution":64,"id":"a62j4e3wc9ai","geo_precision":"zip"},"type":"Feature","geometry":{"type":"Point","coordinates":[-87.160294,39.498373]}},{"properties":{"zip":"47836","geo_score":0.714,"distribution":0,"id":"a62j4e5lxt8o","geo_precision":"zip"},"type":"Feature","geometry":{"type":"Point","coordinates":[-87.221819,39.779078]}},{"properties":{"zip":"47837","geo_score":0.714,"distribution":4,"id":"a62j4e67sa6u","geo_precision":"zip"},"type":"Feature","geometry":{"type":"Point","coordinates":[-87.13307,39.626153]}},{"properties":{"zip":"47838","geo_score":0.714,"distribution":0,"id":"a62j4e19zxjc","geo_precision":"zip"},"type":"Feature","geometry":{"type":"Point","coordinates":[-87.250292,38.966989]}},{"properties":{"zip":"47840","geo_score":0.714,"distribution":2,"id":"a62j4ed8bznc","geo_precision":"zip"},"type":"Feature","geometry":{"type":"Point","coordinates":[-87.132237,39.365319]}},{"properties":{"zip":"47841","geo_score":0.714,"distribution":5,"id":"a62j4eby6ow1","geo_precision":"zip"},"type":"Feature","geometry":{"type":"Point","coordinates":[-87.120012,39.196987]}},{"properties":{"zip":"47842","geo_score":0.714,"distribution":9,"id":"a62j4efu2ug1","geo_precision":"zip"},"type":"Feature","geometry":{"type":"Point","coordinates":[-87.414186,39.617259]}},{"properties":{"zip":"47845","geo_score":0.714,"distribution":0,"id":"a62j4e91sq06","geo_precision":"zip"},"type":"Feature","geometry":{"type":"Point","coordinates":[-87.090363,39.387544]}},{"properties":{"zip":"47846","geo_score":0.714,"distribution":1,"id":"a62j4e7ad7bz","geo_precision":"zip"},"type":"Feature","geometry":{"type":"Point","coordinates":[-87.175317,39.368643]}},{"properties":{"zip":"47847","geo_score":0.714,"distribution":1,"id":"a62j4e7gtjw5","geo_precision":"zip"},"type":"Feature","geometry":{"type":"Point","coordinates":[-87.528075,39.85587]}},{"properties":{"zip":"47848","geo_score":0.714,"distribution":5,"id":"a62j4e11julj","geo_precision":"zip"},"type":"Feature","geometry":{"type":"Point","coordinates":[-87.259737,39.048933]}},{"properties":{"zip":"47849","geo_score":0.714,"distribution":0,"id":"a62j4e1kwl8u","geo_precision":"zip"},"type":"Feature","geometry":{"type":"Point","coordinates":[-87.583635,39.200318]}},{"properties":{"zip":"47850","geo_score":0.714,"distribution":2,"id":"a62j4ebr6m9m","geo_precision":"zip"},"type":"Feature","geometry":{"type":"Point","coordinates":[-87.425279,39.222063]}},{"properties":{"zip":"47851","geo_score":0.714,"distribution":0,"id":"a62j4e3znuzv","geo_precision":"zip"},"type":"Feature","geometry":{"type":"Point","coordinates":[-87.24536,39.573663]}},{"properties":{"zip":"47852","geo_score":0.714,"distribution":0,"id":"a62j4e3ludab","geo_precision":"zip"},"type":"Feature","geometry":{"type":"Point","coordinates":[-87.449558,39.080474]}},{"properties":{"zip":"47853","geo_score":0.714,"distribution":0,"id":"a62j4e7h6bde","geo_precision":"zip"},"type":"Feature","geometry":{"type":"Point","coordinates":[-87.072888,39.537199]}},{"properties":{"zip":"47854","geo_score":0.714,"distribution":2,"id":"a62j4eeimzzc","geo_precision":"zip"},"type":"Feature","geometry":{"type":"Point","coordinates":[-87.39585,39.794482]}},{"properties":{"zip":"47855","geo_score":0.714,"distribution":1,"id":"a62j4eerln8r","geo_precision":"zip"},"type":"Feature","geometry":{"type":"Point","coordinates":[-87.299448,39.183335]}},{"properties":{"zip":"47856","geo_score":0.714,"distribution":0,"id":"a62j4ea1f8ch","geo_precision":"zip"},"type":"Feature","geometry":{"type":"Point","coordinates":[-87.221819,39.779078]}},{"properties":{"zip":"47857","geo_score":0.714,"distribution":0,"id":"a62j4e5fi4f5","geo_precision":"zip"},"type":"Feature","geometry":{"type":"Point","coordinates":[-87.086882,39.526913]}},{"properties":{"zip":"47858","geo_score":0.714,"distribution":1,"id":"a62j4e4s8pes","geo_precision":"zip"},"type":"Feature","geometry":{"type":"Point","coordinates":[-87.258905,39.288096]}},{"properties":{"zip":"47859","geo_score":0.714,"distribution":2,"id":"a62j4eg7kfid","geo_precision":"zip"},"type":"Feature","geometry":{"type":"Point","coordinates":[-87.37557,39.91615]}},{"properties":{"zip":"47860","geo_score":0.714,"distribution":0,"id":"a62j4eg78u6p","geo_precision":"zip"},"type":"Feature","geometry":{"type":"Point","coordinates":[-87.221819,39.779078]}},{"properties":{"zip":"47861","geo_score":0.714,"distribution":0,"id":"a62j4e18pw6f","geo_precision":"zip"},"type":"Feature","geometry":{"type":"Point","coordinates":[-87.567801,39.02032]}},{"properties":{"zip":"47862","geo_score":0.714,"distribution":3,"id":"a62j4eess129","geo_precision":"zip"},"type":"Feature","geometry":{"type":"Point","coordinates":[-87.336682,39.84365]}},{"properties":{"zip":"47863","geo_score":0.714,"distribution":0,"id":"a62j4e5f128i","geo_precision":"zip"},"type":"Feature","geometry":{"type":"Point","coordinates":[-87.46157,39.580285]}},{"properties":{"zip":"47864","geo_score":0.714,"distribution":0,"id":"a62j4egkqjnp","geo_precision":"zip"},"type":"Feature","geometry":{"type":"Point","coordinates":[-87.475747,39.041245]}},{"properties":{"zip":"47865","geo_score":0.714,"distribution":0,"id":"a62j4ec5nsqp","geo_precision":"zip"},"type":"Feature","geometry":{"type":"Point","coordinates":[-87.389047,39.01849]}},{"properties":{"zip":"47866","geo_score":0.714,"distribution":1,"id":"a62j4e6lq8de","geo_precision":"zip"},"type":"Feature","geometry":{"type":"Point","coordinates":[-87.300295,39.308929]}},{"properties":{"zip":"47868","geo_score":0.714,"distribution":8,"id":"a62j4eclsl39","geo_precision":"zip"},"type":"Feature","geometry":{"type":"Point","coordinates":[-86.916677,39.398377]}},{"properties":{"zip":"47869","geo_score":0.714,"distribution":0,"id":"a62j4efvcigl","geo_precision":"zip"},"type":"Feature","geometry":{"type":"Point","coordinates":[-87.410094,39.433602]}},{"properties":{"zip":"47870","geo_score":0.714,"distribution":0,"id":"a62j4e9z5mys","geo_precision":"zip"},"type":"Feature","geometry":{"type":"Point","coordinates":[-87.537245,39.287261]}},{"properties":{"zip":"47871","geo_score":0.714,"distribution":2,"id":"a62j4ebqagan","geo_precision":"zip"},"type":"Feature","geometry":{"type":"Point","coordinates":[-87.301367,39.388638]}},{"properties":{"zip":"47872","geo_score":0.714,"distribution":13,"id":"a62j4ee8eouq","geo_precision":"zip"},"type":"Feature","geometry":{"type":"Point","coordinates":[-87.174458,39.784486]}},{"properties":{"zip":"47874","geo_score":0.714,"distribution":6,"id":"a62j4ecvtq8e","geo_precision":"zip"},"type":"Feature","geometry":{"type":"Point","coordinates":[-87.370852,39.608926]}},{"properties":{"zip":"47875","geo_score":0.714,"distribution":0,"id":"a62j4e75h4vq","geo_precision":"zip"},"type":"Feature","geometry":{"type":"Point","coordinates":[-87.443566,39.877847]}},{"properties":{"zip":"47876","geo_score":0.714,"distribution":0,"id":"a62j4eg2sg2u","geo_precision":"zip"},"type":"Feature","geometry":{"type":"Point","coordinates":[-87.467244,39.510869]}},{"properties":{"zip":"47878","geo_score":0.714,"distribution":0,"id":"a62j4e6w6tk7","geo_precision":"zip"},"type":"Feature","geometry":{"type":"Point","coordinates":[-87.253073,39.494761]}},{"properties":{"zip":"47879","geo_score":0.714,"distribution":4,"id":"a62j4e3k1oc0","geo_precision":"zip"},"type":"Feature","geometry":{"type":"Point","coordinates":[-87.352518,39.186708]}},{"properties":{"zip":"47880","geo_score":0.714,"distribution":0,"id":"a62j4eb0zfgv","geo_precision":"zip"},"type":"Feature","geometry":{"type":"Point","coordinates":[-87.419569,39.600636]}},{"properties":{"zip":"47881","geo_score":0.714,"distribution":0,"id":"a62j4e9gvw2d","geo_precision":"zip"},"type":"Feature","geometry":{"type":"Point","coordinates":[-87.186673,39.491743]}},{"properties":{"zip":"47882","geo_score":0.714,"distribution":13,"id":"a62j4e1tsxs4","geo_precision":"zip"},"type":"Feature","geometry":{"type":"Point","coordinates":[-87.278627,39.086987]}},{"properties":{"zip":"47884","geo_score":0.714,"distribution":0,"id":"a62j4efg5mx9","geo_precision":"zip"},"type":"Feature","geometry":{"type":"Point","coordinates":[-87.454769,39.622129]}},{"properties":{"zip":"47885","geo_score":0.714,"distribution":12,"id":"a62j4e85vk3r","geo_precision":"zip"},"type":"Feature","geometry":{"type":"Point","coordinates":[-87.454743,39.488369]}},{"properties":{"zip":"47901","geo_score":0.714,"distribution":10,"id":"a62j4e9l3ubu","geo_precision":"zip"},"type":"Feature","geometry":{"type":"Point","coordinates":[-86.735284,40.286425]}},{"properties":{"zip":"47902","geo_score":0.714,"distribution":2,"id":"a62j4e1yj31f","geo_precision":"zip"},"type":"Feature","geometry":{"type":"Point","coordinates":[-86.894908,40.388656]}},{"properties":{"zip":"47903","geo_score":0.714,"distribution":6,"id":"a62j4ebno1tv","geo_precision":"zip"},"type":"Feature","geometry":{"type":"Point","coordinates":[-86.824468,40.304402]}},{"properties":{"zip":"47904","geo_score":0.714,"distribution":27,"id":"a62j4eadh418","geo_precision":"zip"},"type":"Feature","geometry":{"type":"Point","coordinates":[-86.917273,40.482287]}},{"properties":{"zip":"47905","geo_score":0.714,"distribution":153,"id":"a62j4edderm0","geo_precision":"zip"},"type":"Feature","geometry":{"type":"Point","coordinates":[-86.913341,40.301426]}},{"properties":{"zip":"47906","geo_score":0.714,"distribution":131,"id":"a62j4e5f5vrs","geo_precision":"zip"},"type":"Feature","geometry":{"type":"Point","coordinates":[-86.910844,40.449202]}},{"properties":{"zip":"47907","geo_score":0.714,"distribution":0,"id":"a62j4eg99lx4","geo_precision":"zip"},"type":"Feature","geometry":{"type":"Point","coordinates":[-86.916215,40.424923]}},{"properties":{"zip":"47909","geo_score":0.714,"distribution":103,"id":"a62j4ef5qijl","geo_precision":"zip"},"type":"Feature","geometry":{"type":"Point","coordinates":[-86.888066,40.322769]}},{"properties":{"zip":"47916","geo_score":0.714,"distribution":0,"id":"a62j4egah3zk","geo_precision":"zip"},"type":"Feature","geometry":{"type":"Point","coordinates":[-87.050635,39.962271]}},{"properties":{"zip":"47917","geo_score":0.714,"distribution":3,"id":"a62j4ee1sso4","geo_precision":"zip"},"type":"Feature","geometry":{"type":"Point","coordinates":[-87.472795,40.411148]}},{"properties":{"zip":"47918","geo_score":0.714,"distribution":7,"id":"a62j4e2kbx2t","geo_precision":"zip"},"type":"Feature","geometry":{"type":"Point","coordinates":[-87.2339,40.370037]}},{"properties":{"zip":"47920","geo_score":0.714,"distribution":6,"id":"a62j4e4f0bly","geo_precision":"zip"},"type":"Feature","geometry":{"type":"Point","coordinates":[-86.847788,40.547814]}},{"properties":{"zip":"47921","geo_score":0.714,"distribution":1,"id":"a62j4e4m41wr","geo_precision":"zip"},"type":"Feature","geometry":{"type":"Point","coordinates":[-87.341961,40.519481]}},{"properties":{"zip":"47922","geo_score":0.714,"distribution":6,"id":"a62j4e3ox3ft","geo_precision":"zip"},"type":"Feature","geometry":{"type":"Point","coordinates":[-87.295024,40.866149]}},{"properties":{"zip":"47923","geo_score":0.714,"distribution":9,"id":"a62j4e03dl2c","geo_precision":"zip"},"type":"Feature","geometry":{"type":"Point","coordinates":[-86.845433,40.661019]}},{"properties":{"zip":"47924","geo_score":0.714,"distribution":1,"id":"a62j4eewk95k","geo_precision":"zip"},"type":"Feature","geometry":{"type":"Point","coordinates":[-86.763111,40.487603]}},{"properties":{"zip":"47925","geo_score":0.714,"distribution":0,"id":"a62j4e2s0qgm","geo_precision":"zip"},"type":"Feature","geometry":{"type":"Point","coordinates":[-86.639176,40.868651]}},{"properties":{"zip":"47926","geo_score":0.714,"distribution":2,"id":"a62j4e90kuew","geo_precision":"zip"},"type":"Feature","geometry":{"type":"Point","coordinates":[-86.573616,40.699206]}},{"properties":{"zip":"47928","geo_score":0.714,"distribution":1,"id":"a62j4e8rpsc7","geo_precision":"zip"},"type":"Feature","geometry":{"type":"Point","coordinates":[-87.472794,39.966427]}},{"properties":{"zip":"47929","geo_score":0.714,"distribution":1,"id":"a62j4e23qsii","geo_precision":"zip"},"type":"Feature","geometry":{"type":"Point","coordinates":[-86.934599,40.754782]}},{"properties":{"zip":"47930","geo_score":0.714,"distribution":3,"id":"a62j4e0lywh9","geo_precision":"zip"},"type":"Feature","geometry":{"type":"Point","coordinates":[-86.75244,40.250791]}},{"properties":{"zip":"47932","geo_score":0.714,"distribution":11,"id":"a62j4e2zyr3r","geo_precision":"zip"},"type":"Feature","geometry":{"type":"Point","coordinates":[-87.525851,40.104204]}},{"properties":{"zip":"47933","geo_score":0.714,"distribution":71,"id":"a62j4e4u2rkr","geo_precision":"zip"},"type":"Feature","geometry":{"type":"Point","coordinates":[-86.980008,40.024766]}},{"properties":{"zip":"47934","geo_score":0.714,"distribution":0,"id":"a62j4e67jlxr","geo_precision":"zip"},"type":"Feature","geometry":{"type":"Point","coordinates":[-86.893614,40.040014]}},{"properties":{"zip":"47935","geo_score":0.714,"distribution":0,"id":"a62j4e5w6rtg","geo_precision":"zip"},"type":"Feature","geometry":{"type":"Point","coordinates":[-86.893614,40.040014]}},{"properties":{"zip":"47936","geo_score":0.714,"distribution":0,"id":"a62j4e0t89j3","geo_precision":"zip"},"type":"Feature","geometry":{"type":"Point","coordinates":[-86.893614,40.040014]}},{"properties":{"zip":"47937","geo_score":0.714,"distribution":0,"id":"a62j4eeo53e2","geo_precision":"zip"},"type":"Feature","geometry":{"type":"Point","coordinates":[-86.893614,40.040014]}},{"properties":{"zip":"47938","geo_score":0.714,"distribution":0,"id":"a62j4ef6frgl","geo_precision":"zip"},"type":"Feature","geometry":{"type":"Point","coordinates":[-86.893614,40.040014]}},{"properties":{"zip":"47939","geo_score":0.714,"distribution":0,"id":"a62j4e9uxvp1","geo_precision":"zip"},"type":"Feature","geometry":{"type":"Point","coordinates":[-86.893614,40.040014]}},{"properties":{"zip":"47940","geo_score":0.714,"distribution":5,"id":"a62j4e2kviaw","geo_precision":"zip"},"type":"Feature","geometry":{"type":"Point","coordinates":[-86.724728,40.156983]}},{"properties":{"zip":"47941","geo_score":0.714,"distribution":7,"id":"a62j4e1vc0f2","geo_precision":"zip"},"type":"Feature","geometry":{"type":"Point","coordinates":[-86.763031,40.362781]}},{"properties":{"zip":"47942","geo_score":0.714,"distribution":0,"id":"a62j4e40g51n","geo_precision":"zip"},"type":"Feature","geometry":{"type":"Point","coordinates":[-87.415972,40.679382]}},{"properties":{"zip":"47943","geo_score":0.714,"distribution":3,"id":"a62j4e4twy1u","geo_precision":"zip"},"type":"Feature","geometry":{"type":"Point","coordinates":[-87.208786,41.076883]}},{"properties":{"zip":"47944","geo_score":0.714,"distribution":10,"id":"a62j4efnvidw","geo_precision":"zip"},"type":"Feature","geometry":{"type":"Point","coordinates":[-87.276686,40.693372]}},{"properties":{"zip":"47946","geo_score":0.714,"distribution":4,"id":"a62j4e0o7dsb","geo_precision":"zip"},"type":"Feature","geometry":{"type":"Point","coordinates":[-86.83465,40.984442]}},{"properties":{"zip":"47948","geo_score":0.714,"distribution":3,"id":"a62j4e42hnl1","geo_precision":"zip"},"type":"Feature","geometry":{"type":"Point","coordinates":[-87.324812,40.794039]}},{"properties":{"zip":"47949","geo_score":0.714,"distribution":1,"id":"a62j4e3tgyn3","geo_precision":"zip"},"type":"Feature","geometry":{"type":"Point","coordinates":[-87.175046,40.045073]}},{"properties":{"zip":"47950","geo_score":0.714,"distribution":0,"id":"a62j4e1lxrw6","geo_precision":"zip"},"type":"Feature","geometry":{"type":"Point","coordinates":[-86.739391,40.809887]}},{"properties":{"zip":"47951","geo_score":0.714,"distribution":5,"id":"a62j4ednwfer","geo_precision":"zip"},"type":"Feature","geometry":{"type":"Point","coordinates":[-87.439821,40.794191]}},{"properties":{"zip":"47952","geo_score":0.714,"distribution":1,"id":"a62j4e5uwl54","geo_precision":"zip"},"type":"Feature","geometry":{"type":"Point","coordinates":[-87.260011,40.011429]}},{"properties":{"zip":"47954","geo_score":0.714,"distribution":6,"id":"a62j4efbcprk","geo_precision":"zip"},"type":"Feature","geometry":{"type":"Point","coordinates":[-86.902786,39.873378]}},{"properties":{"zip":"47955","geo_score":0.714,"distribution":2,"id":"a62j4e40zmy4","geo_precision":"zip"},"type":"Feature","geometry":{"type":"Point","coordinates":[-86.819173,40.206427]}},{"properties":{"zip":"47957","geo_score":0.714,"distribution":1,"id":"a62j4ecqrp7a","geo_precision":"zip"},"type":"Feature","geometry":{"type":"Point","coordinates":[-86.891131,41.159762]}},{"properties":{"zip":"47958","geo_score":0.714,"distribution":0,"id":"a62j4ea68qmo","geo_precision":"zip"},"type":"Feature","geometry":{"type":"Point","coordinates":[-87.14754,40.164139]}},{"properties":{"zip":"47959","geo_score":0.714,"distribution":5,"id":"a62j4eazpuok","geo_precision":"zip"},"type":"Feature","geometry":{"type":"Point","coordinates":[-86.93711,40.795391]}},{"properties":{"zip":"47960","geo_score":0.714,"distribution":59,"id":"a62j4ec94mow","geo_precision":"zip"},"type":"Feature","geometry":{"type":"Point","coordinates":[-86.754456,40.698927]}},{"properties":{"zip":"47962","geo_score":0.714,"distribution":0,"id":"a62j4e6s6i8a","geo_precision":"zip"},"type":"Feature","geometry":{"type":"Point","coordinates":[-87.027571,40.473159]}},{"properties":{"zip":"47963","geo_score":0.714,"distribution":4,"id":"a62j4e15kklp","geo_precision":"zip"},"type":"Feature","geometry":{"type":"Point","coordinates":[-87.449197,41.013923]}},{"properties":{"zip":"47964","geo_score":0.714,"distribution":0,"id":"a62j4e2b0nd1","geo_precision":"zip"},"type":"Feature","geometry":{"type":"Point","coordinates":[-87.396982,40.977567]}},{"properties":{"zip":"47965","geo_score":0.714,"distribution":1,"id":"a62j4echjgjk","geo_precision":"zip"},"type":"Feature","geometry":{"type":"Point","coordinates":[-86.920609,39.952351]}},{"properties":{"zip":"47966","geo_score":0.714,"distribution":0,"id":"a62j4e5i478d","geo_precision":"zip"},"type":"Feature","geometry":{"type":"Point","coordinates":[-87.406937,39.87356]}},{"properties":{"zip":"47967","geo_score":0.714,"distribution":0,"id":"a62j4e7w968a","geo_precision":"zip"},"type":"Feature","geometry":{"type":"Point","coordinates":[-86.976237,40.193583]}},{"properties":{"zip":"47968","geo_score":0.714,"distribution":0,"id":"a62j4ecazqxt","geo_precision":"zip"},"type":"Feature","geometry":{"type":"Point","coordinates":[-86.827059,40.026229]}},{"properties":{"zip":"47969","geo_score":0.714,"distribution":0,"id":"a62j4e9803v5","geo_precision":"zip"},"type":"Feature","geometry":{"type":"Point","coordinates":[-87.147014,40.203459]}},{"properties":{"zip":"47970","geo_score":0.714,"distribution":7,"id":"a62j4e1gq279","geo_precision":"zip"},"type":"Feature","geometry":{"type":"Point","coordinates":[-87.111123,40.413647]}},{"properties":{"zip":"47971","geo_score":0.714,"distribution":2,"id":"a62j4eavlhyp","geo_precision":"zip"},"type":"Feature","geometry":{"type":"Point","coordinates":[-87.259375,40.533538]}},{"properties":{"zip":"47974","geo_score":0.714,"distribution":1,"id":"a62j4e7qnujk","geo_precision":"zip"},"type":"Feature","geometry":{"type":"Point","coordinates":[-87.499739,40.082537]}},{"properties":{"zip":"47975","geo_score":0.714,"distribution":3,"id":"a62j4e0g3o33","geo_precision":"zip"},"type":"Feature","geometry":{"type":"Point","coordinates":[-87.255833,40.439726]}},{"properties":{"zip":"47977","geo_score":0.714,"distribution":9,"id":"a62j4eez7xxy","geo_precision":"zip"},"type":"Feature","geometry":{"type":"Point","coordinates":[-87.161686,40.779206]}},{"properties":{"zip":"47978","geo_score":0.714,"distribution":19,"id":"a62j4ef79fao","geo_precision":"zip"},"type":"Feature","geometry":{"type":"Point","coordinates":[-87.218637,41.027259]}},{"properties":{"zip":"47980","geo_score":0.714,"distribution":1,"id":"a62j4ee9isu0","geo_precision":"zip"},"type":"Feature","geometry":{"type":"Point","coordinates":[-86.872514,40.717816]}},{"properties":{"zip":"47981","geo_score":0.714,"distribution":1,"id":"a62j4efweo61","geo_precision":"zip"},"type":"Feature","geometry":{"type":"Point","coordinates":[-86.920786,40.258026]}},{"properties":{"zip":"47982","geo_score":0.714,"distribution":0,"id":"a62j4efqgc9l","geo_precision":"zip"},"type":"Feature","geometry":{"type":"Point","coordinates":[-87.527077,40.197408]}},{"properties":{"zip":"47983","geo_score":0.714,"distribution":0,"id":"a62j4e49gvh4","geo_precision":"zip"},"type":"Feature","geometry":{"type":"Point","coordinates":[-86.772436,40.284511]}},{"properties":{"zip":"47984","geo_score":0.714,"distribution":0,"id":"a62j4edfjec1","geo_precision":"zip"},"type":"Feature","geometry":{"type":"Point","coordinates":[-87.310042,40.606301]}},{"properties":{"zip":"47986","geo_score":0.714,"distribution":0,"id":"a62j4e63elys","geo_precision":"zip"},"type":"Feature","geometry":{"type":"Point","coordinates":[-87.20696,40.505497]}},{"properties":{"zip":"47987","geo_score":0.714,"distribution":7,"id":"a62j4e9mf004","geo_precision":"zip"},"type":"Feature","geometry":{"type":"Point","coordinates":[-87.252787,40.170038]}},{"properties":{"zip":"47988","geo_score":0.714,"distribution":0,"id":"a62j4e4qmujk","geo_precision":"zip"},"type":"Feature","geometry":{"type":"Point","coordinates":[-87.147674,39.986538]}},{"properties":{"zip":"47989","geo_score":0.714,"distribution":0,"id":"a62j4eeod2gi","geo_precision":"zip"},"type":"Feature","geometry":{"type":"Point","coordinates":[-87.055565,39.947543]}},{"properties":{"zip":"47990","geo_score":0.714,"distribution":3,"id":"a62j4e6vhonh","geo_precision":"zip"},"type":"Feature","geometry":{"type":"Point","coordinates":[-87.006675,40.06782]}},{"properties":{"zip":"47991","geo_score":0.714,"distribution":1,"id":"a62j4eel9hlj","geo_precision":"zip"},"type":"Feature","geometry":{"type":"Point","coordinates":[-87.438432,40.265862]}},{"properties":{"zip":"47992","geo_score":0.714,"distribution":1,"id":"a62j4eaofc3j","geo_precision":"zip"},"type":"Feature","geometry":{"type":"Point","coordinates":[-87.040843,40.354203]}},{"properties":{"zip":"47993","geo_score":0.714,"distribution":5,"id":"a62j4ef0fa7p","geo_precision":"zip"},"type":"Feature","geometry":{"type":"Point","coordinates":[-87.472517,40.360037]}},{"properties":{"zip":"47994","geo_score":0.714,"distribution":3,"id":"a62j4eavqnio","geo_precision":"zip"},"type":"Feature","geometry":{"type":"Point","coordinates":[-86.964894,40.118361]}},{"properties":{"zip":"47995","geo_score":0.714,"distribution":5,"id":"a62j4e1vq2uu","geo_precision":"zip"},"type":"Feature","geometry":{"type":"Point","coordinates":[-86.986683,40.756428]}},{"properties":{"zip":"47996","geo_score":0.714,"distribution":0,"id":"a62j4e9cjvge","geo_precision":"zip"},"type":"Feature","geometry":{"type":"Point","coordinates":[-86.894908,40.388656]}},{"properties":{"zip":"47997","geo_score":0.714,"distribution":0,"id":"a62j4e78r1qm","geo_precision":"zip"},"type":"Feature","geometry":{"type":"Point","coordinates":[-86.722352,40.670628]}}],"is_temporal":false,"author":{"url":null,"metadata":null,"contact_name":null,"contact_address":null,"source":null,"contact_phone":null},"source":null,"pagination":{"sort":null,"start":0,"total":988,"limit":1000000},"state":"complete","tags":"","published":"2014-08-14T19:41:13-04:00","id":243149}