{"type":"FeatureCollection","data_type":"Dataset","url_type":null,"permissions":[{"permissions":{"download":true,"view":true},"group_id":"everyone"}],"classification":null,"title":"U.S.Stats","count":51,"stream_id":243228,"contributor":{"url":"http://geocommons.com/users/41573","name":"matthewgreen111"},"data_attributes":null,"calculation_params":null,"icon_link":null,"link":"http://geocommons.com/overlays/243228.json","extent":[0.0,0.0,0.0,0.0],"geometry_types":[],"unique_name":null,"name":"U.S.Stats","feature_count":51,"description":"","next_feature":null,"is_raster":false,"short_classification":"Y","stats":{"tobacco tax rate":{"max":4.35,"mean":1.47125490196078,"variance":0.94574311372549,"stdev":0.972493246107905,"min":0.17,"median":1.339},"adult smoking rate":{"max":0.268,"mean":0.178529411764706,"variance":0.00119529411764706,"stdev":0.0345730258676769,"min":0.091,"median":0.173},"tax rank":{"max":50,"mean":24.7254901960784,"variance":225.683137254902,"stdev":15.0227539837043,"min":0,"median":25}},"features":[{"properties":{"tobacco tax rate":0.425,"geo_score":0.0,"adult smoking rate":0.21,"tax rank":46,"id":"a62d973s53bs","geo_precision":"unmatched","state":"Alabama"},"type":"Feature","geometry":null},{"properties":{"tobacco tax rate":2.0,"geo_score":0.0,"adult smoking rate":0.204,"tax rank":10,"id":"a62d975usyjc","geo_precision":"unmatched","state":"Alaska"},"type":"Feature","geometry":null},{"properties":{"tobacco tax rate":2.0,"geo_score":0.0,"adult smoking rate":0.135,"tax rank":10,"id":"a62d974twk17","geo_precision":"unmatched","state":"Arizona"},"type":"Feature","geometry":null},{"properties":{"tobacco tax rate":1.15,"geo_score":0.0,"adult smoking rate":0.229,"tax rank":28,"id":"a62d977qg1a7","geo_precision":"unmatched","state":"Arkansas"},"type":"Feature","geometry":null},{"properties":{"tobacco tax rate":0.87,"geo_score":0.0,"adult smoking rate":0.121,"tax rank":32,"id":"a62d972iv0rf","geo_precision":"unmatched","state":"California"},"type":"Feature","geometry":null},{"properties":{"tobacco tax rate":0.84,"geo_score":0.0,"adult smoking rate":0.16,"tax rank":33,"id":"a62d97gmk0sl","geo_precision":"unmatched","state":"Colorado"},"type":"Feature","geometry":null},{"properties":{"tobacco tax rate":3.4,"geo_score":0.0,"adult smoking rate":0.132,"tax rank":3,"id":"a62d975dygec","geo_precision":"unmatched","state":"Connecticut"},"type":"Feature","geometry":null},{"properties":{"tobacco tax rate":1.6,"geo_score":0.0,"adult smoking rate":0.173,"tax rank":19,"id":"a62d973hq1a3","geo_precision":"unmatched","state":"Delaware"},"type":"Feature","geometry":null},{"properties":{"tobacco tax rate":2.86,"geo_score":0.0,"adult smoking rate":0.148,"tax rank":0,"id":"a62d972n8jqc","geo_precision":"unmatched","state":"District of Columbia"},"type":"Feature","geometry":null},{"properties":{"tobacco tax rate":1.339,"geo_score":0.0,"adult smoking rate":0.171,"tax rank":25,"id":"a62d97a8j3t5","geo_precision":"unmatched","state":"Florida"},"type":"Feature","geometry":null},{"properties":{"tobacco tax rate":0.37,"geo_score":0.0,"adult smoking rate":0.176,"tax rank":47,"id":"a62d979572za","geo_precision":"unmatched","state":"Georgia"},"type":"Feature","geometry":null},{"properties":{"tobacco tax rate":3.2,"geo_score":0.0,"adult smoking rate":0.145,"tax rank":4,"id":"a62d97cfouyi","geo_precision":"unmatched","state":"Hawaii"},"type":"Feature","geometry":null},{"properties":{"tobacco tax rate":0.57,"geo_score":0.0,"adult smoking rate":0.157,"tax rank":41,"id":"a62d97eajixk","geo_precision":"unmatched","state":"Idaho"},"type":"Feature","geometry":null},{"properties":{"tobacco tax rate":0.98,"geo_score":0.0,"adult smoking rate":0.169,"tax rank":31,"id":"a62d97fegl6h","geo_precision":"unmatched","state":"Illinois"},"type":"Feature","geometry":null},{"properties":{"tobacco tax rate":0.995,"geo_score":0.0,"adult smoking rate":0.212,"tax rank":30,"id":"a62d97h66cub","geo_precision":"unmatched","state":"Indiana"},"type":"Feature","geometry":null},{"properties":{"tobacco tax rate":1.36,"geo_score":0.0,"adult smoking rate":0.161,"tax rank":24,"id":"a62d97hkfr4o","geo_precision":"unmatched","state":"Iowa"},"type":"Feature","geometry":null},{"properties":{"tobacco tax rate":0.79,"geo_score":0.0,"adult smoking rate":0.17,"tax rank":35,"id":"a62d976a9uns","geo_precision":"unmatched","state":"Kansas"},"type":"Feature","geometry":null},{"properties":{"tobacco tax rate":0.6,"geo_score":0.0,"adult smoking rate":0.248,"tax rank":39,"id":"a62d971p7lxe","geo_precision":"unmatched","state":"Kentucky"},"type":"Feature","geometry":null},{"properties":{"tobacco tax rate":0.36,"geo_score":0.0,"adult smoking rate":0.221,"tax rank":48,"id":"a62d977waf3o","geo_precision":"unmatched","state":"Louisiana"},"type":"Feature","geometry":null},{"properties":{"tobacco tax rate":2.0,"geo_score":0.0,"adult smoking rate":0.182,"tax rank":10,"id":"a62d9753s7hb","geo_precision":"unmatched","state":"Maine"},"type":"Feature","geometry":null},{"properties":{"tobacco tax rate":2.0,"geo_score":0.0,"adult smoking rate":0.152,"tax rank":10,"id":"a62d976klatb","geo_precision":"unmatched","state":"Maryland"},"type":"Feature","geometry":null},{"properties":{"tobacco tax rate":2.51,"geo_score":0.0,"adult smoking rate":0.141,"tax rank":9,"id":"a62d97hj3hpx","geo_precision":"unmatched","state":"Massachusetts"},"type":"Feature","geometry":null},{"properties":{"tobacco tax rate":2.0,"geo_score":0.0,"adult smoking rate":0.189,"tax rank":10,"id":"a62d977blkxn","geo_precision":"unmatched","state":"Michigan"},"type":"Feature","geometry":null},{"properties":{"tobacco tax rate":1.58,"geo_score":0.0,"adult smoking rate":0.149,"tax rank":21,"id":"a62d973wbw8w","geo_precision":"unmatched","state":"Minnesota"},"type":"Feature","geometry":null},{"properties":{"tobacco tax rate":0.68,"geo_score":0.0,"adult smoking rate":0.229,"tax rank":36,"id":"a62d978emz7t","geo_precision":"unmatched","state":"Mississippi"},"type":"Feature","geometry":null},{"properties":{"tobacco tax rate":0.17,"geo_score":0.0,"adult smoking rate":0.21,"tax rank":50,"id":"a62d97gd8zy4","geo_precision":"unmatched","state":"Missouri"},"type":"Feature","geometry":null},{"properties":{"tobacco tax rate":1.7,"geo_score":0.0,"adult smoking rate":0.188,"tax rank":15,"id":"a62d97ay4nrv","geo_precision":"unmatched","state":"Montana"},"type":"Feature","geometry":null},{"properties":{"tobacco tax rate":0.64,"geo_score":0.0,"adult smoking rate":0.172,"tax rank":37,"id":"a62d979ueurx","geo_precision":"unmatched","state":"Nebraska"},"type":"Feature","geometry":null},{"properties":{"tobacco tax rate":0.8,"geo_score":0.0,"adult smoking rate":0.213,"tax rank":34,"id":"a62d97ch7jns","geo_precision":"unmatched","state":"Nevada"},"type":"Feature","geometry":null},{"properties":{"tobacco tax rate":1.68,"geo_score":0.0,"adult smoking rate":0.169,"tax rank":17,"id":"a62d97c7i3ww","geo_precision":"unmatched","state":"New Hampshire"},"type":"Feature","geometry":null},{"properties":{"tobacco tax rate":2.7,"geo_score":0.0,"adult smoking rate":0.144,"tax rank":6,"id":"a62d97dysqrx","geo_precision":"unmatched","state":"New Jersey"},"type":"Feature","geometry":null},{"properties":{"tobacco tax rate":1.66,"geo_score":0.0,"adult smoking rate":0.185,"tax rank":18,"id":"a62d97a1pzxd","geo_precision":"unmatched","state":"New Mexico"},"type":"Feature","geometry":null},{"properties":{"tobacco tax rate":4.35,"geo_score":0.0,"adult smoking rate":0.155,"tax rank":1,"id":"a62d975qviys","geo_precision":"unmatched","state":"New York"},"type":"Feature","geometry":null},{"properties":{"tobacco tax rate":0.45,"geo_score":0.0,"adult smoking rate":0.198,"tax rank":44,"id":"a62d97ah1ch2","geo_precision":"unmatched","state":"North Carolina"},"type":"Feature","geometry":null},{"properties":{"tobacco tax rate":0.44,"geo_score":0.0,"adult smoking rate":0.174,"tax rank":45,"id":"a62d9736wkth","geo_precision":"unmatched","state":"North Dakota"},"type":"Feature","geometry":null},{"properties":{"tobacco tax rate":1.25,"geo_score":0.0,"adult smoking rate":0.225,"tax rank":26,"id":"a62d97b9ybb6","geo_precision":"unmatched","state":"Ohio"},"type":"Feature","geometry":null},{"properties":{"tobacco tax rate":1.03,"geo_score":0.0,"adult smoking rate":0.237,"tax rank":29,"id":"a62d97huahzu","geo_precision":"unmatched","state":"Oklahoma"},"type":"Feature","geometry":null},{"properties":{"tobacco tax rate":1.18,"geo_score":0.0,"adult smoking rate":0.151,"tax rank":27,"id":"a62d972mrnk8","geo_precision":"unmatched","state":"Oregon"},"type":"Feature","geometry":null},{"properties":{"tobacco tax rate":1.6,"geo_score":0.0,"adult smoking rate":0.184,"tax rank":19,"id":"a62d979mffvf","geo_precision":"unmatched","state":"Pennsylvania"},"type":"Feature","geometry":null},{"properties":{"tobacco tax rate":3.46,"geo_score":0.0,"adult smoking rate":0.157,"tax rank":2,"id":"a62d9773mnxh","geo_precision":"unmatched","state":"Rhode Island"},"type":"Feature","geometry":null},{"properties":{"tobacco tax rate":0.57,"geo_score":0.0,"adult smoking rate":0.21,"tax rank":41,"id":"a62d97396je9","geo_precision":"unmatched","state":"South Carolina"},"type":"Feature","geometry":null},{"properties":{"tobacco tax rate":1.53,"geo_score":0.0,"adult smoking rate":0.154,"tax rank":22,"id":"a62d974qiwt7","geo_precision":"unmatched","state":"South Dakota"},"type":"Feature","geometry":null},{"properties":{"tobacco tax rate":0.62,"geo_score":0.0,"adult smoking rate":0.201,"tax rank":38,"id":"a62d9754a01s","geo_precision":"unmatched","state":"Tennessee"},"type":"Feature","geometry":null},{"properties":{"tobacco tax rate":1.41,"geo_score":0.0,"adult smoking rate":0.158,"tax rank":23,"id":"a62d9786z484","geo_precision":"unmatched","state":"Texas"},"type":"Feature","geometry":null},{"properties":{"tobacco tax rate":1.7,"geo_score":0.0,"adult smoking rate":0.091,"tax rank":15,"id":"a62d975rt18g","geo_precision":"unmatched","state":"Utah"},"type":"Feature","geometry":null},{"properties":{"tobacco tax rate":2.62,"geo_score":0.0,"adult smoking rate":0.154,"tax rank":7,"id":"a62d97hc3fh9","geo_precision":"unmatched","state":"Vermont"},"type":"Feature","geometry":null},{"properties":{"tobacco tax rate":0.3,"geo_score":0.0,"adult smoking rate":0.185,"tax rank":49,"id":"a62d97eaew6q","geo_precision":"unmatched","state":"Virginia"},"type":"Feature","geometry":null},{"properties":{"tobacco tax rate":3.025,"geo_score":0.0,"adult smoking rate":0.152,"tax rank":5,"id":"a62d976wefnr","geo_precision":"unmatched","state":"Washington"},"type":"Feature","geometry":null},{"properties":{"tobacco tax rate":0.55,"geo_score":0.0,"adult smoking rate":0.268,"tax rank":43,"id":"a62d97hu4oqe","geo_precision":"unmatched","state":"West Virginia"},"type":"Feature","geometry":null},{"properties":{"tobacco tax rate":2.52,"geo_score":0.0,"adult smoking rate":0.191,"tax rank":8,"id":"a62d972v09oz","geo_precision":"unmatched","state":"Wisconsin"},"type":"Feature","geometry":null},{"properties":{"tobacco tax rate":0.6,"geo_score":0.0,"adult smoking rate":0.195,"tax rank":39,"id":"a62d976ny357","geo_precision":"unmatched","state":"Wyoming"},"type":"Feature","geometry":null}],"is_temporal":false,"author":{"url":"","metadata":"","contact_name":"","contact_address":"","source":"","contact_phone":""},"source":"","pagination":{"sort":null,"start":0,"total":51,"limit":1000000},"state":"complete","tags":"","published":"2014-08-14T19:48:47-04:00","id":243228}