{"type":"FeatureCollection","data_type":"Dataset","url_type":null,"permissions":[{"permissions":{"download":true,"view":true},"group_id":"everyone"}],"classification":null,"title":"Template_GIS2","count":203,"stream_id":244411,"contributor":{"url":"http://geocommons.com/users/42980","name":"balbiemejia"},"data_attributes":null,"calculation_params":null,"icon_link":null,"link":"http://geocommons.com/overlays/244411.json","extent":[-112.739,-7.28724,139.692,45.9734],"geometry_types":["point"],"unique_name":null,"name":"Template_GIS2","feature_count":203,"description":"","next_feature":null,"is_raster":false,"short_classification":"Y","stats":{"lat":{"max":45.97341944,"mean":23.7346178982759,"variance":82.725311140411,"stdev":9.09534557564533,"min":-7.287241667,"median":23.56666667},"long":{"max":139.6917056,"mean":89.5177990019212,"variance":710.122344996273,"stdev":26.6481208530034,"min":-112.7390472,"median":85.0975}},"features":[{"properties":{"city":"Agra","pm2007":"LNG","id":"a61zyrtrwxvc","lat":27.17771944,"long":78.0093},"type":"Feature","geometry":{"type":"Point","coordinates":[78.0093,27.17771944]}},{"properties":{"city":"Ahmedabad","pm2007":"CNG","id":"a61zyrwley8g","lat":23.03957778,"long":72.566025},"type":"Feature","geometry":{"type":"Point","coordinates":[72.566025,23.03957778]}},{"properties":{"city":"Bangalore","pm2007":"bus","id":"a61zyrwkz15v","lat":12.97187778,"long":77.59424167},"type":"Feature","geometry":{"type":"Point","coordinates":[77.59424167,12.97187778]}},{"properties":{"city":"Bangkok","pm2007":"walk","id":"a61zyrv8p65b","lat":13.72341944,"long":100.4762333},"type":"Feature","geometry":{"type":"Point","coordinates":[100.4762333,13.72341944]}},{"properties":{"city":"Beijing","pm2007":"LNG","id":"a61zyroi5152","lat":39.90817222,"long":116.3979472},"type":"Feature","geometry":{"type":"Point","coordinates":[116.3979472,39.90817222]}},{"properties":{"city":"Busan","pm2007":"CNG","id":"a61zyrs3vbgu","lat":35.15705278,"long":129.0293889},"type":"Feature","geometry":{"type":"Point","coordinates":[129.0293889,35.15705278]}},{"properties":{"city":"Changchun","pm2007":"bus","id":"a61zyrlskkva","lat":43.88684444,"long":125.3247944},"type":"Feature","geometry":{"type":"Point","coordinates":[125.3247944,43.88684444]}},{"properties":{"city":"Changsha","pm2007":"walk","id":"a61zyrv8t8jc","lat":28.208475,"long":113.0093556},"type":"Feature","geometry":{"type":"Point","coordinates":[113.0093556,28.208475]}},{"properties":{"city":"Chengdu","pm2007":"LNG","id":"a61zyrvdjlgy","lat":30.71046667,"long":104.0891139},"type":"Feature","geometry":{"type":"Point","coordinates":[104.0891139,30.71046667]}},{"properties":{"city":"Chennai","pm2007":"CNG","id":"a61zyrnkwuzb","lat":13.06041667,"long":80.24963333},"type":"Feature","geometry":{"type":"Point","coordinates":[80.24963333,13.06041667]}},{"properties":{"city":"Chongqing","pm2007":"bus","id":"a61zyrhf48ik","lat":29.55491389,"long":106.548425},"type":"Feature","geometry":{"type":"Point","coordinates":[106.548425,29.55491389]}},{"properties":{"city":"Colombo","pm2007":"walk","id":"a61zyrhxnote","lat":6.915527778,"long":79.85723333},"type":"Feature","geometry":{"type":"Point","coordinates":[79.85723333,6.915527778]}},{"properties":{"city":"Faridabad","pm2007":"LNG","id":"a61zyrorkwhj","lat":28.38216667,"long":77.30324167},"type":"Feature","geometry":{"type":"Point","coordinates":[77.30324167,28.38216667]}},{"properties":{"city":"Fuzhou","pm2007":"LNG","id":"a61zyrpu6uzf","lat":26.07610556,"long":119.3064056},"type":"Feature","geometry":{"type":"Point","coordinates":[119.3064056,26.07610556]}},{"properties":{"city":"Guangzhou","pm2007":"CNG","id":"a61zyrncc4xm","lat":23.12704167,"long":113.3415278},"type":"Feature","geometry":{"type":"Point","coordinates":[113.3415278,23.12704167]}},{"properties":{"city":"Guiyang","pm2007":"bus","id":"a61zyrkl2a6z","lat":26.54341944,"long":106.7612472},"type":"Feature","geometry":{"type":"Point","coordinates":[106.7612472,26.54341944]}},{"properties":{"city":"Haikou","pm2007":"walk","id":"a61zyrpbm5cv","lat":20.01585,"long":110.3311833},"type":"Feature","geometry":{"type":"Point","coordinates":[110.3311833,20.01585]}},{"properties":{"city":"Hangzhou","pm2007":"LNG","id":"a61zyroe6xcg","lat":30.27384167,"long":120.1728361},"type":"Feature","geometry":{"type":"Point","coordinates":[120.1728361,30.27384167]}},{"properties":{"city":"Harbin","pm2007":"CNG","id":"a61zyrshbzvt","lat":45.97341944,"long":126.7237861},"type":"Feature","geometry":{"type":"Point","coordinates":[126.7237861,45.97341944]}},{"properties":{"city":"Hefei","pm2007":"bus","id":"a61zyrve8fzf","lat":31.79564167,"long":117.25915},"type":"Feature","geometry":{"type":"Point","coordinates":[117.25915,31.79564167]}},{"properties":{"city":"Hohhot","pm2007":"walk","id":"a61zyri7zo2p","lat":40.86721944,"long":111.8145528},"type":"Feature","geometry":{"type":"Point","coordinates":[111.8145528,40.86721944]}},{"properties":{"city":"Hong Kong","pm2007":"LNG","id":"a61zyris1zhy","lat":22.39645278,"long":114.1094944},"type":"Feature","geometry":{"type":"Point","coordinates":[114.1094944,22.39645278]}},{"properties":{"city":"Hyderabad","pm2007":"CNG","id":"a61zyrqqsvm9","lat":17.38511111,"long":78.48715833},"type":"Feature","geometry":{"type":"Point","coordinates":[78.48715833,17.38511111]}},{"properties":{"city":"Incheon","pm2007":"bus","id":"a61zyro2ozrv","lat":37.45625,"long":126.7051889},"type":"Feature","geometry":{"type":"Point","coordinates":[126.7051889,37.45625]}},{"properties":{"city":"Jinan","pm2007":"walk","id":"a61zyrgwrldj","lat":36.665275,"long":116.9949083},"type":"Feature","geometry":{"type":"Point","coordinates":[116.9949083,36.665275]}},{"properties":{"city":"Jodhpur","pm2007":"LNG","id":"a61zyrhl7o5c","lat":26.28161111,"long":73.02316389},"type":"Feature","geometry":{"type":"Point","coordinates":[73.02316389,26.28161111]}},{"properties":{"city":"Kanpur","pm2007":"LNG","id":"a61zyroais0o","lat":26.45783056,"long":80.31786389},"type":"Feature","geometry":{"type":"Point","coordinates":[80.31786389,26.45783056]}},{"properties":{"city":"Kathmandu","pm2007":"CNG","id":"a61zyrm8nou4","lat":27.70286667,"long":85.31822222},"type":"Feature","geometry":{"type":"Point","coordinates":[85.31822222,27.70286667]}},{"properties":{"city":"Kolkata","pm2007":"bus","id":"a61zyru13817","lat":22.57264722,"long":88.36389444},"type":"Feature","geometry":{"type":"Point","coordinates":[88.36389444,22.57264722]}},{"properties":{"city":"Kunming","pm2007":"walk","id":"a61zyrs4ukxb","lat":25.012525,"long":102.7000139},"type":"Feature","geometry":{"type":"Point","coordinates":[102.7000139,25.012525]}},{"properties":{"city":"Lanzhou","pm2007":"LNG","id":"a61zyrmy00he","lat":36.07589722,"long":103.7572417},"type":"Feature","geometry":{"type":"Point","coordinates":[103.7572417,36.07589722]}},{"properties":{"city":"Lhasa","pm2007":"CNG","id":"a61zyrrdun8u","lat":29.65684722,"long":91.12510833},"type":"Feature","geometry":{"type":"Point","coordinates":[91.12510833,29.65684722]}},{"properties":{"city":"Lucknow","pm2007":"bus","id":"a61zyrnyyw9w","lat":26.84943056,"long":80.919725},"type":"Feature","geometry":{"type":"Point","coordinates":[80.919725,26.84943056]}},{"properties":{"city":"Mumbai","pm2007":"walk","id":"a61zyrjj8qpn","lat":19.01765556,"long":72.85618056},"type":"Feature","geometry":{"type":"Point","coordinates":[72.85618056,19.01765556]}},{"properties":{"city":"Nanchang","pm2007":"LNG","id":"a61zyrv9j00r","lat":28.74677778,"long":115.8269056},"type":"Feature","geometry":{"type":"Point","coordinates":[115.8269056,28.74677778]}},{"properties":{"city":"Nanjing","pm2007":"CNG","id":"a61zyrgvija2","lat":32.05564444,"long":118.7977417},"type":"Feature","geometry":{"type":"Point","coordinates":[118.7977417,32.05564444]}},{"properties":{"city":"Nanning","pm2007":"bus","id":"a61zyrvhrbyu","lat":22.6538,"long":108.3109028},"type":"Feature","geometry":{"type":"Point","coordinates":[108.3109028,22.6538]}},{"properties":{"city":"New Delhi","pm2007":"walk","id":"a61zyribu7f0","lat":28.63530278,"long":77.22499167},"type":"Feature","geometry":{"type":"Point","coordinates":[77.22499167,28.63530278]}},{"properties":{"city":"Patna","pm2007":"LNG","id":"a61zyriyryqp","lat":25.6139,"long":85.13535278},"type":"Feature","geometry":{"type":"Point","coordinates":[85.13535278,25.6139]}},{"properties":{"city":"Pune","pm2007":"LNG","id":"a61zyrvyga8u","lat":18.52046944,"long":73.85662222},"type":"Feature","geometry":{"type":"Point","coordinates":[73.85662222,18.52046944]}},{"properties":{"city":"Seoul","pm2007":"CNG","id":"a61zyruytqf7","lat":37.55026389,"long":126.9970833},"type":"Feature","geometry":{"type":"Point","coordinates":[126.9970833,37.55026389]}},{"properties":{"city":"Shanghai","pm2007":"bus","id":"a61zyrw84rfp","lat":31.22435278,"long":121.4759167},"type":"Feature","geometry":{"type":"Point","coordinates":[121.4759167,31.22435278]}},{"properties":{"city":"Shenyang","pm2007":"walk","id":"a61zyrkdfqut","lat":41.82758611,"long":123.4164083},"type":"Feature","geometry":{"type":"Point","coordinates":[123.4164083,41.82758611]}},{"properties":{"city":"Shijiazhuang","pm2007":"LNG","id":"a61zyrnl9z3f","lat":38.074125,"long":114.4892444},"type":"Feature","geometry":{"type":"Point","coordinates":[114.4892444,38.074125]}},{"properties":{"city":"Solapur","pm2007":"CNG","id":"a61zyrlx0oex","lat":17.69567778,"long":75.52766944},"type":"Feature","geometry":{"type":"Point","coordinates":[75.52766944,17.69567778]}},{"properties":{"city":"Taiyuan","pm2007":"bus","id":"a61zyrqa2km5","lat":37.83574167,"long":112.5223056},"type":"Feature","geometry":{"type":"Point","coordinates":[112.5223056,37.83574167]}},{"properties":{"city":"Tianjin","pm2007":"walk","id":"a61zyrvbzwfg","lat":39.10385556,"long":117.2523806},"type":"Feature","geometry":{"type":"Point","coordinates":[117.2523806,39.10385556]}},{"properties":{"city":"Tokyo","pm2007":"LNG","id":"a61zyrjvomjl","lat":35.68948889,"long":139.6917056},"type":"Feature","geometry":{"type":"Point","coordinates":[139.6917056,35.68948889]}},{"properties":{"city":"Urumqi","pm2007":"CNG","id":"a61zyrn8eg4x","lat":43.78266944,"long":87.58651667},"type":"Feature","geometry":{"type":"Point","coordinates":[87.58651667,43.78266944]}},{"properties":{"city":"Varanasi","pm2007":"bus","id":"a61zyrsrc5cr","lat":25.28200833,"long":82.95633611},"type":"Feature","geometry":{"type":"Point","coordinates":[82.95633611,25.28200833]}},{"properties":{"city":"Wuhan","pm2007":"walk","id":"a61zyrivwp3t","lat":30.56116111,"long":114.3814194},"type":"Feature","geometry":{"type":"Point","coordinates":[114.3814194,30.56116111]}},{"properties":{"city":"Xi'an","pm2007":"LNG","id":"a61zyroscd8p","lat":34.26487778,"long":108.9442611},"type":"Feature","geometry":{"type":"Point","coordinates":[108.9442611,34.26487778]}},{"properties":{"city":"Xining","pm2007":"LNG","id":"a61zyrrobqmd","lat":36.63061389,"long":101.7846917},"type":"Feature","geometry":{"type":"Point","coordinates":[101.7846917,36.63061389]}},{"properties":{"city":"Yinchuan","pm2007":"CNG","id":"a61zyrskjagt","lat":38.47511111,"long":106.2732417},"type":"Feature","geometry":{"type":"Point","coordinates":[106.2732417,38.47511111]}},{"properties":{"city":"Zhengzhou","pm2007":"bus","id":"a61zyru212rv","lat":34.78037778,"long":113.6582222},"type":"Feature","geometry":{"type":"Point","coordinates":[113.6582222,34.78037778]}},{"properties":{"city":"Daegu","pm2007":"walk","id":"a61zyrmt3eeg","lat":35.79548056,"long":128.5270306},"type":"Feature","geometry":{"type":"Point","coordinates":[128.5270306,35.79548056]}},{"properties":{"city":"Visakhapatnam","pm2007":"LNG","id":"a61zyrsblk2r","lat":17.38595556,"long":78.57005},"type":"Feature","geometry":{"type":"Point","coordinates":[78.57005,17.38595556]}},{"properties":{"city":"Tirupati","pm2007":"CNG","id":"a61zyrleffgd","lat":17.40406667,"long":78.52983056},"type":"Feature","geometry":{"type":"Point","coordinates":[78.52983056,17.40406667]}},{"properties":{"city":"Vijaywada","pm2007":"bus","id":"a61zyrhn4sh5","lat":16.51136944,"long":80.63144722},"type":"Feature","geometry":{"type":"Point","coordinates":[80.63144722,16.51136944]}},{"properties":{"city":"Patancheru","pm2007":"walk","id":"a61zyrnpewwm","lat":17.52893056,"long":78.27321667},"type":"Feature","geometry":{"type":"Point","coordinates":[78.27321667,17.52893056]}},{"properties":{"city":"Kurnool","pm2007":"LNG","id":"a61zyrsvtemx","lat":17.34776667,"long":78.44336389},"type":"Feature","geometry":{"type":"Point","coordinates":[78.44336389,17.34776667]}},{"properties":{"city":"Ramagundam","pm2007":"CNG","id":"a61zyrniwpgf","lat":18.76126389,"long":79.40849167},"type":"Feature","geometry":{"type":"Point","coordinates":[79.40849167,18.76126389]}},{"properties":{"city":"Guwahati","pm2007":"bus","id":"a61zyrs1ptcy","lat":26.18435,"long":91.75155},"type":"Feature","geometry":{"type":"Point","coordinates":[91.75155,26.18435]}},{"properties":{"city":"Bongaigaon","pm2007":"walk","id":"a61zyrk9uvjx","lat":26.47280833,"long":90.56446389},"type":"Feature","geometry":{"type":"Point","coordinates":[90.56446389,26.47280833]}},{"properties":{"city":"Dibrugarh","pm2007":"LNG","id":"a61zyrjenbxt","lat":27.47908889,"long":94.90920278},"type":"Feature","geometry":{"type":"Point","coordinates":[94.90920278,27.47908889]}},{"properties":{"city":"Golaghat","pm2007":"LNG","id":"a61zyrs4vwu1","lat":26.50896111,"long":93.96954444},"type":"Feature","geometry":{"type":"Point","coordinates":[93.96954444,26.50896111]}},{"properties":{"city":"Sivasagar","pm2007":"CNG","id":"a61zyrob3kr1","lat":26.98357778,"long":94.63020278},"type":"Feature","geometry":{"type":"Point","coordinates":[94.63020278,26.98357778]}},{"properties":{"city":"Tezpur","pm2007":"bus","id":"a61zyrm3h5h4","lat":26.62431111,"long":92.80379444},"type":"Feature","geometry":{"type":"Point","coordinates":[92.80379444,26.62431111]}},{"properties":{"city":"Hailakandi","pm2007":"walk","id":"a61zyrnw2mak","lat":24.68363889,"long":92.5619},"type":"Feature","geometry":{"type":"Point","coordinates":[92.5619,24.68363889]}},{"properties":{"city":"Chandigarh","pm2007":"LNG","id":"a61zyri3akg7","lat":30.73777778,"long":76.78444444},"type":"Feature","geometry":{"type":"Point","coordinates":[76.78444444,30.73777778]}},{"properties":{"city":"Korba","pm2007":"CNG","id":"a61zyruws1qc","lat":22.34881111,"long":82.69785278},"type":"Feature","geometry":{"type":"Point","coordinates":[82.69785278,22.34881111]}},{"properties":{"city":"Bhilai","pm2007":"bus","id":"a61zyrm3ys99","lat":21.18259444,"long":81.36195},"type":"Feature","geometry":{"type":"Point","coordinates":[81.36195,21.18259444]}},{"properties":{"city":"Raipur","pm2007":"walk","id":"a61zyrs5pbqy","lat":21.24205,"long":81.64083889},"type":"Feature","geometry":{"type":"Point","coordinates":[81.64083889,21.24205]}},{"properties":{"city":"Vasco","pm2007":"LNG","id":"a61zyrts6n77","lat":28.57907222,"long":77.189225},"type":"Feature","geometry":{"type":"Point","coordinates":[77.189225,28.57907222]}},{"properties":{"city":"Panjim","pm2007":"CNG","id":"a61zyrsvxxn7","lat":15.49212778,"long":73.81823889},"type":"Feature","geometry":{"type":"Point","coordinates":[73.81823889,15.49212778]}},{"properties":{"city":"Vadodara","pm2007":"bus","id":"a61zyrim0dfg","lat":22.30655,"long":73.187575},"type":"Feature","geometry":{"type":"Point","coordinates":[73.187575,22.30655]}},{"properties":{"city":"Surat","pm2007":"walk","id":"a61zyrpckt5h","lat":21.19500833,"long":72.81952778},"type":"Feature","geometry":{"type":"Point","coordinates":[72.81952778,21.19500833]}},{"properties":{"city":"Rajkot","pm2007":"LNG","id":"a61zyrgw2db6","lat":22.29690833,"long":70.79836389},"type":"Feature","geometry":{"type":"Point","coordinates":[70.79836389,22.29690833]}},{"properties":{"city":"Ankaleshwar","pm2007":"LNG","id":"a61zyrnzdwz9","lat":21.62894167,"long":72.98454167},"type":"Feature","geometry":{"type":"Point","coordinates":[72.98454167,21.62894167]}},{"properties":{"city":"Vapi","pm2007":"CNG","id":"a61zyrksmma9","lat":21.38996389,"long":72.91299722},"type":"Feature","geometry":{"type":"Point","coordinates":[72.91299722,21.38996389]}},{"properties":{"city":"Jamnagar","pm2007":"bus","id":"a61zyrt699mz","lat":21.42781389,"long":72.68066667},"type":"Feature","geometry":{"type":"Point","coordinates":[72.68066667,21.42781389]}},{"properties":{"city":"Yamuna Nagar","pm2007":"walk","id":"a61zyrlbngu4","lat":21.188575,"long":72.85376389},"type":"Feature","geometry":{"type":"Point","coordinates":[72.85376389,21.188575]}},{"properties":{"city":"Hissar","pm2007":"LNG","id":"a61zyrr1qa9g","lat":29.15306667,"long":75.71856667},"type":"Feature","geometry":{"type":"Point","coordinates":[75.71856667,29.15306667]}},{"properties":{"city":"Shimla","pm2007":"CNG","id":"a61zyrm5lkcq","lat":31.10373056,"long":77.16439444},"type":"Feature","geometry":{"type":"Point","coordinates":[77.16439444,31.10373056]}},{"properties":{"city":"Parwanoo","pm2007":"bus","id":"a61zyrko6oav","lat":30.83716389,"long":76.961425},"type":"Feature","geometry":{"type":"Point","coordinates":[76.961425,30.83716389]}},{"properties":{"city":"Damtal","pm2007":"walk","id":"a61zyrho3lqy","lat":32.21565,"long":75.66881111},"type":"Feature","geometry":{"type":"Point","coordinates":[75.66881111,32.21565]}},{"properties":{"city":"Paonta Sahib","pm2007":"LNG","id":"a61zyrk5467f","lat":30.44320556,"long":77.61966111},"type":"Feature","geometry":{"type":"Point","coordinates":[77.61966111,30.44320556]}},{"properties":{"city":"Kala Amb","pm2007":"CNG","id":"a61zyrvmwz7c","lat":30.49958611,"long":77.17209722},"type":"Feature","geometry":{"type":"Point","coordinates":[77.17209722,30.49958611]}},{"properties":{"city":"Dhanbad","pm2007":"bus","id":"a61zyru92j6a","lat":23.78698056,"long":86.43512778},"type":"Feature","geometry":{"type":"Point","coordinates":[86.43512778,23.78698056]}},{"properties":{"city":"Jharia","pm2007":"walk","id":"a61zyrmqb8y3","lat":23.74963056,"long":86.42030278},"type":"Feature","geometry":{"type":"Point","coordinates":[86.42030278,23.74963056]}},{"properties":{"city":"Sindri","pm2007":"LNG","id":"a61zyrvfchci","lat":23.74275278,"long":86.44993056},"type":"Feature","geometry":{"type":"Point","coordinates":[86.44993056,23.74275278]}},{"properties":{"city":"Ranchi","pm2007":"LNG","id":"a61zyrgzqga3","lat":23.35698056,"long":85.335375},"type":"Feature","geometry":{"type":"Point","coordinates":[85.335375,23.35698056]}},{"properties":{"city":"Jamshedpur","pm2007":"CNG","id":"a61zyrgsaaj3","lat":22.77848889,"long":86.209},"type":"Feature","geometry":{"type":"Point","coordinates":[86.209,22.77848889]}},{"properties":{"city":"Jammu","pm2007":"bus","id":"a61zyrombjel","lat":32.70812778,"long":74.85255},"type":"Feature","geometry":{"type":"Point","coordinates":[74.85255,32.70812778]}},{"properties":{"city":"Mysore","pm2007":"walk","id":"a61zyrnvgjxm","lat":12.30330278,"long":76.64586667},"type":"Feature","geometry":{"type":"Point","coordinates":[76.64586667,12.30330278]}},{"properties":{"city":"Hubli- Dharwad","pm2007":"LNG","id":"a61zyrrgjetz","lat":15.34452222,"long":75.13528056},"type":"Feature","geometry":{"type":"Point","coordinates":[75.13528056,15.34452222]}},{"properties":{"city":"Mangalore","pm2007":"CNG","id":"a61zyrhc5oms","lat":14.77186111,"long":75.06253611},"type":"Feature","geometry":{"type":"Point","coordinates":[75.06253611,14.77186111]}},{"properties":{"city":"Gulbarga","pm2007":"bus","id":"a61zyrshon26","lat":17.33293889,"long":76.83045278},"type":"Feature","geometry":{"type":"Point","coordinates":[76.83045278,17.33293889]}},{"properties":{"city":"Belgam","pm2007":"walk","id":"a61zyrkrwvxd","lat":15.85036667,"long":74.50467778},"type":"Feature","geometry":{"type":"Point","coordinates":[74.50467778,15.85036667]}},{"properties":{"city":"Hassan","pm2007":"LNG","id":"a61zyroo1ipy","lat":13.0072,"long":76.09454167},"type":"Feature","geometry":{"type":"Point","coordinates":[76.09454167,13.0072]}},{"properties":{"city":"Kochi","pm2007":"CNG","id":"a61zyrwdyo1q","lat":9.939630556,"long":76.25949722},"type":"Feature","geometry":{"type":"Point","coordinates":[76.25949722,9.939630556]}},{"properties":{"city":"Tiruvanantha-puram","pm2007":"bus","id":"a61zyri4343l","lat":8.503705556,"long":76.95218333},"type":"Feature","geometry":{"type":"Point","coordinates":[76.95218333,8.503705556]}},{"properties":{"city":"Kozhikode","pm2007":"walk","id":"a61zyrkgrqdp","lat":11.2554,"long":75.78121111},"type":"Feature","geometry":{"type":"Point","coordinates":[75.78121111,11.2554]}},{"properties":{"city":"Kottayam","pm2007":"LNG","id":"a61zyrnd4klh","lat":11.77845833,"long":75.78603611},"type":"Feature","geometry":{"type":"Point","coordinates":[75.78603611,11.77845833]}},{"properties":{"city":"Palakkad","pm2007":"LNG","id":"a61zyrnni43m","lat":10.77468333,"long":76.54882222},"type":"Feature","geometry":{"type":"Point","coordinates":[76.54882222,10.77468333]}},{"properties":{"city":"Bhopal","pm2007":"CNG","id":"a61zyrm17slg","lat":23.22978056,"long":77.41179444},"type":"Feature","geometry":{"type":"Point","coordinates":[77.41179444,23.22978056]}},{"properties":{"city":"Jabalpur","pm2007":"bus","id":"a61zyrlf0q5l","lat":23.11063333,"long":77.64195556},"type":"Feature","geometry":{"type":"Point","coordinates":[77.64195556,23.11063333]}},{"properties":{"city":"Nagda","pm2007":"walk","id":"a61zyrmlyexi","lat":23.45,"long":75.41666667},"type":"Feature","geometry":{"type":"Point","coordinates":[75.41666667,23.45]}},{"properties":{"city":"Satna","pm2007":"LNG","id":"a61zyrwac9uv","lat":24.56106944,"long":80.82564722},"type":"Feature","geometry":{"type":"Point","coordinates":[80.82564722,24.56106944]}},{"properties":{"city":"Indore","pm2007":"CNG","id":"a61zyrw42ney","lat":22.72706944,"long":75.866525},"type":"Feature","geometry":{"type":"Point","coordinates":[75.866525,22.72706944]}},{"properties":{"city":"Dewas","pm2007":"bus","id":"a61zyrmb8pm5","lat":22.8341,"long":76.31741389},"type":"Feature","geometry":{"type":"Point","coordinates":[76.31741389,22.8341]}},{"properties":{"city":"Singrauli","pm2007":"walk","id":"a61zyrogfbiz","lat":24.19638611,"long":82.66724722},"type":"Feature","geometry":{"type":"Point","coordinates":[82.66724722,24.19638611]}},{"properties":{"city":"Sagar","pm2007":"LNG","id":"a61zyrjepdkg","lat":23.82970833,"long":78.74620278},"type":"Feature","geometry":{"type":"Point","coordinates":[78.74620278,23.82970833]}},{"properties":{"city":"Gwalior","pm2007":"CNG","id":"a61zyri30soo","lat":26.22520833,"long":78.19064444},"type":"Feature","geometry":{"type":"Point","coordinates":[78.19064444,26.22520833]}},{"properties":{"city":"Ujjain","pm2007":"bus","id":"a61zyrt3rcyu","lat":23.17560833,"long":75.78401944},"type":"Feature","geometry":{"type":"Point","coordinates":[75.78401944,23.17560833]}},{"properties":{"city":"Thane","pm2007":"walk","id":"a61zyrp5x6q8","lat":19.25197222,"long":73.18216944},"type":"Feature","geometry":{"type":"Point","coordinates":[73.18216944,19.25197222]}},{"properties":{"city":"Nagpur","pm2007":"LNG","id":"a61zyrgn0v6p","lat":21.15576111,"long":79.08911111},"type":"Feature","geometry":{"type":"Point","coordinates":[79.08911111,21.15576111]}},{"properties":{"city":"Nasik","pm2007":"LNG","id":"a61zyru1m5ky","lat":20.00066111,"long":73.78086111},"type":"Feature","geometry":{"type":"Point","coordinates":[73.78086111,20.00066111]}},{"properties":{"city":"Chandarpur","pm2007":"CNG","id":"a61zyrkmgwkz","lat":23.56666667,"long":83.6},"type":"Feature","geometry":{"type":"Point","coordinates":[83.6,23.56666667]}},{"properties":{"city":"Aurangabad","pm2007":"bus","id":"a61zyrnaosy1","lat":19.88530556,"long":75.31966944},"type":"Feature","geometry":{"type":"Point","coordinates":[75.31966944,19.88530556]}},{"properties":{"city":"Kolhapur","pm2007":"walk","id":"a61zyrl8nb7o","lat":20.05609167,"long":75.059125},"type":"Feature","geometry":{"type":"Point","coordinates":[75.059125,20.05609167]}},{"properties":{"city":"Dombivali","pm2007":"LNG","id":"a61zyruljxvr","lat":19.21079722,"long":73.08296111},"type":"Feature","geometry":{"type":"Point","coordinates":[73.08296111,19.21079722]}},{"properties":{"city":"Navi Mumbai","pm2007":"CNG","id":"a61zyrwkl19x","lat":19.11,"long":73.06},"type":"Feature","geometry":{"type":"Point","coordinates":[73.06,19.11]}},{"properties":{"city":"Lote","pm2007":"bus","id":"a61zyrgeospd","lat":18.96063611,"long":73.04648611},"type":"Feature","geometry":{"type":"Point","coordinates":[73.04648611,18.96063611]}},{"properties":{"city":"Tarapur","pm2007":"walk","id":"a61zyricyokp","lat":19.87293333,"long":72.71415},"type":"Feature","geometry":{"type":"Point","coordinates":[72.71415,19.87293333]}},{"properties":{"city":"Amravati","pm2007":"LNG","id":"a61zyroabpsp","lat":20.93067778,"long":77.75871389},"type":"Feature","geometry":{"type":"Point","coordinates":[77.75871389,20.93067778]}},{"properties":{"city":"Imphal","pm2007":"CNG","id":"a61zyrlmgowg","lat":24.78776944,"long":93.94100278},"type":"Feature","geometry":{"type":"Point","coordinates":[93.94100278,24.78776944]}},{"properties":{"city":"Shillong","pm2007":"bus","id":"a61zyrmsk464","lat":25.56978889,"long":91.87581111},"type":"Feature","geometry":{"type":"Point","coordinates":[91.87581111,25.56978889]}},{"properties":{"city":"Aizawal","pm2007":"walk","id":"a61zyrisg8av","lat":23.73333333,"long":92.71666667},"type":"Feature","geometry":{"type":"Point","coordinates":[92.71666667,23.73333333]}},{"properties":{"city":"Dimapur","pm2007":"LNG","id":"a61zyrsq8qkb","lat":25.89998889,"long":93.73332778},"type":"Feature","geometry":{"type":"Point","coordinates":[93.73332778,25.89998889]}},{"properties":{"city":"Talcher","pm2007":"LNG","id":"a61zyrq3l7w1","lat":20.94936111,"long":85.21530556},"type":"Feature","geometry":{"type":"Point","coordinates":[85.21530556,20.94936111]}},{"properties":{"city":"Angul","pm2007":"CNG","id":"a61zyrokw0kz","lat":20.83118333,"long":85.0975},"type":"Feature","geometry":{"type":"Point","coordinates":[85.0975,20.83118333]}},{"properties":{"city":"Rourkela","pm2007":"bus","id":"a61zyrnidqru","lat":22.25003889,"long":84.88436111},"type":"Feature","geometry":{"type":"Point","coordinates":[84.88436111,22.25003889]}},{"properties":{"city":"Rayagada","pm2007":"walk","id":"a61zyrjtkdkc","lat":18.96666667,"long":84.16666667},"type":"Feature","geometry":{"type":"Point","coordinates":[84.16666667,18.96666667]}},{"properties":{"city":"Bhubaneshwar","pm2007":"LNG","id":"a61zyrkmopsn","lat":20.26351944,"long":85.83519722},"type":"Feature","geometry":{"type":"Point","coordinates":[85.83519722,20.26351944]}},{"properties":{"city":"Cuttack","pm2007":"CNG","id":"a61zyrmcvjwp","lat":20.46393889,"long":85.87925833},"type":"Feature","geometry":{"type":"Point","coordinates":[85.87925833,20.46393889]}},{"properties":{"city":"Sambalpur","pm2007":"bus","id":"a61zyrlauf4n","lat":20.46731667,"long":85.73595556},"type":"Feature","geometry":{"type":"Point","coordinates":[85.73595556,20.46731667]}},{"properties":{"city":"Behrampur","pm2007":"walk","id":"a61zyrke3k5z","lat":19.30853056,"long":84.80964722},"type":"Feature","geometry":{"type":"Point","coordinates":[84.80964722,19.30853056]}},{"properties":{"city":"Balasore","pm2007":"LNG","id":"a61zyrvdllsy","lat":21.48451111,"long":86.94529722},"type":"Feature","geometry":{"type":"Point","coordinates":[86.94529722,21.48451111]}},{"properties":{"city":"Pondicherry","pm2007":"CNG","id":"a61zyrmeh290","lat":11.93288056,"long":75.84678611},"type":"Feature","geometry":{"type":"Point","coordinates":[75.84678611,11.93288056]}},{"properties":{"city":"Ludhiana","pm2007":"bus","id":"a61zyrihbioc","lat":30.90608611,"long":75.84678611},"type":"Feature","geometry":{"type":"Point","coordinates":[75.84678611,30.90608611]}},{"properties":{"city":"Jalandhar","pm2007":"walk","id":"a61zyrgkn7o5","lat":31.31883056,"long":75.57916389},"type":"Feature","geometry":{"type":"Point","coordinates":[75.57916389,31.31883056]}},{"properties":{"city":"Gobindgarh","pm2007":"LNG","id":"a61zyrptrywe","lat":30.6625,"long":76.28845833},"type":"Feature","geometry":{"type":"Point","coordinates":[76.28845833,30.6625]}},{"properties":{"city":"Naya Nangal","pm2007":"LNG","id":"a61zyrw8beb8","lat":31.38663889,"long":76.35504722},"type":"Feature","geometry":{"type":"Point","coordinates":[76.35504722,31.38663889]}},{"properties":{"city":"Khanna","pm2007":"CNG","id":"a61zyrmyhbhe","lat":30.70391944,"long":76.24153889},"type":"Feature","geometry":{"type":"Point","coordinates":[76.24153889,30.70391944]}},{"properties":{"city":"Alwar","pm2007":"bus","id":"a61zyrpz4hvm","lat":30.90005,"long":75.85668889},"type":"Feature","geometry":{"type":"Point","coordinates":[75.85668889,30.90005]}},{"properties":{"city":"Jaipur","pm2007":"walk","id":"a61zyrkxpt1f","lat":26.90510833,"long":75.80127778},"type":"Feature","geometry":{"type":"Point","coordinates":[75.80127778,26.90510833]}},{"properties":{"city":"Kota","pm2007":"LNG","id":"a61zyrnu2j2i","lat":26.89136389,"long":76.05696111},"type":"Feature","geometry":{"type":"Point","coordinates":[76.05696111,26.89136389]}},{"properties":{"city":"Udaipur","pm2007":"CNG","id":"a61zyrsb1asd","lat":27.72176111,"long":75.4691},"type":"Feature","geometry":{"type":"Point","coordinates":[75.4691,27.72176111]}},{"properties":{"city":"Coimbatore","pm2007":"bus","id":"a61zyriwdx95","lat":11.00520278,"long":76.97071111},"type":"Feature","geometry":{"type":"Point","coordinates":[76.97071111,11.00520278]}},{"properties":{"city":"Madurai","pm2007":"walk","id":"a61zyrjdsb0r","lat":9.913986111,"long":78.121725},"type":"Feature","geometry":{"type":"Point","coordinates":[78.121725,9.913986111]}},{"properties":{"city":"Tuticorin","pm2007":"LNG","id":"a61zyruw3tbg","lat":8.801919444,"long":78.14507222},"type":"Feature","geometry":{"type":"Point","coordinates":[78.14507222,8.801919444]}},{"properties":{"city":"Salem","pm2007":"CNG","id":"a61zyrhpytt3","lat":11.65518056,"long":78.15850833},"type":"Feature","geometry":{"type":"Point","coordinates":[78.15850833,11.65518056]}},{"properties":{"city":"Gajraula","pm2007":"bus","id":"a61zyritlxpl","lat":28.848425,"long":78.22666389},"type":"Feature","geometry":{"type":"Point","coordinates":[78.22666389,28.848425]}},{"properties":{"city":"Ghaziabad","pm2007":"walk","id":"a61zyrskkdci","lat":28.79772222,"long":77.60778611},"type":"Feature","geometry":{"type":"Point","coordinates":[77.60778611,28.79772222]}},{"properties":{"city":"Noida","pm2007":"LNG","id":"a61zyrv7p2l3","lat":28.58021667,"long":77.330275},"type":"Feature","geometry":{"type":"Point","coordinates":[77.330275,28.58021667]}},{"properties":{"city":"Firozabad","pm2007":"LNG","id":"a61zyrwl6yyq","lat":27.14994167,"long":78.39198889},"type":"Feature","geometry":{"type":"Point","coordinates":[78.39198889,27.14994167]}},{"properties":{"city":"Khurja","pm2007":"CNG","id":"a61zyrhkbzv4","lat":28.25087778,"long":77.85002222},"type":"Feature","geometry":{"type":"Point","coordinates":[77.85002222,28.25087778]}},{"properties":{"city":"Jhansi","pm2007":"bus","id":"a61zyrsdoknj","lat":25.44242222,"long":78.56614722},"type":"Feature","geometry":{"type":"Point","coordinates":[78.56614722,25.44242222]}},{"properties":{"city":"Allahabad","pm2007":"walk","id":"a61zyrkmjzg6","lat":25.41939722,"long":78.60805556},"type":"Feature","geometry":{"type":"Point","coordinates":[78.60805556,25.41939722]}},{"properties":{"city":"Meerut","pm2007":"LNG","id":"a61zyrwpk9sx","lat":28.99160833,"long":77.70369722},"type":"Feature","geometry":{"type":"Point","coordinates":[77.70369722,28.99160833]}},{"properties":{"city":"Dehradun","pm2007":"CNG","id":"a61zyrnrqigp","lat":30.33356944,"long":78.04776111},"type":"Feature","geometry":{"type":"Point","coordinates":[78.04776111,30.33356944]}},{"properties":{"city":"Haldia","pm2007":"bus","id":"a61zyrsi36tc","lat":22.06016944,"long":88.07053333},"type":"Feature","geometry":{"type":"Point","coordinates":[88.07053333,22.06016944]}},{"properties":{"city":"Durgapur","pm2007":"walk","id":"a61zyrqwcnei","lat":22.18099722,"long":88.20365},"type":"Feature","geometry":{"type":"Point","coordinates":[88.20365,22.18099722]}},{"properties":{"city":"Asansol","pm2007":"LNG","id":"a61zyrlx41xg","lat":23.68721111,"long":86.97334167},"type":"Feature","geometry":{"type":"Point","coordinates":[86.97334167,23.68721111]}},{"properties":{"city":"Howrah","pm2007":"CNG","id":"a61zyrukb6wq","lat":22.58671389,"long":88.26558333},"type":"Feature","geometry":{"type":"Point","coordinates":[88.26558333,22.58671389]}},{"properties":{"city":"Anyang","pm2007":"bus","id":"a61zyrvdag0h","lat":37.3868,"long":126.9244},"type":"Feature","geometry":{"type":"Point","coordinates":[126.9244,37.3868]}},{"properties":{"city":"Ayutthaya","pm2007":"walk","id":"a61zyrs01kog","lat":14.34396944,"long":100.5612028},"type":"Feature","geometry":{"type":"Point","coordinates":[100.5612028,14.34396944]}},{"properties":{"city":"Bucheon","pm2007":"LNG","id":"a61zyrpdpm7q","lat":37.4759,"long":126.7878},"type":"Feature","geometry":{"type":"Point","coordinates":[126.7878,37.4759]}},{"properties":{"city":"Chachoengsao","pm2007":"LNG","id":"a61zyrqtgk1g","lat":13.54909444,"long":101.6157778},"type":"Feature","geometry":{"type":"Point","coordinates":[101.6157778,13.54909444]}},{"properties":{"city":"Daejeon","pm2007":"CNG","id":"a61zyrkqnef8","lat":36.35041111,"long":127.3845472},"type":"Feature","geometry":{"type":"Point","coordinates":[127.3845472,36.35041111]}},{"properties":{"city":"Gwangju","pm2007":"bus","id":"a61zyruga8sk","lat":35.15954444,"long":126.8526},"type":"Feature","geometry":{"type":"Point","coordinates":[126.8526,35.15954444]}},{"properties":{"city":"Jeju","pm2007":"walk","id":"a61zyrly78ir","lat":33.49962222,"long":126.5311889},"type":"Feature","geometry":{"type":"Point","coordinates":[126.5311889,33.49962222]}},{"properties":{"city":"Khon Kaen","pm2007":"LNG","id":"a61zyrp2tvd6","lat":15.97173611,"long":102.6216222},"type":"Feature","geometry":{"type":"Point","coordinates":[102.6216222,15.97173611]}},{"properties":{"city":"Lampang","pm2007":"CNG","id":"a61zyrjq0zm9","lat":18.74404722,"long":99.72326667},"type":"Feature","geometry":{"type":"Point","coordinates":[99.72326667,18.74404722]}},{"properties":{"city":"Mokpo","pm2007":"bus","id":"a61zyrur1ar3","lat":34.8009,"long":126.3996},"type":"Feature","geometry":{"type":"Point","coordinates":[126.3996,34.8009]}},{"properties":{"city":"Nakhon Rachisima","pm2007":"walk","id":"a61zyrm87ujb","lat":14.88824722,"long":102.2547917},"type":"Feature","geometry":{"type":"Point","coordinates":[102.2547917,14.88824722]}},{"properties":{"city":"Nakhon Sawan","pm2007":"LNG","id":"a61zyrlg4ya7","lat":15.71878611,"long":100.4396722},"type":"Feature","geometry":{"type":"Point","coordinates":[100.4396722,15.71878611]}},{"properties":{"city":"Narathiwat","pm2007":"CNG","id":"a61zyrpcdhgy","lat":6.190088889,"long":101.7979611},"type":"Feature","geometry":{"type":"Point","coordinates":[101.7979611,6.190088889]}},{"properties":{"city":"Nonthaburi","pm2007":"bus","id":"a61zyrn9yzrg","lat":13.92353611,"long":100.3947111},"type":"Feature","geometry":{"type":"Point","coordinates":[100.3947111,13.92353611]}},{"properties":{"city":"Phatum Tani","pm2007":"walk","id":"a61zyrsuu9e2","lat":14.00339167,"long":100.6647111},"type":"Feature","geometry":{"type":"Point","coordinates":[100.6647111,14.00339167]}},{"properties":{"city":"Phuket","pm2007":"LNG","id":"a61zyrssbma5","lat":7.984311111,"long":98.33074722},"type":"Feature","geometry":{"type":"Point","coordinates":[98.33074722,7.984311111]}},{"properties":{"city":"Ratchaburi","pm2007":"LNG","id":"a61zyrh1wzzv","lat":13.45098889,"long":99.63413611},"type":"Feature","geometry":{"type":"Point","coordinates":[99.63413611,13.45098889]}},{"properties":{"city":"Rayong","pm2007":"CNG","id":"a61zyrp476aa","lat":12.83084444,"long":101.4339139},"type":"Feature","geometry":{"type":"Point","coordinates":[101.4339139,12.83084444]}},{"properties":{"city":"Samut Prakarn","pm2007":"bus","id":"a61zyrl7bgbv","lat":13.56995278,"long":100.6421806},"type":"Feature","geometry":{"type":"Point","coordinates":[100.6421806,13.56995278]}},{"properties":{"city":"Samut Sakorn","pm2007":"walk","id":"a61zyrs0hfwy","lat":13.63026111,"long":100.3876083},"type":"Feature","geometry":{"type":"Point","coordinates":[100.3876083,13.63026111]}},{"properties":{"city":"Saraburi","pm2007":"LNG","id":"a61zyrjh8h8d","lat":14.49771111,"long":100.8903111},"type":"Feature","geometry":{"type":"Point","coordinates":[100.8903111,14.49771111]}},{"properties":{"city":"Seongnam","pm2007":"CNG","id":"a61zyrmsntgq","lat":37.4489,"long":127.1286},"type":"Feature","geometry":{"type":"Point","coordinates":[127.1286,37.4489]}},{"properties":{"city":"Seosan","pm2007":"bus","id":"a61zyrh0l7q6","lat":36.7845,"long":126.4503167},"type":"Feature","geometry":{"type":"Point","coordinates":[126.4503167,36.7845]}},{"properties":{"city":"Songkhla","pm2007":"walk","id":"a61zyrsf5w4l","lat":6.889991667,"long":100.5296111},"type":"Feature","geometry":{"type":"Point","coordinates":[100.5296111,6.889991667]}},{"properties":{"city":"Surat Thani","pm2007":"LNG","id":"a61zyro6cfqa","lat":8.903405556,"long":99.01289167},"type":"Feature","geometry":{"type":"Point","coordinates":[99.01289167,8.903405556]}},{"properties":{"city":"Suwon","pm2007":"CNG","id":"a61zyrm6l8kl","lat":37.2689,"long":127.0173},"type":"Feature","geometry":{"type":"Point","coordinates":[127.0173,37.2689]}},{"properties":{"city":"Ulsan","pm2007":"bus","id":"a61zyrgxzi5s","lat":35.53837778,"long":129.3113611},"type":"Feature","geometry":{"type":"Point","coordinates":[129.3113611,35.53837778]}},{"properties":{"city":"Yala","pm2007":"walk","id":"a61zyri8nbi7","lat":6.202025,"long":101.2523778},"type":"Feature","geometry":{"type":"Point","coordinates":[101.2523778,6.202025]}},{"properties":{"city":"Dalian","pm2007":"LNG","id":"a61zyrvg0n67","lat":38.91432778,"long":121.6162806},"type":"Feature","geometry":{"type":"Point","coordinates":[121.6162806,38.91432778]}},{"properties":{"city":"Dhaka","pm2007":"LNG","id":"a61zyrmmulff","lat":23.70992222,"long":90.40714444},"type":"Feature","geometry":{"type":"Point","coordinates":[90.40714444,23.70992222]}},{"properties":{"city":"Hanoi","pm2007":"CNG","id":"a61zyrpust4q","lat":21.0341,"long":105.8372},"type":"Feature","geometry":{"type":"Point","coordinates":[105.8372,21.0341]}},{"properties":{"city":"Ho Chi Minh","pm2007":"bus","id":"a61zyrsc38dc","lat":10.75918056,"long":106.6624972},"type":"Feature","geometry":{"type":"Point","coordinates":[106.6624972,10.75918056]}},{"properties":{"city":"Jakarta","pm2007":"walk","id":"a61zyriolmgx","lat":-6.211544444,"long":-106.8451722},"type":"Feature","geometry":{"type":"Point","coordinates":[-106.8451722,-6.211544444]}},{"properties":{"city":"Manila","pm2007":"LNG","id":"a61zyrpbat1o","lat":14.579,"long":120.9725972},"type":"Feature","geometry":{"type":"Point","coordinates":[120.9725972,14.579]}},{"properties":{"city":"Singapore","pm2007":"CNG","id":"a61zyrtkpiai","lat":1.352083333,"long":103.8198361},"type":"Feature","geometry":{"type":"Point","coordinates":[103.8198361,1.352083333]}},{"properties":{"city":"Surabaya","pm2007":"bus","id":"a61zyrqk8djh","lat":-7.287241667,"long":-112.7390472},"type":"Feature","geometry":{"type":"Point","coordinates":[-112.7390472,-7.287241667]}},{"properties":{"city":"Taipei","pm2007":"walk","id":"a61zyrk8or0j","lat":25.091075,"long":121.5598333},"type":"Feature","geometry":{"type":"Point","coordinates":[121.5598333,25.091075]}}],"is_temporal":false,"author":{"url":"","metadata":null,"contact_name":null,"contact_address":null,"source":null,"contact_phone":null},"source":"","pagination":{"sort":null,"start":0,"total":203,"limit":1000000},"state":"complete","tags":"","published":"2014-08-14T21:21:57-04:00","id":244411}