{"type":"FeatureCollection","data_type":"Dataset","url_type":null,"permissions":[{"permissions":{"download":true,"view":true},"group_id":"everyone"}],"classification":null,"title":"Tree_Map_Data_-_Cerasifera_1","count":398,"stream_id":244651,"contributor":{"url":"http://geocommons.com/users/22745","name":"missionlocal"},"data_attributes":null,"calculation_params":null,"icon_link":null,"link":"http://geocommons.com/overlays/244651.json","extent":[-122.426,37.7482,-122.403,37.7709],"geometry_types":["point"],"unique_name":null,"name":"Tree_Map_Data_-_Cerasifera_1","feature_count":398,"description":"","next_feature":null,"is_raster":false,"short_classification":"Y","stats":{"latitude":{"max":37.77093,"mean":37.7592773065327,"variance":3.36847129335081e-05,"stdev":0.00580385328325141,"min":37.748216,"median":37.758853},"longitude":{"max":-122.403376,"mean":-122.416248281407,"variance":4.18225985201088e-05,"stdev":0.00646703939373411,"min":-122.425643,"median":-122.416676}},"features":[{"properties":{"latitude":37.761532,"longitude":-122.408145,"id":"a622i6u1q4pg","address":"620 Hampshire St","species":"Prunus Cerasifera"},"type":"Feature","geometry":{"type":"Point","coordinates":[-122.408145,37.761532]}},{"properties":{"latitude":37.753991,"longitude":-122.424176,"id":"a622i6sw1zhv","address":"175 Fair Oaks St","species":"Prunus Cerasifera"},"type":"Feature","geometry":{"type":"Point","coordinates":[-122.424176,37.753991]}},{"properties":{"latitude":37.754171,"longitude":-122.424193,"id":"a622i6mo4wha","address":"161 Fair Oaks St","species":"Prunus Cerasifera"},"type":"Feature","geometry":{"type":"Point","coordinates":[-122.424193,37.754171]}},{"properties":{"latitude":37.755239,"longitude":-122.421702,"id":"a622i6qq4uas","address":"3321 22nd St","species":"Prunus Cerasifera"},"type":"Feature","geometry":{"type":"Point","coordinates":[-122.421702,37.755239]}},{"properties":{"latitude":37.753259,"longitude":-122.417413,"id":"a622i6sqccj7","address":"839 Capp St","species":"Prunus Cerasifera"},"type":"Feature","geometry":{"type":"Point","coordinates":[-122.417413,37.753259]}},{"properties":{"latitude":37.754351,"longitude":-122.410041,"id":"a622i6rbv3q4","address":"2894 23rd St","species":"Prunus Cerasifera"},"type":"Feature","geometry":{"type":"Point","coordinates":[-122.410041,37.754351]}},{"properties":{"latitude":37.758659,"longitude":-122.410629,"id":"a622i6u3ey37","address":"824 Florida St","species":"Prunus Cerasifera"},"type":"Feature","geometry":{"type":"Point","coordinates":[-122.410629,37.758659]}},{"properties":{"latitude":37.757057,"longitude":-122.407683,"id":"a622i6p7bre4","address":"939 Hampshire St","species":"Prunus Cerasifera"},"type":"Feature","geometry":{"type":"Point","coordinates":[-122.407683,37.757057]}},{"properties":{"latitude":37.760478,"longitude":-122.408025,"id":"a622i6kiu2r1","address":"701 Hampshire St","species":"Prunus Cerasifera"},"type":"Feature","geometry":{"type":"Point","coordinates":[-122.408025,37.760478]}},{"properties":{"latitude":37.754082,"longitude":-122.41497,"id":"a622i6mj3vok","address":"3134 23rd St","species":"Prunus Cerasifera"},"type":"Feature","geometry":{"type":"Point","coordinates":[-122.41497,37.754082]}},{"properties":{"latitude":37.757513,"longitude":-122.424649,"id":"a622i6zcik2a","address":"159 Liberty St","species":"Prunus Cerasifera"},"type":"Feature","geometry":{"type":"Point","coordinates":[-122.424649,37.757513]}},{"properties":{"latitude":37.760478,"longitude":-122.408025,"id":"a622i6k7psq0","address":"701 Hampshire St","species":"Prunus Cerasifera"},"type":"Feature","geometry":{"type":"Point","coordinates":[-122.408025,37.760478]}},{"properties":{"latitude":37.75688,"longitude":-122.407668,"id":"a622i6w9i0et","address":"953 Hampshire St","species":"Prunus Cerasifera"},"type":"Feature","geometry":{"type":"Point","coordinates":[-122.407668,37.75688]}},{"properties":{"latitude":37.760942,"longitude":-122.408089,"id":"a622i6secppq","address":"678 Hampshire St","species":"Prunus Cerasifera"},"type":"Feature","geometry":{"type":"Point","coordinates":[-122.408089,37.760942]}},{"properties":{"latitude":37.759944,"longitude":-122.424109,"id":"a622i6lejvc2","address":"3623 19th St","species":"Prunus Cerasifera"},"type":"Feature","geometry":{"type":"Point","coordinates":[-122.424109,37.759944]}},{"properties":{"latitude":37.754178,"longitude":-122.412859,"id":"a622i6ot34dg","address":"3045 23rd St","species":"Prunus Cerasifera"},"type":"Feature","geometry":{"type":"Point","coordinates":[-122.412859,37.754178]}},{"properties":{"latitude":37.749098,"longitude":-122.416002,"id":"a622i6x0g6x9","address":"1500 South Van Ness Ave","species":"Prunus Cerasifera"},"type":"Feature","geometry":{"type":"Point","coordinates":[-122.416002,37.749098]}},{"properties":{"latitude":37.757519,"longitude":-122.424544,"id":"a622i6mxq0g0","address":"153 Liberty St","species":"Prunus Cerasifera"},"type":"Feature","geometry":{"type":"Point","coordinates":[-122.424544,37.757519]}},{"properties":{"latitude":37.757629,"longitude":-122.408842,"id":"a622i6tl9fp3","address":"2707 21st St","species":"Prunus Cerasifera"},"type":"Feature","geometry":{"type":"Point","coordinates":[-122.408842,37.757629]}},{"properties":{"latitude":37.762874,"longitude":-122.423915,"id":"a622i6qat6uf","address":"514 Guerrero St","species":"Prunus Cerasifera"},"type":"Feature","geometry":{"type":"Point","coordinates":[-122.423915,37.762874]}},{"properties":{"latitude":37.757436,"longitude":-122.407717,"id":"a622i6rihmp9","address":"909 Hampshire St","species":"Prunus Cerasifera"},"type":"Feature","geometry":{"type":"Point","coordinates":[-122.407717,37.757436]}},{"properties":{"latitude":37.751151,"longitude":-122.415033,"id":"a622i6mdokhi","address":"1089 Shotwell St","species":"Prunus Cerasifera"},"type":"Feature","geometry":{"type":"Point","coordinates":[-122.415033,37.751151]}},{"properties":{"latitude":37.759939,"longitude":-122.42449,"id":"a622i6ok77i1","address":"3642 19th St","species":"Prunus Cerasifera"},"type":"Feature","geometry":{"type":"Point","coordinates":[-122.42449,37.759939]}},{"properties":{"latitude":37.75988,"longitude":-122.425213,"id":"a622i6vnjlga","address":"3675 19th St","species":"Prunus Cerasifera"},"type":"Feature","geometry":{"type":"Point","coordinates":[-122.425213,37.75988]}},{"properties":{"latitude":37.754142,"longitude":-122.416447,"id":"a622i6qd59n7","address":"1199 South Van Ness Ave","species":"Prunus Cerasifera"},"type":"Feature","geometry":{"type":"Point","coordinates":[-122.416447,37.754142]}},{"properties":{"latitude":37.752431,"longitude":-122.410924,"id":"a622i6mbafeo","address":"1210 Alabama St","species":"Prunus Cerasifera"},"type":"Feature","geometry":{"type":"Point","coordinates":[-122.410924,37.752431]}},{"properties":{"latitude":37.754565,"longitude":-122.406589,"id":"a622i6nqlhr6","address":"2701 23rd St","species":"Prunus Cerasifera"},"type":"Feature","geometry":{"type":"Point","coordinates":[-122.406589,37.754565]}},{"properties":{"latitude":37.760248,"longitude":-122.418904,"id":"a622i6lbe0w5","address":"3388 19th St","species":"Prunus Cerasifera"},"type":"Feature","geometry":{"type":"Point","coordinates":[-122.418904,37.760248]}},{"properties":{"latitude":37.761083,"longitude":-122.410071,"id":"a622i6oh301x","address":"2055 Bryant St","species":"Prunus Cerasifera"},"type":"Feature","geometry":{"type":"Point","coordinates":[-122.410071,37.761083]}},{"properties":{"latitude":37.756804,"longitude":-122.408578,"id":"a622i6w09kq0","address":"952 York St","species":"Prunus Cerasifera"},"type":"Feature","geometry":{"type":"Point","coordinates":[-122.408578,37.756804]}},{"properties":{"latitude":37.754082,"longitude":-122.41497,"id":"a622i6woe8t4","address":"3134 23rd St","species":"Prunus Cerasifera"},"type":"Feature","geometry":{"type":"Point","coordinates":[-122.41497,37.754082]}},{"properties":{"latitude":37.757583,"longitude":-122.42368,"id":"a622i6wb0gqq","address":"102 Liberty St","species":"Prunus Cerasifera"},"type":"Feature","geometry":{"type":"Point","coordinates":[-122.42368,37.757583]}},{"properties":{"latitude":37.760942,"longitude":-122.408089,"id":"a622i6kch5qn","address":"678 Hampshire St","species":"Prunus Cerasifera"},"type":"Feature","geometry":{"type":"Point","coordinates":[-122.408089,37.760942]}},{"properties":{"latitude":37.762297,"longitude":-122.420827,"id":"a622i6keicp6","address":"35 Lexington St","species":"Prunus Cerasifera"},"type":"Feature","geometry":{"type":"Point","coordinates":[-122.420827,37.762297]}},{"properties":{"latitude":37.761849,"longitude":-122.40853,"id":"a622i6n2y6yt","address":"2635 18th St","species":"Prunus Cerasifera"},"type":"Feature","geometry":{"type":"Point","coordinates":[-122.40853,37.761849]}},{"properties":{"latitude":37.754489,"longitude":-122.407806,"id":"a622i6wmb34j","address":"2763-2767 23rd St","species":"Prunus Cerasifera"},"type":"Feature","geometry":{"type":"Point","coordinates":[-122.407806,37.754489]}},{"properties":{"latitude":37.756743,"longitude":-122.408555,"id":"a622i6kp4qxh","address":"959-961 York St","species":"Prunus Cerasifera"},"type":"Feature","geometry":{"type":"Point","coordinates":[-122.408555,37.756743]}},{"properties":{"latitude":37.758915,"longitude":-122.408775,"id":"a622i6sr0dys","address":"815 York St","species":"Prunus Cerasifera"},"type":"Feature","geometry":{"type":"Point","coordinates":[-122.408775,37.758915]}},{"properties":{"latitude":37.755388,"longitude":-122.410295,"id":"a622i6wmad3m","address":"1031 Florida St","species":"Prunus Cerasifera"},"type":"Feature","geometry":{"type":"Point","coordinates":[-122.410295,37.755388]}},{"properties":{"latitude":37.757884,"longitude":-122.412384,"id":"a622i6q5smf3","address":"2476 Harrison St","species":"Prunus Cerasifera"},"type":"Feature","geometry":{"type":"Point","coordinates":[-122.412384,37.757884]}},{"properties":{"latitude":37.754351,"longitude":-122.410041,"id":"a622i6rpstef","address":"2894 23rd St","species":"Prunus Cerasifera"},"type":"Feature","geometry":{"type":"Point","coordinates":[-122.410041,37.754351]}},{"properties":{"latitude":37.760942,"longitude":-122.408089,"id":"a622i70114e9","address":"678 Hampshire St","species":"Prunus Cerasifera"},"type":"Feature","geometry":{"type":"Point","coordinates":[-122.408089,37.760942]}},{"properties":{"latitude":37.754309,"longitude":-122.406194,"id":"a622i6juqbmn","address":"2698 23rd St","species":"Prunus Cerasifera"},"type":"Feature","geometry":{"type":"Point","coordinates":[-122.406194,37.754309]}},{"properties":{"latitude":37.757469,"longitude":-122.408641,"id":"a622i6zda5gq","address":"900 York St","species":"Prunus Cerasifera"},"type":"Feature","geometry":{"type":"Point","coordinates":[-122.408641,37.757469]}},{"properties":{"latitude":37.757209,"longitude":-122.407697,"id":"a622i6wv1n71","address":"927 Hampshire St","species":"Prunus Cerasifera"},"type":"Feature","geometry":{"type":"Point","coordinates":[-122.407697,37.757209]}},{"properties":{"latitude":37.760382,"longitude":-122.424913,"id":"a622i6pbu033","address":"74 Oakwood St","species":"Prunus Cerasifera"},"type":"Feature","geometry":{"type":"Point","coordinates":[-122.424913,37.760382]}},{"properties":{"latitude":37.75531,"longitude":-122.410288,"id":"a622i6ze88ms","address":"1037 Florida St","species":"Prunus Cerasifera"},"type":"Feature","geometry":{"type":"Point","coordinates":[-122.410288,37.75531]}},{"properties":{"latitude":37.756566,"longitude":-122.410426,"id":"a622i6s9r5xq","address":"962 Florida St","species":"Prunus Cerasifera"},"type":"Feature","geometry":{"type":"Point","coordinates":[-122.410426,37.756566]}},{"properties":{"latitude":37.757319,"longitude":-122.411402,"id":"a622i6wqdgeu","address":"900 Alabama St","species":"Prunus Cerasifera"},"type":"Feature","geometry":{"type":"Point","coordinates":[-122.411402,37.757319]}},{"properties":{"latitude":37.76152,"longitude":-122.411039,"id":"a622i6u2rcs8","address":"607 Florida St","species":"Prunus Cerasifera"},"type":"Feature","geometry":{"type":"Point","coordinates":[-122.411039,37.76152]}},{"properties":{"latitude":37.757686,"longitude":-122.407853,"id":"a622i6teirfz","address":"2651 21st St","species":"Prunus Cerasifera"},"type":"Feature","geometry":{"type":"Point","coordinates":[-122.407853,37.757686]}},{"properties":{"latitude":37.754142,"longitude":-122.416447,"id":"a622i6zrewh8","address":"1199 South Van Ness Ave","species":"Prunus Cerasifera"},"type":"Feature","geometry":{"type":"Point","coordinates":[-122.416447,37.754142]}},{"properties":{"latitude":37.756883,"longitude":-122.423345,"id":"a622i6op392g","address":"898 Guerrero St","species":"Prunus Cerasifera"},"type":"Feature","geometry":{"type":"Point","coordinates":[-122.423345,37.756883]}},{"properties":{"latitude":37.763309,"longitude":-122.41842,"id":"a622i6vxwcn3","address":"200 Capp St","species":"Prunus Cerasifera"},"type":"Feature","geometry":{"type":"Point","coordinates":[-122.41842,37.763309]}},{"properties":{"latitude":37.754309,"longitude":-122.406194,"id":"a622i6tf1g36","address":"2698 23rd St","species":"Prunus Cerasifera"},"type":"Feature","geometry":{"type":"Point","coordinates":[-122.406194,37.754309]}},{"properties":{"latitude":37.754309,"longitude":-122.406194,"id":"a622i6navq1n","address":"2698 23rd St","species":"Prunus Cerasifera"},"type":"Feature","geometry":{"type":"Point","coordinates":[-122.406194,37.754309]}},{"properties":{"latitude":37.760942,"longitude":-122.408089,"id":"a622i6qxe50n","address":"678 Hampshire St","species":"Prunus Cerasifera"},"type":"Feature","geometry":{"type":"Point","coordinates":[-122.408089,37.760942]}},{"properties":{"latitude":37.761818,"longitude":-122.409034,"id":"a622i6ux8hvf","address":"2699 18th St","species":"Prunus Cerasifera"},"type":"Feature","geometry":{"type":"Point","coordinates":[-122.409034,37.761818]}},{"properties":{"latitude":37.754142,"longitude":-122.416447,"id":"a622i6p0qrqi","address":"1199 South Van Ness Ave","species":"Prunus Cerasifera"},"type":"Feature","geometry":{"type":"Point","coordinates":[-122.416447,37.754142]}},{"properties":{"latitude":37.760585,"longitude":-122.408356,"id":"a622i6tbrnwg","address":"2629 19th St","species":"Prunus Cerasifera"},"type":"Feature","geometry":{"type":"Point","coordinates":[-122.408356,37.760585]}},{"properties":{"latitude":37.755231,"longitude":-122.421865,"id":"a622i6z19yg6","address":"3331-3339 22nd St","species":"Prunus Cerasifera"},"type":"Feature","geometry":{"type":"Point","coordinates":[-122.421865,37.755231]}},{"properties":{"latitude":37.760641,"longitude":-122.407696,"id":"a622i6p0h03k","address":"2530 19th St","species":"Prunus Cerasifera"},"type":"Feature","geometry":{"type":"Point","coordinates":[-122.407696,37.760641]}},{"properties":{"latitude":37.754209,"longitude":-122.412379,"id":"a622i6mbhps3","address":"3015 23rd St","species":"Prunus Cerasifera"},"type":"Feature","geometry":{"type":"Point","coordinates":[-122.412379,37.754209]}},{"properties":{"latitude":37.754396,"longitude":-122.406443,"id":"a622i6sb3gw2","address":"1091-1111 Potrero Ave","species":"Prunus Cerasifera"},"type":"Feature","geometry":{"type":"Point","coordinates":[-122.406443,37.754396]}},{"properties":{"latitude":37.760544,"longitude":-122.42491,"id":"a622i6l919ur","address":"63 Oakwood St","species":"Prunus Cerasifera"},"type":"Feature","geometry":{"type":"Point","coordinates":[-122.42491,37.760544]}},{"properties":{"latitude":37.754565,"longitude":-122.406589,"id":"a622i700t1k4","address":"2701 23rd St","species":"Prunus Cerasifera"},"type":"Feature","geometry":{"type":"Point","coordinates":[-122.406589,37.754565]}},{"properties":{"latitude":37.76151,"longitude":-122.409096,"id":"a622i6wmiza7","address":"619 York St","species":"Prunus Cerasifera"},"type":"Feature","geometry":{"type":"Point","coordinates":[-122.409096,37.76151]}},{"properties":{"latitude":37.756883,"longitude":-122.423345,"id":"a622i6rrosph","address":"898 Guerrero St","species":"Prunus Cerasifera"},"type":"Feature","geometry":{"type":"Point","coordinates":[-122.423345,37.756883]}},{"properties":{"latitude":37.760478,"longitude":-122.408025,"id":"a622i6tdbf0b","address":"701 Hampshire St","species":"Prunus Cerasifera"},"type":"Feature","geometry":{"type":"Point","coordinates":[-122.408025,37.760478]}},{"properties":{"latitude":37.754178,"longitude":-122.412859,"id":"a622i6xx6173","address":"3045 23rd St","species":"Prunus Cerasifera"},"type":"Feature","geometry":{"type":"Point","coordinates":[-122.412859,37.754178]}},{"properties":{"latitude":37.749971,"longitude":-122.406997,"id":"a622i6zi2q71","address":"1338 Hampshire St","species":"Prunus Cerasifera"},"type":"Feature","geometry":{"type":"Point","coordinates":[-122.406997,37.749971]}},{"properties":{"latitude":37.758469,"longitude":-122.410593,"id":"a622i6tdq90y","address":"841 Florida St","species":"Prunus Cerasifera"},"type":"Feature","geometry":{"type":"Point","coordinates":[-122.410593,37.758469]}},{"properties":{"latitude":37.756615,"longitude":-122.423323,"id":"a622i6w81upg","address":"906 Guerrero St","species":"Prunus Cerasifera"},"type":"Feature","geometry":{"type":"Point","coordinates":[-122.423323,37.756615]}},{"properties":{"latitude":37.754102,"longitude":-122.414659,"id":"a622i6syo72y","address":"3116 23rd St","species":"Prunus Cerasifera"},"type":"Feature","geometry":{"type":"Point","coordinates":[-122.414659,37.754102]}},{"properties":{"latitude":37.756767,"longitude":-122.423774,"id":"a622i6wm3ntp","address":"3416 21st St","species":"Prunus Cerasifera"},"type":"Feature","geometry":{"type":"Point","coordinates":[-122.423774,37.756767]}},{"properties":{"latitude":37.75682,"longitude":-122.408562,"id":"a622i6ys8ydt","address":"953 York St","species":"Prunus Cerasifera"},"type":"Feature","geometry":{"type":"Point","coordinates":[-122.408562,37.75682]}},{"properties":{"latitude":37.754351,"longitude":-122.410041,"id":"a622i6o8pw1r","address":"2894 23rd St","species":"Prunus Cerasifera"},"type":"Feature","geometry":{"type":"Point","coordinates":[-122.410041,37.754351]}},{"properties":{"latitude":37.753785,"longitude":-122.419439,"id":"a622i6m6kgn3","address":"3340 23rd St","species":"Prunus Cerasifera"},"type":"Feature","geometry":{"type":"Point","coordinates":[-122.419439,37.753785]}},{"properties":{"latitude":37.754144,"longitude":-122.408298,"id":"a622i6lstqi2","address":"1113 York St","species":"Prunus Cerasifera"},"type":"Feature","geometry":{"type":"Point","coordinates":[-122.408298,37.754144]}},{"properties":{"latitude":37.76147,"longitude":-122.409091,"id":"a622i6o4q03n","address":"623 York St","species":"Prunus Cerasifera"},"type":"Feature","geometry":{"type":"Point","coordinates":[-122.409091,37.76147]}},{"properties":{"latitude":37.754316,"longitude":-122.41059,"id":"a622i6pvll2u","address":"2918 23rd St","species":"Prunus Cerasifera"},"type":"Feature","geometry":{"type":"Point","coordinates":[-122.41059,37.754316]}},{"properties":{"latitude":37.754295,"longitude":-122.410664,"id":"a622i6phd0qs","address":"2927 23rd St","species":"Prunus Cerasifera"},"type":"Feature","geometry":{"type":"Point","coordinates":[-122.410664,37.754295]}},{"properties":{"latitude":37.754142,"longitude":-122.416447,"id":"a622i6qvcp1c","address":"1199 South Van Ness Ave","species":"Prunus Cerasifera"},"type":"Feature","geometry":{"type":"Point","coordinates":[-122.416447,37.754142]}},{"properties":{"latitude":37.760942,"longitude":-122.408089,"id":"a622i6mk9g6m","address":"678 Hampshire St","species":"Prunus Cerasifera"},"type":"Feature","geometry":{"type":"Point","coordinates":[-122.408089,37.760942]}},{"properties":{"latitude":37.755218,"longitude":-122.42216,"id":"a622i6vyeml4","address":"3349 22nd St","species":"Prunus Cerasifera"},"type":"Feature","geometry":{"type":"Point","coordinates":[-122.42216,37.755218]}},{"properties":{"latitude":37.756564,"longitude":-122.408538,"id":"a622i6xfiord","address":"973 York St","species":"Prunus Cerasifera"},"type":"Feature","geometry":{"type":"Point","coordinates":[-122.408538,37.756564]}},{"properties":{"latitude":37.755203,"longitude":-122.422487,"id":"a622i6mfzl58","address":"3369 22nd St","species":"Prunus Cerasifera"},"type":"Feature","geometry":{"type":"Point","coordinates":[-122.422487,37.755203]}},{"properties":{"latitude":37.756463,"longitude":-122.410417,"id":"a622i6p3h8ur","address":"970 Florida St","species":"Prunus Cerasifera"},"type":"Feature","geometry":{"type":"Point","coordinates":[-122.410417,37.756463]}},{"properties":{"latitude":37.754017,"longitude":-122.415627,"id":"a622i6xjdi0n","address":"3161 23rd St","species":"Prunus Cerasifera"},"type":"Feature","geometry":{"type":"Point","coordinates":[-122.415627,37.754017]}},{"properties":{"latitude":37.761571,"longitude":-122.409102,"id":"a622i6n1jrnq","address":"613 York St","species":"Prunus Cerasifera"},"type":"Feature","geometry":{"type":"Point","coordinates":[-122.409102,37.761571]}},{"properties":{"latitude":37.754178,"longitude":-122.412859,"id":"a622i6q8xtpd","address":"3045 23rd St","species":"Prunus Cerasifera"},"type":"Feature","geometry":{"type":"Point","coordinates":[-122.412859,37.754178]}},{"properties":{"latitude":37.761531,"longitude":-122.409098,"id":"a622i6xp8st0","address":"617 York St","species":"Prunus Cerasifera"},"type":"Feature","geometry":{"type":"Point","coordinates":[-122.409098,37.761531]}},{"properties":{"latitude":37.769302,"longitude":-122.420855,"id":"a622i6wvyls5","address":"35 Woodward St","species":"Prunus Cerasifera"},"type":"Feature","geometry":{"type":"Point","coordinates":[-122.420855,37.769302]}},{"properties":{"latitude":37.766887,"longitude":-122.416396,"id":"a622i6ujh4se","address":"1446 15th St","species":"Prunus Cerasifera"},"type":"Feature","geometry":{"type":"Point","coordinates":[-122.416396,37.766887]}},{"properties":{"latitude":37.766887,"longitude":-122.416396,"id":"a622i6mcu2n7","address":"1446 15th St","species":"Prunus Cerasifera"},"type":"Feature","geometry":{"type":"Point","coordinates":[-122.416396,37.766887]}},{"properties":{"latitude":37.766887,"longitude":-122.416396,"id":"a622i6sswfvj","address":"1446 15th St","species":"Prunus Cerasifera"},"type":"Feature","geometry":{"type":"Point","coordinates":[-122.416396,37.766887]}},{"properties":{"latitude":37.77093,"longitude":-122.423239,"id":"a622i6vgnsdt","address":"25 Elgin Park","species":"Prunus Cerasifera"},"type":"Feature","geometry":{"type":"Point","coordinates":[-122.423239,37.77093]}},{"properties":{"latitude":37.766887,"longitude":-122.416396,"id":"a622i6ss60d3","address":"1446 15th St","species":"Prunus Cerasifera"},"type":"Feature","geometry":{"type":"Point","coordinates":[-122.416396,37.766887]}},{"properties":{"latitude":37.767432,"longitude":-122.424358,"id":"a622i6u95rjq","address":"236 Guerrero St","species":"Prunus Cerasifera"},"type":"Feature","geometry":{"type":"Point","coordinates":[-122.424358,37.767432]}},{"properties":{"latitude":37.767592,"longitude":-122.424375,"id":"a622i6xfaqdn","address":"224 Guerrero St","species":"Prunus Cerasifera"},"type":"Feature","geometry":{"type":"Point","coordinates":[-122.424375,37.767592]}},{"properties":{"latitude":37.77093,"longitude":-122.423239,"id":"a622i6qsyfvr","address":"25 Elgin Park","species":"Prunus Cerasifera"},"type":"Feature","geometry":{"type":"Point","coordinates":[-122.423239,37.77093]}},{"properties":{"latitude":37.76903,"longitude":-122.420831,"id":"a622i6lsqowz","address":"55 Woodward St","species":"Prunus Cerasifera"},"type":"Feature","geometry":{"type":"Point","coordinates":[-122.420831,37.76903]}},{"properties":{"latitude":37.770356,"longitude":-122.423187,"id":"a622i6x2qmn7","address":"71 Elgin Park","species":"Prunus Cerasifera"},"type":"Feature","geometry":{"type":"Point","coordinates":[-122.423187,37.770356]}},{"properties":{"latitude":37.750414,"longitude":-122.411672,"id":"a622i6z6ou36","address":"2941-2943 Harrison St","species":"Prunus Cerasifera"},"type":"Feature","geometry":{"type":"Point","coordinates":[-122.411672,37.750414]}},{"properties":{"latitude":37.755222,"longitude":-122.42243,"id":"a622i6v1baun","address":"3366 22nd St","species":"Prunus Cerasifera"},"type":"Feature","geometry":{"type":"Point","coordinates":[-122.42243,37.755222]}},{"properties":{"latitude":37.764307,"longitude":-122.410636,"id":"a622i6ywpe0m","address":"2720 17th St","species":"Prunus Cerasifera"},"type":"Feature","geometry":{"type":"Point","coordinates":[-122.410636,37.764307]}},{"properties":{"latitude":37.756908,"longitude":-122.423347,"id":"a622i6qiqqmt","address":"896 Guerrero St","species":"Prunus Cerasifera"},"type":"Feature","geometry":{"type":"Point","coordinates":[-122.423347,37.756908]}},{"properties":{"latitude":37.754199,"longitude":-122.412539,"id":"a622i6mhpczr","address":"3025 23rd St","species":"Prunus Cerasifera"},"type":"Feature","geometry":{"type":"Point","coordinates":[-122.412539,37.754199]}},{"properties":{"latitude":37.75344,"longitude":-122.410099,"id":"a622i6l9hlyd","address":"1159 Florida St","species":"Prunus Cerasifera"},"type":"Feature","geometry":{"type":"Point","coordinates":[-122.410099,37.75344]}},{"properties":{"latitude":37.754193,"longitude":-122.412635,"id":"a622i6p1pcw3","address":"3031 23rd St","species":"Prunus Cerasifera"},"type":"Feature","geometry":{"type":"Point","coordinates":[-122.412635,37.754193]}},{"properties":{"latitude":37.754748,"longitude":-122.411132,"id":"a622i6kofip7","address":"1077 Alabama St","species":"Prunus Cerasifera"},"type":"Feature","geometry":{"type":"Point","coordinates":[-122.411132,37.754748]}},{"properties":{"latitude":37.760942,"longitude":-122.408089,"id":"a622i6kcd727","address":"678 Hampshire St","species":"Prunus Cerasifera"},"type":"Feature","geometry":{"type":"Point","coordinates":[-122.408089,37.760942]}},{"properties":{"latitude":37.757627,"longitude":-122.408873,"id":"a622i6morupr","address":"2709 21st St","species":"Prunus Cerasifera"},"type":"Feature","geometry":{"type":"Point","coordinates":[-122.408873,37.757627]}},{"properties":{"latitude":37.759796,"longitude":-122.42061,"id":"a622i6y5i016","address":"214-216 Lexington St","species":"Prunus Cerasifera"},"type":"Feature","geometry":{"type":"Point","coordinates":[-122.42061,37.759796]}},{"properties":{"latitude":37.755294,"longitude":-122.410304,"id":"a622i6w1jv3b","address":"1036 Florida St","species":"Prunus Cerasifera"},"type":"Feature","geometry":{"type":"Point","coordinates":[-122.410304,37.755294]}},{"properties":{"latitude":37.760942,"longitude":-122.408089,"id":"a622i6riw2b4","address":"678 Hampshire St","species":"Prunus Cerasifera"},"type":"Feature","geometry":{"type":"Point","coordinates":[-122.408089,37.760942]}},{"properties":{"latitude":37.75418,"longitude":-122.412827,"id":"a622i6q64u6g","address":"3043 23rd St","species":"Prunus Cerasifera"},"type":"Feature","geometry":{"type":"Point","coordinates":[-122.412827,37.75418]}},{"properties":{"latitude":37.754309,"longitude":-122.406194,"id":"a622i6uz5zdz","address":"2698 23rd St","species":"Prunus Cerasifera"},"type":"Feature","geometry":{"type":"Point","coordinates":[-122.406194,37.754309]}},{"properties":{"latitude":37.761349,"longitude":-122.408128,"id":"a622i700ihv6","address":"638 Hampshire St","species":"Prunus Cerasifera"},"type":"Feature","geometry":{"type":"Point","coordinates":[-122.408128,37.761349]}},{"properties":{"latitude":37.77083,"longitude":-122.42323,"id":"a622i6kmpe8p","address":"33 Elgin Park","species":"Prunus Cerasifera"},"type":"Feature","geometry":{"type":"Point","coordinates":[-122.42323,37.77083]}},{"properties":{"latitude":37.760505,"longitude":-122.421447,"id":"a622i6vlk6kz","address":"780 Valencia St","species":"Prunus Cerasifera"},"type":"Feature","geometry":{"type":"Point","coordinates":[-122.421447,37.760505]}},{"properties":{"latitude":37.756582,"longitude":-122.406681,"id":"a622i6m129ip","address":"974 Potrero Ave","species":"Prunus Cerasifera"},"type":"Feature","geometry":{"type":"Point","coordinates":[-122.406681,37.756582]}},{"properties":{"latitude":37.760505,"longitude":-122.421447,"id":"a622i6upw3rv","address":"780 Valencia St","species":"Prunus Cerasifera"},"type":"Feature","geometry":{"type":"Point","coordinates":[-122.421447,37.760505]}},{"properties":{"latitude":37.766693,"longitude":-122.42428,"id":"a622i6ukqlo4","address":"282 Guerrero St","species":"Prunus Cerasifera"},"type":"Feature","geometry":{"type":"Point","coordinates":[-122.42428,37.766693]}},{"properties":{"latitude":37.769757,"longitude":-122.424462,"id":"a622i6oa1ecr","address":"196 Duboce Ave","species":"Prunus Cerasifera"},"type":"Feature","geometry":{"type":"Point","coordinates":[-122.424462,37.769757]}},{"properties":{"latitude":37.769757,"longitude":-122.424462,"id":"a622i6wnslq8","address":"196 Duboce Ave","species":"Prunus Cerasifera"},"type":"Feature","geometry":{"type":"Point","coordinates":[-122.424462,37.769757]}},{"properties":{"latitude":37.769361,"longitude":-122.424536,"id":"a622i6lyiyun","address":"115-117 Guerrero St","species":"Prunus Cerasifera"},"type":"Feature","geometry":{"type":"Point","coordinates":[-122.424536,37.769361]}},{"properties":{"latitude":37.761172,"longitude":-122.418206,"id":"a622i6sa9nq0","address":"342 Capp St","species":"Prunus Cerasifera"},"type":"Feature","geometry":{"type":"Point","coordinates":[-122.418206,37.761172]}},{"properties":{"latitude":37.755896,"longitude":-122.411501,"id":"a622i7006ewe","address":"2858 22nd St","species":"Prunus Cerasifera"},"type":"Feature","geometry":{"type":"Point","coordinates":[-122.411501,37.755896]}},{"properties":{"latitude":37.748875,"longitude":-122.409701,"id":"a622i703oqe7","address":"1456 Florida St","species":"Prunus Cerasifera"},"type":"Feature","geometry":{"type":"Point","coordinates":[-122.409701,37.748875]}},{"properties":{"latitude":37.762875,"longitude":-122.410264,"id":"a622i6xuhdkv","address":"1900 Bryant St","species":"Prunus Cerasifera"},"type":"Feature","geometry":{"type":"Point","coordinates":[-122.410264,37.762875]}},{"properties":{"latitude":37.754466,"longitude":-122.41755,"id":"a622i6k8m0eb","address":"768 Capp St","species":"Prunus Cerasifera"},"type":"Feature","geometry":{"type":"Point","coordinates":[-122.41755,37.754466]}},{"properties":{"latitude":37.763309,"longitude":-122.41842,"id":"a622i6k5m9ve","address":"200 Capp St","species":"Prunus Cerasifera"},"type":"Feature","geometry":{"type":"Point","coordinates":[-122.41842,37.763309]}},{"properties":{"latitude":37.750866,"longitude":-122.409849,"id":"a622i6ljae26","address":"1309 Florida St","species":"Prunus Cerasifera"},"type":"Feature","geometry":{"type":"Point","coordinates":[-122.409849,37.750866]}},{"properties":{"latitude":37.762293,"longitude":-122.411116,"id":"a622i6pdzzcs","address":"555 Florida St","species":"Prunus Cerasifera"},"type":"Feature","geometry":{"type":"Point","coordinates":[-122.411116,37.762293]}},{"properties":{"latitude":37.754326,"longitude":-122.424207,"id":"a622i6wcwqqx","address":"149 Fair Oaks St","species":"Prunus Cerasifera"},"type":"Feature","geometry":{"type":"Point","coordinates":[-122.424207,37.754326]}},{"properties":{"latitude":37.762493,"longitude":-122.411135,"id":"a622i6p0yt9p","address":"535 Florida St","species":"Prunus Cerasifera"},"type":"Feature","geometry":{"type":"Point","coordinates":[-122.411135,37.762493]}},{"properties":{"latitude":37.762875,"longitude":-122.410264,"id":"a622i6kqd1fy","address":"1900 Bryant St","species":"Prunus Cerasifera"},"type":"Feature","geometry":{"type":"Point","coordinates":[-122.410264,37.762875]}},{"properties":{"latitude":37.749633,"longitude":-122.414894,"id":"a622i6xrud7a","address":"1183 Shotwell St","species":"Prunus Cerasifera"},"type":"Feature","geometry":{"type":"Point","coordinates":[-122.414894,37.749633]}},{"properties":{"latitude":37.762875,"longitude":-122.410264,"id":"a622i6lucn32","address":"1900 Bryant St","species":"Prunus Cerasifera"},"type":"Feature","geometry":{"type":"Point","coordinates":[-122.410264,37.762875]}},{"properties":{"latitude":37.761172,"longitude":-122.418206,"id":"a622i6jp0wuy","address":"342 Capp St","species":"Prunus Cerasifera"},"type":"Feature","geometry":{"type":"Point","coordinates":[-122.418206,37.761172]}},{"properties":{"latitude":37.752779,"longitude":-122.404332,"id":"a622i6xyxhcv","address":"1320 San Bruno Ave","species":"Prunus Cerasifera"},"type":"Feature","geometry":{"type":"Point","coordinates":[-122.404332,37.752779]}},{"properties":{"latitude":37.760854,"longitude":-122.417111,"id":"a622i6s7qaiv","address":"772 South Van Ness Ave","species":"Prunus Cerasifera"},"type":"Feature","geometry":{"type":"Point","coordinates":[-122.417111,37.760854]}},{"properties":{"latitude":37.750502,"longitude":-122.411678,"id":"a622i6yqnx9a","address":"2935 Harrison St","species":"Prunus Cerasifera"},"type":"Feature","geometry":{"type":"Point","coordinates":[-122.411678,37.750502]}},{"properties":{"latitude":37.752723,"longitude":-122.421541,"id":"a622i6uvpwjd","address":"131 San Jose Ave","species":"Prunus Cerasifera"},"type":"Feature","geometry":{"type":"Point","coordinates":[-122.421541,37.752723]}},{"properties":{"latitude":37.762288,"longitude":-122.4249,"id":"a622i6p5zaiw","address":"46 Dorland St","species":"Prunus Cerasifera"},"type":"Feature","geometry":{"type":"Point","coordinates":[-122.4249,37.762288]}},{"properties":{"latitude":37.762493,"longitude":-122.411135,"id":"a622i6nren92","address":"535 Florida St","species":"Prunus Cerasifera"},"type":"Feature","geometry":{"type":"Point","coordinates":[-122.411135,37.762493]}},{"properties":{"latitude":37.753572,"longitude":-122.419672,"id":"a622i6o91qio","address":"203 Bartlett St","species":"Prunus Cerasifera"},"type":"Feature","geometry":{"type":"Point","coordinates":[-122.419672,37.753572]}},{"properties":{"latitude":37.762875,"longitude":-122.410264,"id":"a622i6stnqhf","address":"1900 Bryant St","species":"Prunus Cerasifera"},"type":"Feature","geometry":{"type":"Point","coordinates":[-122.410264,37.762875]}},{"properties":{"latitude":37.762875,"longitude":-122.410264,"id":"a622i6z7i2ys","address":"1900 Bryant St","species":"Prunus Cerasifera"},"type":"Feature","geometry":{"type":"Point","coordinates":[-122.410264,37.762875]}},{"properties":{"latitude":37.762493,"longitude":-122.411135,"id":"a622i6svplh1","address":"535 Florida St","species":"Prunus Cerasifera"},"type":"Feature","geometry":{"type":"Point","coordinates":[-122.411135,37.762493]}},{"properties":{"latitude":37.76257,"longitude":-122.421324,"id":"a622i6w0ujsh","address":"87 Sycamore St","species":"Prunus Cerasifera"},"type":"Feature","geometry":{"type":"Point","coordinates":[-122.421324,37.76257]}},{"properties":{"latitude":37.761186,"longitude":-122.408112,"id":"a622i6pk2lj4","address":"654 Hampshire St","species":"Prunus Cerasifera"},"type":"Feature","geometry":{"type":"Point","coordinates":[-122.408112,37.761186]}},{"properties":{"latitude":37.752426,"longitude":-122.407258,"id":"a622i6q3sfdu","address":"1227 Hampshire St","species":"Prunus Cerasifera"},"type":"Feature","geometry":{"type":"Point","coordinates":[-122.407258,37.752426]}},{"properties":{"latitude":37.748677,"longitude":-122.411506,"id":"a622i6onnnjk","address":"3061 Harrison St","species":"Prunus Cerasifera"},"type":"Feature","geometry":{"type":"Point","coordinates":[-122.411506,37.748677]}},{"properties":{"latitude":37.762875,"longitude":-122.410264,"id":"a622i6t5mex3","address":"1900 Bryant St","species":"Prunus Cerasifera"},"type":"Feature","geometry":{"type":"Point","coordinates":[-122.410264,37.762875]}},{"properties":{"latitude":37.762875,"longitude":-122.410264,"id":"a622i6rgz7s2","address":"1900 Bryant St","species":"Prunus Cerasifera"},"type":"Feature","geometry":{"type":"Point","coordinates":[-122.410264,37.762875]}},{"properties":{"latitude":37.75855,"longitude":-122.420167,"id":"a622i6m3xt9n","address":"3553-3555 20th St","species":"Prunus Cerasifera"},"type":"Feature","geometry":{"type":"Point","coordinates":[-122.420167,37.75855]}},{"properties":{"latitude":37.755993,"longitude":-122.422727,"id":"a622i6ud2ykn","address":"83 Hill St","species":"Prunus Cerasifera"},"type":"Feature","geometry":{"type":"Point","coordinates":[-122.422727,37.755993]}},{"properties":{"latitude":37.752591,"longitude":-122.40817,"id":"a622i6xxezar","address":"1208 York St","species":"Prunus Cerasifera"},"type":"Feature","geometry":{"type":"Point","coordinates":[-122.40817,37.752591]}},{"properties":{"latitude":37.762875,"longitude":-122.410264,"id":"a622i6mg0fx1","address":"1900 Bryant St","species":"Prunus Cerasifera"},"type":"Feature","geometry":{"type":"Point","coordinates":[-122.410264,37.762875]}},{"properties":{"latitude":37.762875,"longitude":-122.410264,"id":"a622i6m9vfej","address":"1900 Bryant St","species":"Prunus Cerasifera"},"type":"Feature","geometry":{"type":"Point","coordinates":[-122.410264,37.762875]}},{"properties":{"latitude":37.753638,"longitude":-122.421828,"id":"a622i6ytm4ne","address":"3515-3517 23rd St","species":"Prunus Cerasifera"},"type":"Feature","geometry":{"type":"Point","coordinates":[-122.421828,37.753638]}},{"properties":{"latitude":37.752384,"longitude":-122.408141,"id":"a622i6kat95m","address":"1225 York St","species":"Prunus Cerasifera"},"type":"Feature","geometry":{"type":"Point","coordinates":[-122.408141,37.752384]}},{"properties":{"latitude":37.752513,"longitude":-122.40527,"id":"a622i704axaa","address":"1340 Utah St","species":"Prunus Cerasifera"},"type":"Feature","geometry":{"type":"Point","coordinates":[-122.40527,37.752513]}},{"properties":{"latitude":37.762875,"longitude":-122.410264,"id":"a622i6q6ug3m","address":"1900 Bryant St","species":"Prunus Cerasifera"},"type":"Feature","geometry":{"type":"Point","coordinates":[-122.410264,37.762875]}},{"properties":{"latitude":37.762293,"longitude":-122.411116,"id":"a622i6sehkx7","address":"555 Florida St","species":"Prunus Cerasifera"},"type":"Feature","geometry":{"type":"Point","coordinates":[-122.411116,37.762293]}},{"properties":{"latitude":37.753917,"longitude":-122.411046,"id":"a622i6t018pa","address":"1117 Alabama St","species":"Prunus Cerasifera"},"type":"Feature","geometry":{"type":"Point","coordinates":[-122.411046,37.753917]}},{"properties":{"latitude":37.754034,"longitude":-122.404435,"id":"a622i6w0tzfz","address":"1225 San Bruno Ave","species":"Prunus Cerasifera"},"type":"Feature","geometry":{"type":"Point","coordinates":[-122.404435,37.754034]}},{"properties":{"latitude":37.754494,"longitude":-122.407968,"id":"a622i6p0dmn7","address":"2770 23rd St","species":"Prunus Cerasifera"},"type":"Feature","geometry":{"type":"Point","coordinates":[-122.407968,37.754494]}},{"properties":{"latitude":37.762875,"longitude":-122.410264,"id":"a622i6mfz74g","address":"1900 Bryant St","species":"Prunus Cerasifera"},"type":"Feature","geometry":{"type":"Point","coordinates":[-122.410264,37.762875]}},{"properties":{"latitude":37.763751,"longitude":-122.418566,"id":"a622i6k5u4eu","address":"190 Capp St","species":"Prunus Cerasifera"},"type":"Feature","geometry":{"type":"Point","coordinates":[-122.418566,37.763751]}},{"properties":{"latitude":37.762493,"longitude":-122.411135,"id":"a622i6k0keau","address":"535 Florida St","species":"Prunus Cerasifera"},"type":"Feature","geometry":{"type":"Point","coordinates":[-122.411135,37.762493]}},{"properties":{"latitude":37.76005,"longitude":-122.42227,"id":"a622i6zldxd5","address":"3535 19th St","species":"Prunus Cerasifera"},"type":"Feature","geometry":{"type":"Point","coordinates":[-122.42227,37.76005]}},{"properties":{"latitude":37.762875,"longitude":-122.410264,"id":"a622i6uuheru","address":"1900 Bryant St","species":"Prunus Cerasifera"},"type":"Feature","geometry":{"type":"Point","coordinates":[-122.410264,37.762875]}},{"properties":{"latitude":37.752677,"longitude":-122.404322,"id":"a622i6lhse84","address":"1330 San Bruno Ave","species":"Prunus Cerasifera"},"type":"Feature","geometry":{"type":"Point","coordinates":[-122.404322,37.752677]}},{"properties":{"latitude":37.762875,"longitude":-122.410264,"id":"a622i6lxjlzh","address":"1900 Bryant St","species":"Prunus Cerasifera"},"type":"Feature","geometry":{"type":"Point","coordinates":[-122.410264,37.762875]}},{"properties":{"latitude":37.749385,"longitude":-122.41928,"id":"a622i6tkibzo","address":"480 Bartlett St","species":"Prunus Cerasifera"},"type":"Feature","geometry":{"type":"Point","coordinates":[-122.41928,37.749385]}},{"properties":{"latitude":37.762875,"longitude":-122.410264,"id":"a622i6yjbstp","address":"1900 Bryant St","species":"Prunus Cerasifera"},"type":"Feature","geometry":{"type":"Point","coordinates":[-122.410264,37.762875]}},{"properties":{"latitude":37.750459,"longitude":-122.421597,"id":"a622i6tt9ayc","address":"3602 25th St","species":"Prunus Cerasifera"},"type":"Feature","geometry":{"type":"Point","coordinates":[-122.421597,37.750459]}},{"properties":{"latitude":37.752426,"longitude":-122.407258,"id":"a622i6z2fauf","address":"1227 Hampshire St","species":"Prunus Cerasifera"},"type":"Feature","geometry":{"type":"Point","coordinates":[-122.407258,37.752426]}},{"properties":{"latitude":37.750971,"longitude":-122.423893,"id":"a622i6mi0vnn","address":"360 Fair Oaks St","species":"Prunus Cerasifera"},"type":"Feature","geometry":{"type":"Point","coordinates":[-122.423893,37.750971]}},{"properties":{"latitude":37.762875,"longitude":-122.410264,"id":"a622i6keusj4","address":"1900 Bryant St","species":"Prunus Cerasifera"},"type":"Feature","geometry":{"type":"Point","coordinates":[-122.410264,37.762875]}},{"properties":{"latitude":37.752426,"longitude":-122.407258,"id":"a622i6thalct","address":"1227 Hampshire St","species":"Prunus Cerasifera"},"type":"Feature","geometry":{"type":"Point","coordinates":[-122.407258,37.752426]}},{"properties":{"latitude":37.762875,"longitude":-122.410264,"id":"a622i6lqkd5h","address":"1900 Bryant St","species":"Prunus Cerasifera"},"type":"Feature","geometry":{"type":"Point","coordinates":[-122.410264,37.762875]}},{"properties":{"latitude":37.762875,"longitude":-122.410264,"id":"a622i6o79j1s","address":"1900 Bryant St","species":"Prunus Cerasifera"},"type":"Feature","geometry":{"type":"Point","coordinates":[-122.410264,37.762875]}},{"properties":{"latitude":37.762875,"longitude":-122.410264,"id":"a622i6utbokw","address":"1900 Bryant St","species":"Prunus Cerasifera"},"type":"Feature","geometry":{"type":"Point","coordinates":[-122.410264,37.762875]}},{"properties":{"latitude":37.751649,"longitude":-122.412887,"id":"a622i6v3rzy1","address":"1161-1163 Treat Ave","species":"Prunus Cerasifera"},"type":"Feature","geometry":{"type":"Point","coordinates":[-122.412887,37.751649]}},{"properties":{"latitude":37.759995,"longitude":-122.418073,"id":"a622i6unhk43","address":"411 Capp St","species":"Prunus Cerasifera"},"type":"Feature","geometry":{"type":"Point","coordinates":[-122.418073,37.759995]}},{"properties":{"latitude":37.763309,"longitude":-122.41842,"id":"a622i6nvr3bh","address":"200 Capp St","species":"Prunus Cerasifera"},"type":"Feature","geometry":{"type":"Point","coordinates":[-122.41842,37.763309]}},{"properties":{"latitude":37.76319,"longitude":-122.423434,"id":"a622i6m2own0","address":"3477 17th St","species":"Prunus Cerasifera"},"type":"Feature","geometry":{"type":"Point","coordinates":[-122.423434,37.76319]}},{"properties":{"latitude":37.752723,"longitude":-122.421541,"id":"a622i6yimive","address":"131 San Jose Ave","species":"Prunus Cerasifera"},"type":"Feature","geometry":{"type":"Point","coordinates":[-122.421541,37.752723]}},{"properties":{"latitude":37.752693,"longitude":-122.404306,"id":"a622i6olac7m","address":"1331 San Bruno Ave","species":"Prunus Cerasifera"},"type":"Feature","geometry":{"type":"Point","coordinates":[-122.404306,37.752693]}},{"properties":{"latitude":37.762875,"longitude":-122.410264,"id":"a622i6ql2eff","address":"1900 Bryant St","species":"Prunus Cerasifera"},"type":"Feature","geometry":{"type":"Point","coordinates":[-122.410264,37.762875]}},{"properties":{"latitude":37.748848,"longitude":-122.411526,"id":"a622i6kkhtf1","address":"3039 Harrison St","species":"Prunus Cerasifera"},"type":"Feature","geometry":{"type":"Point","coordinates":[-122.411526,37.748848]}},{"properties":{"latitude":37.748216,"longitude":-122.416552,"id":"a622i6u1tcjj","address":"3330 Cesar Chavez St","species":"Prunus Cerasifera"},"type":"Feature","geometry":{"type":"Point","coordinates":[-122.416552,37.748216]}},{"properties":{"latitude":37.750876,"longitude":-122.409867,"id":"a622i6u71lg9","address":"1306 Florida St","species":"Prunus Cerasifera"},"type":"Feature","geometry":{"type":"Point","coordinates":[-122.409867,37.750876]}},{"properties":{"latitude":37.756344,"longitude":-122.416676,"id":"a622i6rmd3dj","address":"1050 S Van Ness Ave","species":"Prunus Cerasifera"},"type":"Feature","geometry":{"type":"Point","coordinates":[-122.416676,37.756344]}},{"properties":{"latitude":37.751914,"longitude":-122.410879,"id":"a622i6k4gq3d","address":"1242 Alabama St","species":"Prunus Cerasifera"},"type":"Feature","geometry":{"type":"Point","coordinates":[-122.410879,37.751914]}},{"properties":{"latitude":37.762875,"longitude":-122.410264,"id":"a622i6xprnsx","address":"1900 Bryant St","species":"Prunus Cerasifera"},"type":"Feature","geometry":{"type":"Point","coordinates":[-122.410264,37.762875]}},{"properties":{"latitude":37.750459,"longitude":-122.421597,"id":"a622i6n3ex5f","address":"3602 25th St","species":"Prunus Cerasifera"},"type":"Feature","geometry":{"type":"Point","coordinates":[-122.421597,37.750459]}},{"properties":{"latitude":37.752328,"longitude":-122.404286,"id":"a622i6poglz9","address":"1364 San Bruno Ave","species":"Prunus Cerasifera"},"type":"Feature","geometry":{"type":"Point","coordinates":[-122.404286,37.752328]}},{"properties":{"latitude":37.749385,"longitude":-122.41928,"id":"a622i6lmv9bx","address":"480 Bartlett St","species":"Prunus Cerasifera"},"type":"Feature","geometry":{"type":"Point","coordinates":[-122.41928,37.749385]}},{"properties":{"latitude":37.756024,"longitude":-122.40879,"id":"a622i6q9ezqy","address":"2713 22nd St","species":"Prunus Cerasifera"},"type":"Feature","geometry":{"type":"Point","coordinates":[-122.40879,37.756024]}},{"properties":{"latitude":37.748216,"longitude":-122.416552,"id":"a622i6o84nlf","address":"3330 Cesar Chavez St","species":"Prunus Cerasifera"},"type":"Feature","geometry":{"type":"Point","coordinates":[-122.416552,37.748216]}},{"properties":{"latitude":37.748848,"longitude":-122.411526,"id":"a622i6z5vjd2","address":"3039 Harrison St","species":"Prunus Cerasifera"},"type":"Feature","geometry":{"type":"Point","coordinates":[-122.411526,37.748848]}},{"properties":{"latitude":37.749633,"longitude":-122.414894,"id":"a622i6vcq0rh","address":"1183 Shotwell St","species":"Prunus Cerasifera"},"type":"Feature","geometry":{"type":"Point","coordinates":[-122.414894,37.749633]}},{"properties":{"latitude":37.762875,"longitude":-122.410264,"id":"a622i6zd16c1","address":"1900 Bryant St","species":"Prunus Cerasifera"},"type":"Feature","geometry":{"type":"Point","coordinates":[-122.410264,37.762875]}},{"properties":{"latitude":37.762293,"longitude":-122.411116,"id":"a622i6qjjegq","address":"555 Florida St","species":"Prunus Cerasifera"},"type":"Feature","geometry":{"type":"Point","coordinates":[-122.411116,37.762293]}},{"properties":{"latitude":37.756344,"longitude":-122.416676,"id":"a622i6vf3h0p","address":"1050 South Van Ness Ave","species":"Prunus Cerasifera"},"type":"Feature","geometry":{"type":"Point","coordinates":[-122.416676,37.756344]}},{"properties":{"latitude":37.753287,"longitude":-122.424109,"id":"a622i6r1ti9l","address":"205 Fair Oaks St","species":"Prunus Cerasifera"},"type":"Feature","geometry":{"type":"Point","coordinates":[-122.424109,37.753287]}},{"properties":{"latitude":37.756024,"longitude":-122.40879,"id":"a622i6ks69no","address":"2713 22nd St","species":"Prunus Cerasifera"},"type":"Feature","geometry":{"type":"Point","coordinates":[-122.40879,37.756024]}},{"properties":{"latitude":37.751834,"longitude":-122.422845,"id":"a622i6zhjoha","address":"1201 Guerrero St","species":"Prunus Cerasifera"},"type":"Feature","geometry":{"type":"Point","coordinates":[-122.422845,37.751834]}},{"properties":{"latitude":37.751834,"longitude":-122.422845,"id":"a622i6s9w0xc","address":"1201 Guerrero St","species":"Prunus Cerasifera"},"type":"Feature","geometry":{"type":"Point","coordinates":[-122.422845,37.751834]}},{"properties":{"latitude":37.762875,"longitude":-122.410264,"id":"a622i6nnglhg","address":"1900 Bryant St","species":"Prunus Cerasifera"},"type":"Feature","geometry":{"type":"Point","coordinates":[-122.410264,37.762875]}},{"properties":{"latitude":37.756344,"longitude":-122.416676,"id":"a622i6oqb3c1","address":"1050 South Van Ness Ave","species":"Prunus Cerasifera"},"type":"Feature","geometry":{"type":"Point","coordinates":[-122.416676,37.756344]}},{"properties":{"latitude":37.762875,"longitude":-122.410264,"id":"a622i6tf064o","address":"1900 Bryant St","species":"Prunus Cerasifera"},"type":"Feature","geometry":{"type":"Point","coordinates":[-122.410264,37.762875]}},{"properties":{"latitude":37.762875,"longitude":-122.410264,"id":"a622i6k17un2","address":"1900 Bryant St","species":"Prunus Cerasifera"},"type":"Feature","geometry":{"type":"Point","coordinates":[-122.410264,37.762875]}},{"properties":{"latitude":37.748677,"longitude":-122.411506,"id":"a622i6sjvkn5","address":"3061 Harrison St","species":"Prunus Cerasifera"},"type":"Feature","geometry":{"type":"Point","coordinates":[-122.411506,37.748677]}},{"properties":{"latitude":37.762875,"longitude":-122.410264,"id":"a622i6n6t4yq","address":"1900 Bryant St","species":"Prunus Cerasifera"},"type":"Feature","geometry":{"type":"Point","coordinates":[-122.410264,37.762875]}},{"properties":{"latitude":37.762875,"longitude":-122.410264,"id":"a622i6syn9xf","address":"1900 Bryant St","species":"Prunus Cerasifera"},"type":"Feature","geometry":{"type":"Point","coordinates":[-122.410264,37.762875]}},{"properties":{"latitude":37.762875,"longitude":-122.410264,"id":"a622i6ue235d","address":"1900 Bryant St","species":"Prunus Cerasifera"},"type":"Feature","geometry":{"type":"Point","coordinates":[-122.410264,37.762875]}},{"properties":{"latitude":37.762875,"longitude":-122.410264,"id":"a622i6vee4qp","address":"1900 Bryant St","species":"Prunus Cerasifera"},"type":"Feature","geometry":{"type":"Point","coordinates":[-122.410264,37.762875]}},{"properties":{"latitude":37.763751,"longitude":-122.418566,"id":"a622i6laerhp","address":"190 Capp St","species":"Prunus Cerasifera"},"type":"Feature","geometry":{"type":"Point","coordinates":[-122.418566,37.763751]}},{"properties":{"latitude":37.754075,"longitude":-122.404439,"id":"a622i6sjtr88","address":"1221 San Bruno Ave","species":"Prunus Cerasifera"},"type":"Feature","geometry":{"type":"Point","coordinates":[-122.404439,37.754075]}},{"properties":{"latitude":37.753287,"longitude":-122.424109,"id":"a622i6on7x6y","address":"205 Fair Oaks St","species":"Prunus Cerasifera"},"type":"Feature","geometry":{"type":"Point","coordinates":[-122.424109,37.753287]}},{"properties":{"latitude":37.752437,"longitude":-122.42404,"id":"a622i6orv9rn","address":"270 Fair Oaks St","species":"Prunus Cerasifera"},"type":"Feature","geometry":{"type":"Point","coordinates":[-122.42404,37.752437]}},{"properties":{"latitude":37.751113,"longitude":-122.410347,"id":"a622i6oqdk6c","address":"3020 25th St","species":"Prunus Cerasifera"},"type":"Feature","geometry":{"type":"Point","coordinates":[-122.410347,37.751113]}},{"properties":{"latitude":37.762875,"longitude":-122.410264,"id":"a622i6jnzkut","address":"1900 Bryant St","species":"Prunus Cerasifera"},"type":"Feature","geometry":{"type":"Point","coordinates":[-122.410264,37.762875]}},{"properties":{"latitude":37.758353,"longitude":-122.423714,"id":"a622i6lz25h8","address":"3700 20th St","species":"Prunus Cerasifera"},"type":"Feature","geometry":{"type":"Point","coordinates":[-122.423714,37.758353]}},{"properties":{"latitude":37.756344,"longitude":-122.416676,"id":"a622i6sc26pw","address":"1050 South Van Ness Ave","species":"Prunus Cerasifera"},"type":"Feature","geometry":{"type":"Point","coordinates":[-122.416676,37.756344]}},{"properties":{"latitude":37.753572,"longitude":-122.419672,"id":"a622i6m3rybc","address":"203 Bartlett St","species":"Prunus Cerasifera"},"type":"Feature","geometry":{"type":"Point","coordinates":[-122.419672,37.753572]}},{"properties":{"latitude":37.754326,"longitude":-122.424207,"id":"a622i6vzv7n3","address":"149 Fair Oaks St","species":"Prunus Cerasifera"},"type":"Feature","geometry":{"type":"Point","coordinates":[-122.424207,37.754326]}},{"properties":{"latitude":37.762493,"longitude":-122.411135,"id":"a622i6tzm2a9","address":"535 Florida St","species":"Prunus Cerasifera"},"type":"Feature","geometry":{"type":"Point","coordinates":[-122.411135,37.762493]}},{"properties":{"latitude":37.761745,"longitude":-122.410462,"id":"a622i6y03nle","address":"2828 18th St","species":"Prunus Cerasifera"},"type":"Feature","geometry":{"type":"Point","coordinates":[-122.410462,37.761745]}},{"properties":{"latitude":37.750866,"longitude":-122.409849,"id":"a622i6kswt5l","address":"1309 Florida St","species":"Prunus Cerasifera"},"type":"Feature","geometry":{"type":"Point","coordinates":[-122.409849,37.750866]}},{"properties":{"latitude":37.762875,"longitude":-122.410264,"id":"a622i6wcji07","address":"1900 Bryant St","species":"Prunus Cerasifera"},"type":"Feature","geometry":{"type":"Point","coordinates":[-122.410264,37.762875]}},{"properties":{"latitude":37.758353,"longitude":-122.423714,"id":"a622i6vhi4ta","address":"3700 20th St","species":"Prunus Cerasifera"},"type":"Feature","geometry":{"type":"Point","coordinates":[-122.423714,37.758353]}},{"properties":{"latitude":37.762875,"longitude":-122.410264,"id":"a622i700wjwp","address":"1900 Bryant St","species":"Prunus Cerasifera"},"type":"Feature","geometry":{"type":"Point","coordinates":[-122.410264,37.762875]}},{"properties":{"latitude":37.754034,"longitude":-122.404435,"id":"a622i6rczpea","address":"1225 San Bruno Ave","species":"Prunus Cerasifera"},"type":"Feature","geometry":{"type":"Point","coordinates":[-122.404435,37.754034]}},{"properties":{"latitude":37.752246,"longitude":-122.404278,"id":"a622i6p3x43l","address":"1372 San Bruno Ave","species":"Prunus Cerasifera"},"type":"Feature","geometry":{"type":"Point","coordinates":[-122.404278,37.752246]}},{"properties":{"latitude":37.749711,"longitude":-122.42136,"id":"a622i705gvfu","address":"352 San Jose Ave","species":"Prunus Cerasifera"},"type":"Feature","geometry":{"type":"Point","coordinates":[-122.42136,37.749711]}},{"properties":{"latitude":37.752426,"longitude":-122.407258,"id":"a622i6jpkmxt","address":"1227 Hampshire St","species":"Prunus Cerasifera"},"type":"Feature","geometry":{"type":"Point","coordinates":[-122.407258,37.752426]}},{"properties":{"latitude":37.762875,"longitude":-122.410264,"id":"a622i6w861jd","address":"1900 Bryant St","species":"Prunus Cerasifera"},"type":"Feature","geometry":{"type":"Point","coordinates":[-122.410264,37.762875]}},{"properties":{"latitude":37.752586,"longitude":-122.412891,"id":"a622i6rn3pd9","address":"3046 24th St","species":"Prunus Cerasifera"},"type":"Feature","geometry":{"type":"Point","coordinates":[-122.412891,37.752586]}},{"properties":{"latitude":37.754388,"longitude":-122.417541,"id":"a622i6qf9vjm","address":"774 Capp St","species":"Prunus Cerasifera"},"type":"Feature","geometry":{"type":"Point","coordinates":[-122.417541,37.754388]}},{"properties":{"latitude":37.762875,"longitude":-122.410264,"id":"a622i6pch87n","address":"1900 Bryant St","species":"Prunus Cerasifera"},"type":"Feature","geometry":{"type":"Point","coordinates":[-122.410264,37.762875]}},{"properties":{"latitude":37.762875,"longitude":-122.410264,"id":"a622i6wj3f7t","address":"1900 Bryant St","species":"Prunus Cerasifera"},"type":"Feature","geometry":{"type":"Point","coordinates":[-122.410264,37.762875]}},{"properties":{"latitude":37.752926,"longitude":-122.417384,"id":"a622i6y9ol4b","address":"865 Capp St","species":"Prunus Cerasifera"},"type":"Feature","geometry":{"type":"Point","coordinates":[-122.417384,37.752926]}},{"properties":{"latitude":37.762875,"longitude":-122.410264,"id":"a622i6uceo1a","address":"1900 Bryant St","species":"Prunus Cerasifera"},"type":"Feature","geometry":{"type":"Point","coordinates":[-122.410264,37.762875]}},{"properties":{"latitude":37.75036,"longitude":-122.411668,"id":"a622i6wvo694","address":"2945-2949 Harrison St","species":"Prunus Cerasifera"},"type":"Feature","geometry":{"type":"Point","coordinates":[-122.411668,37.75036]}},{"properties":{"latitude":37.755218,"longitude":-122.42216,"id":"a622i6qqcekd","address":"3349 22nd St","species":"Prunus Cerasifera"},"type":"Feature","geometry":{"type":"Point","coordinates":[-122.42216,37.755218]}},{"properties":{"latitude":37.756,"longitude":-122.409162,"id":"a622i6x4inr2","address":"2737 22nd St","species":"Prunus Cerasifera"},"type":"Feature","geometry":{"type":"Point","coordinates":[-122.409162,37.756]}},{"properties":{"latitude":37.762875,"longitude":-122.410264,"id":"a622i6kpr04g","address":"1900 Bryant St","species":"Prunus Cerasifera"},"type":"Feature","geometry":{"type":"Point","coordinates":[-122.410264,37.762875]}},{"properties":{"latitude":37.758353,"longitude":-122.423714,"id":"a622i6tkdmjf","address":"3700 20th St","species":"Prunus Cerasifera"},"type":"Feature","geometry":{"type":"Point","coordinates":[-122.423714,37.758353]}},{"properties":{"latitude":37.762875,"longitude":-122.410264,"id":"a622i6qsbtbx","address":"1900 Bryant St","species":"Prunus Cerasifera"},"type":"Feature","geometry":{"type":"Point","coordinates":[-122.410264,37.762875]}},{"properties":{"latitude":37.756024,"longitude":-122.40879,"id":"a622i6oa6bfe","address":"2713 22nd St","species":"Prunus Cerasifera"},"type":"Feature","geometry":{"type":"Point","coordinates":[-122.40879,37.756024]}},{"properties":{"latitude":37.756344,"longitude":-122.416676,"id":"a622i6uj2q11","address":"1050 South Van Ness Ave","species":"Prunus Cerasifera"},"type":"Feature","geometry":{"type":"Point","coordinates":[-122.416676,37.756344]}},{"properties":{"latitude":37.748886,"longitude":-122.411532,"id":"a622i6r1nqp9","address":"3033 Harrison St","species":"Prunus Cerasifera"},"type":"Feature","geometry":{"type":"Point","coordinates":[-122.411532,37.748886]}},{"properties":{"latitude":37.756011,"longitude":-122.422407,"id":"a622i6snwzk5","address":"65 Hill St","species":"Prunus Cerasifera"},"type":"Feature","geometry":{"type":"Point","coordinates":[-122.422407,37.756011]}},{"properties":{"latitude":37.762875,"longitude":-122.410264,"id":"a622i6uiioz6","address":"1900 Bryant St","species":"Prunus Cerasifera"},"type":"Feature","geometry":{"type":"Point","coordinates":[-122.410264,37.762875]}},{"properties":{"latitude":37.76824,"longitude":-122.420769,"id":"a622i6q032ti","address":"5555 Woodward St","species":"Prunus Cerasifera"},"type":"Feature","geometry":{"type":"Point","coordinates":[-122.420769,37.76824]}},{"properties":{"latitude":37.766625,"longitude":-122.416513,"id":"a622i6m38hrq","address":"107 Shotwell St","species":"Prunus Cerasifera"},"type":"Feature","geometry":{"type":"Point","coordinates":[-122.416513,37.766625]}},{"properties":{"latitude":37.769757,"longitude":-122.424462,"id":"a622i6un4n6f","address":"196 Duboce Ave","species":"Prunus Cerasifera"},"type":"Feature","geometry":{"type":"Point","coordinates":[-122.424462,37.769757]}},{"properties":{"latitude":37.770855,"longitude":-122.423232,"id":"a622i6weuyyr","address":"31 Elgin Park","species":"Prunus Cerasifera"},"type":"Feature","geometry":{"type":"Point","coordinates":[-122.423232,37.770855]}},{"properties":{"latitude":37.77083,"longitude":-122.42323,"id":"a622i6uj4zvu","address":"33 Elgin Park","species":"Prunus Cerasifera"},"type":"Feature","geometry":{"type":"Point","coordinates":[-122.42323,37.77083]}},{"properties":{"latitude":37.766865,"longitude":-122.416753,"id":"a622i6nj439k","address":"1454 15th St","species":"Prunus Cerasifera"},"type":"Feature","geometry":{"type":"Point","coordinates":[-122.416753,37.766865]}},{"properties":{"latitude":37.768915,"longitude":-122.422275,"id":"a622i6xyl7d9","address":"250 Valencia St","species":"Prunus Cerasifera"},"type":"Feature","geometry":{"type":"Point","coordinates":[-122.422275,37.768915]}},{"properties":{"latitude":37.766625,"longitude":-122.416513,"id":"a622i6mgjn4z","address":"107 Shotwell St","species":"Prunus Cerasifera"},"type":"Feature","geometry":{"type":"Point","coordinates":[-122.416513,37.766625]}},{"properties":{"latitude":37.769304,"longitude":-122.420873,"id":"a622i6xbcrsa","address":"34 Woodward St","species":"Prunus Cerasifera"},"type":"Feature","geometry":{"type":"Point","coordinates":[-122.420873,37.769304]}},{"properties":{"latitude":37.769026,"longitude":-122.420848,"id":"a622i6yt100g","address":"54 Woodward St","species":"Prunus Cerasifera"},"type":"Feature","geometry":{"type":"Point","coordinates":[-122.420848,37.769026]}},{"properties":{"latitude":37.76637,"longitude":-122.424641,"id":"a622i6kmlqqd","address":"1821 15th St","species":"Prunus Cerasifera"},"type":"Feature","geometry":{"type":"Point","coordinates":[-122.424641,37.76637]}},{"properties":{"latitude":37.768915,"longitude":-122.422275,"id":"a622i6tas3o2","address":"250 Valencia St","species":"Prunus Cerasifera"},"type":"Feature","geometry":{"type":"Point","coordinates":[-122.422275,37.768915]}},{"properties":{"latitude":37.768812,"longitude":-122.420812,"id":"a622i6s23qe8","address":"71 Woodward St","species":"Prunus Cerasifera"},"type":"Feature","geometry":{"type":"Point","coordinates":[-122.420812,37.768812]}},{"properties":{"latitude":37.769757,"longitude":-122.424462,"id":"a622i6op3qxr","address":"196 Duboce Ave","species":"Prunus Cerasifera"},"type":"Feature","geometry":{"type":"Point","coordinates":[-122.424462,37.769757]}},{"properties":{"latitude":37.76633,"longitude":-122.425643,"id":"a622i6s8y1w1","address":"1858 15th St","species":"Prunus Cerasifera"},"type":"Feature","geometry":{"type":"Point","coordinates":[-122.425643,37.76633]}},{"properties":{"latitude":37.769304,"longitude":-122.420873,"id":"a622i6mlnoqu","address":"34 Woodward St","species":"Prunus Cerasifera"},"type":"Feature","geometry":{"type":"Point","coordinates":[-122.420873,37.769304]}},{"properties":{"latitude":37.768721,"longitude":-122.422943,"id":"a622i6wbhdyj","address":"27 Brosnan St","species":"Prunus Cerasifera"},"type":"Feature","geometry":{"type":"Point","coordinates":[-122.422943,37.768721]}},{"properties":{"latitude":37.769574,"longitude":-122.42088,"id":"a622i6z8lyk9","address":"15 Woodward St","species":"Prunus Cerasifera"},"type":"Feature","geometry":{"type":"Point","coordinates":[-122.42088,37.769574]}},{"properties":{"latitude":37.770855,"longitude":-122.423232,"id":"a622i6xkvh6r","address":"31 Elgin Park","species":"Prunus Cerasifera"},"type":"Feature","geometry":{"type":"Point","coordinates":[-122.423232,37.770855]}},{"properties":{"latitude":37.76687,"longitude":-122.416683,"id":"a622i6skc2d7","address":"1450 15th St","species":"Prunus Cerasifera"},"type":"Feature","geometry":{"type":"Point","coordinates":[-122.416683,37.76687]}},{"properties":{"latitude":37.76952,"longitude":-122.420875,"id":"a622i6mv87nf","address":"19 Woodward St","species":"Prunus Cerasifera"},"type":"Feature","geometry":{"type":"Point","coordinates":[-122.420875,37.76952]}},{"properties":{"latitude":37.767258,"longitude":-122.416579,"id":"a622i6s69riv","address":"83 Shotwell St","species":"Prunus Cerasifera"},"type":"Feature","geometry":{"type":"Point","coordinates":[-122.416579,37.767258]}},{"properties":{"latitude":37.766625,"longitude":-122.416513,"id":"a622i6pbyxp5","address":"107 Shotwell St","species":"Prunus Cerasifera"},"type":"Feature","geometry":{"type":"Point","coordinates":[-122.416513,37.766625]}},{"properties":{"latitude":37.768721,"longitude":-122.422943,"id":"a622i6rjvcuv","address":"27 Brosnan St","species":"Prunus Cerasifera"},"type":"Feature","geometry":{"type":"Point","coordinates":[-122.422943,37.768721]}},{"properties":{"latitude":37.770855,"longitude":-122.423232,"id":"a622i6kz938n","address":"31 Elgin Park","species":"Prunus Cerasifera"},"type":"Feature","geometry":{"type":"Point","coordinates":[-122.423232,37.770855]}},{"properties":{"latitude":37.768915,"longitude":-122.422275,"id":"a622i6r12q2y","address":"250 Valencia St","species":"Prunus Cerasifera"},"type":"Feature","geometry":{"type":"Point","coordinates":[-122.422275,37.768915]}},{"properties":{"latitude":37.769026,"longitude":-122.420848,"id":"a622i6kc7xw8","address":"54 Woodward St","species":"Prunus Cerasifera"},"type":"Feature","geometry":{"type":"Point","coordinates":[-122.420848,37.769026]}},{"properties":{"latitude":37.768721,"longitude":-122.420821,"id":"a622i6ykmzf3","address":"76 Woodward St","species":"Prunus Cerasifera"},"type":"Feature","geometry":{"type":"Point","coordinates":[-122.420821,37.768721]}},{"properties":{"latitude":37.768915,"longitude":-122.422275,"id":"a622i6tx66ow","address":"250 Valencia St","species":"Prunus Cerasifera"},"type":"Feature","geometry":{"type":"Point","coordinates":[-122.422275,37.768915]}},{"properties":{"latitude":37.768915,"longitude":-122.422275,"id":"a622i6uv1hd3","address":"250 Valencia St","species":"Prunus Cerasifera"},"type":"Feature","geometry":{"type":"Point","coordinates":[-122.422275,37.768915]}},{"properties":{"latitude":37.768721,"longitude":-122.422943,"id":"a622i6lqzlww","address":"27 Brosnan St","species":"Prunus Cerasifera"},"type":"Feature","geometry":{"type":"Point","coordinates":[-122.422943,37.768721]}},{"properties":{"latitude":37.76687,"longitude":-122.416683,"id":"a622i6tf7yvh","address":"1450 15th St","species":"Prunus Cerasifera"},"type":"Feature","geometry":{"type":"Point","coordinates":[-122.416683,37.76687]}},{"properties":{"latitude":37.759918,"longitude":-122.418066,"id":"a622i6ydjj2m","address":"417 Capp St","species":"Prunus Cerasifera"},"type":"Feature","geometry":{"type":"Point","coordinates":[-122.418066,37.759918]}},{"properties":{"latitude":37.756024,"longitude":-122.40879,"id":"a622i6pf3lqq","address":"2713 22nd St","species":"Prunus Cerasifera"},"type":"Feature","geometry":{"type":"Point","coordinates":[-122.40879,37.756024]}},{"properties":{"latitude":37.762293,"longitude":-122.411116,"id":"a622i6q4xb32","address":"555 Florida St","species":"Prunus Cerasifera"},"type":"Feature","geometry":{"type":"Point","coordinates":[-122.411116,37.762293]}},{"properties":{"latitude":37.768915,"longitude":-122.422275,"id":"a622i6pprxp9","address":"250 Valencia St","species":"Prunus Cerasifera"},"type":"Feature","geometry":{"type":"Point","coordinates":[-122.422275,37.768915]}},{"properties":{"latitude":37.757976,"longitude":-122.412374,"id":"a622i6z8l80f","address":"2471 Harrison St","species":"Prunus Cerasifera"},"type":"Feature","geometry":{"type":"Point","coordinates":[-122.412374,37.757976]}},{"properties":{"latitude":37.749316,"longitude":-122.411577,"id":"a622i6k6zuka","address":"3007 Harrison St","species":"Prunus Cerasifera"},"type":"Feature","geometry":{"type":"Point","coordinates":[-122.411577,37.749316]}},{"properties":{"latitude":37.766703,"longitude":-122.416522,"id":"a622i6krg6cs","address":"101-119 Shotwell St","species":"Prunus Cerasifera"},"type":"Feature","geometry":{"type":"Point","coordinates":[-122.416522,37.766703]}},{"properties":{"latitude":37.75273,"longitude":-122.403376,"id":"a622i6l9ylnj","address":"1350 Vermont St","species":"Prunus Cerasifera"},"type":"Feature","geometry":{"type":"Point","coordinates":[-122.403376,37.75273]}},{"properties":{"latitude":37.762875,"longitude":-122.410264,"id":"a622i6mmzqfa","address":"1900 Bryant St","species":"Prunus Cerasifera"},"type":"Feature","geometry":{"type":"Point","coordinates":[-122.410264,37.762875]}},{"properties":{"latitude":37.753144,"longitude":-122.413044,"id":"a622i6w4m2t4","address":"1066 Treat Ave","species":"Prunus Cerasifera"},"type":"Feature","geometry":{"type":"Point","coordinates":[-122.413044,37.753144]}},{"properties":{"latitude":37.752308,"longitude":-122.404284,"id":"a622i6zhsa4z","address":"1366 San Bruno Ave","species":"Prunus Cerasifera"},"type":"Feature","geometry":{"type":"Point","coordinates":[-122.404284,37.752308]}},{"properties":{"latitude":37.762875,"longitude":-122.410264,"id":"a622i6t6grmo","address":"1900 Bryant St","species":"Prunus Cerasifera"},"type":"Feature","geometry":{"type":"Point","coordinates":[-122.410264,37.762875]}},{"properties":{"latitude":37.768915,"longitude":-122.422275,"id":"a622i6zur6l4","address":"250 Valencia St","species":"Prunus Cerasifera"},"type":"Feature","geometry":{"type":"Point","coordinates":[-122.422275,37.768915]}},{"properties":{"latitude":37.754466,"longitude":-122.41755,"id":"a622i6yjyeeg","address":"768 Capp St","species":"Prunus Cerasifera"},"type":"Feature","geometry":{"type":"Point","coordinates":[-122.41755,37.754466]}},{"properties":{"latitude":37.754922,"longitude":-122.417583,"id":"a622i6qer78l","address":"735 Capp St","species":"Prunus Cerasifera"},"type":"Feature","geometry":{"type":"Point","coordinates":[-122.417583,37.754922]}},{"properties":{"latitude":37.762875,"longitude":-122.410264,"id":"a622i6kki77e","address":"1900 Bryant St","species":"Prunus Cerasifera"},"type":"Feature","geometry":{"type":"Point","coordinates":[-122.410264,37.762875]}},{"properties":{"latitude":37.750459,"longitude":-122.421597,"id":"a622i6ye3c72","address":"3602 25th St","species":"Prunus Cerasifera"},"type":"Feature","geometry":{"type":"Point","coordinates":[-122.421597,37.750459]}},{"properties":{"latitude":37.762875,"longitude":-122.410264,"id":"a622i705xe4g","address":"1900 Bryant St","species":"Prunus Cerasifera"},"type":"Feature","geometry":{"type":"Point","coordinates":[-122.410264,37.762875]}},{"properties":{"latitude":37.748216,"longitude":-122.416552,"id":"a622i6wqln40","address":"3330 Cesar Chavez St","species":"Prunus Cerasifera"},"type":"Feature","geometry":{"type":"Point","coordinates":[-122.416552,37.748216]}},{"properties":{"latitude":37.748216,"longitude":-122.416552,"id":"a622i6yusyb2","address":"3330 Cesar Chavez St","species":"Prunus Cerasifera"},"type":"Feature","geometry":{"type":"Point","coordinates":[-122.416552,37.748216]}},{"properties":{"latitude":37.762875,"longitude":-122.410264,"id":"a622i6vj6sg5","address":"1900 Bryant St","species":"Prunus Cerasifera"},"type":"Feature","geometry":{"type":"Point","coordinates":[-122.410264,37.762875]}},{"properties":{"latitude":37.760522,"longitude":-122.418123,"id":"a622i6n0ab4z","address":"395 Capp St","species":"Prunus Cerasifera"},"type":"Feature","geometry":{"type":"Point","coordinates":[-122.418123,37.760522]}},{"properties":{"latitude":37.756344,"longitude":-122.416676,"id":"a622i6jqggji","address":"1050 South Van Ness Ave","species":"Prunus Cerasifera"},"type":"Feature","geometry":{"type":"Point","coordinates":[-122.416676,37.756344]}},{"properties":{"latitude":37.76637,"longitude":-122.424641,"id":"a622i6mi2nox","address":"1821 15th St","species":"Prunus Cerasifera"},"type":"Feature","geometry":{"type":"Point","coordinates":[-122.424641,37.76637]}},{"properties":{"latitude":37.758213,"longitude":-122.423464,"id":"a622i6uh7o86","address":"804 Guerrero St","species":"Prunus Cerasifera"},"type":"Feature","geometry":{"type":"Point","coordinates":[-122.423464,37.758213]}},{"properties":{"latitude":37.761287,"longitude":-122.423759,"id":"a622i6p192vt","address":"611 Guerrero St","species":"Prunus Cerasifera"},"type":"Feature","geometry":{"type":"Point","coordinates":[-122.423759,37.761287]}},{"properties":{"latitude":37.762895,"longitude":-122.423917,"id":"a622i6vi88md","address":"512 Guerrero St","species":"Prunus Cerasifera"},"type":"Feature","geometry":{"type":"Point","coordinates":[-122.423917,37.762895]}},{"properties":{"latitude":37.760258,"longitude":-122.418478,"id":"a622i6wruajz","address":"3365 19th St","species":"Prunus Cerasifera"},"type":"Feature","geometry":{"type":"Point","coordinates":[-122.418478,37.760258]}},{"properties":{"latitude":37.757958,"longitude":-122.423424,"id":"a622i6qn9pzz","address":"827 Guerrero St","species":"Prunus Cerasifera"},"type":"Feature","geometry":{"type":"Point","coordinates":[-122.423424,37.757958]}},{"properties":{"latitude":37.758543,"longitude":-122.420289,"id":"a622i6o7g84r","address":"3561-3565 20th St","species":"Prunus Cerasifera"},"type":"Feature","geometry":{"type":"Point","coordinates":[-122.420289,37.758543]}},{"properties":{"latitude":37.75488,"longitude":-122.423144,"id":"a622i6rbzju6","address":"1007 Guerrero St","species":"Prunus Cerasifera"},"type":"Feature","geometry":{"type":"Point","coordinates":[-122.423144,37.75488]}},{"properties":{"latitude":37.758855,"longitude":-122.419848,"id":"a622i702ri7z","address":"290 San Carlos St","species":"Prunus Cerasifera"},"type":"Feature","geometry":{"type":"Point","coordinates":[-122.419848,37.758855]}},{"properties":{"latitude":37.76098,"longitude":-122.423726,"id":"a622i6z3yis9","address":"635 Guerrero St","species":"Prunus Cerasifera"},"type":"Feature","geometry":{"type":"Point","coordinates":[-122.423726,37.76098]}},{"properties":{"latitude":37.752473,"longitude":-122.422909,"id":"a622i6phsnbf","address":"1169 Guerrero St","species":"Prunus Cerasifera"},"type":"Feature","geometry":{"type":"Point","coordinates":[-122.422909,37.752473]}},{"properties":{"latitude":37.759332,"longitude":-122.423563,"id":"a622i6sgrwf3","address":"744 Guerrero St","species":"Prunus Cerasifera"},"type":"Feature","geometry":{"type":"Point","coordinates":[-122.423563,37.759332]}},{"properties":{"latitude":37.753311,"longitude":-122.423012,"id":"a622i6mw9uhg","address":"1110 Guerrero St","species":"Prunus Cerasifera"},"type":"Feature","geometry":{"type":"Point","coordinates":[-122.423012,37.753311]}},{"properties":{"latitude":37.760258,"longitude":-122.418478,"id":"a622i6s3gimy","address":"3365 19th St","species":"Prunus Cerasifera"},"type":"Feature","geometry":{"type":"Point","coordinates":[-122.418478,37.760258]}},{"properties":{"latitude":37.760327,"longitude":-122.417685,"id":"a622i6xuqq8i","address":"3332 19th St","species":"Prunus Cerasifera"},"type":"Feature","geometry":{"type":"Point","coordinates":[-122.417685,37.760327]}},{"properties":{"latitude":37.750153,"longitude":-122.422706,"id":"a622i6wwehy6","address":"1306-1308 Guerrero St","species":"Prunus Cerasifera"},"type":"Feature","geometry":{"type":"Point","coordinates":[-122.422706,37.750153]}},{"properties":{"latitude":37.758543,"longitude":-122.420289,"id":"a622i6m5y5er","address":"3561-3565 20th St","species":"Prunus Cerasifera"},"type":"Feature","geometry":{"type":"Point","coordinates":[-122.420289,37.758543]}},{"properties":{"latitude":37.758519,"longitude":-122.423474,"id":"a622i6rflvbx","address":"795 Guerrero St","species":"Prunus Cerasifera"},"type":"Feature","geometry":{"type":"Point","coordinates":[-122.423474,37.758519]}},{"properties":{"latitude":37.758853,"longitude":-122.420493,"id":"a622i6lvto5x","address":"289-299 Lexington St","species":"Prunus Cerasifera"},"type":"Feature","geometry":{"type":"Point","coordinates":[-122.420493,37.758853]}},{"properties":{"latitude":37.758553,"longitude":-122.42039,"id":"a622i6oulvsj","address":"3566 20th St","species":"Prunus Cerasifera"},"type":"Feature","geometry":{"type":"Point","coordinates":[-122.42039,37.758553]}},{"properties":{"latitude":37.757497,"longitude":-122.423399,"id":"a622i6sg07el","address":"850 Guerrero St","species":"Prunus Cerasifera"},"type":"Feature","geometry":{"type":"Point","coordinates":[-122.423399,37.757497]}},{"properties":{"latitude":37.753153,"longitude":-122.422978,"id":"a622i6lmw37f","address":"1127 Guerrero St","species":"Prunus Cerasifera"},"type":"Feature","geometry":{"type":"Point","coordinates":[-122.422978,37.753153]}},{"properties":{"latitude":37.752382,"longitude":-122.422917,"id":"a622i6ue397i","address":"1170 Guerrero St","species":"Prunus Cerasifera"},"type":"Feature","geometry":{"type":"Point","coordinates":[-122.422917,37.752382]}},{"properties":{"latitude":37.757737,"longitude":-122.423404,"id":"a622i6u97i8b","address":"845 Guerrero St","species":"Prunus Cerasifera"},"type":"Feature","geometry":{"type":"Point","coordinates":[-122.423404,37.757737]}},{"properties":{"latitude":37.757958,"longitude":-122.423424,"id":"a622i6rcd860","address":"827 Guerrero St","species":"Prunus Cerasifera"},"type":"Feature","geometry":{"type":"Point","coordinates":[-122.423424,37.757958]}},{"properties":{"latitude":37.758205,"longitude":-122.423446,"id":"a622i6zdn83a","address":"807 Guerrero St","species":"Prunus Cerasifera"},"type":"Feature","geometry":{"type":"Point","coordinates":[-122.423446,37.758205]}},{"properties":{"latitude":37.758543,"longitude":-122.420289,"id":"a622i6m3wgjt","address":"3561 20th St","species":"Prunus Cerasifera"},"type":"Feature","geometry":{"type":"Point","coordinates":[-122.420289,37.758543]}},{"properties":{"latitude":37.757131,"longitude":-122.423368,"id":"a622i6uj6jk2","address":"878 Guerrero St","species":"Prunus Cerasifera"},"type":"Feature","geometry":{"type":"Point","coordinates":[-122.423368,37.757131]}},{"properties":{"latitude":37.7586,"longitude":-122.42348,"id":"a622i6w9zge8","address":"789 Guerrero St","species":"Prunus Cerasifera"},"type":"Feature","geometry":{"type":"Point","coordinates":[-122.42348,37.7586]}},{"properties":{"latitude":37.757497,"longitude":-122.423383,"id":"a622i6uc0ye1","address":"851 Guerrero St","species":"Prunus Cerasifera"},"type":"Feature","geometry":{"type":"Point","coordinates":[-122.423383,37.757497]}},{"properties":{"latitude":37.758082,"longitude":-122.423435,"id":"a622i6tfpp3m","address":"817 Guerrero St","species":"Prunus Cerasifera"},"type":"Feature","geometry":{"type":"Point","coordinates":[-122.423435,37.758082]}},{"properties":{"latitude":37.759103,"longitude":-122.423539,"id":"a622i6pocwtw","address":"750 Guerrero St","species":"Prunus Cerasifera"},"type":"Feature","geometry":{"type":"Point","coordinates":[-122.423539,37.759103]}},{"properties":{"latitude":37.759423,"longitude":-122.423556,"id":"a622i6upki7s","address":"739 Guerrero St","species":"Prunus Cerasifera"},"type":"Feature","geometry":{"type":"Point","coordinates":[-122.423556,37.759423]}},{"properties":{"latitude":37.759573,"longitude":-122.423573,"id":"a622i6xrg954","address":"727 Guerrero St","species":"Prunus Cerasifera"},"type":"Feature","geometry":{"type":"Point","coordinates":[-122.423573,37.759573]}},{"properties":{"latitude":37.760258,"longitude":-122.418478,"id":"a622i6xzeesi","address":"3365 19th St","species":"Prunus Cerasifera"},"type":"Feature","geometry":{"type":"Point","coordinates":[-122.418478,37.760258]}},{"properties":{"latitude":37.757958,"longitude":-122.423424,"id":"a622i6rl2lev","address":"827 Guerrero St","species":"Prunus Cerasifera"},"type":"Feature","geometry":{"type":"Point","coordinates":[-122.423424,37.757958]}},{"properties":{"latitude":37.748915,"longitude":-122.422574,"id":"a622i6miexhn","address":"1393 Guerrero St","species":"Prunus Cerasifera"},"type":"Feature","geometry":{"type":"Point","coordinates":[-122.422574,37.748915]}},{"properties":{"latitude":37.759103,"longitude":-122.423539,"id":"a622i6rhhghg","address":"750 Guerrero St","species":"Prunus Cerasifera"},"type":"Feature","geometry":{"type":"Point","coordinates":[-122.423539,37.759103]}},{"properties":{"latitude":37.750426,"longitude":-122.408922,"id":"a622i6t4wrx7","address":"2749 Bryant St","species":"Prunus Cerasifera"},"type":"Feature","geometry":{"type":"Point","coordinates":[-122.408922,37.750426]}},{"properties":{"latitude":37.756883,"longitude":-122.423329,"id":"a622i6q2kkva","address":"899 Guerrero St","species":"Prunus Cerasifera"},"type":"Feature","geometry":{"type":"Point","coordinates":[-122.423329,37.756883]}},{"properties":{"latitude":37.756615,"longitude":-122.423323,"id":"a622i6rkfre6","address":"906 Guerrero St","species":"Prunus Cerasifera"},"type":"Feature","geometry":{"type":"Point","coordinates":[-122.423323,37.756615]}},{"properties":{"latitude":37.757737,"longitude":-122.423404,"id":"a622i6pzrafv","address":"845 Guerrero St","species":"Prunus Cerasifera"},"type":"Feature","geometry":{"type":"Point","coordinates":[-122.423404,37.757737]}},{"properties":{"latitude":37.758543,"longitude":-122.420289,"id":"a622i6p5d7md","address":"3561-3565 20th St","species":"Prunus Cerasifera"},"type":"Feature","geometry":{"type":"Point","coordinates":[-122.420289,37.758543]}},{"properties":{"latitude":37.756534,"longitude":-122.423298,"id":"a622i6tqzht5","address":"915 Guerrero St","species":"Prunus Cerasifera"},"type":"Feature","geometry":{"type":"Point","coordinates":[-122.423298,37.756534]}},{"properties":{"latitude":37.754686,"longitude":-122.423128,"id":"a622i6loepcp","address":"1013 Guerrero St","species":"Prunus Cerasifera"},"type":"Feature","geometry":{"type":"Point","coordinates":[-122.423128,37.754686]}},{"properties":{"latitude":37.754281,"longitude":-122.423092,"id":"a622i6t3x7rt","address":"1021 Guerrero St","species":"Prunus Cerasifera"},"type":"Feature","geometry":{"type":"Point","coordinates":[-122.423092,37.754281]}},{"properties":{"latitude":37.76587,"longitude":-122.424185,"id":"a622i6k65b5o","address":"329 Guerrero St","species":"Prunus Cerasifera"},"type":"Feature","geometry":{"type":"Point","coordinates":[-122.424185,37.76587]}},{"properties":{"latitude":37.765802,"longitude":-122.424196,"id":"a622i6tzn5vj","address":"332 Guerrero St","species":"Prunus Cerasifera"},"type":"Feature","geometry":{"type":"Point","coordinates":[-122.424196,37.765802]}},{"properties":{"latitude":37.766684,"longitude":-122.424261,"id":"a622i6lr94vq","address":"285 Guerrero St","species":"Prunus Cerasifera"},"type":"Feature","geometry":{"type":"Point","coordinates":[-122.424261,37.766684]}},{"properties":{"latitude":37.765439,"longitude":-122.424165,"id":"a622i6zwn2ol","address":"360 Guerrero St","species":"Prunus Cerasifera"},"type":"Feature","geometry":{"type":"Point","coordinates":[-122.424165,37.765439]}},{"properties":{"latitude":37.769607,"longitude":-122.424582,"id":"a622i6qgnctq","address":"102 Guerrero St","species":"Prunus Cerasifera"},"type":"Feature","geometry":{"type":"Point","coordinates":[-122.424582,37.769607]}},{"properties":{"latitude":37.767452,"longitude":-122.424361,"id":"a622i6x62z7k","address":"234 Guerrero St","species":"Prunus Cerasifera"},"type":"Feature","geometry":{"type":"Point","coordinates":[-122.424361,37.767452]}},{"properties":{"latitude":37.770173,"longitude":-122.424613,"id":"a622i6kvn9ek","address":"45 Guerrero St","species":"Prunus Cerasifera"},"type":"Feature","geometry":{"type":"Point","coordinates":[-122.424613,37.770173]}},{"properties":{"latitude":37.765439,"longitude":-122.424165,"id":"a622i6n7e4fq","address":"360 Guerrero St","species":"Prunus Cerasifera"},"type":"Feature","geometry":{"type":"Point","coordinates":[-122.424165,37.765439]}},{"properties":{"latitude":37.76518,"longitude":-122.424142,"id":"a622i6r19u3k","address":"380 Guerrero St","species":"Prunus Cerasifera"},"type":"Feature","geometry":{"type":"Point","coordinates":[-122.424142,37.76518]}},{"properties":{"latitude":37.765439,"longitude":-122.424165,"id":"a622i6lrjq69","address":"360 Guerrero St","species":"Prunus Cerasifera"},"type":"Feature","geometry":{"type":"Point","coordinates":[-122.424165,37.765439]}},{"properties":{"latitude":37.76661,"longitude":-122.424253,"id":"a622i6ryu2zk","address":"291 Guerrero St","species":"Prunus Cerasifera"},"type":"Feature","geometry":{"type":"Point","coordinates":[-122.424253,37.76661]}},{"properties":{"latitude":37.76661,"longitude":-122.424253,"id":"a622i6ro9buo","address":"291 Guerrero St","species":"Prunus Cerasifera"},"type":"Feature","geometry":{"type":"Point","coordinates":[-122.424253,37.76661]}},{"properties":{"latitude":37.767592,"longitude":-122.424375,"id":"a622i6ozdr7v","address":"224 Guerrero St","species":"Prunus Cerasifera"},"type":"Feature","geometry":{"type":"Point","coordinates":[-122.424375,37.767592]}},{"properties":{"latitude":37.765274,"longitude":-122.424133,"id":"a622i6xgvpaz","address":"375 Guerrero St","species":"Prunus Cerasifera"},"type":"Feature","geometry":{"type":"Point","coordinates":[-122.424133,37.765274]}},{"properties":{"latitude":37.767183,"longitude":-122.424333,"id":"a622i6wfnvdi","address":"242 Guerrero St","species":"Prunus Cerasifera"},"type":"Feature","geometry":{"type":"Point","coordinates":[-122.424333,37.767183]}},{"properties":{"latitude":37.765439,"longitude":-122.424165,"id":"a622i6myhwi6","address":"360 Guerrero St","species":"Prunus Cerasifera"},"type":"Feature","geometry":{"type":"Point","coordinates":[-122.424165,37.765439]}},{"properties":{"latitude":37.767175,"longitude":-122.424314,"id":"a622i6l6ro5t","address":"245 Guerrero St","species":"Prunus Cerasifera"},"type":"Feature","geometry":{"type":"Point","coordinates":[-122.424314,37.767175]}},{"properties":{"latitude":37.767175,"longitude":-122.424314,"id":"a622i6otwj0l","address":"245 Guerrero St","species":"Prunus Cerasifera"},"type":"Feature","geometry":{"type":"Point","coordinates":[-122.424314,37.767175]}},{"properties":{"latitude":37.769607,"longitude":-122.424582,"id":"a622i6jtt0dc","address":"102 Guerrero St","species":"Prunus Cerasifera"},"type":"Feature","geometry":{"type":"Point","coordinates":[-122.424582,37.769607]}},{"properties":{"latitude":37.769798,"longitude":-122.42355,"id":"a622i6t04tgd","address":"153 Duboce Ave","species":"Prunus Cerasifera"},"type":"Feature","geometry":{"type":"Point","coordinates":[-122.42355,37.769798]}},{"properties":{"latitude":37.768721,"longitude":-122.420821,"id":"a622i6mx65iq","address":"76 Woodward St","species":"Prunus Cerasifera"},"type":"Feature","geometry":{"type":"Point","coordinates":[-122.420821,37.768721]}},{"properties":{"latitude":37.767404,"longitude":-122.424355,"id":"a622i6uov81t","address":"238 Guerrero St","species":"Prunus Cerasifera"},"type":"Feature","geometry":{"type":"Point","coordinates":[-122.424355,37.767404]}},{"properties":{"latitude":37.765077,"longitude":-122.424133,"id":"a622i6v4y4yq","address":"388 Guerrero St","species":"Prunus Cerasifera"},"type":"Feature","geometry":{"type":"Point","coordinates":[-122.424133,37.765077]}},{"properties":{"latitude":37.765507,"longitude":-122.424153,"id":"a622i6t104yv","address":"357 Guerrero St","species":"Prunus Cerasifera"},"type":"Feature","geometry":{"type":"Point","coordinates":[-122.424153,37.765507]}},{"properties":{"latitude":37.758543,"longitude":-122.420289,"id":"a622i6m0dlm3","address":"3561-3565 20th St","species":"Prunus Cerasifera"},"type":"Feature","geometry":{"type":"Point","coordinates":[-122.420289,37.758543]}},{"properties":{"latitude":37.756615,"longitude":-122.423323,"id":"a622i6kvlepi","address":"906 Guerrero St","species":"Prunus Cerasifera"},"type":"Feature","geometry":{"type":"Point","coordinates":[-122.423323,37.756615]}},{"properties":{"latitude":37.753311,"longitude":-122.423012,"id":"a622i6ttk0hz","address":"1110 Guerrero St","species":"Prunus Cerasifera"},"type":"Feature","geometry":{"type":"Point","coordinates":[-122.423012,37.753311]}},{"properties":{"latitude":37.756011,"longitude":-122.422701,"id":"a622i6op7fnh","address":"80 Hill St","species":"Prunus Cerasifera"},"type":"Feature","geometry":{"type":"Point","coordinates":[-122.422701,37.756011]}},{"properties":{"latitude":37.763507,"longitude":-122.423959,"id":"a622i6xuf6zb","address":"481 Guerrero St","species":"Prunus Cerasifera"},"type":"Feature","geometry":{"type":"Point","coordinates":[-122.423959,37.763507]}},{"properties":{"latitude":37.758543,"longitude":-122.420289,"id":"a622i6m555ig","address":"3561 20th St","species":"Prunus Cerasifera"},"type":"Feature","geometry":{"type":"Point","coordinates":[-122.420289,37.758543]}},{"properties":{"latitude":37.760585,"longitude":-122.408372,"id":"a622i6ygeypk","address":"2631 19th St","species":"Prunus Cerasifera"},"type":"Feature","geometry":{"type":"Point","coordinates":[-122.408372,37.760585]}},{"properties":{"latitude":37.760263,"longitude":-122.418672,"id":"a622i6tg47sf","address":"3376 19th St","species":"Prunus Cerasifera"},"type":"Feature","geometry":{"type":"Point","coordinates":[-122.418672,37.760263]}},{"properties":{"latitude":37.760176,"longitude":-122.420367,"id":"a622i6vlon8u","address":"3450 19th St","species":"Prunus Cerasifera"},"type":"Feature","geometry":{"type":"Point","coordinates":[-122.420367,37.760176]}},{"properties":{"latitude":37.758442,"longitude":-122.42239,"id":"a622i6pqxj6b","address":"3650 20th St","species":"Prunus Cerasifera"},"type":"Feature","geometry":{"type":"Point","coordinates":[-122.42239,37.758442]}},{"properties":{"latitude":37.758439,"longitude":-122.422425,"id":"a622i6kpvldl","address":"3652 20th St","species":"Prunus Cerasifera"},"type":"Feature","geometry":{"type":"Point","coordinates":[-122.422425,37.758439]}},{"properties":{"latitude":37.760268,"longitude":-122.418595,"id":"a622i6r9fm68","address":"3372-3380 19th St","species":"Prunus Cerasifera"},"type":"Feature","geometry":{"type":"Point","coordinates":[-122.418595,37.760268]}}],"is_temporal":false,"author":{"url":"","metadata":null,"contact_name":null,"contact_address":null,"source":null,"contact_phone":null},"source":"","pagination":{"sort":null,"start":0,"total":398,"limit":1000000},"state":"complete","tags":"","published":"2014-08-14T21:38:08-04:00","id":244651}