{"type":"FeatureCollection","data_type":"Dataset","url_type":null,"permissions":[{"permissions":{"download":true,"view":true},"group_id":"everyone"}],"classification":null,"title":"chrysler factories in the u.s. since 1938","count":17,"stream_id":245625,"contributor":{"url":"http://geocommons.com/users/42831","name":"sev_"},"data_attributes":null,"calculation_params":null,"icon_link":null,"link":"http://geocommons.com/overlays/245625.json","extent":[-88.8458,40.4543,-82.9676,42.5925],"geometry_types":["point"],"unique_name":null,"name":"chrysler factories in the u.s. since 1938","feature_count":17,"description":"","next_feature":null,"is_raster":false,"short_classification":"Y","stats":{"latitude":{"max":42.592522,"mean":41.9160589411765,"variance":0.569990630181308,"stdev":0.754977238187555,"min":40.454262,"median":42.268925},"date":{"max":"2002/01/01 00:00:00 -0500","mean":"1965/08/25 02:24:42 -0400","variance":4.16397532367435e+17,"stdev":645288720.161321,"min":"1938/01/01 00:00:00 -0500","median":"1965/01/01 00:00:00 -0500"},"longitude":{"max":-82.967606,"mean":-84.0777447058824,"variance":2.83575088011947,"stdev":1.6839687883448,"min":-88.845806,"median":-83.214798}},"features":[{"properties":{"city":"Belvidere","name":"Belvidere Assembly","latitude":42.268925,"date":{"end_time":"1966/01/01 00:00:00 -0500","original":"1965","granularity":"year","time":"1965/01/01 00:00:00 -0500"},"country":"USA","longitude":-88.845806,"id":"a62hmbbynlhu","state":"IL"},"type":"Feature","geometry":{"type":"Point","coordinates":[-88.845806,42.268925]}},{"properties":{"city":"Detroit","name":"Conner Avenue Assembly","latitude":42.358544,"date":{"end_time":"1967/01/01 00:00:00 -0500","original":"1966","granularity":"year","time":"1966/01/01 00:00:00 -0500"},"country":"USA","longitude":-83.050003,"id":"a62hmbfhe251","state":"MI"},"type":"Feature","geometry":{"type":"Point","coordinates":[-83.050003,42.358544]}},{"properties":{"city":"Kokomo","name":"Indiana Transmission","latitude":40.492654,"date":{"end_time":"1999/01/01 00:00:00 -0500","original":"1998","granularity":"year","time":"1998/01/01 00:00:00 -0500"},"country":"USA","longitude":-86.133556,"id":"a62hmb3tay7d","state":"IN"},"type":"Feature","geometry":{"type":"Point","coordinates":[-86.133556,40.492654]}},{"properties":{"city":"Detroit","name":"Jefferson North Assembly","latitude":42.418388,"date":{"end_time":"1992/01/01 00:00:00 -0500","original":"1991","granularity":"year","time":"1991/01/01 00:00:00 -0500"},"country":"USA","longitude":-83.191452,"id":"a62hmbeauao6","state":"MI"},"type":"Feature","geometry":{"type":"Point","coordinates":[-83.191452,42.418388]}},{"properties":{"city":"Kokomo","name":"Kokomo Casting","latitude":40.454262,"date":{"end_time":"1966/01/01 00:00:00 -0500","original":"1965","granularity":"year","time":"1965/01/01 00:00:00 -0500"},"country":"USA","longitude":-86.13287,"id":"a62hmbdam2c9","state":"IN"},"type":"Feature","geometry":{"type":"Point","coordinates":[-86.13287,40.454262]}},{"properties":{"city":"Kokomo","name":"Kokomo Transmission","latitude":40.520063,"date":{"end_time":"1957/01/01 00:00:00 -0500","original":"1956","granularity":"year","time":"1956/01/01 00:00:00 -0500"},"country":"USA","longitude":-86.124973,"id":"a62hmbio0lvo","state":"IN"},"type":"Feature","geometry":{"type":"Point","coordinates":[-86.124973,40.520063]}},{"properties":{"city":"Detroit","name":"Mack Avenue Engine Complex","latitude":42.422443,"date":{"end_time":"1954/01/01 00:00:00 -0500","original":"1953","granularity":"year","time":"1953/01/01 00:00:00 -0500"},"country":"USA","longitude":-82.967606,"id":"a62hmb3cxfqr","state":"MI"},"type":"Feature","geometry":{"type":"Point","coordinates":[-82.967606,42.422443]}},{"properties":{"city":"Dundee","name":"Global Engine Manufacturing Alliance","latitude":41.960001,"date":{"end_time":"2003/01/01 00:00:00 -0500","original":"2002","granularity":"year","time":"2002/01/01 00:00:00 -0500"},"country":"USA","longitude":-83.658857,"id":"a62hmbexio1a","state":"MI"},"type":"Feature","geometry":{"type":"Point","coordinates":[-83.658857,41.960001]}},{"properties":{"city":"Detroit","name":"Mount Elliott Tool and Die","latitude":42.420415,"date":{"end_time":"1939/01/01 00:00:00 -0500","original":"1938","granularity":"year","time":"1938/01/01 00:00:00 -0500"},"country":"USA","longitude":-83.214798,"id":"a62hmbat3h4u","state":"MI"},"type":"Feature","geometry":{"type":"Point","coordinates":[-83.214798,42.420415]}},{"properties":{"city":"Sterling Heights","name":"Sterling Heights Assembly","latitude":42.58595,"date":{"end_time":"1954/01/01 00:00:00 -0500","original":"1953","granularity":"year","time":"1953/01/01 00:00:00 -0500"},"country":"USA","longitude":-83.029575,"id":"a62hmb72yc7e","state":"MI"},"type":"Feature","geometry":{"type":"Point","coordinates":[-83.029575,42.58595]}},{"properties":{"city":"Sterling Heights","name":"Sterling Stamping","latitude":42.592522,"date":{"end_time":"1966/01/01 00:00:00 -0500","original":"1965","granularity":"year","time":"1965/01/01 00:00:00 -0500"},"country":"USA","longitude":-83.057041,"id":"a62hmbaf0tv1","state":"MI"},"type":"Feature","geometry":{"type":"Point","coordinates":[-83.057041,42.592522]}},{"properties":{"city":"Perrysburg","name":"Toledo Machining","latitude":41.56383,"date":{"end_time":"1968/01/01 00:00:00 -0500","original":"1967","granularity":"year","time":"1967/01/01 00:00:00 -0500"},"country":"USA","longitude":-83.62833,"id":"a62hmbbepx3y","state":"OH"},"type":"Feature","geometry":{"type":"Point","coordinates":[-83.62833,41.56383]}},{"properties":{"city":"Toledo","name":"Toledo North Assembly","latitude":41.674963,"date":{"end_time":"1998/01/01 00:00:00 -0500","original":"1997","granularity":"year","time":"1997/01/01 00:00:00 -0500"},"country":"USA","longitude":-83.5532,"id":"a62hmbj24c8a","state":"OH"},"type":"Feature","geometry":{"type":"Point","coordinates":[-83.5532,41.674963]}},{"properties":{"city":"Toledo","name":"Toledo Supplier Park","latitude":41.664192,"date":{"end_time":"1943/01/01 00:00:00 -0400","original":"1942","granularity":"year","time":"1942/01/01 00:00:00 -0500"},"country":"USA","longitude":-83.536034,"id":"a62hmbewsee3","state":"OH"},"type":"Feature","geometry":{"type":"Point","coordinates":[-83.536034,41.664192]}},{"properties":{"city":"Trenton","name":"Trenton Engine","latitude":42.145842,"date":{"end_time":"1953/01/01 00:00:00 -0500","original":"1952","granularity":"year","time":"1952/01/01 00:00:00 -0500"},"country":"USA","longitude":-83.177547,"id":"a62hmbccr49x","state":"MI"},"type":"Feature","geometry":{"type":"Point","coordinates":[-83.177547,42.145842]}},{"properties":{"city":"Warren","name":"Warren Stamping","latitude":42.499441,"date":{"end_time":"1969/01/01 00:00:00 -0500","original":"1968","granularity":"year","time":"1968/01/01 00:00:00 -0500"},"country":"USA","longitude":-83.028545,"id":"a62hmb6pfj9m","state":"MI"},"type":"Feature","geometry":{"type":"Point","coordinates":[-83.028545,42.499441]}},{"properties":{"city":"Warren","name":"Warren Truck Assembly","latitude":42.530567,"date":{"end_time":"1939/01/01 00:00:00 -0500","original":"1938","granularity":"year","time":"1938/01/01 00:00:00 -0500"},"country":"USA","longitude":-82.991467,"id":"a62hmb5pwu3l","state":"MI"},"type":"Feature","geometry":{"type":"Point","coordinates":[-82.991467,42.530567]}}],"is_temporal":true,"author":{"url":"","metadata":"","contact_name":"","contact_address":"","source":"","contact_phone":""},"source":"","pagination":{"sort":null,"start":0,"total":17,"limit":1000000},"state":"complete","tags":"","published":"2014-08-14T23:15:05-04:00","id":245625}