{"type":"FeatureCollection","data_type":"Data Feed","url_type":"csv","permissions":[{"permissions":{"download":true,"view":true},"group_id":"everyone"}],"classification":null,"title":"cities.csv","count":21,"stream_id":246420,"contributor":{"url":"http://geocommons.com/users/46526","name":"blocki"},"data_attributes":null,"calculation_params":null,"icon_link":null,"link":"http://geocommons.com/overlays/246420.json","extent":[69.0,25.5,140.467,37.9167],"geometry_types":["point"],"unique_name":null,"name":"cities.csv","feature_count":21,"description":"","next_feature":null,"is_raster":false,"short_classification":"Y","stats":{"visitors":{"max":1613,"mean":94.9047619047619,"variance":122052.09047619,"stdev":349.359543273388,"min":1,"median":6}},"features":[{"properties":{"city":"Osaka","geo_score":0.857,"visitors":1,"id":"a623whf0b60v","geo_precision":"zip"},"type":"Feature","geometry":{"type":"Point","coordinates":[135.502181947231,34.6937398415059]}},{"properties":{"city":"Nagoya","geo_score":0.857,"visitors":1,"id":"a623whdef48g","geo_precision":"zip"},"type":"Feature","geometry":{"type":"Point","coordinates":[136.906409561634,35.1814727966958]}},{"properties":{"city":"Chiba","geo_score":0.857,"visitors":4,"id":"a623whcf674s","geo_precision":"zip"},"type":"Feature","geometry":{"type":"Point","coordinates":[140.1166667,35.6]}},{"properties":{"city":"Hiroshima","geo_score":0.857,"visitors":9,"id":"a623wh9d60va","geo_precision":"zip"},"type":"Feature","geometry":{"type":"Point","coordinates":[132.45,34.4]}},{"properties":{"city":"Kobe","geo_score":0.857,"visitors":3,"id":"a623whbcpaei","geo_precision":"zip"},"type":"Feature","geometry":{"type":"Point","coordinates":[135.1666667,34.6833333]}},{"properties":{"city":"Kyoto","geo_score":0.857,"visitors":9,"id":"a623wh780mv5","geo_precision":"zip"},"type":"Feature","geometry":{"type":"Point","coordinates":[135.75385093689,35.02106999142]}},{"properties":{"city":"Yokohama","geo_score":0.857,"visitors":142,"id":"a623whb4z235","geo_precision":"zip"},"type":"Feature","geometry":{"type":"Point","coordinates":[139.65,35.45]}},{"properties":{"city":"Gifu","geo_score":0.857,"visitors":6,"id":"a623wh2hhhlt","geo_precision":"zip"},"type":"Feature","geometry":{"type":"Point","coordinates":[136.760387420654,35.4229095364828]}},{"properties":{"city":"Shizuoka","geo_score":0.857,"visitors":10,"id":"a623wh7lvkff","geo_precision":"zip"},"type":"Feature","geometry":{"type":"Point","coordinates":[138.3833333,34.9666667]}},{"properties":{"city":"Nagano","geo_score":0.857,"visitors":1,"id":"a623wh34rsmj","geo_precision":"zip"},"type":"Feature","geometry":{"type":"Point","coordinates":[138.1833333,36.65]}},{"properties":{"city":"Nagasaki","geo_score":0.857,"visitors":2,"id":"a623wh1cjydk","geo_precision":"zip"},"type":"Feature","geometry":{"type":"Point","coordinates":[129.8683333,32.755]}},{"properties":{"city":"Kawasaki","geo_score":0.857,"visitors":6,"id":"a623wh8mbzsq","geo_precision":"zip"},"type":"Feature","geometry":{"type":"Point","coordinates":[139.7172222,35.5205556]}},{"properties":{"city":"Mito","geo_score":0.857,"visitors":43,"id":"a623wh2m1a8v","geo_precision":"zip"},"type":"Feature","geometry":{"type":"Point","coordinates":[140.4666667,36.3666667]}},{"properties":{"city":"Toyama","geo_score":0.857,"visitors":61,"id":"a623whgsfsah","geo_precision":"zip"},"type":"Feature","geometry":{"type":"Point","coordinates":[137.2166667,36.6833333]}},{"properties":{"city":"Matsue","geo_score":0.857,"visitors":6,"id":"a623whcyvie9","geo_precision":"zip"},"type":"Feature","geometry":{"type":"Point","coordinates":[133.0666667,35.4666667]}},{"properties":{"city":"Tottori","geo_score":0.857,"visitors":1,"id":"a623wh9fldk7","geo_precision":"zip"},"type":"Feature","geometry":{"type":"Point","coordinates":[134.2333333,35.5]}},{"properties":{"city":"Yamaguchi","geo_score":0.857,"visitors":28,"id":"a623whfvvogi","geo_precision":"zip"},"type":"Feature","geometry":{"type":"Point","coordinates":[131.4833333,34.1666667]}},{"properties":{"city":"Kochi","geo_score":0.857,"visitors":7,"id":"a623whek14rj","geo_precision":"zip"},"type":"Feature","geometry":{"type":"Point","coordinates":[133.55,33.55]}},{"properties":{"city":"Sendai","geo_score":0.786,"visitors":2,"id":"a623wh9oztx1","geo_precision":"zip"},"type":"Feature","geometry":{"type":"Point","coordinates":[69.0,25.5]}},{"properties":{"city":"Niigata","geo_score":0.857,"visitors":38,"id":"a623wh5csgvi","geo_precision":"zip"},"type":"Feature","geometry":{"type":"Point","coordinates":[139.05,37.9166667]}},{"properties":{"city":"Tokyo","geo_score":0.857,"visitors":1613,"id":"a623whb86a7n","geo_precision":"zip"},"type":"Feature","geometry":{"type":"Point","coordinates":[139.691677093506,35.6895265930799]}}],"is_temporal":false,"author":{"url":"","metadata":"","contact_name":"","contact_address":"","source":"","contact_phone":""},"source":"","pagination":{"sort":null,"start":0,"total":21,"limit":1000000},"state":"complete","tags":"","published":"2014-08-15T00:34:40-04:00","id":246420}