{"type":"FeatureCollection","data_type":"Dataset","url_type":null,"permissions":[{"permissions":{"download":true,"view":true},"group_id":"everyone"}],"classification":null,"title":"Psychiatric_Hospital","count":50,"stream_id":246646,"contributor":{"url":"http://geocommons.com/users/27269","name":"wadestaylor"},"data_attributes":null,"calculation_params":null,"icon_link":null,"link":"http://geocommons.com/overlays/246646.json","extent":[-115.969,36.027,-115.053,36.2845],"geometry_types":["point"],"unique_name":null,"name":"Psychiatric_Hospital","feature_count":50,"description":"","next_feature":null,"is_raster":false,"short_classification":"Y","stats":{},"features":[{"properties":{"city":"Las Vegas","zip":"891693005","county":"Clark","geo_score":1.0,"provider speciality":"IP Mental Hlth/Substance Abuse","individual or practice name":"Adelson Clinic For Drug Abuse Treatment &amp; Research","id":"a61zzr8yah62","geo_precision":"range","address":"3661 S Maryland Pkwy","state":"NV"},"type":"Feature","geometry":{"type":"Point","coordinates":[-115.137306,36.122864]}},{"properties":{"city":"Las Vegas","zip":"891064189","county":"Clark","geo_score":1.0,"provider speciality":"Psychiatry","individual or practice name":"Apex Medical Center","id":"a61zzr5li2as","geo_precision":"range","address":"1701 Bearden Dr","state":"NV"},"type":"Feature","geometry":{"type":"Point","coordinates":[-115.165211,36.161924]}},{"properties":{"city":"Pahrump","zip":"890484737","county":"Nye","geo_score":0.902,"provider speciality":"Psychiatry","individual or practice name":"Associated Psychiatric Svcs","id":"a61zzr2yev2i","geo_precision":"range","address":"2620 Acoma Ave","state":"NV"},"type":"Feature","geometry":{"type":"Point","coordinates":[-115.968741,36.194621]}},{"properties":{"city":"Las Vegas","zip":"891196139","county":"Clark","geo_score":1.0,"provider speciality":"Behavioral Health Group","individual or practice name":"Bilingual Behavioral Services","id":"a61zzquc330s","geo_precision":"range","address":"4660 S Eastern Ave","state":"NV"},"type":"Feature","geometry":{"type":"Point","coordinates":[-115.11901,36.104389]}},{"properties":{"city":"Las Vegas","zip":"891012407","county":"Clark","geo_score":1.0,"provider speciality":"OP Mental Hlth/Substance Abuse","individual or practice name":"Boys Town Nevada","id":"a61zzqyik822","geo_precision":"range","address":"821 N Mojave Rd","state":"NV"},"type":"Feature","geometry":{"type":"Point","coordinates":[-115.106239,36.178099]}},{"properties":{"city":"Las Vegas","zip":"891465306","county":"Clark","geo_score":1.0,"provider speciality":"Psychology","individual or practice name":"Comprehensive Psychological Services","id":"a61zzqymh6jo","geo_precision":"range","address":"2740 S Jones Blvd","state":"NV"},"type":"Feature","geometry":{"type":"Point","coordinates":[-115.225174,36.139683]}},{"properties":{"city":"Henderson","zip":"890746178","county":"Clark","geo_score":0.913,"provider speciality":"Lic Clinical Social Worker","individual or practice name":"Creative Mental Health, LLC","id":"a61zzr8m1jg5","geo_precision":"range","address":"701 N Green Valley Pkwy","state":"NV"},"type":"Feature","geometry":{"type":"Point","coordinates":[-115.085706,36.027005]}},{"properties":{"city":"Las Vegas","zip":"891173064","county":"Clark","geo_score":1.0,"provider speciality":"Behavioral Health Group","individual or practice name":"Creative Therapies","id":"a61zzr99fg2f","geo_precision":"range","address":"2560 Montessouri St.","state":"NV"},"type":"Feature","geometry":{"type":"Point","coordinates":[-115.247408,36.142915]}},{"properties":{"city":"Las Vegas","zip":"891465611","county":"Clark","geo_score":0.967,"provider speciality":"Psychiatry","individual or practice name":"Eldora Medical Associates","id":"a61zzr0jwb94","geo_precision":"range","address":"6039 Eldora Ave","state":"NV"},"type":"Feature","geometry":{"type":"Point","coordinates":[-115.224284,36.14048]}},{"properties":{"city":"Las Vegas","zip":"891130157","county":"Clark","geo_score":1.0,"provider speciality":"Psychology","individual or practice name":"Harder Medical Inc","id":"a61zzr5msotj","geo_precision":"range","address":"4955 S Durango Dr","state":"NV"},"type":"Feature","geometry":{"type":"Point","coordinates":[-115.279255,36.099052]}},{"properties":{"city":"Las Vegas","zip":"891020166","county":"Clark","geo_score":0.707,"provider speciality":"Behavioral Health Group","individual or practice name":"Heads Up Guidance And Wellness Centers Of Nevada","id":"a61zzr2d9wdz","geo_precision":"range","address":"2801 S Valley View","state":"NV"},"type":"Feature","geometry":{"type":"Point","coordinates":[-115.111476,36.161642]}},{"properties":{"city":"Las Vegas","zip":"89102","county":"Clark","geo_score":1.0,"provider speciality":"Behavioral Health Group","individual or practice name":"HOPE Counseling Services, LLC","id":"a61zzqubt7yd","geo_precision":"range","address":"2820 W Charleston Blvd","state":"NV"},"type":"Feature","geometry":{"type":"Point","coordinates":[-115.179149,36.158921]}},{"properties":{"city":"Las Vegas","zip":"891232847","county":"Clark","geo_score":1.0,"provider speciality":"Psychology","individual or practice name":"Jaime T Austin","id":"a61zzqyr1s6r","geo_precision":"range","address":"8540 S Eastern Ave","state":"NV"},"type":"Feature","geometry":{"type":"Point","coordinates":[-115.11837,36.033658]}},{"properties":{"city":"Las Vegas","zip":"891197427","county":"Clark","geo_score":1.0,"provider speciality":"Behavioral Health Group","individual or practice name":"Maple Star Nevada-Las Vegas","id":"a61zzr2pfurc","geo_precision":"range","address":"1050 E Flamingo Rd","state":"NV"},"type":"Feature","geometry":{"type":"Point","coordinates":[-115.141173,36.114605]}},{"properties":{"city":"Las Vegas","zip":"891289017","county":"Clark","geo_score":0.571,"provider speciality":"Lic Clinical Social Worker","individual or practice name":"Medschool Associates South","id":"a61zzr7d1ujy","geo_precision":"street","address":"2410 Fire Mesa St","state":"NV"},"type":"Feature","geometry":{"type":"Point","coordinates":[-115.248243,36.180537]}},{"properties":{"city":"Las Vegas","zip":"891033304","county":"Clark","geo_score":1.0,"provider speciality":"Psychiatric Hospital","individual or practice name":"Montevista Hospital","id":"a61zzr1i7s6a","geo_precision":"range","address":"5900 W Rochelle Ave","state":"NV"},"type":"Feature","geometry":{"type":"Point","coordinates":[-115.222281,36.110953]}},{"properties":{"city":"Las Vegas","zip":"891693211","county":"Clark","geo_score":1.0,"provider speciality":"Neurology","individual or practice name":"Neurology Specialists","id":"a61zzqv7201b","geo_precision":"range","address":"2020 E Desert Inn Rd","state":"NV"},"type":"Feature","geometry":{"type":"Point","coordinates":[-115.124927,36.129856]}},{"properties":{"city":"North Las Vegas","zip":"890328222","county":"Clark","geo_score":0.805,"provider speciality":"Behavioral Health Group","individual or practice name":"New Beginnings Behavioral Treatment Agency","id":"a61zzr4aiw9r","geo_precision":"street","address":"3450 W Cheyenne Ave","state":"NV"},"type":"Feature","geometry":{"type":"Point","coordinates":[-115.180816,36.217581]}},{"properties":{"city":"North Las Vegas","zip":"890306512","county":"Clark","geo_score":1.0,"provider speciality":"OP Mental Hlth/Substance Abuse","individual or practice name":"New Beginnings Counseling Ctr","id":"a61zzr9gnk3i","geo_precision":"range","address":"2700 E Lake Mead Blvd","state":"NV"},"type":"Feature","geometry":{"type":"Point","coordinates":[-115.112338,36.195869]}},{"properties":{"city":"North Las Vegas","zip":"890323831","county":"Clark","geo_score":1.0,"provider speciality":"Behavioral Health Group","individual or practice name":"Phases","id":"a61zzqx3e1wh","geo_precision":"range","address":"2755 W Cheyenne Ave","state":"NV"},"type":"Feature","geometry":{"type":"Point","coordinates":[-115.178053,36.217603]}},{"properties":{"city":"Las Vegas","zip":"891031237","county":"Clark","geo_score":1.0,"provider speciality":"Psychiatric Hospital","individual or practice name":"Red Rock Behavioral Health Hospital","id":"a61zzr29phii","geo_precision":"range","address":"5975 W Twain Ave","state":"NV"},"type":"Feature","geometry":{"type":"Point","coordinates":[-115.223365,36.12185]}},{"properties":{"city":"Las Vegas","zip":"891192314","county":"Clark","geo_score":1.0,"provider speciality":"Psychiatry","individual or practice name":"Ron Zedek MD","id":"a61zzqu1hmkb","geo_precision":"range","address":"5329 S Eastern Ave","state":"NV"},"type":"Feature","geometry":{"type":"Point","coordinates":[-115.118883,36.092609]}},{"properties":{"city":"Las Vegas","zip":"891460361","county":"Clark","geo_score":1.0,"provider speciality":"Psychiatry","individual or practice name":"Scott A Rubin","id":"a61zzr8vlnlw","geo_precision":"range","address":"5440 W Sahara Ave","state":"NV"},"type":"Feature","geometry":{"type":"Point","coordinates":[-115.216953,36.144386]}},{"properties":{"city":"Las Vegas","zip":"891463307","county":"Clark","geo_score":1.0,"provider speciality":"Psychiatric Hospital","individual or practice name":"Spring Mountain Sahara","id":"a61zzr3cfhfx","geo_precision":"range","address":"5460 W Sahara Ave","state":"NV"},"type":"Feature","geometry":{"type":"Point","coordinates":[-115.21715,36.144383]}},{"properties":{"city":"Las Vegas","zip":"891173816","county":"Clark","geo_score":0.963,"provider speciality":"Psychiatric Hospital","individual or practice name":"Spring Mountain Treatment Center","id":"a61zzr74t0zu","geo_precision":"range","address":"7000 Spring Mountian Rd","state":"NV"},"type":"Feature","geometry":{"type":"Point","coordinates":[-115.245236,36.1257]}},{"properties":{"city":"Las Vegas","zip":"891130156","county":"Clark","geo_score":1.0,"provider speciality":"Behavioral Health Group","individual or practice name":"Stephanie Holland","id":"a61zzqydyr3o","geo_precision":"range","address":"4955 S Durango Dr","state":"NV"},"type":"Feature","geometry":{"type":"Point","coordinates":[-115.279255,36.099052]}},{"properties":{"city":"Las Vegas","zip":"891280439","county":"Clark","geo_score":1.0,"provider speciality":"Lic Marriage/Family Therapist","individual or practice name":"Adams, Melissa K.","id":"a61zzrn7z07u","geo_precision":"range","address":"7200 Cathedral Rock Dr","state":"NV"},"type":"Feature","geometry":{"type":"Point","coordinates":[-115.249184,36.204928]}},{"properties":{"city":"Las Vegas","zip":"891172506","county":"Clark","geo_score":0.808,"provider speciality":"Psychology","individual or practice name":"Aleksic, Paul M.","id":"a61zzrki2gob","geo_precision":"street","address":"3230 S Buffalo Dr","state":"NV"},"type":"Feature","geometry":{"type":"Point","coordinates":[-115.260983,36.130974]}},{"properties":{"city":"Las Vegas","zip":"891280439","county":"Clark","geo_score":1.0,"provider speciality":"Psychology","individual or practice name":"Brassfield, Patricia","id":"a61zzrq9aqok","geo_precision":"range","address":"7200 Cathedral Rock Dr","state":"NV"},"type":"Feature","geometry":{"type":"Point","coordinates":[-115.249184,36.204928]}},{"properties":{"city":"Las Vegas","zip":"891202830","county":"Clark","geo_score":1.0,"provider speciality":"Lic Marriage/Family Therapist","individual or practice name":"Carter, Margaret P.","id":"a61zzrgejdak","geo_precision":"range","address":"6550 S Pecos Rd","state":"NV"},"type":"Feature","geometry":{"type":"Point","coordinates":[-115.100791,36.070699]}},{"properties":{"city":"Henderson","zip":"890142632","county":"Clark","geo_score":1.0,"provider speciality":"Lic Clinical Social Worker","individual or practice name":"Cartwright, Stephanie L.","id":"a61zzrhke0r9","geo_precision":"range","address":"600 Whitney Ranch Dr","state":"NV"},"type":"Feature","geometry":{"type":"Point","coordinates":[-115.052657,36.063694]}},{"properties":{"city":"Las Vegas","zip":"891465306","county":"Clark","geo_score":1.0,"provider speciality":"Lic Marriage/Family Therapist","individual or practice name":"Corcoran, Leslie E.","id":"a61zzrc9o24u","geo_precision":"range","address":"2740 S Jones Blvd","state":"NV"},"type":"Feature","geometry":{"type":"Point","coordinates":[-115.225174,36.139683]}},{"properties":{"city":"Las Vegas","zip":"891280818","county":"Clark","geo_score":1.0,"provider speciality":"Lic Marriage/Family Therapist","individual or practice name":"Cornelius, Cheryl","id":"a61zzrczod7x","geo_precision":"range","address":"7375 Prairie Falcon Rd","state":"NV"},"type":"Feature","geometry":{"type":"Point","coordinates":[-115.253386,36.206597]}},{"properties":{"city":"Las Vegas","zip":"891466596","county":"Clark","geo_score":1.0,"provider speciality":"Psychology","individual or practice name":"Crabb, Yangcha P.","id":"a61zzrb4tn3p","geo_precision":"range","address":"3311 S Rainbow Blvd","state":"NV"},"type":"Feature","geometry":{"type":"Point","coordinates":[-115.24298,36.129282]}},{"properties":{"city":"Las Vegas","zip":"891202828","county":"Clark","geo_score":0.902,"provider speciality":"Lic Marriage/Family Therapist","individual or practice name":"Daniel, Sue E.","id":"a61zzrkxbxib","geo_precision":"range","address":"6550 S Pecos Rd Bldg","state":"NV"},"type":"Feature","geometry":{"type":"Point","coordinates":[-115.100791,36.070699]}},{"properties":{"city":"Las Vegas","zip":"891460361","county":"Clark","geo_score":1.0,"provider speciality":"Geriatric Psychiatry","individual or practice name":"Del Rosario, Alex V.","id":"a61zzrpoeym0","geo_precision":"range","address":"5440 W Sahara Ave","state":"NV"},"type":"Feature","geometry":{"type":"Point","coordinates":[-115.216953,36.144386]}},{"properties":{"city":"Las Vegas","zip":"891202201","county":"Clark","geo_score":0.971,"provider speciality":"Psychology","individual or practice name":"Doncaster, Maria G.","id":"a61zzro9d4wb","geo_precision":"range","address":"3440 E Russull Rd","state":"NV"},"type":"Feature","geometry":{"type":"Point","coordinates":[-115.100026,36.086271]}},{"properties":{"city":"Las Vegas","zip":"891280807","county":"Clark","geo_score":1.0,"provider speciality":"Lic Professional Counselor","individual or practice name":"Donovan-Vaughn, B Diane","id":"a61zzrebk1zd","geo_precision":"range","address":"7365 Prairie Falcon Rd","state":"NV"},"type":"Feature","geometry":{"type":"Point","coordinates":[-115.253023,36.20655]}},{"properties":{"city":"Las Vegas","zip":"891171572","county":"Clark","geo_score":1.0,"provider speciality":"Psychology","individual or practice name":"Guevara, Amy F.","id":"a61zzrn3akcj","geo_precision":"range","address":"7351 W Charleston Blvd","state":"NV"},"type":"Feature","geometry":{"type":"Point","coordinates":[-115.253958,36.159106]}},{"properties":{"city":"Las Vegas","zip":"891287674","county":"Clark","geo_score":1.0,"provider speciality":"Psychology","individual or practice name":"Hood-Jackson, Susan A.","id":"a61zzrjy6x5j","geo_precision":"range","address":"8430 W Lake Mead Blvd","state":"NV"},"type":"Feature","geometry":{"type":"Point","coordinates":[-115.279237,36.198075]}},{"properties":{"city":"Las Vegas","zip":"891021942","county":"Clark","geo_score":0.922,"provider speciality":null,"individual or practice name":"HOPE Counseling Services, LLC","id":"a61zzrheey0o","geo_precision":"range","address":"2820 W Charleston","state":"NV"},"type":"Feature","geometry":{"type":"Point","coordinates":[-115.179149,36.158921]}},{"properties":{"city":"Las Vegas","zip":"891465611","county":"Clark","geo_score":0.967,"provider speciality":"Psychiatry","individual or practice name":"Jouni, Nabil","id":"a61zzrngp93m","geo_precision":"range","address":"6039 Eldora Ave","state":"NV"},"type":"Feature","geometry":{"type":"Point","coordinates":[-115.224284,36.14048]}},{"properties":{"city":"Las Vegas","zip":"891280260","county":"Clark","geo_score":1.0,"provider speciality":"Lic Clinical Social Worker","individual or practice name":"Kissner, Allen J.","id":"a61zzrjwtht1","geo_precision":"range","address":"7310 Smoke Ranch Rd","state":"NV"},"type":"Feature","geometry":{"type":"Point","coordinates":[-115.255808,36.203469]}},{"properties":{"city":"Las Vegas","zip":"891132235","county":"Clark","geo_score":0.807,"provider speciality":"Psychiatry","individual or practice name":"Nagy, Shamim N.","id":"a61zzre7a3gt","geo_precision":"street","address":"8285 W Arby Ave","state":"NV"},"type":"Feature","geometry":{"type":"Point","coordinates":[-115.274685,36.059267]}},{"properties":{"city":"Las Vegas","zip":"891207219","county":"Clark","geo_score":1.0,"provider speciality":"Psychiatry","individual or practice name":"Ngo, Renee L.","id":"a61zzrp4crk0","geo_precision":"range","address":"3680 E Sunset Rd","state":"NV"},"type":"Feature","geometry":{"type":"Point","coordinates":[-115.094057,36.071301]}},{"properties":{"city":"Las Vegas","zip":"891460361","county":"Clark","geo_score":1.0,"provider speciality":"Psychiatry","individual or practice name":"Nwapa, Emmanuel","id":"a61zzrkdh24s","geo_precision":"range","address":"5440 W Sahara Ave","state":"NV"},"type":"Feature","geometry":{"type":"Point","coordinates":[-115.216953,36.144386]}},{"properties":{"city":"Las Vegas","zip":"891460361","county":"Clark","geo_score":1.0,"provider speciality":"Psychiatry","individual or practice name":"Nwapa, Emmanuel","id":"a61zzrfhb60v","geo_precision":"range","address":"5440 W Sahara Ave","state":"NV"},"type":"Feature","geometry":{"type":"Point","coordinates":[-115.216953,36.144386]}},{"properties":{"city":"Las Vegas","zip":"891494597","county":"Clark","geo_score":0.809,"provider speciality":"Psychiatry","individual or practice name":"Nwokike, Jerome N.","id":"a61zzrixceyc","geo_precision":"street","address":"6850 N Durango Dr","state":"NV"},"type":"Feature","geometry":{"type":"Point","coordinates":[-115.27865,36.284525]}},{"properties":{"city":"Las Vegas","zip":"891465632","county":"Clark","geo_score":1.0,"provider speciality":"Psychiatry","individual or practice name":"Rosenman, Eugene","id":"a61zzrhaxgig","geo_precision":"range","address":"2775 S Jones Blvd","state":"NV"},"type":"Feature","geometry":{"type":"Point","coordinates":[-115.225163,36.139027]}},{"properties":{"city":"Las Vegas","zip":"891280804","county":"Clark","geo_score":0.927,"provider speciality":"Lic Clinical Social Worker","individual or practice name":"Sklar, Linda C.","id":"a61zzrlz85tn","geo_precision":"range","address":"2441 Tech Ctr Ct","state":"NV"},"type":"Feature","geometry":{"type":"Point","coordinates":[-115.253675,36.203782]}}],"is_temporal":false,"author":{"url":"","metadata":null,"contact_name":null,"contact_address":null,"source":null,"contact_phone":null},"source":"","pagination":{"sort":null,"start":0,"total":50,"limit":1000000},"state":"complete","tags":"","published":"2014-08-15T00:50:38-04:00","id":246646}