{"type":"FeatureCollection","data_type":"Dataset","url_type":null,"permissions":[{"permissions":{"download":true,"view":true},"group_id":"everyone"}],"classification":null,"title":"mulch addresses","count":162,"stream_id":246804,"contributor":{"url":"http://geocommons.com/users/19610","name":"YmerejRedienhcs"},"data_attributes":null,"calculation_params":null,"icon_link":null,"link":"http://geocommons.com/overlays/246804.json","extent":[-77.3215,38.5778,-77.0841,38.9166],"geometry_types":["point"],"unique_name":"","name":"mulch addresses","feature_count":162,"description":"","next_feature":null,"is_raster":false,"short_classification":"Y","stats":{"numbags":{"max":70,"mean":18.2345679012346,"variance":174.516064718964,"stdev":13.210452858209,"min":0,"median":15}},"features":[{"properties":{"city":"Falls Church","zip":"22046","country":"US","geo_score":0.902,"numbags":20,"id":"a62d8xv4iba0","address":"101 Poplar Dr","geo_precision":"range","state":"VA"},"type":"Feature","geometry":{"type":"Point","coordinates":[-77.189236,38.878624]}},{"properties":{"city":"Falls Church","zip":"22046","country":"US","geo_score":0.468,"numbags":10,"id":"a62d8xv82872","address":"102 W. Rosemary Lane","geo_precision":"street","state":"VA"},"type":"Feature","geometry":{"type":"Point","coordinates":[-77.187593,38.879009]}},{"properties":{"city":"Falls Church","zip":"22046","country":"US","geo_score":0.5,"numbags":20,"id":"a62d8y5pcomt","address":"105 S. Lee St.","geo_precision":"street","state":"VA"},"type":"Feature","geometry":{"type":"Point","coordinates":[-77.176921,38.889227]}},{"properties":{"city":"Falls Church","zip":"22046","country":"US","geo_score":0.462,"numbags":5,"id":"a62d8xwf7wwz","address":"105 W. Greenway Blvd","geo_precision":"street","state":"VA"},"type":"Feature","geometry":{"type":"Point","coordinates":[-77.182487,38.879023]}},{"properties":{"city":"Falls Church","zip":"22046","country":"US","geo_score":0.902,"numbags":5,"id":"a62d8xz0cui4","address":"106 Dulany Pl","geo_precision":"range","state":"VA"},"type":"Feature","geometry":{"type":"Point","coordinates":[-77.18534,38.881972]}},{"properties":{"city":"Falls Church","zip":"22046","country":"US","geo_score":0.902,"numbags":2,"id":"a62d8xwm4k8p","address":"106 Grace Lane","geo_precision":"range","state":"VA"},"type":"Feature","geometry":{"type":"Point","coordinates":[-77.169134,38.878913]}},{"properties":{"city":"Falls Church","zip":"22046","country":"US","geo_score":0.482,"numbags":5,"id":"a62d8y8cqqd1","address":"108 S. Spring St","geo_precision":"street","state":"VA"},"type":"Feature","geometry":{"type":"Point","coordinates":[-77.184147,38.886278]}},{"properties":{"city":"Falls Church","zip":"22046","country":"US","geo_score":0.464,"numbags":20,"id":"a62d8xz4lylg","address":"110 E. Jefferson St","geo_precision":"street","state":"VA"},"type":"Feature","geometry":{"type":"Point","coordinates":[-77.164746,38.885629]}},{"properties":{"city":"Falls Church","zip":"22046","country":"US","geo_score":0.482,"numbags":10,"id":"a62d8y47pg79","address":"112 S. Spring St","geo_precision":"street","state":"VA"},"type":"Feature","geometry":{"type":"Point","coordinates":[-77.184147,38.886278]}},{"properties":{"city":"Falls Church","zip":"22046","country":"US","geo_score":0.471,"numbags":6,"id":"a62d8y2v5xeq","address":"115 W. Cameron Rd","geo_precision":"street","state":"VA"},"type":"Feature","geometry":{"type":"Point","coordinates":[-77.18132,38.879079]}},{"properties":{"city":"Falls Church","zip":"22046","country":"US","geo_score":0.462,"numbags":40,"id":"a62d8y5c1jxi","address":"115 W. Greenway Blvd","geo_precision":"street","state":"VA"},"type":"Feature","geometry":{"type":"Point","coordinates":[-77.182487,38.879023]}},{"properties":{"city":"Falls Church","zip":"22046","country":"US","geo_score":0.464,"numbags":8,"id":"a62d8y9e6txb","address":"117 W. Annandale Rd","geo_precision":"street","state":"VA"},"type":"Feature","geometry":{"type":"Point","coordinates":[-77.174989,38.884753]}},{"properties":{"city":"Falls Church","zip":"22046","country":"US","geo_score":0.464,"numbags":15,"id":"a62d8y9qla6z","address":"118 E. Jefferson St","geo_precision":"street","state":"VA"},"type":"Feature","geometry":{"type":"Point","coordinates":[-77.164746,38.885629]}},{"properties":{"city":"Falls Church","zip":"22046","country":"US","geo_score":0.5,"numbags":20,"id":"a62d8y899bp5","address":"119 S. Oak St.","geo_precision":"street","state":"VA"},"type":"Feature","geometry":{"type":"Point","coordinates":[-77.183083,38.885279]}},{"properties":{"city":"Falls Church","zip":"22046","country":"US","geo_score":0.471,"numbags":15,"id":"a62d8y1je46d","address":"120 N. Fairfax St","geo_precision":"street","state":"VA"},"type":"Feature","geometry":{"type":"Point","coordinates":[-77.16778,38.880108]}},{"properties":{"city":"Falls Church","zip":"22046","country":"US","geo_score":0.471,"numbags":25,"id":"a62d8xya8cy9","address":"120 W. Cameron Rd","geo_precision":"street","state":"VA"},"type":"Feature","geometry":{"type":"Point","coordinates":[-77.18132,38.879079]}},{"properties":{"city":"Falls Church","zip":"22046","country":"US","geo_score":0.5,"numbags":30,"id":"a62d8xvwr2ow","address":"124 S. Oak St","geo_precision":"street","state":"VA"},"type":"Feature","geometry":{"type":"Point","coordinates":[-77.183083,38.885279]}},{"properties":{"city":"Falls Church","zip":"22046","country":"US","geo_score":0.468,"numbags":30,"id":"a62d8y1uljjo","address":"124 W. Marshall St","geo_precision":"street","state":"VA"},"type":"Feature","geometry":{"type":"Point","coordinates":[-77.184632,38.878903]}},{"properties":{"city":"Falls Church","zip":"22046","country":"US","geo_score":0.471,"numbags":20,"id":"a62d8xz3udk1","address":"131 N. Fairfax St","geo_precision":"street","state":"VA"},"type":"Feature","geometry":{"type":"Point","coordinates":[-77.16778,38.880108]}},{"properties":{"city":"Falls Church","zip":"22046","country":"US","geo_score":0.471,"numbags":20,"id":"a62d8xye8e50","address":"134 N. Fairfax St.","geo_precision":"street","state":"VA"},"type":"Feature","geometry":{"type":"Point","coordinates":[-77.16778,38.880108]}},{"properties":{"city":"Falls Church","zip":"22046","country":"US","geo_score":0.482,"numbags":20,"id":"a62d8y2k0qqy","address":"149 S. Spring St","geo_precision":"street","state":"VA"},"type":"Feature","geometry":{"type":"Point","coordinates":[-77.184147,38.886278]}},{"properties":{"city":"Falls Church","zip":"22046","country":"US","geo_score":0.5,"numbags":5,"id":"a62d8y97g8r5","address":"198 S. Lee St.","geo_precision":"street","state":"VA"},"type":"Feature","geometry":{"type":"Point","coordinates":[-77.176921,38.889227]}},{"properties":{"city":"Falls Church","zip":"22046","country":"US","geo_score":0.5,"numbags":30,"id":"a62d8y1ljzaa","address":"200 S. Oak St","geo_precision":"street","state":"VA"},"type":"Feature","geometry":{"type":"Point","coordinates":[-77.183083,38.885279]}},{"properties":{"city":"Falls Church","zip":"22046","country":"US","geo_score":0.459,"numbags":10,"id":"a62d8y14wvkq","address":"200 W. George Mason Rd","geo_precision":"street","state":"VA"},"type":"Feature","geometry":{"type":"Point","coordinates":[-77.183863,38.882534]}},{"properties":{"city":"Falls Church","zip":"22046","country":"US","geo_score":0.468,"numbags":30,"id":"a62d8y45tysm","address":"200 W. Rosemary Lane","geo_precision":"street","state":"VA"},"type":"Feature","geometry":{"type":"Point","coordinates":[-77.187593,38.879009]}},{"properties":{"city":"Falls Church","zip":"22046","country":"US","geo_score":0.902,"numbags":6,"id":"a62d8xw7js7r","address":"201 Buxton Rd","geo_precision":"range","state":"VA"},"type":"Feature","geometry":{"type":"Point","coordinates":[-77.161158,38.877674]}},{"properties":{"city":"Falls Church","zip":"22046","country":"US","geo_score":0.471,"numbags":12,"id":"a62d8y8kx6o2","address":"201 W. Cameron Rd","geo_precision":"street","state":"VA"},"type":"Feature","geometry":{"type":"Point","coordinates":[-77.18132,38.879079]}},{"properties":{"city":"Falls Church","zip":"22046","country":"US","geo_score":0.805,"numbags":20,"id":"a62d8xzp5k4n","address":"202 Brook Dr","geo_precision":"range","state":"VA"},"type":"Feature","geometry":{"type":"Point","coordinates":[-77.164716,38.877006]}},{"properties":{"city":"Falls Church","zip":"22046","country":"US","geo_score":0.459,"numbags":20,"id":"a62d8xzocn0b","address":"204 W. George Mason Rd","geo_precision":"street","state":"VA"},"type":"Feature","geometry":{"type":"Point","coordinates":[-77.183863,38.882534]}},{"properties":{"city":"Falls Church","zip":"22046","country":"US","geo_score":0.459,"numbags":3,"id":"a62d8y8f1gl8","address":"204 W. George Mason Rd","geo_precision":"street","state":"VA"},"type":"Feature","geometry":{"type":"Point","coordinates":[-77.183863,38.882534]}},{"properties":{"city":"Falls Church","zip":"22046","country":"US","geo_score":0.5,"numbags":25,"id":"a62d8y310quy","address":"205 N. Lee St","geo_precision":"street","state":"VA"},"type":"Feature","geometry":{"type":"Point","coordinates":[-77.177927,38.88827]}},{"properties":{"city":"Falls Church","zip":"22046","country":"US","geo_score":0.5,"numbags":10,"id":"a62d8y9b4dnw","address":"205 S. Oak St","geo_precision":"street","state":"VA"},"type":"Feature","geometry":{"type":"Point","coordinates":[-77.183083,38.885279]}},{"properties":{"city":"Falls Church","zip":"22046","country":"US","geo_score":0.902,"numbags":10,"id":"a62d8y2n3rrc","address":"206 Forest Dr","geo_precision":"range","state":"VA"},"type":"Feature","geometry":{"type":"Point","coordinates":[-77.159983,38.877279]}},{"properties":{"city":"Falls Church","zip":"22046","country":"US","geo_score":0.462,"numbags":40,"id":"a62d8y1s6ngt","address":"206 W. Greenway Blvd","geo_precision":"street","state":"VA"},"type":"Feature","geometry":{"type":"Point","coordinates":[-77.182487,38.879023]}},{"properties":{"city":"Falls Church","zip":"22046","country":"US","geo_score":0.902,"numbags":15,"id":"a62d8xyrz1d4","address":"207 Buxton Rd","geo_precision":"range","state":"VA"},"type":"Feature","geometry":{"type":"Point","coordinates":[-77.161145,38.877801]}},{"properties":{"city":"Falls Church","zip":"22046","country":"US","geo_score":0.902,"numbags":3,"id":"a62d8xv4dczx","address":"207 Gundry Dr","geo_precision":"range","state":"VA"},"type":"Feature","geometry":{"type":"Point","coordinates":[-77.175245,38.883234]}},{"properties":{"city":"Falls Church","zip":"22046","country":"US","geo_score":0.5,"numbags":10,"id":"a62d8y2u72s6","address":"208 S. West St","geo_precision":"street","state":"VA"},"type":"Feature","geometry":{"type":"Point","coordinates":[-77.19434,38.886064]}},{"properties":{"city":"Falls Church","zip":"22046","country":"US","geo_score":0.462,"numbags":10,"id":"a62d8ya7q6sl","address":"208 W. Greenway Blvd","geo_precision":"street","state":"VA"},"type":"Feature","geometry":{"type":"Point","coordinates":[-77.182487,38.879023]}},{"properties":{"city":"Falls Church","zip":"22046","country":"US","geo_score":0.459,"numbags":4,"id":"a62d8y6pov6r","address":"209 W. George Mason Rd","geo_precision":"street","state":"VA"},"type":"Feature","geometry":{"type":"Point","coordinates":[-77.183863,38.882534]}},{"properties":{"city":"Falls Church","zip":"22046","country":"US","geo_score":0.902,"numbags":35,"id":"a62d8y8bmq32","address":"210 Noland St","geo_precision":"range","state":"VA"},"type":"Feature","geometry":{"type":"Point","coordinates":[-77.162887,38.879501]}},{"properties":{"city":"Falls Church","zip":"22046","country":"US","geo_score":0.5,"numbags":8,"id":"a62d8y6bnx71","address":"210 S. West St.","geo_precision":"street","state":"VA"},"type":"Feature","geometry":{"type":"Point","coordinates":[-77.19434,38.886064]}},{"properties":{"city":"Falls Church","zip":"22046","country":"US","geo_score":0.902,"numbags":50,"id":"a62d8xysp5ao","address":"212 Midvale St","geo_precision":"range","state":"VA"},"type":"Feature","geometry":{"type":"Point","coordinates":[-77.1639,38.879012]}},{"properties":{"city":"Falls Church","zip":"22046","country":"US","geo_score":0.902,"numbags":4,"id":"a62d8y2a7gli","address":"213 Gundry Dr","geo_precision":"range","state":"VA"},"type":"Feature","geometry":{"type":"Point","coordinates":[-77.175273,38.883169]}},{"properties":{"city":"Falls Church","zip":"22046","country":"US","geo_score":0.468,"numbags":3,"id":"a62d8y7zpu43","address":"213 W. Columbia St","geo_precision":"street","state":"VA"},"type":"Feature","geometry":{"type":"Point","coordinates":[-77.166497,38.884966]}},{"properties":{"city":"Falls Church","zip":"22046","country":"US","geo_score":0.902,"numbags":30,"id":"a62d8y91psc3","address":"214 Lawton St","geo_precision":"range","state":"VA"},"type":"Feature","geometry":{"type":"Point","coordinates":[-77.167857,38.882159]}},{"properties":{"city":"Falls Church","zip":"22046","country":"US","geo_score":0.902,"numbags":10,"id":"a62d8y0ot3sz","address":"214 Midvale St","geo_precision":"range","state":"VA"},"type":"Feature","geometry":{"type":"Point","coordinates":[-77.163971,38.879056]}},{"properties":{"city":"Falls Church","zip":"22046","country":"US","geo_score":0.468,"numbags":30,"id":"a62d8yamdfp1","address":"215 N. Van Buren St","geo_precision":"street","state":"VA"},"type":"Feature","geometry":{"type":"Point","coordinates":[-77.157859,38.877047]}},{"properties":{"city":"Falls Church","zip":"22046","country":"US","geo_score":0.902,"numbags":10,"id":"a62d8xvbady2","address":"218 James Thurber Ct","geo_precision":"range","state":"VA"},"type":"Feature","geometry":{"type":"Point","coordinates":[-77.168149,38.885943]}},{"properties":{"city":"Falls Church","zip":"22046","country":"US","geo_score":0.462,"numbags":6,"id":"a62d8xz10ob5","address":"218 W. Greenway Blvd","geo_precision":"street","state":"VA"},"type":"Feature","geometry":{"type":"Point","coordinates":[-77.182487,38.879023]}},{"properties":{"city":"Falls Church","zip":"22046","country":"US","geo_score":0.902,"numbags":3,"id":"a62d8xzf0j5u","address":"219 James Thurber Ct","geo_precision":"range","state":"VA"},"type":"Feature","geometry":{"type":"Point","coordinates":[-77.168149,38.885943]}},{"properties":{"city":"Falls Church","zip":"22046","country":"US","geo_score":0.471,"numbags":25,"id":"a62d8xz0iv7o","address":"221 W. Cameron Rd","geo_precision":"street","state":"VA"},"type":"Feature","geometry":{"type":"Point","coordinates":[-77.18132,38.879079]}},{"properties":{"city":"Falls Church","zip":"22046","country":"US","geo_score":0.902,"numbags":13,"id":"a62d8y3d5ssj","address":"226 Noland St","geo_precision":"range","state":"VA"},"type":"Feature","geometry":{"type":"Point","coordinates":[-77.162049,38.880548]}},{"properties":{"city":"Falls Church","zip":"22046","country":"US","geo_score":0.329,"numbags":10,"id":"a62d8y27i828","address":"226 S. Virginia Ave.","geo_precision":"street","state":"VA"},"type":"Feature","geometry":{"type":"Point","coordinates":[-77.29511,38.842113]}},{"properties":{"city":"Falls Church","zip":"22046","country":"US","geo_score":0.902,"numbags":12,"id":"a62d8xvpy08p","address":"232 Kent St","geo_precision":"range","state":"VA"},"type":"Feature","geometry":{"type":"Point","coordinates":[-77.185461,38.889063]}},{"properties":{"city":"Falls Church","zip":"22046","country":"US","geo_score":0.902,"numbags":10,"id":"a62d8y04irs8","address":"255 Gundry Dr","geo_precision":"range","state":"VA"},"type":"Feature","geometry":{"type":"Point","coordinates":[-77.175683,38.882828]}},{"properties":{"city":"Falls Church","zip":"22046","country":"US","geo_score":0.902,"numbags":20,"id":"a62d8y5bml6n","address":"300 Grove Ave","geo_precision":"range","state":"VA"},"type":"Feature","geometry":{"type":"Point","coordinates":[-77.184067,38.892716]}},{"properties":{"city":"Falls Church","zip":"22046","country":"US","geo_score":0.902,"numbags":50,"id":"a62d8y7zf2pc","address":"300 Poplar Dr","geo_precision":"range","state":"VA"},"type":"Feature","geometry":{"type":"Point","coordinates":[-77.189822,38.880302]}},{"properties":{"city":"Falls Church","zip":"22046","country":"US","geo_score":0.5,"numbags":40,"id":"a62d8y385qy0","address":"300 S. West St","geo_precision":"street","state":"VA"},"type":"Feature","geometry":{"type":"Point","coordinates":[-77.19434,38.886064]}},{"properties":{"city":"Falls Church","zip":"22046","country":"US","geo_score":0.902,"numbags":20,"id":"a62d8y6ul8qw","address":"300 Sycamore St","geo_precision":"range","state":"VA"},"type":"Feature","geometry":{"type":"Point","coordinates":[-77.182448,38.894956]}},{"properties":{"city":"Falls Church","zip":"22046","country":"US","geo_score":0.902,"numbags":5,"id":"a62d8y10u8md","address":"301 Parker Ave","geo_precision":"range","state":"VA"},"type":"Feature","geometry":{"type":"Point","coordinates":[-77.184184,38.883927]}},{"properties":{"city":"Falls Church","zip":"22046","country":"US","geo_score":0.902,"numbags":10,"id":"a62d8xv1ieqt","address":"301 Sycamore St","geo_precision":"range","state":"VA"},"type":"Feature","geometry":{"type":"Point","coordinates":[-77.182448,38.894956]}},{"properties":{"city":"Falls Church","zip":"22046","country":"US","geo_score":0.902,"numbags":12,"id":"a62d8xzycurz","address":"304 Gundry Dr","geo_precision":"range","state":"VA"},"type":"Feature","geometry":{"type":"Point","coordinates":[-77.176351,38.882519]}},{"properties":{"city":"Falls Church","zip":"22046","country":"US","geo_score":0.902,"numbags":30,"id":"a62d8y6e3bbt","address":"305 Fellows Ct","geo_precision":"range","state":"VA"},"type":"Feature","geometry":{"type":"Point","coordinates":[-77.185039,38.883347]}},{"properties":{"city":"Falls Church","zip":"22046","country":"US","geo_score":0.902,"numbags":12,"id":"a62d8y890uhh","address":"305 Pine St","geo_precision":"range","state":"VA"},"type":"Feature","geometry":{"type":"Point","coordinates":[-77.181976,38.892921]}},{"properties":{"city":"Falls Church","zip":"22046","country":"US","geo_score":0.464,"numbags":20,"id":"a62d8xwh227l","address":"306 N. Underwood St","geo_precision":"street","state":"VA"},"type":"Feature","geometry":{"type":"Point","coordinates":[-77.157491,38.879383]}},{"properties":{"city":"Falls Church","zip":"22046","country":"US","geo_score":0.902,"numbags":20,"id":"a62d8xuma3ro","address":"306 Rollins St","geo_precision":"range","state":"VA"},"type":"Feature","geometry":{"type":"Point","coordinates":[-77.177875,38.881436]}},{"properties":{"city":"Falls Church","zip":"22046","country":"US","geo_score":0.902,"numbags":5,"id":"a62d8y8qpfgh","address":"307 Walnut St","geo_precision":"range","state":"VA"},"type":"Feature","geometry":{"type":"Point","coordinates":[-77.182587,38.893759]}},{"properties":{"city":"Falls Church","zip":"22046","country":"US","geo_score":0.329,"numbags":10,"id":"a62d8y9zuuzu","address":"308 N. Virginia Ave","geo_precision":"street","state":"VA"},"type":"Feature","geometry":{"type":"Point","coordinates":[-77.321508,38.577812]}},{"properties":{"city":"Falls Church","zip":"22046","country":"US","geo_score":0.902,"numbags":20,"id":"a62d8xxohv68","address":"309 Buxton Rd","geo_precision":"range","state":"VA"},"type":"Feature","geometry":{"type":"Point","coordinates":[-77.16052,38.880343]}},{"properties":{"city":"Falls Church","zip":"22046","country":"US","geo_score":0.902,"numbags":20,"id":"a62d8y6xfxt3","address":"309 Sycamore St","geo_precision":"range","state":"VA"},"type":"Feature","geometry":{"type":"Point","coordinates":[-77.182347,38.895015]}},{"properties":{"city":"Falls Church","zip":"22046","country":"US","geo_score":0.329,"numbags":5,"id":"a62d8y3no7gf","address":"311 N. Virginia Ave.","geo_precision":"street","state":"VA"},"type":"Feature","geometry":{"type":"Point","coordinates":[-77.321508,38.577812]}},{"properties":{"city":"Falls Church","zip":"22046","country":"US","geo_score":0.902,"numbags":40,"id":"a62d8y7vjm09","address":"312 Grove Ave","geo_precision":"range","state":"VA"},"type":"Feature","geometry":{"type":"Point","coordinates":[-77.184181,38.893755]}},{"properties":{"city":"Falls Church","zip":"22046","country":"US","geo_score":0.464,"numbags":20,"id":"a62d8y3h86fe","address":"315 N. Underwood St","geo_precision":"street","state":"VA"},"type":"Feature","geometry":{"type":"Point","coordinates":[-77.157491,38.879383]}},{"properties":{"city":"Falls Church","zip":"22046","country":"US","geo_score":0.468,"numbags":10,"id":"a62d8y6ephyi","address":"317 N. Van Buren St","geo_precision":"street","state":"VA"},"type":"Feature","geometry":{"type":"Point","coordinates":[-77.157859,38.877047]}},{"properties":{"city":"Falls Church","zip":"22046","country":"US","geo_score":0.876,"numbags":20,"id":"a62d8xy3v7l5","address":"318 Van Buren St","geo_precision":"range","state":"VA"},"type":"Feature","geometry":{"type":"Point","coordinates":[-77.15869,38.879671]}},{"properties":{"city":"Falls Church","zip":"22046","country":"US","geo_score":0.902,"numbags":25,"id":"a62d8y4yiokc","address":"319 Grove Ave","geo_precision":"range","state":"VA"},"type":"Feature","geometry":{"type":"Point","coordinates":[-77.184251,38.894029]}},{"properties":{"city":"Falls Church","zip":"22046","country":"US","geo_score":0.902,"numbags":20,"id":"a62d8xw5b85a","address":"320 Wrens Way","geo_precision":"range","state":"VA"},"type":"Feature","geometry":{"type":"Point","coordinates":[-77.167075,38.878899]}},{"properties":{"city":"Falls Church","zip":"22046","country":"US","geo_score":0.876,"numbags":25,"id":"a62d8y9fhigs","address":"322 Van Buren St","geo_precision":"range","state":"VA"},"type":"Feature","geometry":{"type":"Point","coordinates":[-77.158699,38.879756]}},{"properties":{"city":"Falls Church","zip":"22046","country":"US","geo_score":0.876,"numbags":20,"id":"a62d8y0du8yv","address":"324 Van Buren St","geo_precision":"range","state":"VA"},"type":"Feature","geometry":{"type":"Point","coordinates":[-77.158703,38.879798]}},{"properties":{"city":"Falls Church","zip":"22046","country":"US","geo_score":0.902,"numbags":6,"id":"a62d8xul3tqs","address":"341 James St.","geo_precision":"range","state":"VA"},"type":"Feature","geometry":{"type":"Point","coordinates":[-77.176396,38.88324]}},{"properties":{"city":"Falls Church","zip":"22046","country":"US","geo_score":0.902,"numbags":15,"id":"a62d8y2jolnm","address":"345 Little Falls St","geo_precision":"range","state":"VA"},"type":"Feature","geometry":{"type":"Point","coordinates":[-77.168368,38.887282]}},{"properties":{"city":"Falls Church","zip":"22046","country":"US","geo_score":0.902,"numbags":10,"id":"a62d8y8h003m","address":"347 James St","geo_precision":"range","state":"VA"},"type":"Feature","geometry":{"type":"Point","coordinates":[-77.176452,38.883332]}},{"properties":{"city":"Falls Church","zip":"22046","country":"US","geo_score":0.902,"numbags":20,"id":"a62d8y9ts1bi","address":"401 Timber Lane","geo_precision":"range","state":"VA"},"type":"Feature","geometry":{"type":"Point","coordinates":[-77.185249,38.884858]}},{"properties":{"city":"Falls Church","zip":"22046","country":"US","geo_score":0.902,"numbags":36,"id":"a62d8yab7vdp","address":"411 Midvale St","geo_precision":"range","state":"VA"},"type":"Feature","geometry":{"type":"Point","coordinates":[-77.163416,38.881018]}},{"properties":{"city":"Falls Church","zip":"22046","country":"US","geo_score":0.476,"numbags":10,"id":"a62d8y0zieoh","address":"412 N. Cherry St","geo_precision":"street","state":"VA"},"type":"Feature","geometry":{"type":"Point","coordinates":[-77.166058,38.878986]}},{"properties":{"city":"Falls Church","zip":"22046","country":"US","geo_score":0.5,"numbags":60,"id":"a62d8y99z76s","address":"412 S. West St.","geo_precision":"street","state":"VA"},"type":"Feature","geometry":{"type":"Point","coordinates":[-77.19434,38.886064]}},{"properties":{"city":"Falls Church","zip":"22046","country":"US","geo_score":0.902,"numbags":8,"id":"a62d8y33rlj8","address":"414 Lincoln Ave","geo_precision":"range","state":"VA"},"type":"Feature","geometry":{"type":"Point","coordinates":[-77.170679,38.890367]}},{"properties":{"city":"Falls Church","zip":"22046","country":"US","geo_score":0.464,"numbags":20,"id":"a62d8xutz7l1","address":"415 E. Jefferson St","geo_precision":"street","state":"VA"},"type":"Feature","geometry":{"type":"Point","coordinates":[-77.164746,38.885629]}},{"properties":{"city":"Falls Church","zip":"22046","country":"US","geo_score":0.902,"numbags":3,"id":"a62d8y0mawfl","address":"419 Rollins St","geo_precision":"range","state":"VA"},"type":"Feature","geometry":{"type":"Point","coordinates":[-77.178986,38.8829]}},{"properties":{"city":"Falls Church","zip":"22046","country":"US","geo_score":0.902,"numbags":20,"id":"a62d8y56snle","address":"421 Poplar Dr","geo_precision":"range","state":"VA"},"type":"Feature","geometry":{"type":"Point","coordinates":[-77.190233,38.881474]}},{"properties":{"city":"Falls Church","zip":"22046","country":"US","geo_score":0.902,"numbags":16,"id":"a62d8xvuxn5y","address":"422 Sherrow Ave","geo_precision":"range","state":"VA"},"type":"Feature","geometry":{"type":"Point","coordinates":[-77.180101,38.882647]}},{"properties":{"city":"Falls Church","zip":"22046","country":"US","geo_score":0.468,"numbags":35,"id":"a62d8y4ijxve","address":"500 E. Columbia St","geo_precision":"street","state":"VA"},"type":"Feature","geometry":{"type":"Point","coordinates":[-77.165488,38.883662]}},{"properties":{"city":"Falls Church","zip":"22046","country":"US","geo_score":0.902,"numbags":40,"id":"a62d8y03eh14","address":"501 Dorchester Rd","geo_precision":"range","state":"VA"},"type":"Feature","geometry":{"type":"Point","coordinates":[-77.1718,38.891777]}},{"properties":{"city":"Falls Church","zip":"22046","country":"US","geo_score":0.902,"numbags":6,"id":"a62d8y99txfg","address":"501 Great Falls St","geo_precision":"range","state":"VA"},"type":"Feature","geometry":{"type":"Point","coordinates":[-77.173104,38.8896]}},{"properties":{"city":"Falls Church","zip":"22046","country":"US","geo_score":0.459,"numbags":10,"id":"a62d8y0ncvs7","address":"501 W. Westmoreland Rd","geo_precision":"street","state":"VA"},"type":"Feature","geometry":{"type":"Point","coordinates":[-77.169255,38.899412]}},{"properties":{"city":"Falls Church","zip":"22046","country":"US","geo_score":0.902,"numbags":60,"id":"a62d8y71f735","address":"503 Dorchester Rd","geo_precision":"range","state":"VA"},"type":"Feature","geometry":{"type":"Point","coordinates":[-77.17182,38.891776]}},{"properties":{"city":"Falls Church","zip":"22046","country":"US","geo_score":0.468,"numbags":20,"id":"a62d8xz7t4ea","address":"503 E. Columbia St","geo_precision":"street","state":"VA"},"type":"Feature","geometry":{"type":"Point","coordinates":[-77.165488,38.883662]}},{"properties":{"city":"Falls Church","zip":"22046","country":"US","geo_score":0.49,"numbags":40,"id":"a62d8y2q5zny","address":"503 N. West St","geo_precision":"street","state":"VA"},"type":"Feature","geometry":{"type":"Point","coordinates":[-77.182604,38.891489]}},{"properties":{"city":"Falls Church","zip":"22046","country":"US","geo_score":0.902,"numbags":20,"id":"a62d8y26s5wa","address":"508 Greenwich St","geo_precision":"range","state":"VA"},"type":"Feature","geometry":{"type":"Point","coordinates":[-77.175813,38.891386]}},{"properties":{"city":"Falls Church","zip":"22046","country":"US","geo_score":0.902,"numbags":12,"id":"a62d8y7r94e8","address":"515 Great Falls St","geo_precision":"range","state":"VA"},"type":"Feature","geometry":{"type":"Point","coordinates":[-77.17438,38.891716]}},{"properties":{"city":"Falls Church","zip":"22046","country":"US","geo_score":0.902,"numbags":20,"id":"a62d8xyhg0y8","address":"515 Greenwich St","geo_precision":"range","state":"VA"},"type":"Feature","geometry":{"type":"Point","coordinates":[-77.175878,38.891525]}},{"properties":{"city":"Falls Church","zip":"22046","country":"US","geo_score":0.902,"numbags":12,"id":"a62d8xw9gct1","address":"521 Timber Lane","geo_precision":"range","state":"VA"},"type":"Feature","geometry":{"type":"Point","coordinates":[-77.187318,38.883853]}},{"properties":{"city":"Falls Church","zip":"22046","country":"US","geo_score":0.902,"numbags":20,"id":"a62d8xvvo4p6","address":"523 Poplar Dr","geo_precision":"range","state":"VA"},"type":"Feature","geometry":{"type":"Point","coordinates":[-77.190671,38.882652]}},{"properties":{"city":"Falls Church","zip":"22046","country":"US","geo_score":0.902,"numbags":4,"id":"a62d8y5c306a","address":"527 Great Falls St","geo_precision":"range","state":"VA"},"type":"Feature","geometry":{"type":"Point","coordinates":[-77.174518,38.892004]}},{"properties":{"city":"Falls Church","zip":"22046","country":"US","geo_score":0.902,"numbags":10,"id":"a62d8xwmb90k","address":"601 Lincoln Ave","geo_precision":"range","state":"VA"},"type":"Feature","geometry":{"type":"Point","coordinates":[-77.173819,38.890744]}},{"properties":{"city":"Falls Church","zip":"22046","country":"US","geo_score":0.482,"numbags":4,"id":"a62d8yafcbjv","address":"602 E. Broad St","geo_precision":"street","state":"VA"},"type":"Feature","geometry":{"type":"Point","coordinates":[-77.171107,38.882238]}},{"properties":{"city":"Falls Church","zip":"22046","country":"US","geo_score":0.902,"numbags":30,"id":"a62d8y3x7zpo","address":"603 Dorchester Rd","geo_precision":"range","state":"VA"},"type":"Feature","geometry":{"type":"Point","coordinates":[-77.173052,38.891722]}},{"properties":{"city":"Falls Church","zip":"22046","country":"US","geo_score":0.482,"numbags":10,"id":"a62d8y8xqzsb","address":"604 E. Broad St","geo_precision":"street","state":"VA"},"type":"Feature","geometry":{"type":"Point","coordinates":[-77.171107,38.882238]}},{"properties":{"city":"Falls Church","zip":"22046","country":"US","geo_score":0.902,"numbags":25,"id":"a62d8y8cef1s","address":"606 Greenwich St","geo_precision":"range","state":"VA"},"type":"Feature","geometry":{"type":"Point","coordinates":[-77.178204,38.894327]}},{"properties":{"city":"Falls Church","zip":"22046","country":"US","geo_score":0.902,"numbags":30,"id":"a62d8xx01oss","address":"606 Langston Lane","geo_precision":"range","state":"VA"},"type":"Feature","geometry":{"type":"Point","coordinates":[-77.173023,38.891784]}},{"properties":{"city":"Falls Church","zip":"22046","country":"US","geo_score":0.902,"numbags":20,"id":"a62d8y0dma2k","address":"607 Lincoln Ave","geo_precision":"range","state":"VA"},"type":"Feature","geometry":{"type":"Point","coordinates":[-77.173909,38.890778]}},{"properties":{"city":"Falls Church","zip":"22046","country":"US","geo_score":0.49,"numbags":10,"id":"a62d8y0ul2kc","address":"609 N. West St","geo_precision":"street","state":"VA"},"type":"Feature","geometry":{"type":"Point","coordinates":[-77.182604,38.891489]}},{"properties":{"city":"Falls Church","zip":"22046","country":"US","geo_score":0.902,"numbags":10,"id":"a62d8y8a3o0l","address":"610 Langston Lane","geo_precision":"range","state":"VA"},"type":"Feature","geometry":{"type":"Point","coordinates":[-77.173016,38.891824]}},{"properties":{"city":"Falls Church","zip":"22046","country":"US","geo_score":0.902,"numbags":30,"id":"a62d8ya4y6yq","address":"701 Poplar Dr","geo_precision":"range","state":"VA"},"type":"Feature","geometry":{"type":"Point","coordinates":[-77.191949,38.88564]}},{"properties":{"city":"Falls Church","zip":"22046","country":"US","geo_score":0.902,"numbags":30,"id":"a62d8y6invtc","address":"701 Timber Lane","geo_precision":"range","state":"VA"},"type":"Feature","geometry":{"type":"Point","coordinates":[-77.190979,38.883375]}},{"properties":{"city":"Falls Church","zip":"22046","country":"US","geo_score":0.902,"numbags":15,"id":"a62d8xyrsowi","address":"702 Lincoln Ave","geo_precision":"range","state":"VA"},"type":"Feature","geometry":{"type":"Point","coordinates":[-77.175787,38.891194]}},{"properties":{"city":"Falls Church","zip":"22046","country":"US","geo_score":0.902,"numbags":10,"id":"a62d8y2icqzu","address":"703 Randolph St","geo_precision":"range","state":"VA"},"type":"Feature","geometry":{"type":"Point","coordinates":[-77.1896,38.886815]}},{"properties":{"city":"Falls Church","zip":"22046","country":"US","geo_score":0.902,"numbags":30,"id":"a62d8xycpnx1","address":"704 Lincoln Ave","geo_precision":"range","state":"VA"},"type":"Feature","geometry":{"type":"Point","coordinates":[-77.175814,38.891199]}},{"properties":{"city":"Falls Church","zip":"22046","country":"US","geo_score":0.902,"numbags":40,"id":"a62d8y7c0qpo","address":"704 Park Ave","geo_precision":"range","state":"VA"},"type":"Feature","geometry":{"type":"Point","coordinates":[-77.177964,38.8883]}},{"properties":{"city":"Falls Church","zip":"22046","country":"US","geo_score":0.902,"numbags":70,"id":"a62d8y4eh42o","address":"707 Poplar Dr","geo_precision":"range","state":"VA"},"type":"Feature","geometry":{"type":"Point","coordinates":[-77.191959,38.885671]}},{"properties":{"city":"Falls Church","zip":"22046","country":"US","geo_score":0.902,"numbags":60,"id":"a62d8yaeii7h","address":"709 Parker Ave","geo_precision":"range","state":"VA"},"type":"Feature","geometry":{"type":"Point","coordinates":[-77.185427,38.887326]}},{"properties":{"city":"Falls Church","zip":"22046","country":"US","geo_score":0.902,"numbags":6,"id":"a62d8yarai65","address":"709 Poplar Dr","geo_precision":"range","state":"VA"},"type":"Feature","geometry":{"type":"Point","coordinates":[-77.191962,38.885682]}},{"properties":{"city":"Falls Church","zip":"22046","country":"US","geo_score":0.805,"numbags":6,"id":"a62d8xwttm69","address":"802 Berry St","geo_precision":"range","state":"VA"},"type":"Feature","geometry":{"type":"Point","coordinates":[-77.163234,38.876423]}},{"properties":{"city":"Falls Church","zip":"22046","country":"US","geo_score":0.902,"numbags":20,"id":"a62d8y8e0prv","address":"807 Lincoln Ave","geo_precision":"range","state":"VA"},"type":"Feature","geometry":{"type":"Point","coordinates":[-77.177547,38.891478]}},{"properties":{"city":"Falls Church","zip":"22046","country":"US","geo_score":0.902,"numbags":15,"id":"a62d8y26i2ip","address":"813 Fulton Ave","geo_precision":"range","state":"VA"},"type":"Feature","geometry":{"type":"Point","coordinates":[-77.17823,38.890088]}},{"properties":{"city":"Falls Church","zip":"22046","country":"US","geo_score":0.902,"numbags":25,"id":"a62d8y3ty5oo","address":"819 Fulton Ave","geo_precision":"range","state":"VA"},"type":"Feature","geometry":{"type":"Point","coordinates":[-77.178303,38.890147]}},{"properties":{"city":"Falls Church","zip":"22046","country":"US","geo_score":0.902,"numbags":4,"id":"a62d8y5vo1vj","address":"910 Lincoln Ave","geo_precision":"range","state":"VA"},"type":"Feature","geometry":{"type":"Point","coordinates":[-77.179538,38.891807]}},{"properties":{"city":"Falls Church","zip":"22046","country":"US","geo_score":0.902,"numbags":10,"id":"a62d8xw57n9i","address":"910 Park Ave","geo_precision":"range","state":"VA"},"type":"Feature","geometry":{"type":"Point","coordinates":[-77.180773,38.890124]}},{"properties":{"city":"Falls Church","zip":"22046","country":"US","geo_score":0.708,"numbags":10,"id":"a62d8y2b7fxs","address":"915 Hillwood Ave","geo_precision":"street","state":"VA"},"type":"Feature","geometry":{"type":"Point","coordinates":[-77.168645,38.877639]}},{"properties":{"city":"Falls Church","zip":"22046","country":"US","geo_score":0.902,"numbags":10,"id":"a62d8xw4lrv9","address":"920 Park Ave","geo_precision":"range","state":"VA"},"type":"Feature","geometry":{"type":"Point","coordinates":[-77.180966,38.890279]}},{"properties":{"city":"Falls Church","zip":"22046","country":"US","geo_score":0.902,"numbags":2,"id":"a62d8xyya751","address":"1010 Madison Lane","geo_precision":"range","state":"VA"},"type":"Feature","geometry":{"type":"Point","coordinates":[-77.189457,38.888826]}},{"properties":{"city":"Falls Church","zip":"22046","country":"US","geo_score":0.468,"numbags":20,"id":"a62d8xvf3ad4","address":"1011 N. Tuckahoe St","geo_precision":"street","state":"VA"},"type":"Feature","geometry":{"type":"Point","coordinates":[-77.156072,38.878309]}},{"properties":{"city":"Falls Church","zip":"22046","country":"US","geo_score":0.902,"numbags":20,"id":"a62d8xuwj8ng","address":"1012 Parker St","geo_precision":"range","state":"VA"},"type":"Feature","geometry":{"type":"Point","coordinates":[-77.189138,38.890352]}},{"properties":{"city":"Falls Church","zip":"22046","country":"US","geo_score":0.902,"numbags":10,"id":"a62d8xxgxpby","address":"1016 Ellison Sq","geo_precision":"range","state":"VA"},"type":"Feature","geometry":{"type":"Point","coordinates":[-77.185884,38.894566]}},{"properties":{"city":"Falls Church","zip":"22046","country":"US","geo_score":0.902,"numbags":15,"id":"a62d8xvs3j73","address":"1020 Ellison Sq","geo_precision":"range","state":"VA"},"type":"Feature","geometry":{"type":"Point","coordinates":[-77.185867,38.89454]}},{"properties":{"city":"Falls Church","zip":"22046","country":"US","geo_score":0.902,"numbags":10,"id":"a62d8xxwhuce","address":"1020 Spruce St","geo_precision":"range","state":"VA"},"type":"Feature","geometry":{"type":"Point","coordinates":[-77.186065,38.89454]}},{"properties":{"city":"Falls Church","zip":"22046","country":"US","geo_score":0.468,"numbags":40,"id":"a62d8xy2nb5r","address":"1100 N. Tuckahoe St","geo_precision":"street","state":"VA"},"type":"Feature","geometry":{"type":"Point","coordinates":[-77.156072,38.878309]}},{"properties":{"city":"Falls Church","zip":"22046","country":"US","geo_score":0.902,"numbags":0,"id":"a62d8xvgu78h","address":"1104 Seaton Lane","geo_precision":"range","state":"VA"},"type":"Feature","geometry":{"type":"Point","coordinates":[-77.185204,38.882626]}},{"properties":{"city":"Falls Church","zip":"22046","country":"US","geo_score":0.902,"numbags":6,"id":"a62d8y5054xl","address":"1108 Jackson Ct.","geo_precision":"range","state":"VA"},"type":"Feature","geometry":{"type":"Point","coordinates":[-77.186451,38.880696]}},{"properties":{"city":"Falls Church","zip":"22046","country":"US","geo_score":0.902,"numbags":30,"id":"a62d8y2k3bq7","address":"1110 Seaton Lane","geo_precision":"range","state":"VA"},"type":"Feature","geometry":{"type":"Point","coordinates":[-77.185325,38.882631]}},{"properties":{"city":"Falls Church","zip":"22046","country":"US","geo_score":0.902,"numbags":15,"id":"a62d8xzzfql3","address":"1113 Lincoln Ave","geo_precision":"range","state":"VA"},"type":"Feature","geometry":{"type":"Point","coordinates":[-77.182301,38.893336]}},{"properties":{"city":"Falls Church","zip":"22046","country":"US","geo_score":0.902,"numbags":30,"id":"a62d8y5aixl2","address":"1208 Seaton Lane","geo_precision":"range","state":"VA"},"type":"Feature","geometry":{"type":"Point","coordinates":[-77.187,38.882924]}},{"properties":{"city":"Falls Church","zip":"22046","country":"US","geo_score":0.902,"numbags":12,"id":"a62d8y16qhfm","address":"1215 Ellison St","geo_precision":"range","state":"VA"},"type":"Feature","geometry":{"type":"Point","coordinates":[-77.188154,38.891158]}},{"properties":{"city":"Falls Church","zip":"22046","country":"US","geo_score":0.902,"numbags":10,"id":"a62d8y75p28g","address":"1304 Robinson Pl.","geo_precision":"range","state":"VA"},"type":"Feature","geometry":{"type":"Point","coordinates":[-77.188048,38.881397]}},{"properties":{"city":"Falls Church","zip":"22046","country":"US","geo_score":0.902,"numbags":10,"id":"a62d8y9b36mz","address":"1306 Gibson Pl","geo_precision":"range","state":"VA"},"type":"Feature","geometry":{"type":"Point","coordinates":[-77.187756,38.879598]}},{"properties":{"city":"Falls Church","zip":"22046","country":"US","geo_score":0.902,"numbags":45,"id":"a62d8y5907vd","address":"1508 Crane St","geo_precision":"range","state":"VA"},"type":"Feature","geometry":{"type":"Point","coordinates":[-77.191489,38.889389]}},{"properties":{"city":"Falls Church","zip":"22043","country":"US","geo_score":0.911,"numbags":30,"id":"a62d8xwcad23","address":"1842 Griffith Rd","geo_precision":"range","state":"VA"},"type":"Feature","geometry":{"type":"Point","coordinates":[-77.205342,38.915718]}},{"properties":{"city":"Arlington","zip":"22205","country":"US","geo_score":0.61,"numbags":4,"id":"a62d8y5az9je","address":"1915 N. Van Buren","geo_precision":"street","state":"VA"},"type":"Feature","geometry":{"type":"Point","coordinates":[-77.159393,38.884356]}},{"properties":{"city":"Falls Church","zip":"22043","country":"US","geo_score":0.911,"numbags":20,"id":"a62d8y1mf5ve","address":"2119 Natahoa Ct","geo_precision":"range","state":"VA"},"type":"Feature","geometry":{"type":"Point","coordinates":[-77.162856,38.904563]}},{"properties":{"city":"Falls Church","zip":"22046","country":"US","geo_score":0.902,"numbags":20,"id":"a62d8y3og1y4","address":"2238 Casemont Dr","geo_precision":"range","state":"VA"},"type":"Feature","geometry":{"type":"Point","coordinates":[-77.176391,38.900591]}},{"properties":{"city":"Falls Church","zip":"22046","country":"US","geo_score":0.902,"numbags":12,"id":"a62d8y2gfth8","address":"2323 Grove Ave","geo_precision":"range","state":"VA"},"type":"Feature","geometry":{"type":"Point","coordinates":[-77.184614,38.896896]}},{"properties":{"city":"Falls Church","zip":"22046","country":"US","geo_score":0.902,"numbags":25,"id":"a62d8y9saqtl","address":"2532 Stuart Place","geo_precision":"range","state":"VA"},"type":"Feature","geometry":{"type":"Point","coordinates":[-77.195954,38.887996]}},{"properties":{"city":"Falls Church","zip":"22044","country":"US","geo_score":0.722,"numbags":10,"id":"a62d8ya4pmor","address":"2602 Faber Ct","geo_precision":"street","state":"VA"},"type":"Feature","geometry":{"type":"Point","coordinates":[-77.157234,38.865638]}},{"properties":{"city":"Falls Church","zip":"22042","country":"US","geo_score":0.882,"numbags":10,"id":"a62d8y4jg6si","address":"2753 Marshal St","geo_precision":"range","state":"VA"},"type":"Feature","geometry":{"type":"Point","coordinates":[-77.184456,38.878017]}},{"properties":{"city":"Falls Church","zip":"22042","country":"US","geo_score":0.911,"numbags":6,"id":"a62d8yalm3w8","address":"2806 Prince Albert Ct","geo_precision":"range","state":"VA"},"type":"Feature","geometry":{"type":"Point","coordinates":[-77.175806,38.876634]}},{"properties":{"city":"Arlington","zip":"22207","country":"US","geo_score":0.633,"numbags":7,"id":"a62d8y9yssd8","address":"4940 N. 35th St","geo_precision":"street","state":"VA"},"type":"Feature","geometry":{"type":"Point","coordinates":[-77.122986,38.916649]}},{"properties":{"city":"Arlington","zip":null,"country":"US","geo_score":0.585,"numbags":30,"id":"a62d8xvag601","address":"4952 Terrell St","geo_precision":"city","state":"VA"},"type":"Feature","geometry":{"type":"Point","coordinates":[-77.084145,38.89039]}},{"properties":{"city":"Arlington","zip":"22046","country":"US","geo_score":0.756,"numbags":5,"id":"a62d8y7svge8","address":"6411 11th St North","geo_precision":"range","state":"VA"},"type":"Feature","geometry":{"type":"Point","coordinates":[-77.154778,38.879606]}},{"properties":{"city":"Falls Church","zip":"22046","country":"US","geo_score":0.902,"numbags":10,"id":"a62d8y9ht1hy","address":"6700 Fisher Ave","geo_precision":"range","state":"VA"},"type":"Feature","geometry":{"type":"Point","coordinates":[-77.175082,38.898683]}},{"properties":{"city":"Falls Church","zip":"22046","country":"US","geo_score":0.902,"numbags":50,"id":"a62d8y0svj3z","address":"7237 Allan Ave","geo_precision":"range","state":"VA"},"type":"Feature","geometry":{"type":"Point","coordinates":[-77.195198,38.886427]}},{"properties":{"city":"Falls Church","zip":"22043","country":"US","geo_score":0.911,"numbags":10,"id":"a62d8xwf3cf4","address":"7303 Gordons Rd","geo_precision":"range","state":"VA"},"type":"Feature","geometry":{"type":"Point","coordinates":[-77.196447,38.895092]}},{"properties":{"city":"Falls Church","zip":"22043","country":"US","geo_score":0.911,"numbags":20,"id":"a62d8y2odhx3","address":"7603 Bent Oak Ct","geo_precision":"range","state":"VA"},"type":"Feature","geometry":{"type":"Point","coordinates":[-77.207757,38.88668]}}],"is_temporal":false,"author":{"url":"","metadata":"","contact_name":"","contact_address":"","source":"","contact_phone":""},"source":"","pagination":{"sort":null,"start":0,"total":162,"limit":1000000},"state":"complete","tags":"","published":"2014-08-15T01:02:57-04:00","id":246804}