{"type":"FeatureCollection","data_type":"Dataset","url_type":null,"permissions":[{"permissions":{"download":true,"view":true},"group_id":"everyone"}],"classification":null,"title":"LIC_clinical_social_worker","count":50,"stream_id":247358,"contributor":{"url":"http://geocommons.com/users/27269","name":"wadestaylor"},"data_attributes":null,"calculation_params":null,"icon_link":null,"link":"http://geocommons.com/overlays/247358.json","extent":[-115.969,36.027,-115.053,36.2845],"geometry_types":["point"],"unique_name":null,"name":"LIC_clinical_social_worker","feature_count":50,"description":"","next_feature":null,"is_raster":false,"short_classification":"Y","stats":{},"features":[{"properties":{"city":"Las Vegas","zip":"891693005","county":"Clark","geo_score":1.0,"individual or practice name":"Adelson Clinic For Drug Abuse Treatment &amp; Research","provider speciality":"IP Mental Hlth/Substance Abuse","id":"a63an58ie8dk","address":"3661 S Maryland Pkwy","geo_precision":"range","state":"NV"},"type":"Feature","geometry":{"type":"Point","coordinates":[-115.137306,36.122864]}},{"properties":{"city":"Las Vegas","zip":"891064189","county":"Clark","geo_score":1.0,"individual or practice name":"Apex Medical Center","provider speciality":"Psychiatry","id":"a63an4zi3j3a","address":"1701 Bearden Dr","geo_precision":"range","state":"NV"},"type":"Feature","geometry":{"type":"Point","coordinates":[-115.165211,36.161924]}},{"properties":{"city":"Pahrump","zip":"890484737","county":"Nye","geo_score":0.902,"individual or practice name":"Associated Psychiatric Svcs","provider speciality":"Psychiatry","id":"a63an4w9b2nc","address":"2620 Acoma Ave","geo_precision":"range","state":"NV"},"type":"Feature","geometry":{"type":"Point","coordinates":[-115.968741,36.194621]}},{"properties":{"city":"Las Vegas","zip":"891196139","county":"Clark","geo_score":1.0,"individual or practice name":"Bilingual Behavioral Services","provider speciality":"Behavioral Health Group","id":"a63an4xqn99i","address":"4660 S Eastern Ave","geo_precision":"range","state":"NV"},"type":"Feature","geometry":{"type":"Point","coordinates":[-115.11901,36.104389]}},{"properties":{"city":"Las Vegas","zip":"891012407","county":"Clark","geo_score":1.0,"individual or practice name":"Boys Town Nevada","provider speciality":"OP Mental Hlth/Substance Abuse","id":"a63an4zion15","address":"821 N Mojave Rd","geo_precision":"range","state":"NV"},"type":"Feature","geometry":{"type":"Point","coordinates":[-115.106239,36.178099]}},{"properties":{"city":"Las Vegas","zip":"891465306","county":"Clark","geo_score":1.0,"individual or practice name":"Comprehensive Psychological Services","provider speciality":"Psychology","id":"a63an5b96kxe","address":"2740 S Jones Blvd","geo_precision":"range","state":"NV"},"type":"Feature","geometry":{"type":"Point","coordinates":[-115.225174,36.139683]}},{"properties":{"city":"Henderson","zip":"890746178","county":"Clark","geo_score":0.913,"individual or practice name":"Creative Mental Health, LLC","provider speciality":"Lic Clinical Social Worker","id":"a63an56j1dqo","address":"701 N Green Valley Pkwy","geo_precision":"range","state":"NV"},"type":"Feature","geometry":{"type":"Point","coordinates":[-115.085706,36.027005]}},{"properties":{"city":"Las Vegas","zip":"891173064","county":"Clark","geo_score":1.0,"individual or practice name":"Creative Therapies","provider speciality":"Behavioral Health Group","id":"a63an503v7ph","address":"2560 Montessouri St.","geo_precision":"range","state":"NV"},"type":"Feature","geometry":{"type":"Point","coordinates":[-115.247408,36.142915]}},{"properties":{"city":"Las Vegas","zip":"891465611","county":"Clark","geo_score":0.967,"individual or practice name":"Eldora Medical Associates","provider speciality":"Psychiatry","id":"a63an54qrn9f","address":"6039 Eldora Ave","geo_precision":"range","state":"NV"},"type":"Feature","geometry":{"type":"Point","coordinates":[-115.224284,36.14048]}},{"properties":{"city":"Las Vegas","zip":"891130157","county":"Clark","geo_score":1.0,"individual or practice name":"Harder Medical Inc","provider speciality":"Psychology","id":"a63an4xd0q3k","address":"4955 S Durango Dr","geo_precision":"range","state":"NV"},"type":"Feature","geometry":{"type":"Point","coordinates":[-115.279255,36.099052]}},{"properties":{"city":"Las Vegas","zip":"891020166","county":"Clark","geo_score":0.707,"individual or practice name":"Heads Up Guidance And Wellness Centers Of Nevada","provider speciality":"Behavioral Health Group","id":"a63an50zgq4d","address":"2801 S Valley View","geo_precision":"range","state":"NV"},"type":"Feature","geometry":{"type":"Point","coordinates":[-115.111476,36.161642]}},{"properties":{"city":"Las Vegas","zip":"89102","county":"Clark","geo_score":1.0,"individual or practice name":"HOPE Counseling Services, LLC","provider speciality":"Behavioral Health Group","id":"a63an56nx7g7","address":"2820 W Charleston Blvd","geo_precision":"range","state":"NV"},"type":"Feature","geometry":{"type":"Point","coordinates":[-115.179149,36.158921]}},{"properties":{"city":"Las Vegas","zip":"891232847","county":"Clark","geo_score":1.0,"individual or practice name":"Jaime T Austin","provider speciality":"Psychology","id":"a63an58izg7l","address":"8540 S Eastern Ave","geo_precision":"range","state":"NV"},"type":"Feature","geometry":{"type":"Point","coordinates":[-115.11837,36.033658]}},{"properties":{"city":"Las Vegas","zip":"891197427","county":"Clark","geo_score":1.0,"individual or practice name":"Maple Star Nevada-Las Vegas","provider speciality":"Behavioral Health Group","id":"a63an59i7p8h","address":"1050 E Flamingo Rd","geo_precision":"range","state":"NV"},"type":"Feature","geometry":{"type":"Point","coordinates":[-115.141173,36.114605]}},{"properties":{"city":"Las Vegas","zip":"891289017","county":"Clark","geo_score":0.571,"individual or practice name":"Medschool Associates South","provider speciality":"Lic Clinical Social Worker","id":"a63an52oixi4","address":"2410 Fire Mesa St","geo_precision":"street","state":"NV"},"type":"Feature","geometry":{"type":"Point","coordinates":[-115.248243,36.180537]}},{"properties":{"city":"Las Vegas","zip":"891033304","county":"Clark","geo_score":1.0,"individual or practice name":"Montevista Hospital","provider speciality":"Psychiatric Hospital","id":"a63an50x8k9o","address":"5900 W Rochelle Ave","geo_precision":"range","state":"NV"},"type":"Feature","geometry":{"type":"Point","coordinates":[-115.222281,36.110953]}},{"properties":{"city":"Las Vegas","zip":"891693211","county":"Clark","geo_score":1.0,"individual or practice name":"Neurology Specialists","provider speciality":"Neurology","id":"a63an4xfzwga","address":"2020 E Desert Inn Rd","geo_precision":"range","state":"NV"},"type":"Feature","geometry":{"type":"Point","coordinates":[-115.124927,36.129856]}},{"properties":{"city":"North Las Vegas","zip":"890328222","county":"Clark","geo_score":0.805,"individual or practice name":"New Beginnings Behavioral Treatment Agency","provider speciality":"Behavioral Health Group","id":"a63an4yvrnc3","address":"3450 W Cheyenne Ave","geo_precision":"street","state":"NV"},"type":"Feature","geometry":{"type":"Point","coordinates":[-115.180816,36.217581]}},{"properties":{"city":"North Las Vegas","zip":"890306512","county":"Clark","geo_score":1.0,"individual or practice name":"New Beginnings Counseling Ctr","provider speciality":"OP Mental Hlth/Substance Abuse","id":"a63an5ajjgdp","address":"2700 E Lake Mead Blvd","geo_precision":"range","state":"NV"},"type":"Feature","geometry":{"type":"Point","coordinates":[-115.112338,36.195869]}},{"properties":{"city":"North Las Vegas","zip":"890323831","county":"Clark","geo_score":1.0,"individual or practice name":"Phases","provider speciality":"Behavioral Health Group","id":"a63an4wxdf1c","address":"2755 W Cheyenne Ave","geo_precision":"range","state":"NV"},"type":"Feature","geometry":{"type":"Point","coordinates":[-115.178053,36.217603]}},{"properties":{"city":"Las Vegas","zip":"891031237","county":"Clark","geo_score":1.0,"individual or practice name":"Red Rock Behavioral Health Hospital","provider speciality":"Psychiatric Hospital","id":"a63an50e15aw","address":"5975 W Twain Ave","geo_precision":"range","state":"NV"},"type":"Feature","geometry":{"type":"Point","coordinates":[-115.223365,36.12185]}},{"properties":{"city":"Las Vegas","zip":"891192314","county":"Clark","geo_score":1.0,"individual or practice name":"Ron Zedek MD","provider speciality":"Psychiatry","id":"a63an52qa1qh","address":"5329 S Eastern Ave","geo_precision":"range","state":"NV"},"type":"Feature","geometry":{"type":"Point","coordinates":[-115.118883,36.092609]}},{"properties":{"city":"Las Vegas","zip":"891460361","county":"Clark","geo_score":1.0,"individual or practice name":"Scott A Rubin","provider speciality":"Psychiatry","id":"a63an593k171","address":"5440 W Sahara Ave","geo_precision":"range","state":"NV"},"type":"Feature","geometry":{"type":"Point","coordinates":[-115.216953,36.144386]}},{"properties":{"city":"Las Vegas","zip":"891463307","county":"Clark","geo_score":1.0,"individual or practice name":"Spring Mountain Sahara","provider speciality":"Psychiatric Hospital","id":"a63an4w8emhp","address":"5460 W Sahara Ave","geo_precision":"range","state":"NV"},"type":"Feature","geometry":{"type":"Point","coordinates":[-115.21715,36.144383]}},{"properties":{"city":"Las Vegas","zip":"891173816","county":"Clark","geo_score":0.963,"individual or practice name":"Spring Mountain Treatment Center","provider speciality":"Psychiatric Hospital","id":"a63an54b2vlt","address":"7000 Spring Mountian Rd","geo_precision":"range","state":"NV"},"type":"Feature","geometry":{"type":"Point","coordinates":[-115.245236,36.1257]}},{"properties":{"city":"Las Vegas","zip":"891130156","county":"Clark","geo_score":1.0,"individual or practice name":"Stephanie Holland","provider speciality":"Behavioral Health Group","id":"a63an51962yj","address":"4955 S Durango Dr","geo_precision":"range","state":"NV"},"type":"Feature","geometry":{"type":"Point","coordinates":[-115.279255,36.099052]}},{"properties":{"city":"Las Vegas","zip":"891280439","county":"Clark","geo_score":1.0,"individual or practice name":"Adams, Melissa K.","provider speciality":"Lic Marriage/Family Therapist","id":"a63an51rsfu9","address":"7200 Cathedral Rock Dr","geo_precision":"range","state":"NV"},"type":"Feature","geometry":{"type":"Point","coordinates":[-115.249184,36.204928]}},{"properties":{"city":"Las Vegas","zip":"891172506","county":"Clark","geo_score":0.808,"individual or practice name":"Aleksic, Paul M.","provider speciality":"Psychology","id":"a63an5biw0e9","address":"3230 S Buffalo Dr","geo_precision":"street","state":"NV"},"type":"Feature","geometry":{"type":"Point","coordinates":[-115.260983,36.130974]}},{"properties":{"city":"Las Vegas","zip":"891280439","county":"Clark","geo_score":1.0,"individual or practice name":"Brassfield, Patricia","provider speciality":"Psychology","id":"a63an565aiza","address":"7200 Cathedral Rock Dr","geo_precision":"range","state":"NV"},"type":"Feature","geometry":{"type":"Point","coordinates":[-115.249184,36.204928]}},{"properties":{"city":"Las Vegas","zip":"891202830","county":"Clark","geo_score":1.0,"individual or practice name":"Carter, Margaret P.","provider speciality":"Lic Marriage/Family Therapist","id":"a63an56iodi4","address":"6550 S Pecos Rd","geo_precision":"range","state":"NV"},"type":"Feature","geometry":{"type":"Point","coordinates":[-115.100791,36.070699]}},{"properties":{"city":"Henderson","zip":"890142632","county":"Clark","geo_score":1.0,"individual or practice name":"Cartwright, Stephanie L.","provider speciality":"Lic Clinical Social Worker","id":"a63an58crxqg","address":"600 Whitney Ranch Dr","geo_precision":"range","state":"NV"},"type":"Feature","geometry":{"type":"Point","coordinates":[-115.052657,36.063694]}},{"properties":{"city":"Las Vegas","zip":"891465306","county":"Clark","geo_score":1.0,"individual or practice name":"Corcoran, Leslie E.","provider speciality":"Lic Marriage/Family Therapist","id":"a63an4y5y6s6","address":"2740 S Jones Blvd","geo_precision":"range","state":"NV"},"type":"Feature","geometry":{"type":"Point","coordinates":[-115.225174,36.139683]}},{"properties":{"city":"Las Vegas","zip":"891280818","county":"Clark","geo_score":1.0,"individual or practice name":"Cornelius, Cheryl","provider speciality":"Lic Marriage/Family Therapist","id":"a63an55s60d7","address":"7375 Prairie Falcon Rd","geo_precision":"range","state":"NV"},"type":"Feature","geometry":{"type":"Point","coordinates":[-115.253386,36.206597]}},{"properties":{"city":"Las Vegas","zip":"891466596","county":"Clark","geo_score":1.0,"individual or practice name":"Crabb, Yangcha P.","provider speciality":"Psychology","id":"a63an50pb8q9","address":"3311 S Rainbow Blvd","geo_precision":"range","state":"NV"},"type":"Feature","geometry":{"type":"Point","coordinates":[-115.24298,36.129282]}},{"properties":{"city":"Las Vegas","zip":"891202828","county":"Clark","geo_score":0.902,"individual or practice name":"Daniel, Sue E.","provider speciality":"Lic Marriage/Family Therapist","id":"a63an53yf1ki","address":"6550 S Pecos Rd Bldg","geo_precision":"range","state":"NV"},"type":"Feature","geometry":{"type":"Point","coordinates":[-115.100791,36.070699]}},{"properties":{"city":"Las Vegas","zip":"891460361","county":"Clark","geo_score":1.0,"individual or practice name":"Del Rosario, Alex V.","provider speciality":"Geriatric Psychiatry","id":"a63an55awnjc","address":"5440 W Sahara Ave","geo_precision":"range","state":"NV"},"type":"Feature","geometry":{"type":"Point","coordinates":[-115.216953,36.144386]}},{"properties":{"city":"Las Vegas","zip":"891202201","county":"Clark","geo_score":0.971,"individual or practice name":"Doncaster, Maria G.","provider speciality":"Psychology","id":"a63an557oy7g","address":"3440 E Russull Rd","geo_precision":"range","state":"NV"},"type":"Feature","geometry":{"type":"Point","coordinates":[-115.100026,36.086271]}},{"properties":{"city":"Las Vegas","zip":"891280807","county":"Clark","geo_score":1.0,"individual or practice name":"Donovan-Vaughn, B Diane","provider speciality":"Lic Professional Counselor","id":"a63an53j8t5i","address":"7365 Prairie Falcon Rd","geo_precision":"range","state":"NV"},"type":"Feature","geometry":{"type":"Point","coordinates":[-115.253023,36.20655]}},{"properties":{"city":"Las Vegas","zip":"891171572","county":"Clark","geo_score":1.0,"individual or practice name":"Guevara, Amy F.","provider speciality":"Psychology","id":"a63an5620nq5","address":"7351 W Charleston Blvd","geo_precision":"range","state":"NV"},"type":"Feature","geometry":{"type":"Point","coordinates":[-115.253958,36.159106]}},{"properties":{"city":"Las Vegas","zip":"891287674","county":"Clark","geo_score":1.0,"individual or practice name":"Hood-Jackson, Susan A.","provider speciality":"Psychology","id":"a63an58dvmk0","address":"8430 W Lake Mead Blvd","geo_precision":"range","state":"NV"},"type":"Feature","geometry":{"type":"Point","coordinates":[-115.279237,36.198075]}},{"properties":{"city":"Las Vegas","zip":"891021942","county":"Clark","geo_score":0.922,"individual or practice name":"HOPE Counseling Services, LLC","provider speciality":null,"id":"a63an4zft0mw","address":"2820 W Charleston","geo_precision":"range","state":"NV"},"type":"Feature","geometry":{"type":"Point","coordinates":[-115.179149,36.158921]}},{"properties":{"city":"Las Vegas","zip":"891465611","county":"Clark","geo_score":0.967,"individual or practice name":"Jouni, Nabil","provider speciality":"Psychiatry","id":"a63an54svfzj","address":"6039 Eldora Ave","geo_precision":"range","state":"NV"},"type":"Feature","geometry":{"type":"Point","coordinates":[-115.224284,36.14048]}},{"properties":{"city":"Las Vegas","zip":"891280260","county":"Clark","geo_score":1.0,"individual or practice name":"Kissner, Allen J.","provider speciality":"Lic Clinical Social Worker","id":"a63an50hr5p1","address":"7310 Smoke Ranch Rd","geo_precision":"range","state":"NV"},"type":"Feature","geometry":{"type":"Point","coordinates":[-115.255808,36.203469]}},{"properties":{"city":"Las Vegas","zip":"891132235","county":"Clark","geo_score":0.807,"individual or practice name":"Nagy, Shamim N.","provider speciality":"Psychiatry","id":"a63an4y0o5b7","address":"8285 W Arby Ave","geo_precision":"street","state":"NV"},"type":"Feature","geometry":{"type":"Point","coordinates":[-115.274685,36.059267]}},{"properties":{"city":"Las Vegas","zip":"891207219","county":"Clark","geo_score":1.0,"individual or practice name":"Ngo, Renee L.","provider speciality":"Psychiatry","id":"a63an56hxcg9","address":"3680 E Sunset Rd","geo_precision":"range","state":"NV"},"type":"Feature","geometry":{"type":"Point","coordinates":[-115.094057,36.071301]}},{"properties":{"city":"Las Vegas","zip":"891460361","county":"Clark","geo_score":1.0,"individual or practice name":"Nwapa, Emmanuel","provider speciality":"Psychiatry","id":"a63an5a7a6p8","address":"5440 W Sahara Ave","geo_precision":"range","state":"NV"},"type":"Feature","geometry":{"type":"Point","coordinates":[-115.216953,36.144386]}},{"properties":{"city":"Las Vegas","zip":"891460361","county":"Clark","geo_score":1.0,"individual or practice name":"Nwapa, Emmanuel","provider speciality":"Psychiatry","id":"a63an51antt0","address":"5440 W Sahara Ave","geo_precision":"range","state":"NV"},"type":"Feature","geometry":{"type":"Point","coordinates":[-115.216953,36.144386]}},{"properties":{"city":"Las Vegas","zip":"891494597","county":"Clark","geo_score":0.809,"individual or practice name":"Nwokike, Jerome N.","provider speciality":"Psychiatry","id":"a63an5bhomi7","address":"6850 N Durango Dr","geo_precision":"street","state":"NV"},"type":"Feature","geometry":{"type":"Point","coordinates":[-115.27865,36.284525]}},{"properties":{"city":"Las Vegas","zip":"891465632","county":"Clark","geo_score":1.0,"individual or practice name":"Rosenman, Eugene","provider speciality":"Psychiatry","id":"a63an50037us","address":"2775 S Jones Blvd","geo_precision":"range","state":"NV"},"type":"Feature","geometry":{"type":"Point","coordinates":[-115.225163,36.139027]}},{"properties":{"city":"Las Vegas","zip":"891280804","county":"Clark","geo_score":0.927,"individual or practice name":"Sklar, Linda C.","provider speciality":"Lic Clinical Social Worker","id":"a63an4x74ohg","address":"2441 Tech Ctr Ct","geo_precision":"range","state":"NV"},"type":"Feature","geometry":{"type":"Point","coordinates":[-115.253675,36.203782]}}],"is_temporal":false,"author":{"url":"","metadata":null,"contact_name":null,"contact_address":null,"source":null,"contact_phone":null},"source":"","pagination":{"sort":null,"start":0,"total":50,"limit":1000000},"state":"complete","tags":"","published":"2014-08-15T01:34:13-04:00","id":247358}