{"type":"FeatureCollection","data_type":"Dataset","url_type":null,"permissions":[{"permissions":{"download":true,"view":true},"group_id":"everyone"}],"classification":null,"title":"kum and go","count":427,"stream_id":247474,"contributor":{"url":"http://geocommons.com/users/46671","name":"ericwaze"},"data_attributes":null,"calculation_params":null,"icon_link":null,"link":"http://geocommons.com/overlays/247474.json","extent":[-110.539,34.6101,-90.5479,48.7752],"geometry_types":["point"],"unique_name":null,"name":"kum and go","feature_count":427,"description":"i bought it ","next_feature":null,"is_raster":false,"short_classification":"Y","stats":{"latitude":{"max":48.77517,"mean":39.9603774807963,"variance":8.50235884783346,"stdev":2.91588045842649,"min":34.61014,"median":41.0669365},"store number":{"max":5100,"mean":674.772833723653,"variance":619090.222922233,"stdev":786.822866293445,"min":1,"median":488},"longitude":{"max":-90.5479,"mean":-95.9171156490164,"variance":21.6276797058695,"stdev":4.65055692426934,"min":-110.539368,"median":-94.13839}},"features":[{"properties":{"city":"Hampton","store number":1,"fax number":null,"latitude":42.74179,"zip code":"50441","store details":"Diesel, Pay at the Pump, Open 24 Hours","longitude":-93.2148056,"id":"a63eugcy5979","address":"609 Central Ave W","phone number":"641-456-5106","store hours":"Open 24 Hours","state":"IA"},"type":"Feature","geometry":{"type":"Point","coordinates":[-93.2148056,42.74179]}},{"properties":{"city":"Lamoni","store number":4,"fax number":null,"latitude":40.623436,"zip code":"50140","store details":"E85, Diesel, Pay at the Pump, Redbox, Open 24 Hours","longitude":-93.8961945,"id":"a63eugl3278b","address":"2091 E Main St","phone number":"641-784-7400","store hours":"Open 24 Hours","state":"IA"},"type":"Feature","geometry":{"type":"Point","coordinates":[-93.8961945,40.623436]}},{"properties":{"city":"Mason City","store number":6,"fax number":null,"latitude":43.13335,"zip code":"50401","store details":"E85, Diesel, Pay at the Pump, Redbox, Open 24 Hours","longitude":-93.2012558,"id":"a63eugsdld2i","address":"1920 S Federal Ave","phone number":"641-423-4126","store hours":"Open 24 Hours","state":"IA"},"type":"Feature","geometry":{"type":"Point","coordinates":[-93.2012558,43.13335]}},{"properties":{"city":"West Des Moines","store number":8,"fax number":null,"latitude":41.5905876,"zip code":"50265","store details":"E85, Diesel, Pay at the Pump, Go Fresh Market, Redbox, Open 24 Hours","longitude":-93.71291,"id":"a63eugkesqc8","address":"1293 8th St","phone number":"515-223-5419","store hours":"Open 24 Hours","state":"IA"},"type":"Feature","geometry":{"type":"Point","coordinates":[-93.71291,41.5905876]}},{"properties":{"city":"Sigourney","store number":9,"fax number":null,"latitude":41.3353271,"zip code":"52591","store details":"Pay at the Pump, Carwash","longitude":-92.20525,"id":"a63eugg43gh3","address":"210 N Main St","phone number":"641-622-2297","store hours":null,"state":"IA"},"type":"Feature","geometry":{"type":"Point","coordinates":[-92.20525,41.3353271]}},{"properties":{"city":"Grinnell","store number":22,"fax number":null,"latitude":41.69939,"zip code":"50112","store details":"E85, Diesel, Pay at the Pump, Restaurant: Subway, Open 24 Hours, Semi-Truck Accessible","longitude":-92.72621,"id":"a63eugk74e70","address":"715 Lang Creek Ave","phone number":"641-236-0399","store hours":"Open 24 Hours","state":"IA"},"type":"Feature","geometry":{"type":"Point","coordinates":[-92.72621,41.69939]}},{"properties":{"city":"Neola","store number":23,"fax number":null,"latitude":41.4391556,"zip code":"51559","store details":"E85, Diesel, Pay at the Pump, Redbox, Open 24 Hours, Semi-Truck Accessible","longitude":-95.61221,"id":"a63eugewhxjn","address":"29356 298th St","phone number":"712-485-2153","store hours":"Open 24 Hours","state":"IA"},"type":"Feature","geometry":{"type":"Point","coordinates":[-95.61221,41.4391556]}},{"properties":{"city":"Pleasant Hill","store number":24,"fax number":null,"latitude":41.5971336,"zip code":"50327","store details":"E85, Diesel, Pay at the Pump, Go Fresh Market, Redbox, Open 24 Hours, Carwash","longitude":-93.49263,"id":"a63eugnx2lfi","address":"5970 Morning Star Ct","phone number":"515-264-1934","store hours":"Open 24 Hours","state":"IA"},"type":"Feature","geometry":{"type":"Point","coordinates":[-93.49263,41.5971336]}},{"properties":{"city":"Adrian","store number":26,"fax number":null,"latitude":43.64216,"zip code":"56110","store details":"E85, Diesel, Pay at the Pump, Restaurant: Subway, Open 24 Hours, Semi-Truck Accessible","longitude":-95.93358,"id":"a63euggtnmow","address":"305 N Maine Ave","phone number":"507-483-2634","store hours":"Open 24 Hours","state":"MN"},"type":"Feature","geometry":{"type":"Point","coordinates":[-95.93358,43.64216]}},{"properties":{"city":"Norwalk","store number":28,"fax number":null,"latitude":41.4968033,"zip code":"50211","store details":"E85, Diesel, Pay at the Pump, Restaurant: Subway, Redbox, Open 24 Hours","longitude":-93.67447,"id":"a63eugl81rox","address":"2991 Sunset Dr","phone number":"515-287-2953","store hours":"Open 24 Hours","state":"IA"},"type":"Feature","geometry":{"type":"Point","coordinates":[-93.67447,41.4968033]}},{"properties":{"city":"Sarcoxie","store number":29,"fax number":null,"latitude":37.07665,"zip code":"64862","store details":"Diesel, Pay at the Pump, Restaurant: Subway, Redbox, Open 24 Hours","longitude":-94.10606,"id":"a63eugj5w8qe","address":"2577 High St","phone number":"417-548-9124","store hours":"Open 24 Hours","state":"MO"},"type":"Feature","geometry":{"type":"Point","coordinates":[-94.10606,37.07665]}},{"properties":{"city":"Colfax","store number":32,"fax number":null,"latitude":41.68705,"zip code":"50054","store details":"Diesel, Pay at the Pump, Restaurant: Subway, Redbox, Open 24 Hours, Semi-Truck Accessible","longitude":-93.2465744,"id":"a63eugr07pqr","address":"1200 N Walnut St","phone number":"515-674-4323","store hours":"Open 24 Hours","state":"IA"},"type":"Feature","geometry":{"type":"Point","coordinates":[-93.2465744,41.68705]}},{"properties":{"city":"Osceola","store number":33,"fax number":null,"latitude":41.03057,"zip code":"50213","store details":"Diesel, Pay at the Pump, Open 24 Hours","longitude":-93.76574,"id":"a63eugt024of","address":"400 S Main St","phone number":"641-342-2016","store hours":"Open 24 Hours","state":"IA"},"type":"Feature","geometry":{"type":"Point","coordinates":[-93.76574,41.03057]}},{"properties":{"city":"Ottumwa","store number":37,"fax number":null,"latitude":41.05282,"zip code":"52501","store details":"E85, Diesel, Pay at the Pump, Redbox, Open 24 Hours, Carwash","longitude":-92.40948,"id":"a63eugfbm2un","address":"2508 N Court St","phone number":"641-683-3590","store hours":"Open 24 Hours","state":"IA"},"type":"Feature","geometry":{"type":"Point","coordinates":[-92.40948,41.05282]}},{"properties":{"city":"Ottumwa","store number":38,"fax number":null,"latitude":41.0081635,"zip code":"52501","store details":"Pay at the Pump, Open 24 Hours, Carwash","longitude":-92.42007,"id":"a63eugn01kpf","address":"534 Church St","phone number":"641-684-7498","store hours":"Open 24 Hours","state":"IA"},"type":"Feature","geometry":{"type":"Point","coordinates":[-92.42007,41.0081635]}},{"properties":{"city":"Ottumwa","store number":40,"fax number":null,"latitude":41.02212,"zip code":"52501","store details":"Diesel, Pay at the Pump, Carwash","longitude":-92.41687,"id":"a63eugpwpacp","address":"502 2nd St W","phone number":"641-682-1311","store hours":null,"state":"IA"},"type":"Feature","geometry":{"type":"Point","coordinates":[-92.41687,41.02212]}},{"properties":{"city":"New Virginia","store number":43,"fax number":null,"latitude":41.17709,"zip code":"50210","store details":"Diesel, Pay at the Pump, Restaurant: Subway, Redbox, Open 24 Hours, Semi-Truck Accessible","longitude":-93.78159,"id":"a63eugho0y3z","address":"1453 County Highway G76","phone number":"641-449-3490","store hours":"Open 24 Hours","state":"IA"},"type":"Feature","geometry":{"type":"Point","coordinates":[-93.78159,41.17709]}},{"properties":{"city":"Walnut","store number":46,"fax number":null,"latitude":41.4948845,"zip code":"51577","store details":"Diesel, Pay at the Pump, Open 24 Hours, Semi-Truck Accessible","longitude":-95.22099,"id":"a63eugoufhwu","address":"1709 Antique City Dr","phone number":"712-784-3881","store hours":"Open 24 Hours","state":"IA"},"type":"Feature","geometry":{"type":"Point","coordinates":[-95.22099,41.4948845]}},{"properties":{"city":"Newton","store number":47,"fax number":null,"latitude":41.69294,"zip code":"50208","store details":"Pay at the Pump","longitude":-93.03265,"id":"a63eugknvhcb","address":"1708 S 8th Ave E","phone number":"641-791-0187","store hours":null,"state":"IA"},"type":"Feature","geometry":{"type":"Point","coordinates":[-93.03265,41.69294]}},{"properties":{"city":"Pella","store number":48,"fax number":null,"latitude":41.4082146,"zip code":"50219","store details":"Pay at the Pump, Open 24 Hours","longitude":-92.91823,"id":"a63eugsznxj1","address":"744 Washington St","phone number":"641-628-4003","store hours":"Open 24 Hours","state":"IA"},"type":"Feature","geometry":{"type":"Point","coordinates":[-92.91823,41.4082146]}},{"properties":{"city":"West Des Moines","store number":50,"fax number":null,"latitude":41.5590172,"zip code":"50265","store details":"Pay at the Pump, Restaurant: McDonald's, Redbox, Open 24 Hours","longitude":-93.77287,"id":"a63eugjf4yej","address":"745 S 51st St","phone number":"515-225-0607","store hours":"Open 24 Hours","state":"IA"},"type":"Feature","geometry":{"type":"Point","coordinates":[-93.77287,41.5590172]}},{"properties":{"city":"Iowa City","store number":51,"fax number":null,"latitude":41.65775,"zip code":"52240","store details":"Pay at the Pump, Redbox, Open 24 Hours","longitude":-91.530304,"id":"a63eugga9765","address":"323 E Burlington St","phone number":"319-351-6455","store hours":"Open 24 Hours","state":"IA"},"type":"Feature","geometry":{"type":"Point","coordinates":[-91.530304,41.65775]}},{"properties":{"city":"Iowa City","store number":52,"fax number":null,"latitude":41.6578522,"zip code":"52242","store details":"Pay at the Pump, Redbox, Open 24 Hours","longitude":-91.53765,"id":"a63euglc5ul2","address":"25 W Burlington St","phone number":"319-351-1585","store hours":"Open 24 Hours","state":"IA"},"type":"Feature","geometry":{"type":"Point","coordinates":[-91.53765,41.6578522]}},{"properties":{"city":"Iowa City","store number":53,"fax number":null,"latitude":41.6502457,"zip code":"52246","store details":"Pay at the Pump, Redbox, Open 24 Hours","longitude":-91.57436,"id":"a63eugkdd5ll","address":"955 Morman Trek Blvd","phone number":"319-337-6013","store hours":"Open 24 Hours","state":"IA"},"type":"Feature","geometry":{"type":"Point","coordinates":[-91.57436,41.6502457]}},{"properties":{"city":"Bevington","store number":56,"fax number":null,"latitude":41.3609848,"zip code":"50229","store details":"Diesel, Pay at the Pump, Redbox, Open 24 Hours, Semi-Truck Accessible","longitude":-93.78938,"id":"a63eugj0p16v","address":"101 E IA Highway 92","phone number":"515-462-1734","store hours":"Open 24 Hours","state":"IA"},"type":"Feature","geometry":{"type":"Point","coordinates":[-93.78938,41.3609848]}},{"properties":{"city":"Waukee","store number":59,"fax number":null,"latitude":41.56153,"zip code":"50263","store details":"Pay at the Pump, Redbox, Open 24 Hours","longitude":-93.88083,"id":"a63eugj58m8p","address":"33083 Ute Ave","phone number":"515-987-5303","store hours":"Open 24 Hours","state":"IA"},"type":"Feature","geometry":{"type":"Point","coordinates":[-93.88083,41.56153]}},{"properties":{"city":"Johnston","store number":62,"fax number":null,"latitude":41.6717567,"zip code":"50131","store details":"E85, Pay at the Pump, Redbox, Open 24 Hours","longitude":-93.73681,"id":"a63eugnkgsoq","address":"6130 NW 86th St","phone number":"515-334-0519","store hours":"Open 24 Hours","state":"IA"},"type":"Feature","geometry":{"type":"Point","coordinates":[-93.73681,41.6717567]}},{"properties":{"city":"West Des Moines","store number":66,"fax number":null,"latitude":41.6002,"zip code":"50266","store details":"Diesel, Pay at the Pump, Restaurant: Burger King, Redbox, Open 24 Hours, Carwash","longitude":-93.7792358,"id":"a63eugt3rvj4","address":"5308 University Ave","phone number":"515-457-9028","store hours":"Open 24 Hours","state":"IA"},"type":"Feature","geometry":{"type":"Point","coordinates":[-93.7792358,41.6002]}},{"properties":{"city":"West Des Moines","store number":74,"fax number":null,"latitude":41.5678,"zip code":"50266","store details":"E85, Pay at the Pump, Redbox, Open 24 Hours","longitude":-93.8101654,"id":"a63eugol246e","address":"141 S Jordan Creek Pkwy","phone number":"515-221-3536","store hours":"Open 24 Hours","state":"IA"},"type":"Feature","geometry":{"type":"Point","coordinates":[-93.8101654,41.5678]}},{"properties":{"city":"Waukee","store number":75,"fax number":null,"latitude":41.599987,"zip code":"50263","store details":"Diesel, Pay at the Pump, Redbox, Open 24 Hours","longitude":-93.86535,"id":"a63eugg2r3pp","address":"350 SE University Ave","phone number":"515-987-2659","store hours":"Open 24 Hours","state":"IA"},"type":"Feature","geometry":{"type":"Point","coordinates":[-93.86535,41.599987]}},{"properties":{"city":"Adair","store number":76,"fax number":null,"latitude":41.4979935,"zip code":"50002","store details":"Diesel, Pay at the Pump, Restaurant: Subway, Redbox, Open 24 Hours, Semi-Truck Accessible","longitude":-94.64361,"id":"a63eugrjplnx","address":"109 S 5th St","phone number":"641-742-3857","store hours":"Open 24 Hours","state":"IA"},"type":"Feature","geometry":{"type":"Point","coordinates":[-94.64361,41.4979935]}},{"properties":{"city":"Riverside","store number":80,"fax number":null,"latitude":41.4864769,"zip code":"52327","store details":"E85, Diesel, Pay at the Pump, Restaurant: Subway, Redbox, Open 24 Hours, Semi-Truck Accessible","longitude":-91.55425,"id":"a63eugj1pfqx","address":"1178 Enterprise Dr","phone number":"319-648-2400","store hours":"Open 24 Hours","state":"IA"},"type":"Feature","geometry":{"type":"Point","coordinates":[-91.55425,41.4864769]}},{"properties":{"city":"Casey","store number":83,"fax number":null,"latitude":41.5052834,"zip code":"50048","store details":"Diesel, Pay at the Pump","longitude":-94.51909,"id":"a63eugd8i9p0","address":"501 Antique Country Dr","phone number":"641-746-2259","store hours":null,"state":"IA"},"type":"Feature","geometry":{"type":"Point","coordinates":[-94.51909,41.5052834]}},{"properties":{"city":"Fort Dodge","store number":87,"fax number":null,"latitude":42.5008965,"zip code":"50501","store details":"Pay at the Pump, Redbox, Open 24 Hours","longitude":-94.17627,"id":"a63eugklpc8p","address":"1601 5th Ave","phone number":"515-573-5997","store hours":"Open 24 Hours","state":"IA"},"type":"Feature","geometry":{"type":"Point","coordinates":[-94.17627,42.5008965]}},{"properties":{"city":"Fort Dodge","store number":89,"fax number":null,"latitude":42.50825,"zip code":"50501","store details":"Pay at the Pump, Redbox, Open 24 Hours","longitude":-94.16782,"id":"a63eugi2mcd3","address":"115 N 22nd St","phone number":"515-955-6314","store hours":"Open 24 Hours","state":"IA"},"type":"Feature","geometry":{"type":"Point","coordinates":[-94.16782,42.50825]}},{"properties":{"city":"Boone","store number":90,"fax number":null,"latitude":42.03714,"zip code":"50036","store details":"Diesel, Pay at the Pump, Restaurant: Subway, Redbox, Open 24 Hours, Carwash","longitude":-93.87935,"id":"a63eugmaomte","address":"1704 S Story St","phone number":"515-432-0500","store hours":"Open 24 Hours","state":"IA"},"type":"Feature","geometry":{"type":"Point","coordinates":[-93.87935,42.03714]}},{"properties":{"city":"Ankeny","store number":92,"fax number":null,"latitude":41.7313728,"zip code":"50021","store details":"Diesel, Pay at the Pump, Redbox, Open 24 Hours","longitude":-93.58184,"id":"a63eugjgz0c4","address":"1025 E 1st St","phone number":"515-965-6756","store hours":"Open 24 Hours","state":"IA"},"type":"Feature","geometry":{"type":"Point","coordinates":[-93.58184,41.7313728]}},{"properties":{"city":"De Soto","store number":95,"fax number":null,"latitude":41.53867,"zip code":"50069","store details":"E85, Diesel, Pay at the Pump, Go Fresh Market, Redbox, Open 24 Hours","longitude":-94.0120544,"id":"a63euggk3kkn","address":"1203 Guthrie St","phone number":"515-834-2500","store hours":"Open 24 Hours","state":"IA"},"type":"Feature","geometry":{"type":"Point","coordinates":[-94.0120544,41.53867]}},{"properties":{"city":"Webster City","store number":96,"fax number":null,"latitude":42.4595757,"zip code":"50595","store details":"Pay at the Pump, Open 24 Hours","longitude":-93.8159943,"id":"a63eugs918rw","address":"1803 Superior St","phone number":"515-832-3781","store hours":"Open 24 Hours","state":"IA"},"type":"Feature","geometry":{"type":"Point","coordinates":[-93.8159943,42.4595757]}},{"properties":{"city":"West Des Moines","store number":97,"fax number":null,"latitude":41.5713768,"zip code":"50265","store details":"Pay at the Pump, Redbox, Open 24 Hours","longitude":-93.7719,"id":"a63eugoxegsq","address":"196 S 50th St","phone number":"515-223-7289","store hours":"Open 24 Hours","state":"IA"},"type":"Feature","geometry":{"type":"Point","coordinates":[-93.7719,41.5713768]}},{"properties":{"city":"Truro","store number":101,"fax number":null,"latitude":41.20982,"zip code":"50257","store details":"Pay at the Pump","longitude":-93.84298,"id":"a63euglghvwr","address":"318 E North St","phone number":"641-765-4334","store hours":null,"state":"IA"},"type":"Feature","geometry":{"type":"Point","coordinates":[-93.84298,41.20982]}},{"properties":{"city":"Mason City","store number":109,"fax number":null,"latitude":43.1634521,"zip code":"50401","store details":"Diesel, Pay at the Pump, Redbox, Open 24 Hours","longitude":-93.20123,"id":"a63eugnfc7dl","address":"1224 N Federal Ave","phone number":"641-423-3944","store hours":"Open 24 Hours","state":"IA"},"type":"Feature","geometry":{"type":"Point","coordinates":[-93.20123,43.1634521]}},{"properties":{"city":"Ames","store number":113,"fax number":null,"latitude":42.0347366,"zip code":"50010","store details":"E85, Diesel, Pay at the Pump, Restaurant: Burger King, Open 24 Hours","longitude":-93.5752258,"id":"a63eugq83dnj","address":"2801 E 13th St","phone number":"515-233-0359","store hours":"Open 24 Hours","state":"IA"},"type":"Feature","geometry":{"type":"Point","coordinates":[-93.5752258,42.0347366]}},{"properties":{"city":"Perry","store number":115,"fax number":null,"latitude":41.82986,"zip code":"50220","store details":"Diesel, Pay at the Pump","longitude":-94.10601,"id":"a63eugnhttom","address":"1115 IA Highway 141","phone number":"515-465-7130","store hours":null,"state":"IA"},"type":"Feature","geometry":{"type":"Point","coordinates":[-94.10601,41.82986]}},{"properties":{"city":"Willmar","store number":116,"fax number":null,"latitude":45.1249962,"zip code":"56201","store details":"E85, Diesel, Pay at the Pump, Open 24 Hours, Semi-Truck Accessible","longitude":-95.0086,"id":"a63eugnfg6cd","address":"2550 US Highway 12 E","phone number":"320-214-7813","store hours":"Open 24 Hours","state":"MN"},"type":"Feature","geometry":{"type":"Point","coordinates":[-95.0086,45.1249962]}},{"properties":{"city":"Spirit Lake","store number":117,"fax number":null,"latitude":43.42273,"zip code":"51360","store details":"Diesel, Pay at the Pump, Redbox, Open 24 Hours","longitude":-95.09436,"id":"a63eugr2egy9","address":"300 18th St","phone number":"712-336-1107","store hours":"Open 24 Hours","state":"IA"},"type":"Feature","geometry":{"type":"Point","coordinates":[-95.09436,43.42273]}},{"properties":{"city":"Des Moines","store number":120,"fax number":null,"latitude":41.52643,"zip code":"50315","store details":"Pay at the Pump, Redbox, Open 24 Hours","longitude":-93.61605,"id":"a63eugfu1ect","address":"101 SW Army Post Rd","phone number":"515-287-6814","store hours":"Open 24 Hours","state":"IA"},"type":"Feature","geometry":{"type":"Point","coordinates":[-93.61605,41.52643]}},{"properties":{"city":"Urbandale","store number":121,"fax number":null,"latitude":41.62995,"zip code":"50323","store details":"E85, Diesel, Pay at the Pump, Redbox, Open 24 Hours","longitude":-93.78322,"id":"a63eugrbdafr","address":"12041 Douglas Pkwy","phone number":"515-278-0308","store hours":"Open 24 Hours","state":"IA"},"type":"Feature","geometry":{"type":"Point","coordinates":[-93.78322,41.62995]}},{"properties":{"city":"Story City","store number":124,"fax number":null,"latitude":42.18745,"zip code":"50248","store details":"Diesel, Pay at the Pump, Redbox, Open 24 Hours, Semi-Truck Accessible","longitude":-93.57633,"id":"a63eugejuctd","address":"1554 Broad St","phone number":"515-733-2391","store hours":"Open 24 Hours","state":"IA"},"type":"Feature","geometry":{"type":"Point","coordinates":[-93.57633,42.18745]}},{"properties":{"city":"Story City","store number":125,"fax number":null,"latitude":42.1868553,"zip code":"50248","store details":"Diesel, Pay at the Pump","longitude":-93.59805,"id":"a63eugk3qplg","address":"527 Park Ave","phone number":"515-733-4370","store hours":null,"state":"IA"},"type":"Feature","geometry":{"type":"Point","coordinates":[-93.59805,42.1868553]}},{"properties":{"city":"Johnston","store number":129,"fax number":null,"latitude":41.655632,"zip code":"50131","store details":"Pay at the Pump, Go Fresh Market, Redbox, Open 24 Hours, Carwash","longitude":-93.736,"id":"a63eugn6k2vp","address":"5225 NW 86th St","phone number":"515-334-9410","store hours":"Open 24 Hours","state":"IA"},"type":"Feature","geometry":{"type":"Point","coordinates":[-93.736,41.655632]}},{"properties":{"city":"Des Moines","store number":130,"fax number":null,"latitude":41.6145172,"zip code":"50310","store details":"Pay at the Pump","longitude":-93.65789,"id":"a63eugd1u9o4","address":"2930 Hickman Rd","phone number":"515-277-5123","store hours":null,"state":"IA"},"type":"Feature","geometry":{"type":"Point","coordinates":[-93.65789,41.6145172]}},{"properties":{"city":"Ellsworth","store number":133,"fax number":null,"latitude":42.309948,"zip code":"50075","store details":"Diesel, Pay at the Pump, Restaurant: Subway, Redbox, Open 24 Hours, Semi-Truck Accessible","longitude":-93.5725555,"id":"a63eugn9af95","address":"1111 IA Highway 175","phone number":"515-836-4839","store hours":"Open 24 Hours","state":"IA"},"type":"Feature","geometry":{"type":"Point","coordinates":[-93.5725555,42.309948]}},{"properties":{"city":"Fairfield","store number":134,"fax number":null,"latitude":41.0066376,"zip code":"52556","store details":"E85, Diesel, Pay at the Pump, Go Fresh Market, Redbox, Open 24 Hours","longitude":-91.98151,"id":"a63euggu59on","address":"1601 W Burlington Ave","phone number":"641-472-8337","store hours":"Open 24 Hours","state":"IA"},"type":"Feature","geometry":{"type":"Point","coordinates":[-91.98151,41.0066376]}},{"properties":{"city":"Polk City","store number":135,"fax number":null,"latitude":41.7719841,"zip code":"50226","store details":"Pay at the Pump, Redbox, Open 24 Hours","longitude":-93.71378,"id":"a63eugpl9z25","address":"303 W Broadway St","phone number":"515-984-6959","store hours":"Open 24 Hours","state":"IA"},"type":"Feature","geometry":{"type":"Point","coordinates":[-93.71378,41.7719841]}},{"properties":{"city":"Tiffin","store number":137,"fax number":null,"latitude":41.6960144,"zip code":"52340","store details":"E85, Diesel, Pay at the Pump, Restaurant: Subway, Redbox, Open 24 Hours, Semi-Truck Accessible","longitude":-91.66611,"id":"a63euggbfps1","address":"101 Village Dr","phone number":"319-545-2290","store hours":"Open 24 Hours","state":"IA"},"type":"Feature","geometry":{"type":"Point","coordinates":[-91.66611,41.6960144]}},{"properties":{"city":"Grimes","store number":141,"fax number":null,"latitude":41.673172,"zip code":"50111","store details":"E85, Diesel, Pay at the Pump, Redbox, Open 24 Hours","longitude":-93.7727356,"id":"a63eugfadr0u","address":"1950 Princeton Dr","phone number":"515-986-0394","store hours":"Open 24 Hours","state":"IA"},"type":"Feature","geometry":{"type":"Point","coordinates":[-93.7727356,41.673172]}},{"properties":{"city":"Cabot","store number":143,"fax number":null,"latitude":34.9525,"zip code":"72023","store details":"E85, Diesel, Pay at the Pump, Go Fresh Market, Redbox, Open 24 Hours","longitude":-92.00827,"id":"a63eugnsv6gn","address":"1303 S Pine St","phone number":"501-941-3017","store hours":"Open 24 Hours","state":"AR"},"type":"Feature","geometry":{"type":"Point","coordinates":[-92.00827,34.9525]}},{"properties":{"city":"North Little Rock","store number":144,"fax number":null,"latitude":34.80277,"zip code":"72116","store details":"E85, Diesel, Pay at the Pump, Go Fresh Market, Redbox, Open 24 Hours","longitude":-92.25355,"id":"a63eugsba8r0","address":"5216 JFK Blvd","phone number":"501-975-1603","store hours":"Open 24 Hours","state":"AR"},"type":"Feature","geometry":{"type":"Point","coordinates":[-92.25355,34.80277]}},{"properties":{"city":"Little Rock","store number":146,"fax number":null,"latitude":34.6697468,"zip code":"72209","store details":"E85, Diesel, Pay at the Pump, Go Fresh Market, Redbox, Open 24 Hours","longitude":-92.36138463,"id":"a63eugq3z9u0","address":"7620 Baseline Rd","phone number":"501-907-7513","store hours":"Open 24 Hours","state":"AR"},"type":"Feature","geometry":{"type":"Point","coordinates":[-92.36138463,34.6697468]}},{"properties":{"city":"Bryant","store number":147,"fax number":"501-847-0702","latitude":34.61014,"zip code":"72022","store details":"E85, Diesel, Pay at the Pump, Go Fresh Market, Redbox, Open 24 Hours","longitude":-92.49452,"id":"a63eugh4fdvf","address":"1709 N Reynolds Rd","phone number":"501-847-6333","store hours":"Open 24 Hours","state":"AR"},"type":"Feature","geometry":{"type":"Point","coordinates":[-92.49452,34.61014]}},{"properties":{"city":"Clive","store number":156,"fax number":null,"latitude":41.6143,"zip code":"50325","store details":"Pay at the Pump, Redbox, Open 24 Hours","longitude":-93.834404,"id":"a63eugho9a8l","address":"15600 Hickman Rd","phone number":"515-987-1403","store hours":"Open 24 Hours","state":"IA"},"type":"Feature","geometry":{"type":"Point","coordinates":[-93.834404,41.6143]}},{"properties":{"city":"Urbandale","store number":157,"fax number":null,"latitude":41.6433945,"zip code":"50323","store details":"Diesel, Pay at the Pump, Redbox, Open 24 Hours","longitude":-93.83307,"id":"a63eugkladsc","address":"4585 156th St","phone number":"515-987-6901","store hours":"Open 24 Hours","state":"IA"},"type":"Feature","geometry":{"type":"Point","coordinates":[-93.83307,41.6433945]}},{"properties":{"city":"Urbandale","store number":170,"fax number":null,"latitude":41.62937,"zip code":"50322","store details":"E85, Pay at the Pump, Redbox, Open 24 Hours","longitude":-93.71206,"id":"a63eugng8q6a","address":"6990 Douglas Ave","phone number":"515-334-9936","store hours":"Open 24 Hours","state":"IA"},"type":"Feature","geometry":{"type":"Point","coordinates":[-93.71206,41.62937]}},{"properties":{"city":"Oskaloosa","store number":174,"fax number":null,"latitude":41.2963257,"zip code":"52577","store details":"Pay at the Pump, Redbox, Open 24 Hours","longitude":-92.64873,"id":"a63eugipn2p5","address":"413 A Ave W","phone number":"641-673-9281","store hours":"Open 24 Hours","state":"IA"},"type":"Feature","geometry":{"type":"Point","coordinates":[-92.64873,41.2963257]}},{"properties":{"city":"Oskaloosa","store number":175,"fax number":null,"latitude":41.28766,"zip code":"52577","store details":"Pay at the Pump, Open 24 Hours, Carwash","longitude":-92.64522,"id":"a63eugmehlap","address":"901 S Market St","phone number":"641-673-4002","store hours":"Open 24 Hours","state":"IA"},"type":"Feature","geometry":{"type":"Point","coordinates":[-92.64522,41.28766]}},{"properties":{"city":"Oskaloosa","store number":176,"fax number":null,"latitude":41.2788048,"zip code":"52577","store details":"Diesel, Semi-Truck Accessible","longitude":-92.62211,"id":"a63eugeh6dqz","address":"1911 17th St","phone number":"641-673-3829","store hours":null,"state":"IA"},"type":"Feature","geometry":{"type":"Point","coordinates":[-92.62211,41.2788048]}},{"properties":{"city":"Sherburn","store number":187,"fax number":null,"latitude":43.6613731,"zip code":"56171","store details":"E85, Diesel, Pay at the Pump, Restaurant: Subway, Redbox, Open 24 Hours, Semi-Truck Accessible","longitude":-94.731514,"id":"a63eugjob5sv","address":"600 MN Highway 4","phone number":"507-764-2640","store hours":"Open 24 Hours","state":"MN"},"type":"Feature","geometry":{"type":"Point","coordinates":[-94.731514,43.6613731]}},{"properties":{"city":"Stuart","store number":193,"fax number":null,"latitude":41.50377,"zip code":"50250","store details":"Diesel","longitude":-94.31843,"id":"a63eugkcxnuh","address":"104 N Division St","phone number":"515-523-2120","store hours":null,"state":"IA"},"type":"Feature","geometry":{"type":"Point","coordinates":[-94.31843,41.50377]}},{"properties":{"city":"Des Moines","store number":194,"fax number":null,"latitude":41.54816,"zip code":"50315","store details":"Pay at the Pump, Redbox, Open 24 Hours","longitude":-93.62566,"id":"a63eugqfsmru","address":"4001 SW 9th St","phone number":"515-284-5740","store hours":"Open 24 Hours","state":"IA"},"type":"Feature","geometry":{"type":"Point","coordinates":[-93.62566,41.54816]}},{"properties":{"city":"Webster City","store number":196,"fax number":null,"latitude":42.46939,"zip code":"50595","store details":"Diesel, Pay at the Pump, Open 24 Hours","longitude":-93.8312454,"id":"a63euggw6bw3","address":"1102 2nd St","phone number":"515-832-6602","store hours":"Open 24 Hours","state":"IA"},"type":"Feature","geometry":{"type":"Point","coordinates":[-93.8312454,42.46939]}},{"properties":{"city":"Ames","store number":200,"fax number":null,"latitude":42.01193,"zip code":"50014","store details":"Diesel, Pay at the Pump, Redbox, Open 24 Hours, Carwash","longitude":-93.67883,"id":"a63eugj5an1d","address":"4510 Mortensen Rd","phone number":"515-292-3432","store hours":"Open 24 Hours","state":"IA"},"type":"Feature","geometry":{"type":"Point","coordinates":[-93.67883,42.01193]}},{"properties":{"city":"Coralville","store number":201,"fax number":null,"latitude":41.6814728,"zip code":"52241","store details":"E85, Diesel, Pay at the Pump, Redbox, Open 24 Hours, Semi-Truck Accessible","longitude":-91.56614,"id":"a63eugmuw8if","address":"822 1st Ave","phone number":"319-351-7851","store hours":"Open 24 Hours","state":"IA"},"type":"Feature","geometry":{"type":"Point","coordinates":[-91.56614,41.6814728]}},{"properties":{"city":"Waukee","store number":202,"fax number":null,"latitude":41.6137047,"zip code":"50263","store details":"Pay at the Pump","longitude":-93.8824,"id":"a63eugpx6mb2","address":"85 4th St","phone number":"515-987-4351","store hours":null,"state":"IA"},"type":"Feature","geometry":{"type":"Point","coordinates":[-93.8824,41.6137047]}},{"properties":{"city":"Perry","store number":203,"fax number":null,"latitude":41.8404121,"zip code":"50220","store details":"Diesel, Pay at the Pump, Redbox, Open 24 Hours","longitude":-94.1068344,"id":"a63eugnilmbj","address":"1219 1st St","phone number":"515-465-4433","store hours":"Open 24 Hours","state":"IA"},"type":"Feature","geometry":{"type":"Point","coordinates":[-94.1068344,41.8404121]}},{"properties":{"city":"Red Oak","store number":204,"fax number":null,"latitude":41.01061,"zip code":"51566","store details":"Pay at the Pump, Open 24 Hours","longitude":-95.23256,"id":"a63eugg0y26v","address":"710 N Broadway St","phone number":"712-623-5592","store hours":"Open 24 Hours","state":"IA"},"type":"Feature","geometry":{"type":"Point","coordinates":[-95.23256,41.01061]}},{"properties":{"city":"Clive","store number":206,"fax number":null,"latitude":41.60743,"zip code":"50325","store details":"E85, Diesel, Pay at the Pump, Go Fresh Market, Open 24 Hours","longitude":-93.7359,"id":"a63eugdg5qaf","address":"1725 NW 86th","phone number":"515-223-5367","store hours":"Open 24 Hours","state":"IA"},"type":"Feature","geometry":{"type":"Point","coordinates":[-93.7359,41.60743]}},{"properties":{"city":"Des Moines","store number":207,"fax number":null,"latitude":41.6362076,"zip code":"50317","store details":"Pay at the Pump, Redbox, Open 24 Hours","longitude":-93.5318756,"id":"a63eugdw6zzu","address":"4200 E Hubbell Ave","phone number":"515-263-3416","store hours":"Open 24 Hours","state":"IA"},"type":"Feature","geometry":{"type":"Point","coordinates":[-93.5318756,41.6362076]}},{"properties":{"city":"Des Moines","store number":208,"fax number":null,"latitude":41.5552025,"zip code":"50320","store details":"Diesel, Pay at the Pump, Open 24 Hours","longitude":-93.59734,"id":"a63eugqfu8qe","address":"3200 SE 14th St","phone number":"515-246-9743","store hours":"Open 24 Hours","state":"IA"},"type":"Feature","geometry":{"type":"Point","coordinates":[-93.59734,41.5552025]}},{"properties":{"city":"Waterloo","store number":211,"fax number":null,"latitude":42.4952164,"zip code":"50703","store details":"Pay at the Pump, Redbox, Open 24 Hours","longitude":-92.31525,"id":"a63eugmbvnbq","address":"1976 Franklin St","phone number":"319-234-3312","store hours":"Open 24 Hours","state":"IA"},"type":"Feature","geometry":{"type":"Point","coordinates":[-92.31525,42.4952164]}},{"properties":{"city":"Waterloo","store number":212,"fax number":null,"latitude":42.45812,"zip code":"50702","store details":"Pay at the Pump, Redbox, Open 24 Hours","longitude":-92.35603,"id":"a63eugq6fh0h","address":"117 E San Marnan Dr","phone number":"319-232-4464","store hours":"Open 24 Hours","state":"IA"},"type":"Feature","geometry":{"type":"Point","coordinates":[-92.35603,42.45812]}},{"properties":{"city":"Ames","store number":214,"fax number":null,"latitude":42.0235977,"zip code":"50010","store details":"Pay at the Pump, Redbox, Open 24 Hours","longitude":-93.61047,"id":"a63eugghsxlp","address":"111 Duff Ave","phone number":"515-233-4991","store hours":"Open 24 Hours","state":"IA"},"type":"Feature","geometry":{"type":"Point","coordinates":[-93.61047,42.0235977]}},{"properties":{"city":"Ames","store number":215,"fax number":null,"latitude":42.02281,"zip code":"50014","store details":"Pay at the Pump, Redbox, Open 24 Hours, Carwash","longitude":-93.67888,"id":"a63eugp7nyie","address":"4506 Lincoln Way","phone number":"515-292-3501","store hours":"Open 24 Hours","state":"IA"},"type":"Feature","geometry":{"type":"Point","coordinates":[-93.67888,42.02281]}},{"properties":{"city":"Ames","store number":216,"fax number":null,"latitude":42.0213737,"zip code":"50014","store details":"Pay at the Pump, Redbox, Open 24 Hours","longitude":-93.65024,"id":"a63eugnmuwh8","address":"203 Welch Ave","phone number":"515-292-5395","store hours":"Open 24 Hours","state":"IA"},"type":"Feature","geometry":{"type":"Point","coordinates":[-93.65024,42.0213737]}},{"properties":{"city":"Knoxville","store number":218,"fax number":null,"latitude":41.3211937,"zip code":"50138","store details":"Pay at the Pump, Redbox, Open 24 Hours","longitude":-93.10959,"id":"a63euggoxh72","address":"318 N Lincoln St","phone number":"641-842-6227","store hours":"Open 24 Hours","state":"IA"},"type":"Feature","geometry":{"type":"Point","coordinates":[-93.10959,41.3211937]}},{"properties":{"city":"Council Bluffs","store number":219,"fax number":null,"latitude":41.252636,"zip code":"51503","store details":"Pay at the Pump, Redbox, Open 24 Hours","longitude":-95.82053,"id":"a63eugq95vyh","address":"154 Bennett Ave","phone number":"712-322-1565","store hours":"Open 24 Hours","state":"IA"},"type":"Feature","geometry":{"type":"Point","coordinates":[-95.82053,41.252636]}},{"properties":{"city":"Council Bluffs","store number":220,"fax number":null,"latitude":41.2572136,"zip code":"51501","store details":"Pay at the Pump, Redbox, Open 24 Hours","longitude":-95.8751755,"id":"a63eugp34qsq","address":"2024 5th Ave","phone number":"712-322-0758","store hours":"Open 24 Hours","state":"IA"},"type":"Feature","geometry":{"type":"Point","coordinates":[-95.8751755,41.2572136]}},{"properties":{"city":"Sioux City","store number":221,"fax number":null,"latitude":42.5051,"zip code":"51105","store details":"Pay at the Pump, Redbox, Open 24 Hours","longitude":-96.39635,"id":"a63eugmb1lh6","address":"1401 Court St","phone number":"712-258-7184","store hours":"Open 24 Hours","state":"IA"},"type":"Feature","geometry":{"type":"Point","coordinates":[-96.39635,42.5051]}},{"properties":{"city":"Grinnell","store number":222,"fax number":null,"latitude":41.7449455,"zip code":"50112","store details":"E85, Diesel, Pay at the Pump, Redbox, Open 24 Hours","longitude":-92.72718,"id":"a63eugczezr8","address":"1002 West St","phone number":"641-236-3890","store hours":"Open 24 Hours","state":"IA"},"type":"Feature","geometry":{"type":"Point","coordinates":[-92.72718,41.7449455]}},{"properties":{"city":"Sioux City","store number":223,"fax number":null,"latitude":42.51746,"zip code":"51104","store details":"Pay at the Pump","longitude":-96.39575,"id":"a63eugdkiz21","address":"2626 Court St","phone number":"712-255-4003","store hours":null,"state":"IA"},"type":"Feature","geometry":{"type":"Point","coordinates":[-96.39575,42.51746]}},{"properties":{"city":"Sioux City","store number":224,"fax number":null,"latitude":42.4896355,"zip code":"51105","store details":"Pay at the Pump, Open 24 Hours","longitude":-96.37162,"id":"a63eugqwci1h","address":"2930 Gordon Dr","phone number":"712-276-4850","store hours":"Open 24 Hours","state":"IA"},"type":"Feature","geometry":{"type":"Point","coordinates":[-96.37162,42.4896355]}},{"properties":{"city":"Sioux City","store number":225,"fax number":null,"latitude":42.4817123,"zip code":"51106","store details":null,"longitude":-96.36536,"id":"a63euggq2h5v","address":"1031 Morningside Ave","phone number":"712-276-4682","store hours":null,"state":"IA"},"type":"Feature","geometry":{"type":"Point","coordinates":[-96.36536,42.4817123]}},{"properties":{"city":"Sioux City","store number":226,"fax number":null,"latitude":42.5048561,"zip code":"51105","store details":"E85, Diesel, Pay at the Pump, Redbox, Open 24 Hours","longitude":-96.40533,"id":"a63eugj9eiml","address":"1373 Pierce St","phone number":"712-258-4226","store hours":"Open 24 Hours","state":"IA"},"type":"Feature","geometry":{"type":"Point","coordinates":[-96.40533,42.5048561]}},{"properties":{"city":"Ames","store number":227,"fax number":null,"latitude":42.0087624,"zip code":"50010","store details":"Diesel, Pay at the Pump, Restaurant: Subway, Redbox, Open 24 Hours, Semi-Truck Accessible, Carwash","longitude":-93.58588,"id":"a63eugmn4685","address":"2108 Isaac Newton Dr","phone number":"515-233-2200","store hours":"Open 24 Hours","state":"IA"},"type":"Feature","geometry":{"type":"Point","coordinates":[-93.58588,42.0087624]}},{"properties":{"city":"Sioux City","store number":228,"fax number":null,"latitude":42.47061,"zip code":"51106","store details":"E85, Diesel, Pay at the Pump, Go Fresh Market, Redbox, Open 24 Hours","longitude":-96.3470459,"id":"a63eugsmf78d","address":"1925 S Lakeport St","phone number":"712-276-3385","store hours":"Open 24 Hours","state":"IA"},"type":"Feature","geometry":{"type":"Point","coordinates":[-96.3470459,42.47061]}},{"properties":{"city":"Sioux City","store number":229,"fax number":null,"latitude":42.5103645,"zip code":"51103","store details":"E85, Diesel, Pay at the Pump, Redbox, Open 24 Hours","longitude":-96.4169846,"id":"a63euggumwa0","address":"1821 Hamilton Blvd","phone number":"712-255-7600","store hours":"Open 24 Hours","state":"IA"},"type":"Feature","geometry":{"type":"Point","coordinates":[-96.4169846,42.5103645]}},{"properties":{"city":"Clarinda","store number":233,"fax number":null,"latitude":40.7395325,"zip code":"51632","store details":"Diesel, Pay at the Pump, Open 24 Hours","longitude":-95.0196,"id":"a63eugkyx6cb","address":"1400 E Washington St","phone number":"712-542-2092","store hours":"Open 24 Hours","state":"IA"},"type":"Feature","geometry":{"type":"Point","coordinates":[-95.0196,40.7395325]}},{"properties":{"city":"Forest City","store number":234,"fax number":null,"latitude":43.2633629,"zip code":"50436","store details":"Diesel, Pay at the Pump, Open 24 Hours","longitude":-93.63722,"id":"a63eught4knt","address":"106 S 4th St","phone number":"641-582-5518","store hours":"Open 24 Hours","state":"IA"},"type":"Feature","geometry":{"type":"Point","coordinates":[-93.63722,43.2633629]}},{"properties":{"city":"Glenwood","store number":235,"fax number":null,"latitude":41.04613,"zip code":"51534","store details":"Diesel, Pay at the Pump, Open 24 Hours","longitude":-95.74456,"id":"a63eugdweuvb","address":"1 N Locust St","phone number":"712-527-9964","store hours":"Open 24 Hours","state":"IA"},"type":"Feature","geometry":{"type":"Point","coordinates":[-95.74456,41.04613]}},{"properties":{"city":"Greenfield","store number":236,"fax number":null,"latitude":41.30314,"zip code":"50849","store details":"Diesel, Pay at the Pump, Open 24 Hours","longitude":-94.45416,"id":"a63eugidinic","address":"508 SE Kent St","phone number":"641-343-7092","store hours":"Open 24 Hours","state":"IA"},"type":"Feature","geometry":{"type":"Point","coordinates":[-94.45416,41.30314]}},{"properties":{"city":"Grimes","store number":237,"fax number":null,"latitude":41.6885719,"zip code":"50111","store details":"Diesel, Pay at the Pump, Redbox, Open 24 Hours","longitude":-93.78459,"id":"a63eugokziri","address":"801 N 1st St","phone number":"515-986-9335","store hours":"Open 24 Hours","state":"IA"},"type":"Feature","geometry":{"type":"Point","coordinates":[-93.78459,41.6885719]}},{"properties":{"city":"Jefferson","store number":238,"fax number":null,"latitude":42.01738,"zip code":"50129","store details":"Diesel, Pay at the Pump","longitude":-94.37714,"id":"a63eugfs92hl","address":"303 N Elm St","phone number":"515-386-2811","store hours":null,"state":"IA"},"type":"Feature","geometry":{"type":"Point","coordinates":[-94.37714,42.01738]}},{"properties":{"city":"Norwalk","store number":240,"fax number":null,"latitude":41.4752769,"zip code":"50211","store details":"E85, Diesel, Pay at the Pump, Redbox, Open 24 Hours","longitude":-93.68178,"id":"a63eugimxqmp","address":"530 North Ave","phone number":"515-981-0617","store hours":"Open 24 Hours","state":"IA"},"type":"Feature","geometry":{"type":"Point","coordinates":[-93.68178,41.4752769]}},{"properties":{"city":"Stratford","store number":244,"fax number":null,"latitude":42.2676163,"zip code":"50249","store details":"Diesel, Pay at the Pump","longitude":-93.9272842,"id":"a63eugrdgqgx","address":"813 IA Highway 175","phone number":"515-838-2833","store hours":null,"state":"IA"},"type":"Feature","geometry":{"type":"Point","coordinates":[-93.9272842,42.2676163]}},{"properties":{"city":"Winterset","store number":246,"fax number":null,"latitude":41.33362,"zip code":"50273","store details":"Diesel, Pay at the Pump, Redbox, Open 24 Hours","longitude":-94.01474,"id":"a63eugpy5zzt","address":"122 S 1st St","phone number":"515-462-2921","store hours":"Open 24 Hours","state":"IA"},"type":"Feature","geometry":{"type":"Point","coordinates":[-94.01474,41.33362]}},{"properties":{"city":"Sioux City","store number":248,"fax number":null,"latitude":42.5151176,"zip code":"51109","store details":"Pay at the Pump, Redbox, Open 24 Hours","longitude":-96.4743958,"id":"a63euggjig4g","address":"2026 Riverside Blvd","phone number":"712-233-2922","store hours":"Open 24 Hours","state":"IA"},"type":"Feature","geometry":{"type":"Point","coordinates":[-96.4743958,42.5151176]}},{"properties":{"city":"West Branch","store number":254,"fax number":null,"latitude":41.66173,"zip code":"52358","store details":"Pay at the Pump, Redbox, Open 24 Hours","longitude":-91.34738,"id":"a63eugk5mg80","address":"620 S Downey St","phone number":"319-643-5050","store hours":"Open 24 Hours","state":"IA"},"type":"Feature","geometry":{"type":"Point","coordinates":[-91.34738,41.66173]}},{"properties":{"city":"Tipton","store number":267,"fax number":null,"latitude":41.6477623,"zip code":"52772","store details":"E85, Diesel, Pay at the Pump, Restaurant: Subway, Open 24 Hours, Semi-Truck Accessible","longitude":-91.11592,"id":"a63eugldfrij","address":"2050 IA Highway 38","phone number":"563-946-2140","store hours":"Open 24 Hours","state":"IA"},"type":"Feature","geometry":{"type":"Point","coordinates":[-91.11592,41.6477623]}},{"properties":{"city":"Ankeny","store number":292,"fax number":null,"latitude":41.746685,"zip code":"50023","store details":"E85, Diesel, Pay at the Pump, Redbox, Open 24 Hours","longitude":-93.59982,"id":"a63eugm2s8pq","address":"1825 N Ankeny Blvd","phone number":"515-965-2090","store hours":"Open 24 Hours","state":"IA"},"type":"Feature","geometry":{"type":"Point","coordinates":[-93.59982,41.746685]}},{"properties":{"city":"Clear Lake","store number":301,"fax number":null,"latitude":43.145237,"zip code":"50428","store details":"E85, Diesel, Pay at the Pump, Redbox, Open 24 Hours","longitude":-93.35971,"id":"a63eugmprai9","address":"2005 US Highway 18 E","phone number":"641-357-5140","store hours":"Open 24 Hours","state":"IA"},"type":"Feature","geometry":{"type":"Point","coordinates":[-93.35971,43.145237]}},{"properties":{"city":"Clear Lake","store number":302,"fax number":null,"latitude":43.1337128,"zip code":"50428","store details":"E85, Diesel, Pay at the Pump, Restaurant: Taco John's, Redbox, Open 24 Hours, Semi-Truck Accessible","longitude":-93.35145,"id":"a63eugh0aqdg","address":"2905 4th Ave S","phone number":"641-357-6041","store hours":"Open 24 Hours","state":"IA"},"type":"Feature","geometry":{"type":"Point","coordinates":[-93.35145,43.1337128]}},{"properties":{"city":"Newton","store number":333,"fax number":null,"latitude":41.69951,"zip code":"50208","store details":"Pay at the Pump, Redbox, Open 24 Hours","longitude":-93.0497,"id":"a63eugdvv53s","address":"405 1st Ave E","phone number":"641-792-0629","store hours":"Open 24 Hours","state":"IA"},"type":"Feature","geometry":{"type":"Point","coordinates":[-93.0497,41.69951]}},{"properties":{"city":"Columbus","store number":338,"fax number":null,"latitude":41.4242935,"zip code":"68601","store details":"Pay at the Pump, Open 24 Hours","longitude":-97.36795,"id":"a63eugh2qe51","address":"771 33rd Ave","phone number":"402-564-3711","store hours":"Open 24 Hours","state":"NE"},"type":"Feature","geometry":{"type":"Point","coordinates":[-97.36795,41.4242935]}},{"properties":{"city":"Norfolk","store number":346,"fax number":null,"latitude":42.01836,"zip code":"68701","store details":"Open 24 Hours","longitude":-97.40691,"id":"a63eugnwhjb2","address":"101 Omaha Ave","phone number":"402-371-8769","store hours":"Open 24 Hours","state":"NE"},"type":"Feature","geometry":{"type":"Point","coordinates":[-97.40691,42.01836]}},{"properties":{"city":"Omaha","store number":347,"fax number":null,"latitude":41.2896652,"zip code":"68164","store details":"Diesel, Pay at the Pump, Redbox, Open 24 Hours","longitude":-96.08156,"id":"a63eugpo5auy","address":"3352 N 108th St","phone number":"402-496-3422","store hours":"Open 24 Hours","state":"NE"},"type":"Feature","geometry":{"type":"Point","coordinates":[-96.08156,41.2896652]}},{"properties":{"city":"Omaha","store number":348,"fax number":null,"latitude":41.277462,"zip code":"68154","store details":"Diesel, Pay at the Pump, Redbox, Open 24 Hours","longitude":-96.10084,"id":"a63eugginrzs","address":"12011 Blondo St","phone number":"402-493-7272","store hours":"Open 24 Hours","state":"NE"},"type":"Feature","geometry":{"type":"Point","coordinates":[-96.10084,41.277462]}},{"properties":{"city":"Omaha","store number":351,"fax number":null,"latitude":41.26587,"zip code":"68154","store details":"Pay at the Pump, Redbox, Open 24 Hours","longitude":-96.0842,"id":"a63eugqudfbu","address":"720 N 108th Ct","phone number":"402-496-9586","store hours":"Open 24 Hours","state":"NE"},"type":"Feature","geometry":{"type":"Point","coordinates":[-96.0842,41.26587]}},{"properties":{"city":"Omaha","store number":352,"fax number":null,"latitude":41.2491951,"zip code":"68154","store details":"Diesel, Pay at the Pump, Redbox, Open 24 Hours","longitude":-96.15552,"id":"a63eugelgamq","address":"1010 S 154th St","phone number":"402-330-3678","store hours":"Open 24 Hours","state":"NE"},"type":"Feature","geometry":{"type":"Point","coordinates":[-96.15552,41.2491951]}},{"properties":{"city":"Omaha","store number":360,"fax number":null,"latitude":41.1598854,"zip code":"68136","store details":"Diesel, Pay at the Pump, Redbox, Open 24 Hours","longitude":-96.17765,"id":"a63eugnu1ewu","address":"10025 S 168th Ave","phone number":"402-891-2651","store hours":"Open 24 Hours","state":"NE"},"type":"Feature","geometry":{"type":"Point","coordinates":[-96.17765,41.1598854]}},{"properties":{"city":"Elkhorn","store number":361,"fax number":null,"latitude":41.24861,"zip code":"68022","store details":"Diesel, Pay at the Pump, Redbox, Open 24 Hours","longitude":-96.21241,"id":"a63eugp59ikr","address":"1010 S 189th St","phone number":"402-289-2357","store hours":"Open 24 Hours","state":"NE"},"type":"Feature","geometry":{"type":"Point","coordinates":[-96.21241,41.24861]}},{"properties":{"city":"Omaha","store number":363,"fax number":null,"latitude":41.27783,"zip code":"68104","store details":"Pay at the Pump, Redbox, Open 24 Hours","longitude":-96.0145,"id":"a63eugkdm8mr","address":"6606 Blondo St","phone number":"402-554-0717","store hours":"Open 24 Hours","state":"NE"},"type":"Feature","geometry":{"type":"Point","coordinates":[-96.0145,41.27783]}},{"properties":{"city":"Omaha","store number":367,"fax number":null,"latitude":41.20576,"zip code":"68135","store details":"Diesel, Pay at the Pump, Redbox, Open 24 Hours","longitude":-96.21232,"id":"a63eugmn7hn7","address":"18908 Q St","phone number":"402-861-1841","store hours":"Open 24 Hours","state":"NE"},"type":"Feature","geometry":{"type":"Point","coordinates":[-96.21232,41.20576]}},{"properties":{"city":"Omaha","store number":368,"fax number":null,"latitude":41.29257,"zip code":"68116","store details":"E85, Diesel, Pay at the Pump, Redbox, Open 24 Hours","longitude":-96.17701,"id":"a63eugof3b4j","address":"4041 N 168th St","phone number":"402-289-2219","store hours":"Open 24 Hours","state":"NE"},"type":"Feature","geometry":{"type":"Point","coordinates":[-96.17701,41.29257]}},{"properties":{"city":"Omaha","store number":369,"fax number":null,"latitude":41.289444,"zip code":"68164","store details":"Diesel, Pay at the Pump, Redbox, Open 24 Hours","longitude":-96.08639,"id":"a63eugskhiey","address":"11111 Emmet St","phone number":"402-933-3105","store hours":"Open 24 Hours","state":"NE"},"type":"Feature","geometry":{"type":"Point","coordinates":[-96.08639,41.289444]}},{"properties":{"city":"Gretna","store number":370,"fax number":null,"latitude":41.14644,"zip code":null,"store details":"Diesel, Pay at the Pump, Redbox, Open 24 Hours","longitude":-96.16231,"id":"a63eugsh7fga","address":"11205 Wickersham Blvd","phone number":"402-891-0900","store hours":"Open 24 Hours","state":"NE"},"type":"Feature","geometry":{"type":"Point","coordinates":[-96.16231,41.14644]}},{"properties":{"city":"Omaha","store number":371,"fax number":null,"latitude":41.30649,"zip code":"68164","store details":"Diesel, Pay at the Pump, Redbox, Open 24 Hours","longitude":-96.11945,"id":"a63eugpu4t62","address":"13149 Fort St","phone number":"402-493-3462","store hours":"Open 24 Hours","state":"NE"},"type":"Feature","geometry":{"type":"Point","coordinates":[-96.11945,41.30649]}},{"properties":{"city":"Omaha","store number":372,"fax number":null,"latitude":41.2491455,"zip code":"68106","store details":"Diesel, Pay at the Pump, Open 24 Hours","longitude":-96.02343,"id":"a63eugm70iaw","address":"7152 Pacific St","phone number":"402-391-4611","store hours":"Open 24 Hours","state":"NE"},"type":"Feature","geometry":{"type":"Point","coordinates":[-96.02343,41.2491455]}},{"properties":{"city":"Bellevue","store number":373,"fax number":null,"latitude":41.1042061,"zip code":"68123","store details":"Diesel, Pay at the Pump, Redbox, Open 24 Hours","longitude":-95.93443,"id":"a63eugqrupoj","address":"13905 Williamsburg Dr","phone number":"402-291-0302","store hours":"Open 24 Hours","state":"NE"},"type":"Feature","geometry":{"type":"Point","coordinates":[-95.93443,41.1042061]}},{"properties":{"city":"Papillion","store number":374,"fax number":null,"latitude":41.1764946,"zip code":"68128","store details":"E85, Diesel, Pay at the Pump, Redbox, Open 24 Hours","longitude":-96.08095,"id":"a63eugr58vs8","address":"10764 Virginia Plz","phone number":"402-331-0228","store hours":"Open 24 Hours","state":"NE"},"type":"Feature","geometry":{"type":"Point","coordinates":[-96.08095,41.1764946]}},{"properties":{"city":"Omaha","store number":376,"fax number":null,"latitude":41.23446,"zip code":"68130","store details":"E85, Diesel, Pay at the Pump","longitude":-96.22089,"id":"a63eugdotpbg","address":"2627 S HWS Cleveland Blvd","phone number":"402-289-3190","store hours":null,"state":"NE"},"type":"Feature","geometry":{"type":"Point","coordinates":[-96.22089,41.23446]}},{"properties":{"city":"Omaha","store number":377,"fax number":null,"latitude":41.2854843,"zip code":"68134","store details":"Diesel, Pay at the Pump, Open 24 Hours","longitude":-96.0411758,"id":"a63eugp6my1a","address":"8242 Maple St","phone number":"402-399-9702","store hours":"Open 24 Hours","state":"NE"},"type":"Feature","geometry":{"type":"Point","coordinates":[-96.0411758,41.2854843]}},{"properties":{"city":"Black Rock","store number":379,"fax number":null,"latitude":36.1044159,"zip code":"72415","store details":"Diesel, Pay at the Pump, Redbox, Semi-Truck Accessible","longitude":-91.0994949,"id":"a63eugeq6fiz","address":"3430 US Highway 63","phone number":"870-878-6107","store hours":null,"state":"AR"},"type":"Feature","geometry":{"type":"Point","coordinates":[-91.0994949,36.1044159]}},{"properties":{"city":"Fort Smith","store number":380,"fax number":null,"latitude":35.3722343,"zip code":"72901","store details":"Pay at the Pump, Redbox, Open 24 Hours","longitude":-94.40994,"id":"a63eugt8erx7","address":"2112 Dodson Ave","phone number":"479-785-5255","store hours":"Open 24 Hours","state":"AR"},"type":"Feature","geometry":{"type":"Point","coordinates":[-94.40994,35.3722343]}},{"properties":{"city":"Harrison","store number":381,"fax number":null,"latitude":36.2226944,"zip code":"72601","store details":"Diesel, Pay at the Pump, Redbox, Open 24 Hours","longitude":-93.08428,"id":"a63eugsdrkh3","address":"524 Highway 62-65 S","phone number":"870-743-3434","store hours":"Open 24 Hours","state":"AR"},"type":"Feature","geometry":{"type":"Point","coordinates":[-93.08428,36.2226944]}},{"properties":{"city":"Lowell","store number":382,"fax number":null,"latitude":36.25379,"zip code":"72745","store details":"Pay at the Pump, Redbox, Open 24 Hours","longitude":-94.1372757,"id":"a63eugnxvdqz","address":"104 S Bloomington St","phone number":"479-770-0167","store hours":"Open 24 Hours","state":"AR"},"type":"Feature","geometry":{"type":"Point","coordinates":[-94.1372757,36.25379]}},{"properties":{"city":"Springdale","store number":383,"fax number":null,"latitude":36.195446,"zip code":"72764","store details":"E85, Diesel, Pay at the Pump, Go Fresh Market, Redbox, Open 24 Hours","longitude":-94.13839,"id":"a63eugir9g0e","address":"1010 N Thompson St","phone number":"479-756-0910","store hours":"Open 24 Hours","state":"AR"},"type":"Feature","geometry":{"type":"Point","coordinates":[-94.13839,36.195446]}},{"properties":{"city":"Springdale","store number":384,"fax number":null,"latitude":36.17467,"zip code":"72762","store details":"Pay at the Pump, Redbox, Open 24 Hours","longitude":-94.15634,"id":"a63eugs21goc","address":"2351 W Sunset Ave","phone number":"479-756-1137","store hours":"Open 24 Hours","state":"AR"},"type":"Feature","geometry":{"type":"Point","coordinates":[-94.15634,36.17467]}},{"properties":{"city":"Van Buren","store number":385,"fax number":null,"latitude":35.4413872,"zip code":"72956","store details":"Pay at the Pump, Redbox, Open 24 Hours","longitude":-94.3291855,"id":"a63eugfutifi","address":"2720 Alma Hwy","phone number":"479-474-5042","store hours":"Open 24 Hours","state":"AR"},"type":"Feature","geometry":{"type":"Point","coordinates":[-94.3291855,35.4413872]}},{"properties":{"city":"Bono","store number":386,"fax number":null,"latitude":35.9002571,"zip code":"72416","store details":"Diesel, Pay at the Pump","longitude":-90.80402,"id":"a63eugdwq3be","address":"200 US Highway 63","phone number":"870-972-6958","store hours":null,"state":"AR"},"type":"Feature","geometry":{"type":"Point","coordinates":[-90.80402,35.9002571]}},{"properties":{"city":"Bono","store number":387,"fax number":null,"latitude":35.9086456,"zip code":"72416","store details":"Diesel, Pay at the Pump, Restaurant: Baskin Robbins, Redbox, Open 24 Hours","longitude":-90.80216,"id":"a63eugkgosps","address":"10144 US Highway 63","phone number":"870-932-5073","store hours":"Open 24 Hours","state":"AR"},"type":"Feature","geometry":{"type":"Point","coordinates":[-90.80216,35.9086456]}},{"properties":{"city":"Brookland","store number":388,"fax number":null,"latitude":35.9097748,"zip code":"72417","store details":"Diesel, Pay at the Pump","longitude":-90.5773544,"id":"a63eughp2bdn","address":"801 N Holman St","phone number":"870-972-5851","store hours":null,"state":"AR"},"type":"Feature","geometry":{"type":"Point","coordinates":[-90.5773544,35.9097748]}},{"properties":{"city":"Jonesboro","store number":389,"fax number":null,"latitude":35.86412,"zip code":"72401","store details":"Pay at the Pump, Redbox","longitude":-90.70279,"id":"a63eugskcpuw","address":"2028 N Church St","phone number":"870-972-6953","store hours":null,"state":"AR"},"type":"Feature","geometry":{"type":"Point","coordinates":[-90.70279,35.86412]}},{"properties":{"city":"Jonesboro","store number":390,"fax number":null,"latitude":35.81466,"zip code":"72401","store details":"Diesel, Pay at the Pump, Redbox","longitude":-90.71398,"id":"a63eugm38w9v","address":"2515 S Culberhouse St","phone number":"870-972-6951","store hours":null,"state":"AR"},"type":"Feature","geometry":{"type":"Point","coordinates":[-90.71398,35.81466]}},{"properties":{"city":"Jonesboro","store number":391,"fax number":null,"latitude":35.821106,"zip code":"72401","store details":"Pay at the Pump, Redbox, Open 24 Hours","longitude":-90.63816,"id":"a63euglgvmhk","address":"4810 E Highland Dr","phone number":"870-972-6952","store hours":"Open 24 Hours","state":"AR"},"type":"Feature","geometry":{"type":"Point","coordinates":[-90.63816,35.821106]}},{"properties":{"city":"Jonesboro","store number":393,"fax number":null,"latitude":35.8575172,"zip code":"72401","store details":"Diesel, Pay at the Pump, Redbox, Open 24 Hours","longitude":-90.6569443,"id":"a63euggb3xpx","address":"3418 E Johnson Ave","phone number":"870-972-6955","store hours":"Open 24 Hours","state":"AR"},"type":"Feature","geometry":{"type":"Point","coordinates":[-90.6569443,35.8575172]}},{"properties":{"city":"Jonesboro","store number":395,"fax number":null,"latitude":35.81244,"zip code":"72401","store details":"Diesel, Pay at the Pump, Redbox, Open 24 Hours","longitude":-90.66971,"id":"a63euggu5cci","address":"2607 Stadium Blvd","phone number":"870-972-6325","store hours":"Open 24 Hours","state":"AR"},"type":"Feature","geometry":{"type":"Point","coordinates":[-90.66971,35.81244]}},{"properties":{"city":"Nevada","store number":396,"fax number":null,"latitude":42.0225639,"zip code":"50201","store details":"Pay at the Pump, Open 24 Hours","longitude":-93.45794,"id":"a63eugpl9mlu","address":"136 Lincoln Hwy","phone number":"515-382-4880","store hours":"Open 24 Hours","state":"IA"},"type":"Feature","geometry":{"type":"Point","coordinates":[-93.45794,42.0225639]}},{"properties":{"city":"Jonesboro","store number":397,"fax number":null,"latitude":35.8034554,"zip code":"72404","store details":"Diesel, Pay at the Pump, Redbox, Open 24 Hours","longitude":-90.66973,"id":"a63eugdel7lt","address":"3105 Stadium Blvd","phone number":"870-268-7502","store hours":"Open 24 Hours","state":"AR"},"type":"Feature","geometry":{"type":"Point","coordinates":[-90.66973,35.8034554]}},{"properties":{"city":"Paragould","store number":398,"fax number":null,"latitude":36.05988,"zip code":"72450","store details":"Diesel, Pay at the Pump, Restaurant: McDonald's, Redbox, Open 24 Hours, Carwash","longitude":-90.5479,"id":"a63eugskp1s6","address":"4610 W Kings Hwy","phone number":"870-239-0094","store hours":"Open 24 Hours","state":"AR"},"type":"Feature","geometry":{"type":"Point","coordinates":[-90.5479,36.05988]}},{"properties":{"city":"Lowell","store number":399,"fax number":null,"latitude":36.28212,"zip code":"72745","store details":"Diesel, Pay at the Pump, Go Fresh Market, Redbox, Open 24 Hours","longitude":-94.13097,"id":"a63eugg4r3p0","address":"978 W Pleasant Grove Rd","phone number":"479-303-2016","store hours":"Open 24 Hours","state":"AR"},"type":"Feature","geometry":{"type":"Point","coordinates":[-94.13097,36.28212]}},{"properties":{"city":"Springdale","store number":400,"fax number":null,"latitude":36.19282,"zip code":"72762","store details":"Diesel, Pay at the Pump, Go Fresh Market, Redbox, Open 24 Hours","longitude":-94.17712,"id":"a63eugn1pw40","address":"4231 Elm Springs Rd","phone number":"479-756-6745","store hours":"Open 24 Hours","state":"AR"},"type":"Feature","geometry":{"type":"Point","coordinates":[-94.17712,36.19282]}},{"properties":{"city":"Rogers","store number":401,"fax number":null,"latitude":36.3123741,"zip code":"72758","store details":"Diesel, Pay at the Pump, Go Fresh Market, Redbox, Open 24 Hours","longitude":-94.14397,"id":"a63eughy4wkn","address":"1701 W New Hope Rd","phone number":"479-246-9220","store hours":"Open 24 Hours","state":"AR"},"type":"Feature","geometry":{"type":"Point","coordinates":[-94.14397,36.3123741]}},{"properties":{"city":"Lowell","store number":402,"fax number":null,"latitude":36.255,"zip code":"72745","store details":"E85, Diesel, Pay at the Pump, Go Fresh Market, Redbox, Open 24 Hours","longitude":-94.15542,"id":"a63eugghhfbz","address":"816 W Monroe Ave","phone number":"479-750-2132","store hours":"Open 24 Hours","state":"AR"},"type":"Feature","geometry":{"type":"Point","coordinates":[-94.15542,36.255]}},{"properties":{"city":"Rogers","store number":403,"fax number":null,"latitude":36.35524,"zip code":"72756","store details":"Diesel, Pay at the Pump, Go Fresh Market, Redbox, Open 24 Hours","longitude":-94.15204,"id":"a63eugf1t6a9","address":"2400 W Hudson Rd","phone number":"479-986-9403","store hours":"Open 24 Hours","state":"AR"},"type":"Feature","geometry":{"type":"Point","coordinates":[-94.15204,36.35524]}},{"properties":{"city":"Mason City","store number":404,"fax number":null,"latitude":43.14827,"zip code":"50401","store details":"Pay at the Pump, Open 24 Hours","longitude":-93.22107,"id":"a63eugefzm9a","address":"1303 4th St SW","phone number":"641-423-3503","store hours":"Open 24 Hours","state":"IA"},"type":"Feature","geometry":{"type":"Point","coordinates":[-93.22107,43.14827]}},{"properties":{"city":"Bentonville","store number":405,"fax number":null,"latitude":36.3431053,"zip code":"72712","store details":"E85, Diesel, Pay at the Pump, Go Fresh Market, Redbox, Open 24 Hours","longitude":-94.18401,"id":"a63eugj6qfm9","address":"2710 Moberly Ln","phone number":"479-464-0849","store hours":"Open 24 Hours","state":"AR"},"type":"Feature","geometry":{"type":"Point","coordinates":[-94.18401,36.3431053]}},{"properties":{"city":"Springdale","store number":406,"fax number":null,"latitude":36.18858,"zip code":"72764","store details":"E85, Diesel, Pay at the Pump, Go Fresh Market, Redbox, Open 24 Hours","longitude":-94.11702,"id":"a63eugr0q4ia","address":"500 N Old Missouri Rd","phone number":"479-750-4213","store hours":"Open 24 Hours","state":"AR"},"type":"Feature","geometry":{"type":"Point","coordinates":[-94.11702,36.18858]}},{"properties":{"city":"Bentonville","store number":408,"fax number":null,"latitude":36.3808327,"zip code":"72712","store details":"E85, Diesel, Pay at the Pump, Go Fresh Market, Redbox, Open 24 Hours","longitude":-94.1766357,"id":"a63eugif8yig","address":"2811 E Central Ave","phone number":"479-254-0683","store hours":"Open 24 Hours","state":"AR"},"type":"Feature","geometry":{"type":"Point","coordinates":[-94.1766357,36.3808327]}},{"properties":{"city":"Fayetteville","store number":409,"fax number":null,"latitude":36.0949173,"zip code":"72703","store details":"E85, Diesel, Pay at the Pump, Go Fresh Market, Redbox, Open 24 Hours","longitude":-94.15247,"id":"a63eugpou866","address":"2388 North College Ave","phone number":"479-251-1558","store hours":"Open 24 Hours","state":"AR"},"type":"Feature","geometry":{"type":"Point","coordinates":[-94.15247,36.0949173]}},{"properties":{"city":"Bentonville","store number":412,"fax number":null,"latitude":36.33679,"zip code":"72712","store details":"E85, Diesel, Pay at the Pump, Go Fresh Market, Redbox, Open 24 Hours","longitude":-94.25331,"id":"a63eugs4xmfv","address":"3610 SW Regional Airport Blvd","phone number":"479-254-3759","store hours":"Open 24 Hours","state":"AR"},"type":"Feature","geometry":{"type":"Point","coordinates":[-94.25331,36.33679]}},{"properties":{"city":"Sioux Center","store number":421,"fax number":null,"latitude":43.0810432,"zip code":"51250","store details":"Pay at the Pump","longitude":-96.17541,"id":"a63eugk8harm","address":"402 N Main Ave","phone number":"712-722-2927","store hours":null,"state":"IA"},"type":"Feature","geometry":{"type":"Point","coordinates":[-96.17541,43.0810432]}},{"properties":{"city":"Iowa City","store number":422,"fax number":null,"latitude":41.6535263,"zip code":"52246","store details":"Pay at the Pump, Redbox, Open 24 Hours","longitude":-91.54063,"id":"a63eugnichmy","address":"513 S Riverside Dr","phone number":"319-351-4151","store hours":"Open 24 Hours","state":"IA"},"type":"Feature","geometry":{"type":"Point","coordinates":[-91.54063,41.6535263]}},{"properties":{"city":"Missouri Valley","store number":430,"fax number":null,"latitude":41.5565567,"zip code":"51555","store details":"Pay at the Pump","longitude":-95.8853455,"id":"a63eugj83nkj","address":"717 E Erie St","phone number":"712-642-2938","store hours":null,"state":"IA"},"type":"Feature","geometry":{"type":"Point","coordinates":[-95.8853455,41.5565567]}},{"properties":{"city":"Battlefield","store number":431,"fax number":null,"latitude":37.11437,"zip code":"65619","store details":"Diesel, Pay at the Pump, Semi-Truck Accessible","longitude":-93.37104,"id":"a63eugicuyd6","address":"5505 S State Highway FF","phone number":"417-823-7828","store hours":null,"state":"MO"},"type":"Feature","geometry":{"type":"Point","coordinates":[-93.37104,37.11437]}},{"properties":{"city":"Bolivar","store number":432,"fax number":null,"latitude":37.613018,"zip code":"65613","store details":"Diesel, Pay at the Pump, Redbox, Open 24 Hours, Semi-Truck Accessible","longitude":-93.45001,"id":"a63euggl2w55","address":"3303 W Broadway St","phone number":"417-777-7858","store hours":"Open 24 Hours","state":"MO"},"type":"Feature","geometry":{"type":"Point","coordinates":[-93.45001,37.613018]}},{"properties":{"city":"Bolivar","store number":433,"fax number":null,"latitude":37.59022,"zip code":"65613","store details":"Diesel, Pay at the Pump, Redbox, Open 24 Hours","longitude":-93.4011841,"id":"a63euglmfooq","address":"2565 S Springfield Ave","phone number":"417-777-5359","store hours":"Open 24 Hours","state":"MO"},"type":"Feature","geometry":{"type":"Point","coordinates":[-93.4011841,37.59022]}},{"properties":{"city":"Clever","store number":434,"fax number":null,"latitude":37.0371933,"zip code":"65631","store details":"Diesel, Pay at the Pump, Redbox","longitude":-93.47249,"id":"a63eugrmvlcq","address":"414 N Public Ave","phone number":"417-743-2556","store hours":null,"state":"MO"},"type":"Feature","geometry":{"type":"Point","coordinates":[-93.47249,37.0371933]}},{"properties":{"city":"Fair Grove","store number":435,"fax number":null,"latitude":37.38438,"zip code":"65648","store details":"Diesel, Pay at the Pump, Redbox","longitude":-93.1535,"id":"a63eugl023up","address":"103 W Old Mill Rd","phone number":"417-759-7000","store hours":null,"state":"MO"},"type":"Feature","geometry":{"type":"Point","coordinates":[-93.1535,37.38438]}},{"properties":{"city":"Muscatine","store number":436,"fax number":null,"latitude":41.4250069,"zip code":"52761","store details":"Pay at the Pump, Open 24 Hours","longitude":-91.04592,"id":"a63eugm94nyx","address":"501 Cedar St","phone number":"563-263-3774","store hours":"Open 24 Hours","state":"IA"},"type":"Feature","geometry":{"type":"Point","coordinates":[-91.04592,41.4250069]}},{"properties":{"city":"Muscatine","store number":437,"fax number":null,"latitude":41.40935,"zip code":"52761","store details":"Pay at the Pump, Open 24 Hours","longitude":-91.06301,"id":"a63eugcya7ih","address":"709 Grandview Ave","phone number":"563-263-4956","store hours":"Open 24 Hours","state":"IA"},"type":"Feature","geometry":{"type":"Point","coordinates":[-91.06301,41.40935]}},{"properties":{"city":"Muscatine","store number":438,"fax number":null,"latitude":41.43571,"zip code":"52761","store details":"Pay at the Pump, Redbox, Open 24 Hours","longitude":-91.03094,"id":"a63eugf0evoj","address":"1010 Park Ave","phone number":"563-263-4987","store hours":"Open 24 Hours","state":"IA"},"type":"Feature","geometry":{"type":"Point","coordinates":[-91.03094,41.43571]}},{"properties":{"city":"Wapello","store number":439,"fax number":null,"latitude":41.1812477,"zip code":"52653","store details":"Pay at the Pump, Open 24 Hours","longitude":-91.19548,"id":"a63eughkmu5v","address":"303 US Highway 61 N","phone number":"319-523-2200","store hours":"Open 24 Hours","state":"IA"},"type":"Feature","geometry":{"type":"Point","coordinates":[-91.19548,41.1812477]}},{"properties":{"city":"Hollister","store number":441,"fax number":null,"latitude":36.6084328,"zip code":"65672","store details":"Diesel, Pay at the Pump, Redbox, Open 24 Hours, Semi-Truck Accessible","longitude":-93.23366,"id":"a63eugn1woed","address":"195 Gage Dr","phone number":"417-334-7824","store hours":"Open 24 Hours","state":"MO"},"type":"Feature","geometry":{"type":"Point","coordinates":[-93.23366,36.6084328]}},{"properties":{"city":"Joplin","store number":442,"fax number":null,"latitude":37.08761,"zip code":"64801","store details":"Pay at the Pump, Redbox, Open 24 Hours, Semi-Truck Accessible","longitude":-94.4952545,"id":"a63euggfg0xt","address":"1631 E 4th St","phone number":"417-624-1177","store hours":"Open 24 Hours","state":"MO"},"type":"Feature","geometry":{"type":"Point","coordinates":[-94.4952545,37.08761]}},{"properties":{"city":"Williamsburg","store number":443,"fax number":null,"latitude":41.69293,"zip code":"52301","store details":"Diesel, Pay at the Pump, Restaurant: Subway, Open 24 Hours, Semi-Truck Accessible","longitude":-92.0666962,"id":"a63eugt2ozjt","address":"2177 M Ave","phone number":"319-668-2879","store hours":"Open 24 Hours","state":"IA"},"type":"Feature","geometry":{"type":"Point","coordinates":[-92.0666962,41.69293]}},{"properties":{"city":"Joplin","store number":446,"fax number":null,"latitude":37.08405,"zip code":"64801","store details":"Diesel, Pay at the Pump, Redbox, Open 24 Hours, Semi-Truck Accessible","longitude":-94.45949,"id":"a63eugg5qai9","address":"3931 E 7th St","phone number":"417-623-5600","store hours":"Open 24 Hours","state":"MO"},"type":"Feature","geometry":{"type":"Point","coordinates":[-94.45949,37.08405]}},{"properties":{"city":"Joplin","store number":447,"fax number":null,"latitude":37.08479,"zip code":"64801","store details":"Pay at the Pump, Redbox, Open 24 Hours, Semi-Truck Accessible","longitude":-94.54298,"id":"a63euge9zb2k","address":"2307 W 7th St","phone number":"417-623-2086","store hours":"Open 24 Hours","state":"MO"},"type":"Feature","geometry":{"type":"Point","coordinates":[-94.54298,37.08479]}},{"properties":{"city":"Neosho","store number":449,"fax number":null,"latitude":36.8413467,"zip code":"64850","store details":"E85, Diesel, Pay at the Pump, Redbox, Open 24 Hours, Semi-Truck Accessible","longitude":-94.40924,"id":"a63eugrjn8ym","address":"15679 Kodiak Rd","phone number":"417-455-2154","store hours":"Open 24 Hours","state":"MO"},"type":"Feature","geometry":{"type":"Point","coordinates":[-94.40924,36.8413467]}},{"properties":{"city":"Monticello","store number":451,"fax number":null,"latitude":42.2338333,"zip code":"52310","store details":"Pay at the Pump, Open 24 Hours","longitude":-91.18521,"id":"a63eugndxw17","address":"501 S Main St","phone number":"319-465-3040","store hours":"Open 24 Hours","state":"IA"},"type":"Feature","geometry":{"type":"Point","coordinates":[-91.18521,42.2338333]}},{"properties":{"city":"Bolivar","store number":452,"fax number":null,"latitude":37.59027,"zip code":"65613","store details":"Diesel, Pay at the Pump, Redbox, Open 24 Hours","longitude":-93.40178,"id":"a63eugiib6yx","address":"2560 S Springfield Ave","phone number":"417-777-6002","store hours":"Open 24 Hours","state":"MO"},"type":"Feature","geometry":{"type":"Point","coordinates":[-93.40178,37.59027]}},{"properties":{"city":"Joplin","store number":453,"fax number":null,"latitude":37.0662422,"zip code":"64804","store details":"Pay at the Pump, Redbox, Open 24 Hours, Carwash","longitude":-94.47821,"id":"a63eughh0n2e","address":"2202 S Range Line Rd","phone number":"417-627-9516","store hours":"Open 24 Hours","state":"MO"},"type":"Feature","geometry":{"type":"Point","coordinates":[-94.47821,37.0662422]}},{"properties":{"city":"Joplin","store number":454,"fax number":null,"latitude":37.0503845,"zip code":"64804","store details":"Diesel, Pay at the Pump, Redbox, Open 24 Hours","longitude":-94.47883,"id":"a63eugrzfk1a","address":"3504 S Range Line Rd","phone number":"417-627-9583","store hours":"Open 24 Hours","state":"MO"},"type":"Feature","geometry":{"type":"Point","coordinates":[-94.47883,37.0503845]}},{"properties":{"city":"Lebanon","store number":455,"fax number":null,"latitude":37.6818,"zip code":"65536","store details":"Pay at the Pump, Redbox, Open 24 Hours","longitude":-92.6375351,"id":"a63eugojvqes","address":"501 Cowan Dr","phone number":"417-588-9595","store hours":"Open 24 Hours","state":"MO"},"type":"Feature","geometry":{"type":"Point","coordinates":[-92.6375351,37.6818]}},{"properties":{"city":"Lebanon","store number":456,"fax number":null,"latitude":37.6858253,"zip code":"65536","store details":"Diesel, Pay at the Pump, Redbox, Open 24 Hours","longitude":-92.6702,"id":"a63euggyva9c","address":"656 N Jefferson Ave","phone number":"417-588-9528","store hours":"Open 24 Hours","state":"MO"},"type":"Feature","geometry":{"type":"Point","coordinates":[-92.6702,37.6858253]}},{"properties":{"city":"Marshfield","store number":457,"fax number":null,"latitude":37.33687,"zip code":"65706","store details":"Diesel, Pay at the Pump, Redbox, Open 24 Hours","longitude":-92.920166,"id":"a63eugk2452d","address":"919 W Washington St","phone number":"417-859-5737","store hours":"Open 24 Hours","state":"MO"},"type":"Feature","geometry":{"type":"Point","coordinates":[-92.920166,37.33687]}},{"properties":{"city":"Republic","store number":458,"fax number":null,"latitude":37.1196,"zip code":"65738","store details":"Diesel, Pay at the Pump, Redbox, Open 24 Hours, Carwash","longitude":-93.46929,"id":"a63eugmwi2r2","address":"638 E US Highway 60","phone number":"417-732-6440","store hours":"Open 24 Hours","state":"MO"},"type":"Feature","geometry":{"type":"Point","coordinates":[-93.46929,37.1196]}},{"properties":{"city":"Joplin","store number":459,"fax number":null,"latitude":37.07185,"zip code":"64801","store details":"Diesel, Pay at the Pump","longitude":-94.53184,"id":"a63eughvv8gx","address":"1832 S Maiden Ln","phone number":"417-627-9651","store hours":null,"state":"MO"},"type":"Feature","geometry":{"type":"Point","coordinates":[-94.53184,37.07185]}},{"properties":{"city":"Springfield","store number":460,"fax number":null,"latitude":37.16026,"zip code":"65807","store details":"Diesel, Pay at the Pump, Redbox, Open 24 Hours","longitude":-93.30975,"id":"a63eughwlobb","address":"1313 W Battlefield St","phone number":"417-882-3861","store hours":"Open 24 Hours","state":"MO"},"type":"Feature","geometry":{"type":"Point","coordinates":[-93.30975,37.16026]}},{"properties":{"city":"Joplin","store number":461,"fax number":null,"latitude":37.1423531,"zip code":"64870","store details":"Diesel, Pay at the Pump, Redbox, Open 24 Hours, Semi-Truck Accessible","longitude":-94.51009,"id":"a63eugi592sj","address":"5958 N Main St","phone number":"417-624-3347","store hours":"Open 24 Hours","state":"MO"},"type":"Feature","geometry":{"type":"Point","coordinates":[-94.51009,37.1423531]}},{"properties":{"city":"Springfield","store number":463,"fax number":null,"latitude":37.213028,"zip code":"65803","store details":"Diesel, Pay at the Pump, Redbox, Open 24 Hours","longitude":-93.34913,"id":"a63eugeg2u5d","address":"425 NW Bypass","phone number":"417-865-6885","store hours":"Open 24 Hours","state":"MO"},"type":"Feature","geometry":{"type":"Point","coordinates":[-93.34913,37.213028]}},{"properties":{"city":"Springfield","store number":464,"fax number":null,"latitude":37.16303,"zip code":"65807","store details":"Pay at the Pump, Redbox, Open 24 Hours","longitude":-93.29514,"id":"a63eugdop9ej","address":"2808 S Campbell Ave","phone number":"417-881-1644","store hours":"Open 24 Hours","state":"MO"},"type":"Feature","geometry":{"type":"Point","coordinates":[-93.29514,37.16303]}},{"properties":{"city":"Springfield","store number":465,"fax number":null,"latitude":37.1166763,"zip code":"65810","store details":"Diesel, Pay at the Pump, Redbox, Open 24 Hours","longitude":-93.29585,"id":"a63eugmxwcdt","address":"5384 S Campbell Ave","phone number":"417-882-7949","store hours":"Open 24 Hours","state":"MO"},"type":"Feature","geometry":{"type":"Point","coordinates":[-93.29585,37.1166763]}},{"properties":{"city":"Springfield","store number":466,"fax number":null,"latitude":37.20881,"zip code":"65806","store details":"Pay at the Pump, Redbox, Open 24 Hours","longitude":-93.32609,"id":"a63eugnttr0g","address":"2506 W College Rd","phone number":"417-864-5655","store hours":"Open 24 Hours","state":"MO"},"type":"Feature","geometry":{"type":"Point","coordinates":[-93.32609,37.20881]}},{"properties":{"city":"Springfield","store number":467,"fax number":null,"latitude":37.22481,"zip code":"65803","store details":"Diesel, Pay at the Pump, Redbox, Open 24 Hours","longitude":-93.23469,"id":"a63euglpaix7","address":"2963 E Division St","phone number":"417-866-3284","store hours":"Open 24 Hours","state":"MO"},"type":"Feature","geometry":{"type":"Point","coordinates":[-93.23469,37.22481]}},{"properties":{"city":"Springfield","store number":468,"fax number":null,"latitude":37.2054939,"zip code":"65806","store details":"Pay at the Pump, Redbox, Open 24 Hours","longitude":-93.2865753,"id":"a63eugj76oyc","address":"609 E Elm St","phone number":"417-831-0621","store hours":"Open 24 Hours","state":"MO"},"type":"Feature","geometry":{"type":"Point","coordinates":[-93.2865753,37.2054939]}},{"properties":{"city":"Springfield","store number":469,"fax number":null,"latitude":37.2043571,"zip code":"65806","store details":"Pay at the Pump, Redbox, Open 24 Hours","longitude":-93.29903,"id":"a63eughvy0i9","address":"529 S Grant Ave","phone number":"417-866-7700","store hours":"Open 24 Hours","state":"MO"},"type":"Feature","geometry":{"type":"Point","coordinates":[-93.29903,37.2043571]}},{"properties":{"city":"Springfield","store number":470,"fax number":null,"latitude":37.2403564,"zip code":"65803","store details":"Pay at the Pump, Redbox, Open 24 Hours","longitude":-93.26534,"id":"a63eugjd7xz1","address":"1605 E Kearney St","phone number":"417-862-9549","store hours":"Open 24 Hours","state":"MO"},"type":"Feature","geometry":{"type":"Point","coordinates":[-93.26534,37.2403564]}},{"properties":{"city":"Springfield","store number":471,"fax number":null,"latitude":37.25135,"zip code":"65803","store details":"Pay at the Pump, Redbox, Open 24 Hours","longitude":-93.2746048,"id":"a63eugmz9dl7","address":"2953 N National Ave","phone number":"417-833-0762","store hours":"Open 24 Hours","state":"MO"},"type":"Feature","geometry":{"type":"Point","coordinates":[-93.2746048,37.25135]}},{"properties":{"city":"Springfield","store number":472,"fax number":null,"latitude":37.22618,"zip code":"65803","store details":"Pay at the Pump, Redbox, Open 24 Hours","longitude":-93.27543,"id":"a63eugczn1v2","address":"1505 N National Ave","phone number":"417-864-5680","store hours":"Open 24 Hours","state":"MO"},"type":"Feature","geometry":{"type":"Point","coordinates":[-93.27543,37.22618]}},{"properties":{"city":"Springfield","store number":473,"fax number":null,"latitude":37.2145271,"zip code":"65802","store details":"Diesel, Pay at the Pump, Redbox, Open 24 Hours, Carwash","longitude":-93.27515,"id":"a63eugd9p5ka","address":"620 N National Ave","phone number":"417-864-4246","store hours":"Open 24 Hours","state":"MO"},"type":"Feature","geometry":{"type":"Point","coordinates":[-93.27515,37.2145271]}},{"properties":{"city":"Springfield","store number":474,"fax number":null,"latitude":37.1613235,"zip code":"65804","store details":"Pay at the Pump, Redbox, Open 24 Hours","longitude":-93.27698,"id":"a63eugrj1pk1","address":"2930 S National Ave","phone number":"417-883-4730","store hours":"Open 24 Hours","state":"MO"},"type":"Feature","geometry":{"type":"Point","coordinates":[-93.27698,37.1613235]}},{"properties":{"city":"Springfield","store number":475,"fax number":null,"latitude":37.1527443,"zip code":"65804","store details":"Pay at the Pump, Redbox, Open 24 Hours, Carwash","longitude":-93.27754,"id":"a63euggirqk6","address":"3416 S National Ave","phone number":"417-890-7713","store hours":"Open 24 Hours","state":"MO"},"type":"Feature","geometry":{"type":"Point","coordinates":[-93.27754,37.1527443]}},{"properties":{"city":"Springfield","store number":476,"fax number":null,"latitude":37.1409035,"zip code":"65804","store details":"Pay at the Pump, Redbox, Open 24 Hours, Carwash","longitude":-93.25373,"id":"a63euggkuj1i","address":"2161 E Republic Ct","phone number":"417-890-1189","store hours":"Open 24 Hours","state":"MO"},"type":"Feature","geometry":{"type":"Point","coordinates":[-93.25373,37.1409035]}},{"properties":{"city":"Springfield","store number":478,"fax number":null,"latitude":37.13813,"zip code":"65807","store details":"Pay at the Pump, Redbox, Open 24 Hours","longitude":-93.33586,"id":"a63eugfbk2xc","address":"2782 W Republic Rd","phone number":"417-883-5695","store hours":"Open 24 Hours","state":"MO"},"type":"Feature","geometry":{"type":"Point","coordinates":[-93.33586,37.13813]}},{"properties":{"city":"Springfield","store number":479,"fax number":null,"latitude":37.1380157,"zip code":"65807","store details":"Pay at the Pump, Redbox, Open 24 Hours","longitude":-93.29727,"id":"a63eugib0o8y","address":"510 W Republic Rd","phone number":"417-889-7709","store hours":"Open 24 Hours","state":"MO"},"type":"Feature","geometry":{"type":"Point","coordinates":[-93.29727,37.1380157]}},{"properties":{"city":"Springfield","store number":480,"fax number":null,"latitude":37.15962,"zip code":"65807","store details":"Pay at the Pump, Redbox, Open 24 Hours","longitude":-93.2909,"id":"a63eugi5vur0","address":"3030 S Jefferson Ave","phone number":"417-883-8600","store hours":"Open 24 Hours","state":"MO"},"type":"Feature","geometry":{"type":"Point","coordinates":[-93.2909,37.15962]}},{"properties":{"city":"Springfield","store number":481,"fax number":null,"latitude":37.1804581,"zip code":"65809","store details":"Diesel, Pay at the Pump, Redbox, Open 24 Hours, Carwash","longitude":-93.22048,"id":"a63eugh23x9c","address":"3623 E Sunshine St","phone number":"417-886-3295","store hours":"Open 24 Hours","state":"MO"},"type":"Feature","geometry":{"type":"Point","coordinates":[-93.22048,37.1804581]}},{"properties":{"city":"Springfield","store number":482,"fax number":null,"latitude":37.18015,"zip code":"65804","store details":"Pay at the Pump, Redbox, Open 24 Hours, Carwash","longitude":-93.22617,"id":"a63eugq48woo","address":"3352 E Sunshine St","phone number":"417-881-0155","store hours":"Open 24 Hours","state":"MO"},"type":"Feature","geometry":{"type":"Point","coordinates":[-93.22617,37.18015]}},{"properties":{"city":"Springfield","store number":483,"fax number":null,"latitude":37.1808662,"zip code":"65804","store details":"Pay at the Pump, Redbox, Open 24 Hours, Carwash","longitude":-93.24927,"id":"a63eugj24qw0","address":"2404 E Sunshine St","phone number":"417-886-2259","store hours":"Open 24 Hours","state":"MO"},"type":"Feature","geometry":{"type":"Point","coordinates":[-93.24927,37.1808662]}},{"properties":{"city":"Springfield","store number":484,"fax number":null,"latitude":37.1820564,"zip code":"65807","store details":"Pay at the Pump, Redbox, Open 24 Hours","longitude":-93.30907,"id":"a63eugsvjr8p","address":"1306 W Sunshine St","phone number":"417-862-6428","store hours":"Open 24 Hours","state":"MO"},"type":"Feature","geometry":{"type":"Point","coordinates":[-93.30907,37.1820564]}},{"properties":{"city":"Springfield","store number":485,"fax number":null,"latitude":37.18243,"zip code":"65807","store details":"Diesel, Pay at the Pump, Redbox, Open 24 Hours, Carwash","longitude":-93.33101,"id":"a63eughjb646","address":"2650 W Sunshine St","phone number":"417-887-5301","store hours":"Open 24 Hours","state":"MO"},"type":"Feature","geometry":{"type":"Point","coordinates":[-93.33101,37.18243]}},{"properties":{"city":"Strafford","store number":486,"fax number":null,"latitude":37.26973,"zip code":"65757","store details":"Diesel, Pay at the Pump, Redbox, Open 24 Hours","longitude":-93.11394,"id":"a63eugmxumzy","address":"125 S State Highway 125","phone number":"417-736-2652","store hours":"Open 24 Hours","state":"MO"},"type":"Feature","geometry":{"type":"Point","coordinates":[-93.11394,37.26973]}},{"properties":{"city":"Webb City","store number":487,"fax number":null,"latitude":37.1412354,"zip code":"64870","store details":"Pay at the Pump, Redbox, Open 24 Hours","longitude":-94.47465,"id":"a63eugkkf0d6","address":"411 S Madison Ave","phone number":"417-673-5995","store hours":"Open 24 Hours","state":"MO"},"type":"Feature","geometry":{"type":"Point","coordinates":[-94.47465,37.1412354]}},{"properties":{"city":"Springfield","store number":488,"fax number":null,"latitude":37.25261,"zip code":"65803","store details":"E85, Diesel, Pay at the Pump, Redbox, Open 24 Hours","longitude":-93.31125,"id":"a63eugsopzjl","address":"1704 W Norton Rd","phone number":"417-833-8075","store hours":"Open 24 Hours","state":"MO"},"type":"Feature","geometry":{"type":"Point","coordinates":[-93.31125,37.25261]}},{"properties":{"city":"Springfield","store number":489,"fax number":null,"latitude":37.16022,"zip code":"65807","store details":"E85, Diesel, Pay at the Pump, Redbox, Open 24 Hours","longitude":-93.36266,"id":"a63eugegu2ky","address":"4020 W Battlefield St","phone number":"417-887-8754","store hours":"Open 24 Hours","state":"MO"},"type":"Feature","geometry":{"type":"Point","coordinates":[-93.36266,37.16022]}},{"properties":{"city":"Joplin","store number":490,"fax number":null,"latitude":37.0800323,"zip code":"64801","store details":"Pay at the Pump","longitude":-94.47767,"id":"a63eugfzdneb","address":"1006 S Range Line Rd","phone number":"417-623-2361","store hours":null,"state":"MO"},"type":"Feature","geometry":{"type":"Point","coordinates":[-94.47767,37.0800323]}},{"properties":{"city":"Joplin","store number":491,"fax number":null,"latitude":37.0296135,"zip code":"64804","store details":"Diesel, Pay at the Pump","longitude":-94.47944,"id":"a63eugnndo9e","address":"5302 S Range Line Rd","phone number":"417-781-8430","store hours":null,"state":"MO"},"type":"Feature","geometry":{"type":"Point","coordinates":[-94.47944,37.0296135]}},{"properties":{"city":"Monett","store number":492,"fax number":null,"latitude":36.91422,"zip code":"65708","store details":"Diesel, Pay at the Pump, Redbox, Open 24 Hours, Semi-Truck Accessible","longitude":-93.90583,"id":"a63eugl7c02m","address":"870 E US Highway 60","phone number":"417-235-8880","store hours":"Open 24 Hours","state":"MO"},"type":"Feature","geometry":{"type":"Point","coordinates":[-93.90583,36.91422]}},{"properties":{"city":"Neosho","store number":493,"fax number":null,"latitude":36.8356,"zip code":"64850","store details":"Diesel, Pay at the Pump, Redbox, Open 24 Hours, Semi-Truck Accessible","longitude":-94.39466,"id":"a63eugeamt82","address":"16140 MO Highway 59","phone number":"417-451-7262","store hours":"Open 24 Hours","state":"MO"},"type":"Feature","geometry":{"type":"Point","coordinates":[-94.39466,36.8356]}},{"properties":{"city":"Nixa","store number":494,"fax number":null,"latitude":37.04725,"zip code":"65714","store details":"Diesel, Pay at the Pump","longitude":-93.3029861,"id":"a63euge7wwf7","address":"402 Massey Blvd","phone number":"417-725-7900","store hours":null,"state":"MO"},"type":"Feature","geometry":{"type":"Point","coordinates":[-93.3029861,37.04725]}},{"properties":{"city":"Nixa","store number":495,"fax number":null,"latitude":37.0430527,"zip code":"65714","store details":"Diesel, Pay at the Pump, Redbox, Open 24 Hours, Semi-Truck Accessible","longitude":-93.28454,"id":"a63eughiqcz9","address":"102 Ridgecrest Ave","phone number":"417-725-4364","store hours":"Open 24 Hours","state":"MO"},"type":"Feature","geometry":{"type":"Point","coordinates":[-93.28454,37.0430527]}},{"properties":{"city":"Mason City","store number":496,"fax number":null,"latitude":43.14766,"zip code":"50401","store details":"Pay at the Pump, Open 24 Hours","longitude":-93.20106,"id":"a63eugqjcep7","address":"418 S Federal Ave","phone number":"641-424-6997","store hours":"Open 24 Hours","state":"IA"},"type":"Feature","geometry":{"type":"Point","coordinates":[-93.20106,43.14766]}},{"properties":{"city":"Republic","store number":497,"fax number":null,"latitude":37.14583,"zip code":"65619","store details":"E85, Diesel, Pay at the Pump, Redbox, Open 24 Hours, Semi-Truck Accessible","longitude":-93.43017,"id":"a63eugk67e75","address":"6935 W US Highway 60","phone number":"417-831-3011","store hours":"Open 24 Hours","state":"MO"},"type":"Feature","geometry":{"type":"Point","coordinates":[-93.43017,37.14583]}},{"properties":{"city":"Rogersville","store number":498,"fax number":null,"latitude":37.11934,"zip code":"65742","store details":"Diesel, Pay at the Pump, Redbox, Open 24 Hours, Semi-Truck Accessible","longitude":-93.118866,"id":"a63eugheopsw","address":"4996 S State Highway 125","phone number":"417-753-2103","store hours":"Open 24 Hours","state":"MO"},"type":"Feature","geometry":{"type":"Point","coordinates":[-93.118866,37.11934]}},{"properties":{"city":"Rogersville","store number":499,"fax number":null,"latitude":37.17581,"zip code":"65742","store details":"Diesel, Pay at the Pump, Open 24 Hours, Semi-Truck Accessible","longitude":-93.1183,"id":"a63eugfmwymk","address":"1894 S State Highway 125","phone number":"417-753-7676","store hours":"Open 24 Hours","state":"MO"},"type":"Feature","geometry":{"type":"Point","coordinates":[-93.1183,37.17581]}},{"properties":{"city":"Creston","store number":500,"fax number":null,"latitude":41.0669365,"zip code":"50801","store details":"Diesel, Pay at the Pump","longitude":-94.37223,"id":"a63eugqxrxmy","address":"903 N Sumner Ave","phone number":"641-782-4267","store hours":null,"state":"IA"},"type":"Feature","geometry":{"type":"Point","coordinates":[-94.37223,41.0669365]}},{"properties":{"city":"Creston","store number":501,"fax number":null,"latitude":41.04929,"zip code":"50801","store details":"Pay at the Pump, Open 24 Hours","longitude":-94.36397,"id":"a63eugi8gj4r","address":"301 W Taylor St","phone number":"641-782-5529","store hours":"Open 24 Hours","state":"IA"},"type":"Feature","geometry":{"type":"Point","coordinates":[-94.36397,41.04929]}},{"properties":{"city":"Marion","store number":503,"fax number":null,"latitude":42.03581,"zip code":"52302","store details":"E85, Diesel, Pay at the Pump, Redbox, Open 24 Hours","longitude":-91.5760345,"id":"a63eugo92hdw","address":"3370 7th Ave","phone number":"319-373-1703","store hours":"Open 24 Hours","state":"IA"},"type":"Feature","geometry":{"type":"Point","coordinates":[-91.5760345,42.03581]}},{"properties":{"city":"North Liberty","store number":507,"fax number":null,"latitude":41.75263,"zip code":"52317","store details":"E85, Diesel, Pay at the Pump, Redbox, Open 24 Hours","longitude":-91.63675,"id":"a63eugrylb6m","address":"610 N Kansas Ave","phone number":"319-626-2412","store hours":"Open 24 Hours","state":"IA"},"type":"Feature","geometry":{"type":"Point","coordinates":[-91.63675,41.75263]}},{"properties":{"city":"Cedar Rapids","store number":508,"fax number":null,"latitude":41.92347,"zip code":"52404","store details":"E85, Diesel, Pay at the Pump, Go Fresh Market, Redbox, Open 24 Hours","longitude":-91.65742,"id":"a63eughc0txz","address":"30 Four Oaks Dr SW","phone number":"319-366-3026","store hours":"Open 24 Hours","state":"IA"},"type":"Feature","geometry":{"type":"Point","coordinates":[-91.65742,41.92347]}},{"properties":{"city":"Marion","store number":509,"fax number":null,"latitude":42.03215,"zip code":"52302","store details":"E85, Diesel, Pay at the Pump, Go Fresh Market, Open 24 Hours","longitude":-91.62497,"id":"a63euge9iz9a","address":"1203 Blairs Ferry Road","phone number":"319-373-3165","store hours":"Open 24 Hours","state":"IA"},"type":"Feature","geometry":{"type":"Point","coordinates":[-91.62497,42.03215]}},{"properties":{"city":"Stuart","store number":510,"fax number":"515-523-1136","latitude":41.49615,"zip code":"50250","store details":"E85, Diesel, Pay at the Pump, Go Fresh Market, Open 24 Hours","longitude":-94.31825,"id":"a63eugi6d5nj","address":"629 S Division St","phone number":"515-523-1130","store hours":"Open 24 Hours","state":"IA"},"type":"Feature","geometry":{"type":"Point","coordinates":[-94.31825,41.49615]}},{"properties":{"city":"Ackley","store number":513,"fax number":null,"latitude":42.55659,"zip code":"50601","store details":"Pay at the Pump, Open 24 Hours","longitude":-93.0564957,"id":"a63eugspzg6h","address":"420 Sherman St","phone number":"641-847-2416","store hours":"Open 24 Hours","state":"IA"},"type":"Feature","geometry":{"type":"Point","coordinates":[-93.0564957,42.55659]}},{"properties":{"city":"Nevada","store number":533,"fax number":null,"latitude":42.0229645,"zip code":"50201","store details":"Pay at the Pump","longitude":-93.45118,"id":"a63eugq5goqn","address":"731 Lincoln Hwy","phone number":"515-382-3496","store hours":null,"state":"IA"},"type":"Feature","geometry":{"type":"Point","coordinates":[-93.45118,42.0229645]}},{"properties":{"city":"Eagle Grove","store number":544,"fax number":null,"latitude":42.654007,"zip code":"50533","store details":"Open 24 Hours","longitude":-93.90417,"id":"a63eugo51j71","address":"1120 S Commercial Ave","phone number":"515-448-4151","store hours":"Open 24 Hours","state":"IA"},"type":"Feature","geometry":{"type":"Point","coordinates":[-93.90417,42.654007]}},{"properties":{"city":"Rockwell City","store number":545,"fax number":null,"latitude":42.3989677,"zip code":"50579","store details":"Diesel, Pay at the Pump, Open 24 Hours","longitude":-94.6391754,"id":"a63eugdlshlw","address":"730 High St","phone number":"712-297-7326","store hours":"Open 24 Hours","state":"IA"},"type":"Feature","geometry":{"type":"Point","coordinates":[-94.6391754,42.3989677]}},{"properties":{"city":"Springfield","store number":550,"fax number":null,"latitude":37.1578522,"zip code":"65804","store details":"Diesel, Pay at the Pump, Open 24 Hours","longitude":-93.22892,"id":"a63eugd7zau7","address":"3264 E Battlefield St","phone number":"417-886-4251","store hours":"Open 24 Hours","state":"MO"},"type":"Feature","geometry":{"type":"Point","coordinates":[-93.22892,37.1578522]}},{"properties":{"city":"Springfield","store number":551,"fax number":null,"latitude":37.175602,"zip code":"65807","store details":"E85, Diesel, Pay at the Pump, Redbox, Open 24 Hours, Semi-Truck Accessible","longitude":-93.2954559,"id":"a63eugr2rc56","address":"2149 S Campbell Ave","phone number":"417-882-2263","store hours":"Open 24 Hours","state":"MO"},"type":"Feature","geometry":{"type":"Point","coordinates":[-93.2954559,37.175602]}},{"properties":{"city":"Des Moines","store number":552,"fax number":null,"latitude":41.62941,"zip code":"50310","store details":"Pay at the Pump, Open 24 Hours","longitude":-93.68637,"id":"a63eugrg0tjd","address":"4944 Douglas Ave","phone number":"515-278-9889","store hours":"Open 24 Hours","state":"IA"},"type":"Feature","geometry":{"type":"Point","coordinates":[-93.68637,41.62941]}},{"properties":{"city":"Clarion","store number":553,"fax number":null,"latitude":42.73147,"zip code":"50525","store details":"Diesel, Pay at the Pump, Open 24 Hours","longitude":-93.73554,"id":"a63eugs243o4","address":"300 Central Ave W","phone number":"515-532-3524","store hours":"Open 24 Hours","state":"IA"},"type":"Feature","geometry":{"type":"Point","coordinates":[-93.73554,42.73147]}},{"properties":{"city":"Springfield","store number":554,"fax number":null,"latitude":37.20971,"zip code":"65802","store details":"Pay at the Pump, Redbox, Open 24 Hours","longitude":-93.240036,"id":"a63eughrxvje","address":"2744 E Chestnut Expwy","phone number":"417-866-4576","store hours":"Open 24 Hours","state":"MO"},"type":"Feature","geometry":{"type":"Point","coordinates":[-93.240036,37.20971]}},{"properties":{"city":"Springfield","store number":555,"fax number":null,"latitude":37.22648,"zip code":"65802","store details":"Diesel, Pay at the Pump, Redbox, Open 24 Hours","longitude":-93.3477249,"id":"a63eugqjxi93","address":"3450 W Division St","phone number":"417-866-4663","store hours":"Open 24 Hours","state":"MO"},"type":"Feature","geometry":{"type":"Point","coordinates":[-93.3477249,37.22648]}},{"properties":{"city":"Springfield","store number":556,"fax number":null,"latitude":37.2268066,"zip code":"65803","store details":"Diesel, Pay at the Pump, Semi-Truck Accessible","longitude":-93.26061,"id":"a63eugdtqmka","address":"1550 N Glenstone Ave","phone number":"417-866-6342","store hours":null,"state":"MO"},"type":"Feature","geometry":{"type":"Point","coordinates":[-93.26061,37.2268066]}},{"properties":{"city":"Springfield","store number":557,"fax number":null,"latitude":37.2617569,"zip code":"65803","store details":"Diesel, Pay at the Pump, Redbox, Semi-Truck Accessible","longitude":-93.26429,"id":"a63eugprkvla","address":"1700 E Valley Water Mill Rd","phone number":"417-833-9681","store hours":null,"state":"MO"},"type":"Feature","geometry":{"type":"Point","coordinates":[-93.26429,37.2617569]}},{"properties":{"city":"Springfield","store number":558,"fax number":null,"latitude":37.1965981,"zip code":"65802","store details":"E85, Pay at the Pump, Redbox, Open 24 Hours","longitude":-93.26243,"id":"a63eugmxd7e4","address":"959 S Glenstone Ave","phone number":"417-831-3190","store hours":"Open 24 Hours","state":"MO"},"type":"Feature","geometry":{"type":"Point","coordinates":[-93.26243,37.1965981]}},{"properties":{"city":"Springfield","store number":560,"fax number":null,"latitude":37.20839,"zip code":"65806","store details":"Diesel, Pay at the Pump, Redbox, Open 24 Hours","longitude":-93.31251,"id":"a63euggyxsxx","address":"215 S Kansas Expwy","phone number":"417-866-3049","store hours":"Open 24 Hours","state":"MO"},"type":"Feature","geometry":{"type":"Point","coordinates":[-93.31251,37.20839]}},{"properties":{"city":"Springfield","store number":561,"fax number":null,"latitude":37.2390251,"zip code":"65803","store details":"Diesel, Pay at the Pump, Redbox, Open 24 Hours, Semi-Truck Accessible","longitude":-93.22299,"id":"a63eugnmap7j","address":"3445 E Kearney St","phone number":"417-865-1069","store hours":"Open 24 Hours","state":"MO"},"type":"Feature","geometry":{"type":"Point","coordinates":[-93.22299,37.2390251]}},{"properties":{"city":"Springfield","store number":562,"fax number":null,"latitude":37.24192,"zip code":"65803","store details":"Diesel, Pay at the Pump, Open 24 Hours, Semi-Truck Accessible","longitude":-93.34587,"id":"a63eugrf08z8","address":"3449 W Kearney St","phone number":"417-865-6903","store hours":"Open 24 Hours","state":"MO"},"type":"Feature","geometry":{"type":"Point","coordinates":[-93.34587,37.24192]}},{"properties":{"city":"Springfield","store number":563,"fax number":null,"latitude":37.13874,"zip code":"65807","store details":"Diesel, Pay at the Pump, Redbox, Open 24 Hours, Semi-Truck Accessible","longitude":-93.33913,"id":"a63euglvjch9","address":"3015 W Republic Rd","phone number":"417-883-5750","store hours":"Open 24 Hours","state":"MO"},"type":"Feature","geometry":{"type":"Point","coordinates":[-93.33913,37.13874]}},{"properties":{"city":"Humboldt","store number":564,"fax number":null,"latitude":42.7297478,"zip code":"50548","store details":"Open 24 Hours","longitude":-94.22662,"id":"a63eugnk1cxd","address":"1212 8th Ave N","phone number":"515-332-1290","store hours":"Open 24 Hours","state":"IA"},"type":"Feature","geometry":{"type":"Point","coordinates":[-94.22662,42.7297478]}},{"properties":{"city":"Springfield","store number":566,"fax number":null,"latitude":37.2533531,"zip code":"65803","store details":"E85, Diesel, Pay at the Pump, Redbox, Open 24 Hours, Semi-Truck Accessible","longitude":-93.3112259,"id":"a63eugpizhvh","address":"1701 N Smith St","phone number":"417-833-2790","store hours":"Open 24 Hours","state":"MO"},"type":"Feature","geometry":{"type":"Point","coordinates":[-93.3112259,37.2533531]}},{"properties":{"city":"Springfield","store number":567,"fax number":null,"latitude":37.1804848,"zip code":"65804","store details":"Diesel, Pay at the Pump, Redbox, Open 24 Hours, Semi-Truck Accessible","longitude":-93.23755,"id":"a63eugmq6ljm","address":"2904 E Sunshine St","phone number":"417-881-1028","store hours":"Open 24 Hours","state":"MO"},"type":"Feature","geometry":{"type":"Point","coordinates":[-93.23755,37.1804848]}},{"properties":{"city":"Waynesville","store number":568,"fax number":null,"latitude":37.80904,"zip code":"65583","store details":"Diesel, Pay at the Pump, Redbox, Open 24 Hours","longitude":-92.2237,"id":"a63eugenjz4j","address":"308 Ichord Ave","phone number":"573-774-0116","store hours":"Open 24 Hours","state":"MO"},"type":"Feature","geometry":{"type":"Point","coordinates":[-92.2237,37.80904]}},{"properties":{"city":"Webb City","store number":569,"fax number":null,"latitude":37.1126976,"zip code":"64801","store details":"Pay at the Pump, Redbox, Open 24 Hours, Semi-Truck Accessible","longitude":-94.4757156,"id":"a63eugfq8byl","address":"2587 N Range Line Rd","phone number":"417-206-2587","store hours":"Open 24 Hours","state":"MO"},"type":"Feature","geometry":{"type":"Point","coordinates":[-94.4757156,37.1126976]}},{"properties":{"city":"Johnston","store number":570,"fax number":null,"latitude":41.6826553,"zip code":"50131","store details":"E85, Diesel, Pay at the Pump, Redbox, Open 24 Hours","longitude":-93.6978149,"id":"a63eugm70szg","address":"5800 Northglenn Dr","phone number":"515-276-1730","store hours":"Open 24 Hours","state":"IA"},"type":"Feature","geometry":{"type":"Point","coordinates":[-93.6978149,41.6826553]}},{"properties":{"city":"Mount Vernon","store number":571,"fax number":null,"latitude":37.0943756,"zip code":"65712","store details":"E85, Diesel, Pay at the Pump, Go Fresh Market, Redbox, Open 24 Hours","longitude":-93.8077545,"id":"a63eugnkw2ti","address":"900 E Mt. Vernon Blvd","phone number":"417-461-0762","store hours":"Open 24 Hours","state":"MO"},"type":"Feature","geometry":{"type":"Point","coordinates":[-93.8077545,37.0943756]}},{"properties":{"city":"Urbandale","store number":572,"fax number":null,"latitude":41.646286,"zip code":"50322","store details":"E85, Diesel, Pay at the Pump, Go Fresh Market, Redbox, Open 24 Hours","longitude":-93.76969,"id":"a63euglo3wcp","address":"4860 NW Urbandale Dr","phone number":"515-331-2285","store hours":"Open 24 Hours","state":"IA"},"type":"Feature","geometry":{"type":"Point","coordinates":[-93.76969,41.646286]}},{"properties":{"city":"Des Moines","store number":573,"fax number":null,"latitude":41.53268,"zip code":"50320","store details":"E85, Diesel, Pay at the Pump, Go Fresh Market, Redbox","longitude":-93.59686,"id":"a63eugoiyb4d","address":"5830 SE 14th St","phone number":"515-287-9795","store hours":null,"state":"IA"},"type":"Feature","geometry":{"type":"Point","coordinates":[-93.59686,41.53268]}},{"properties":{"city":"Urbandale","store number":574,"fax number":null,"latitude":41.6436234,"zip code":"50322","store details":"Pay at the Pump, Open 24 Hours","longitude":-93.73682,"id":"a63eugs5nmp9","address":"8600 Meredith Dr","phone number":"515-270-9743","store hours":"Open 24 Hours","state":"IA"},"type":"Feature","geometry":{"type":"Point","coordinates":[-93.73682,41.6436234]}},{"properties":{"city":"West Des Moines","store number":576,"fax number":null,"latitude":41.57043,"zip code":"50265","store details":"Pay at the Pump, Open 24 Hours","longitude":-93.7525558,"id":"a63eugehm4dm","address":"3501 EP True Pkwy","phone number":"515-223-6125","store hours":"Open 24 Hours","state":"IA"},"type":"Feature","geometry":{"type":"Point","coordinates":[-93.7525558,41.57043]}},{"properties":{"city":"St. Robert","store number":578,"fax number":null,"latitude":37.8223877,"zip code":"65584","store details":"E85, Diesel, Pay at the Pump, Go Fresh Market, Redbox, Open 24 Hours","longitude":-92.14424,"id":"a63eugnh8wej","address":"130 Old Route 66","phone number":"573-336-0293","store hours":"Open 24 Hours","state":"MO"},"type":"Feature","geometry":{"type":"Point","coordinates":[-92.14424,37.8223877]}},{"properties":{"city":"Ankeny","store number":579,"fax number":null,"latitude":41.71708,"zip code":"50023","store details":"E85, Diesel, Pay at the Pump, Go Fresh Market, Redbox, Open 24 Hours","longitude":-93.60117,"id":"a63eugf9u413","address":"165 SW Magazine Rd","phone number":"515-965-2374","store hours":"Open 24 Hours","state":"IA"},"type":"Feature","geometry":{"type":"Point","coordinates":[-93.60117,41.71708]}},{"properties":{"city":"Algona","store number":582,"fax number":null,"latitude":43.0677,"zip code":"50511","store details":"Pay at the Pump, Open 24 Hours","longitude":-94.22686,"id":"a63eugnp3hd1","address":"220 S Phillips St","phone number":"515-295-2207","store hours":"Open 24 Hours","state":"IA"},"type":"Feature","geometry":{"type":"Point","coordinates":[-94.22686,43.0677]}},{"properties":{"city":"Harlan","store number":606,"fax number":null,"latitude":41.64565,"zip code":"51537","store details":"Diesel, Pay at the Pump, Redbox, Open 24 Hours","longitude":-95.31891,"id":"a63euggs9r8r","address":"702 Chatburn Ave","phone number":"712-755-3545","store hours":"Open 24 Hours","state":"IA"},"type":"Feature","geometry":{"type":"Point","coordinates":[-95.31891,41.64565]}},{"properties":{"city":"Okoboji","store number":608,"fax number":null,"latitude":43.3819847,"zip code":"51355","store details":"Pay at the Pump, Redbox, Open 24 Hours","longitude":-95.1290359,"id":"a63eughw9pu3","address":"1001 Sanborn Ave","phone number":"712-332-7669","store hours":"Open 24 Hours","state":"IA"},"type":"Feature","geometry":{"type":"Point","coordinates":[-95.1290359,43.3819847]}},{"properties":{"city":"Sioux Falls","store number":611,"fax number":null,"latitude":43.55275,"zip code":"57104","store details":"Diesel, Pay at the Pump, Go Fresh Market, Redbox, Open 24 Hours","longitude":-96.73164,"id":"a63eugihlt1y","address":"501 N Minnesota Ave","phone number":"605-373-9191","store hours":"Open 24 Hours","state":"SD"},"type":"Feature","geometry":{"type":"Point","coordinates":[-96.73164,43.55275]}},{"properties":{"city":"Ottumwa","store number":612,"fax number":null,"latitude":40.9948845,"zip code":"52501","store details":"Diesel, Open 24 Hours, Semi-Truck Accessible","longitude":-92.4060745,"id":"a63eugl07frc","address":"1317 E Mary St","phone number":"641-682-7318","store hours":"Open 24 Hours","state":"IA"},"type":"Feature","geometry":{"type":"Point","coordinates":[-92.4060745,40.9948845]}},{"properties":{"city":"Elk Point","store number":615,"fax number":null,"latitude":42.66864,"zip code":"57025","store details":"E85, Diesel, Pay at the Pump, Restaurant: Subway, Redbox, Open 24 Hours, Semi-Truck Accessible","longitude":-96.66472,"id":"a63eugda4wn7","address":"32562 477th Ave","phone number":"605-356-9453","store hours":"Open 24 Hours","state":"SD"},"type":"Feature","geometry":{"type":"Point","coordinates":[-96.66472,42.66864]}},{"properties":{"city":"Sioux Falls","store number":616,"fax number":null,"latitude":43.4899368,"zip code":"57108","store details":"Diesel, Pay at the Pump, Go Fresh Market, Redbox, Open 24 Hours","longitude":-96.7477646,"id":"a63eugcvvryc","address":"6001 S Western Ave","phone number":"605-332-7025","store hours":"Open 24 Hours","state":"SD"},"type":"Feature","geometry":{"type":"Point","coordinates":[-96.7477646,43.4899368]}},{"properties":{"city":"Sioux Falls","store number":618,"fax number":null,"latitude":43.52914,"zip code":"57110","store details":"Pay at the Pump, Open 24 Hours","longitude":-96.66795,"id":"a63eugj0bzb8","address":"4721 E 26th St","phone number":"605-371-1947","store hours":"Open 24 Hours","state":"SD"},"type":"Feature","geometry":{"type":"Point","coordinates":[-96.66795,43.52914]}},{"properties":{"city":"Sioux Falls","store number":620,"fax number":null,"latitude":43.5510025,"zip code":"57103","store details":"E85, Diesel, Pay at the Pump, Go Fresh Market, Redbox, Open 24 Hours","longitude":-96.67129,"id":"a63eugsf0skw","address":"412 N Sycamore Ave","phone number":"605-331-7841","store hours":"Open 24 Hours","state":"SD"},"type":"Feature","geometry":{"type":"Point","coordinates":[-96.67129,43.5510025]}},{"properties":{"city":"Sioux Falls","store number":625,"fax number":null,"latitude":43.5151672,"zip code":"57106","store details":"E85, Diesel, Pay at the Pump, Go Fresh Market, Redbox, Open 24 Hours, Carwash","longitude":-96.8125458,"id":"a63eugmvybqc","address":"7100 W 41st St","phone number":"605-361-5547","store hours":"Open 24 Hours","state":"SD"},"type":"Feature","geometry":{"type":"Point","coordinates":[-96.8125458,43.5151672]}},{"properties":{"city":"Denison","store number":630,"fax number":null,"latitude":42.01248,"zip code":"51442","store details":"Pay at the Pump, Open 24 Hours","longitude":-95.3582,"id":"a63eugdhb05q","address":"1108 4th Ave S","phone number":"712-263-9873","store hours":"Open 24 Hours","state":"IA"},"type":"Feature","geometry":{"type":"Point","coordinates":[-95.3582,42.01248]}},{"properties":{"city":"Albia","store number":651,"fax number":null,"latitude":41.0251274,"zip code":"52531","store details":"Pay at the Pump, Open 24 Hours","longitude":-92.80677,"id":"a63eugpmrvkc","address":"204 S Main St","phone number":"641-932-2666","store hours":"Open 24 Hours","state":"IA"},"type":"Feature","geometry":{"type":"Point","coordinates":[-92.80677,41.0251274]}},{"properties":{"city":"Centerville","store number":652,"fax number":null,"latitude":40.7402458,"zip code":"52544","store details":"Pay at the Pump, Open 24 Hours","longitude":-92.87017,"id":"a63eugipy3uw","address":"830 N 18th St","phone number":"641-856-5922","store hours":"Open 24 Hours","state":"IA"},"type":"Feature","geometry":{"type":"Point","coordinates":[-92.87017,40.7402458]}},{"properties":{"city":"Mason City","store number":656,"fax number":null,"latitude":43.16287,"zip code":"50401","store details":"Pay at the Pump","longitude":-93.18939,"id":"a63eugqor21m","address":"637 12th St NE","phone number":"641-424-1266","store hours":null,"state":"IA"},"type":"Feature","geometry":{"type":"Point","coordinates":[-93.18939,43.16287]}},{"properties":{"city":"Olin","store number":662,"fax number":null,"latitude":41.99803,"zip code":"52320","store details":"Pay at the Pump","longitude":-91.14186,"id":"a63eughkp7ew","address":"400 Jackson St","phone number":"319-484-2929","store hours":null,"state":"IA"},"type":"Feature","geometry":{"type":"Point","coordinates":[-91.14186,41.99803]}},{"properties":{"city":"Emmetsburg","store number":699,"fax number":null,"latitude":43.11187,"zip code":"50536","store details":"Diesel, Pay at the Pump, Open 24 Hours","longitude":-94.68874,"id":"a63eugsyndci","address":"3001 Main St","phone number":"712-852-3521","store hours":"Open 24 Hours","state":"IA"},"type":"Feature","geometry":{"type":"Point","coordinates":[-94.68874,43.11187]}},{"properties":{"city":"Marshalltown","store number":701,"fax number":null,"latitude":42.0574875,"zip code":"50158","store details":"Pay at the Pump, Open 24 Hours","longitude":-92.9077454,"id":"a63eugqwod36","address":"613 N 3rd Ave","phone number":"641-752-1952","store hours":"Open 24 Hours","state":"IA"},"type":"Feature","geometry":{"type":"Point","coordinates":[-92.9077454,42.0574875]}},{"properties":{"city":"Marshalltown","store number":703,"fax number":null,"latitude":42.04944,"zip code":"50158","store details":"Pay at the Pump, Redbox, Open 24 Hours","longitude":-92.89631,"id":"a63eugqzxu1o","address":"916 E Main St","phone number":"641-752-2012","store hours":"Open 24 Hours","state":"IA"},"type":"Feature","geometry":{"type":"Point","coordinates":[-92.89631,42.04944]}},{"properties":{"city":"Burlington","store number":711,"fax number":null,"latitude":40.8144836,"zip code":"52601","store details":"Pay at the Pump, Open 24 Hours","longitude":-91.12951,"id":"a63eugk6rl3v","address":"2107 Agency St","phone number":"319-752-6416","store hours":"Open 24 Hours","state":"IA"},"type":"Feature","geometry":{"type":"Point","coordinates":[-91.12951,40.8144836]}},{"properties":{"city":"Burlington","store number":712,"fax number":null,"latitude":40.8144646,"zip code":"52601","store details":"Diesel, Pay at the Pump, Open 24 Hours, Carwash","longitude":-91.14226,"id":"a63eugdctlix","address":"333 N Roosevelt Ave","phone number":"319-752-8002","store hours":"Open 24 Hours","state":"IA"},"type":"Feature","geometry":{"type":"Point","coordinates":[-91.14226,40.8144646]}},{"properties":{"city":"Burlington","store number":713,"fax number":null,"latitude":40.8113174,"zip code":"52601","store details":"Pay at the Pump, Redbox","longitude":-91.10123,"id":"a63eugg5almv","address":"421 N Main St","phone number":"319-752-7262","store hours":null,"state":"IA"},"type":"Feature","geometry":{"type":"Point","coordinates":[-91.10123,40.8113174]}},{"properties":{"city":"Mason City","store number":727,"fax number":null,"latitude":43.14807,"zip code":"50401","store details":"Pay at the Pump","longitude":-93.17237,"id":"a63euglqriok","address":"1465 4th St SE","phone number":"641-424-2451","store hours":null,"state":"IA"},"type":"Feature","geometry":{"type":"Point","coordinates":[-93.17237,43.14807]}},{"properties":{"city":"Hawarden","store number":767,"fax number":null,"latitude":42.9966,"zip code":"51023","store details":"Pay at the Pump, Restaurant: Subway, Open 24 Hours","longitude":-96.48785,"id":"a63eugog6uma","address":"504 10th St","phone number":"712-552-1082","store hours":"Open 24 Hours","state":"IA"},"type":"Feature","geometry":{"type":"Point","coordinates":[-96.48785,42.9966]}},{"properties":{"city":"Hospers","store number":768,"fax number":null,"latitude":43.0720634,"zip code":"51238","store details":"Diesel","longitude":-95.90686,"id":"a63eugjmkewf","address":"107 IA Highway 60","phone number":"712-752-8960","store hours":null,"state":"IA"},"type":"Feature","geometry":{"type":"Point","coordinates":[-95.90686,43.0720634]}},{"properties":{"city":"Pocahontas","store number":772,"fax number":null,"latitude":42.732708,"zip code":"50574","store details":"Diesel, Pay at the Pump, Restaurant: Subway, Open 24 Hours","longitude":-94.6789856,"id":"a63eugt4h18m","address":"700 W Elm Ave","phone number":"712-335-3654","store hours":"Open 24 Hours","state":"IA"},"type":"Feature","geometry":{"type":"Point","coordinates":[-94.6789856,42.732708]}},{"properties":{"city":"Urbandale","store number":777,"fax number":null,"latitude":41.62917,"zip code":"50322","store details":"Pay at the Pump, Go Fresh Market, Redbox, Open 24 Hours, Carwash","longitude":-93.73141,"id":"a63eugjlw1du","address":"8228 Douglas Ave","phone number":"515-331-3700","store hours":"Open 24 Hours","state":"IA"},"type":"Feature","geometry":{"type":"Point","coordinates":[-93.73141,41.62917]}},{"properties":{"city":"Smithville","store number":778,"fax number":null,"latitude":39.3691177,"zip code":"64089","store details":"Diesel, Pay at the Pump, Redbox, Open 24 Hours","longitude":-94.58381,"id":"a63eugormutr","address":"1102 S US Highway 169","phone number":"816-532-4450","store hours":"Open 24 Hours","state":"MO"},"type":"Feature","geometry":{"type":"Point","coordinates":[-94.58381,39.3691177]}},{"properties":{"city":"Bethany","store number":779,"fax number":null,"latitude":40.265377,"zip code":"64424","store details":"Diesel, Pay at the Pump, Redbox, Open 24 Hours, Semi-Truck Accessible","longitude":-94.01492,"id":"a63eugkm5cbm","address":"3807 Miller St","phone number":"660-425-2100","store hours":"Open 24 Hours","state":"MO"},"type":"Feature","geometry":{"type":"Point","coordinates":[-94.01492,40.265377]}},{"properties":{"city":"Kirksville","store number":780,"fax number":null,"latitude":40.1912727,"zip code":"63501","store details":"Diesel, Pay at the Pump, Redbox, Open 24 Hours","longitude":-92.58302,"id":"a63eugk4wueg","address":"503 S Franklin St","phone number":"660-665-7429","store hours":"Open 24 Hours","state":"MO"},"type":"Feature","geometry":{"type":"Point","coordinates":[-92.58302,40.1912727]}},{"properties":{"city":"Horace City","store number":800,"fax number":null,"latitude":46.7628937,"zip code":"58047","store details":"Diesel, Pay at the Pump, Open 24 Hours","longitude":-96.90329,"id":"a63eugs3mjn1","address":"112 N Main St","phone number":"701-281-0450","store hours":"Open 24 Hours","state":"ND"},"type":"Feature","geometry":{"type":"Point","coordinates":[-96.90329,46.7628937]}},{"properties":{"city":"Bowman","store number":801,"fax number":null,"latitude":46.1770363,"zip code":"58623","store details":"Diesel, Pay at the Pump, Open 24 Hours","longitude":-103.396355,"id":"a63eugobfjvr","address":"611 1st Ave SW","phone number":"701-523-5309","store hours":"Open 24 Hours","state":"ND"},"type":"Feature","geometry":{"type":"Point","coordinates":[-103.396355,46.1770363]}},{"properties":{"city":"Dickinson","store number":802,"fax number":null,"latitude":46.87762,"zip code":"58601","store details":null,"longitude":-102.768478,"id":"a63eugglnwj3","address":"1005 E Villard St","phone number":"701-225-0274","store hours":null,"state":"ND"},"type":"Feature","geometry":{"type":"Point","coordinates":[-102.768478,46.87762]}},{"properties":{"city":"Watford City","store number":804,"fax number":null,"latitude":47.8011742,"zip code":"58854","store details":"Diesel, Pay at the Pump, Redbox, Open 24 Hours","longitude":-103.283318,"id":"a63eugqvm6ks","address":"124 S Main St","phone number":"701-842-4119","store hours":"Open 24 Hours","state":"ND"},"type":"Feature","geometry":{"type":"Point","coordinates":[-103.283318,47.8011742]}},{"properties":{"city":"Williston","store number":805,"fax number":null,"latitude":48.1541023,"zip code":"58801","store details":"Diesel, Pay at the Pump, Carwash","longitude":-103.606949,"id":"a63euggsd169","address":"910 11th St E","phone number":"701-572-2559","store hours":null,"state":"ND"},"type":"Feature","geometry":{"type":"Point","coordinates":[-103.606949,48.1541023]}},{"properties":{"city":"Williston","store number":806,"fax number":null,"latitude":48.1685562,"zip code":"58801","store details":"Pay at the Pump","longitude":-103.633,"id":"a63eugguz0jq","address":"621 26th St W","phone number":"701-572-2634","store hours":null,"state":"ND"},"type":"Feature","geometry":{"type":"Point","coordinates":[-103.633,48.1685562]}},{"properties":{"city":"Williston","store number":807,"fax number":null,"latitude":48.1453819,"zip code":"58801","store details":"Pay at the Pump, Open 24 Hours","longitude":-103.643738,"id":"a63eugdmllcx","address":"1404 2nd St W","phone number":"701-572-3542","store hours":"Open 24 Hours","state":"ND"},"type":"Feature","geometry":{"type":"Point","coordinates":[-103.643738,48.1453819]}},{"properties":{"city":"Plentywood","store number":808,"fax number":null,"latitude":48.77517,"zip code":"59254","store details":"Diesel, Pay at the Pump, Open 24 Hours","longitude":-104.562424,"id":"a63eugeqtwef","address":"211 1st Ave W","phone number":"406-765-2847","store hours":"Open 24 Hours","state":"MT"},"type":"Feature","geometry":{"type":"Point","coordinates":[-104.562424,48.77517]}},{"properties":{"city":"Bismarck","store number":813,"fax number":null,"latitude":46.8084335,"zip code":"58501","store details":"Pay at the Pump, Open 24 Hours","longitude":-100.788994,"id":"a63eugrnda5b","address":"207 E Rosser Ave","phone number":"701-255-3738","store hours":"Open 24 Hours","state":"ND"},"type":"Feature","geometry":{"type":"Point","coordinates":[-100.788994,46.8084335]}},{"properties":{"city":"Minot","store number":816,"fax number":null,"latitude":48.2289619,"zip code":"58701","store details":"Pay at the Pump, Redbox, Open 24 Hours","longitude":-101.253082,"id":"a63eugq9ch1c","address":"2626 Burdick Expy E","phone number":"701-839-6020","store hours":"Open 24 Hours","state":"ND"},"type":"Feature","geometry":{"type":"Point","coordinates":[-101.253082,48.2289619]}},{"properties":{"city":"Fargo","store number":818,"fax number":null,"latitude":46.8617744,"zip code":"58103","store details":"Pay at the Pump, Redbox, Open 24 Hours","longitude":-96.8168259,"id":"a63eugpb1fyt","address":"2237 13th Ave S","phone number":"701-232-0080","store hours":"Open 24 Hours","state":"ND"},"type":"Feature","geometry":{"type":"Point","coordinates":[-96.8168259,46.8617744]}},{"properties":{"city":"Forsyth","store number":819,"fax number":null,"latitude":46.2644463,"zip code":"59327","store details":"Pay at the Pump, Open 24 Hours","longitude":-106.676247,"id":"a63eugkk3na1","address":"1017 Front St","phone number":"406-356-2885","store hours":"Open 24 Hours","state":"MT"},"type":"Feature","geometry":{"type":"Point","coordinates":[-106.676247,46.2644463]}},{"properties":{"city":"Bixby","store number":834,"fax number":null,"latitude":36.0025864,"zip code":"74133","store details":"Pay at the Pump, Redbox, Open 24 Hours","longitude":-95.88611,"id":"a63eugqyccbc","address":"11115 S Memorial Dr","phone number":"918-369-1820","store hours":"Open 24 Hours","state":"OK"},"type":"Feature","geometry":{"type":"Point","coordinates":[-95.88611,36.0025864]}},{"properties":{"city":"Bixby","store number":835,"fax number":null,"latitude":35.9735756,"zip code":"74008","store details":"Diesel, Pay at the Pump, Redbox, Open 24 Hours","longitude":-95.88628,"id":"a63eugpor9qg","address":"13101 S Memorial Dr","phone number":"918-369-0250","store hours":"Open 24 Hours","state":"OK"},"type":"Feature","geometry":{"type":"Point","coordinates":[-95.88628,35.9735756]}},{"properties":{"city":"Broken Arrow","store number":837,"fax number":null,"latitude":36.01888,"zip code":"74014","store details":"Diesel, Pay at the Pump, Redbox, Open 24 Hours, Carwash","longitude":-95.70804,"id":"a63eugszyxum","address":"24101 S State Highway 51","phone number":"918-258-2000","store hours":"Open 24 Hours","state":"OK"},"type":"Feature","geometry":{"type":"Point","coordinates":[-95.70804,36.01888]}},{"properties":{"city":"Broken Arrow","store number":838,"fax number":null,"latitude":36.0613747,"zip code":"74012","store details":"Pay at the Pump, Redbox, Open 24 Hours, Carwash","longitude":-95.77918,"id":"a63eugi1c47o","address":"1000 E Kenosha St","phone number":"918-258-3544","store hours":"Open 24 Hours","state":"OK"},"type":"Feature","geometry":{"type":"Point","coordinates":[-95.77918,36.0613747]}},{"properties":{"city":"Broken Arrow","store number":839,"fax number":null,"latitude":36.0175171,"zip code":"74011","store details":"Diesel, Pay at the Pump, Redbox, Open 24 Hours, Carwash","longitude":-95.8151855,"id":"a63eugr138tc","address":"2100 W New Orleans St","phone number":"918-455-9184","store hours":"Open 24 Hours","state":"OK"},"type":"Feature","geometry":{"type":"Point","coordinates":[-95.8151855,36.0175171]}},{"properties":{"city":"Claremore","store number":840,"fax number":null,"latitude":36.322052,"zip code":"74017","store details":"Diesel, Pay at the Pump, Redbox, Open 24 Hours","longitude":-95.61051,"id":"a63eugd4to50","address":"1100 N Lynn Riggs Blvd","phone number":"918-341-2811","store hours":"Open 24 Hours","state":"OK"},"type":"Feature","geometry":{"type":"Point","coordinates":[-95.61051,36.322052]}},{"properties":{"city":"Claremore","store number":841,"fax number":null,"latitude":36.3072166,"zip code":"74017","store details":"E85, Diesel, Pay at the Pump, Go Fresh Market, Redbox","longitude":-95.59724,"id":"a63eugeuxz9h","address":"1035 E Will Rogers Blvd","phone number":"918-341-4779","store hours":null,"state":"OK"},"type":"Feature","geometry":{"type":"Point","coordinates":[-95.59724,36.3072166]}},{"properties":{"city":"Cushing","store number":842,"fax number":null,"latitude":35.9854164,"zip code":"74023","store details":"Diesel, Pay at the Pump, Open 24 Hours","longitude":-96.7409058,"id":"a63eugdv9p06","address":"2001 E Main St","phone number":"918-225-4407","store hours":"Open 24 Hours","state":"OK"},"type":"Feature","geometry":{"type":"Point","coordinates":[-96.7409058,35.9854164]}},{"properties":{"city":"Grove","store number":843,"fax number":null,"latitude":36.57397,"zip code":"74344","store details":"Pay at the Pump, Redbox, Open 24 Hours, Carwash","longitude":-94.76932,"id":"a63eugshootz","address":"2117 S Main St","phone number":"918-787-5000","store hours":"Open 24 Hours","state":"OK"},"type":"Feature","geometry":{"type":"Point","coordinates":[-94.76932,36.57397]}},{"properties":{"city":"Jenks","store number":844,"fax number":null,"latitude":36.0032349,"zip code":"74037","store details":"Diesel, Pay at the Pump, Redbox, Open 24 Hours, Carwash","longitude":-95.97629,"id":"a63eugnr0skh","address":"11030 S Elm St","phone number":"918-296-0361","store hours":"Open 24 Hours","state":"OK"},"type":"Feature","geometry":{"type":"Point","coordinates":[-95.97629,36.0032349]}},{"properties":{"city":"Krebs","store number":845,"fax number":null,"latitude":34.92717,"zip code":"74501","store details":"Pay at the Pump, Redbox, Open 24 Hours","longitude":-95.723,"id":"a63eugrgy2a5","address":"575 NW Washington St","phone number":"918-423-8240","store hours":"Open 24 Hours","state":"OK"},"type":"Feature","geometry":{"type":"Point","coordinates":[-95.723,34.92717]}},{"properties":{"city":"Locust Grove","store number":846,"fax number":null,"latitude":36.1895523,"zip code":"74352","store details":"Pay at the Pump, Redbox, Open 24 Hours","longitude":-95.1594238,"id":"a63eugn8g3d1","address":"101 Holiday Ln","phone number":"918-479-2210","store hours":"Open 24 Hours","state":"OK"},"type":"Feature","geometry":{"type":"Point","coordinates":[-95.1594238,36.1895523]}},{"properties":{"city":"McAlester","store number":848,"fax number":null,"latitude":34.9273262,"zip code":"74501","store details":"Diesel, Pay at the Pump, Redbox, Open 24 Hours","longitude":-95.76327,"id":"a63eugmxigbg","address":"526 E Wyandotte Ave","phone number":"918-426-0865","store hours":"Open 24 Hours","state":"OK"},"type":"Feature","geometry":{"type":"Point","coordinates":[-95.76327,34.9273262]}},{"properties":{"city":"Muskogee","store number":849,"fax number":null,"latitude":35.7478142,"zip code":"74401","store details":"Pay at the Pump, Redbox, Open 24 Hours","longitude":-95.40222,"id":"a63eugq7iooi","address":"702 S 32nd St","phone number":"918-683-1692","store hours":"Open 24 Hours","state":"OK"},"type":"Feature","geometry":{"type":"Point","coordinates":[-95.40222,35.7478142]}},{"properties":{"city":"Muskogee","store number":850,"fax number":null,"latitude":35.74045,"zip code":"74403","store details":"Pay at the Pump, Redbox, Open 24 Hours","longitude":-95.34057,"id":"a63euh9ji9fu","address":"2315 E Chandler Rd","phone number":"918-682-6302","store hours":"Open 24 Hours","state":"OK"},"type":"Feature","geometry":{"type":"Point","coordinates":[-95.34057,35.74045]}},{"properties":{"city":"Muskogee","store number":851,"fax number":null,"latitude":35.75481,"zip code":"74401","store details":"Pay at the Pump, Redbox, Open 24 Hours, Carwash","longitude":-95.4118,"id":"a63eugzyn42c","address":"4001 W Okmulgee Ave","phone number":"918-682-2681","store hours":"Open 24 Hours","state":"OK"},"type":"Feature","geometry":{"type":"Point","coordinates":[-95.4118,35.75481]}},{"properties":{"city":"Muskogee","store number":852,"fax number":null,"latitude":35.71159,"zip code":"74403","store details":"Pay at the Pump, Redbox, Open 24 Hours","longitude":-95.37509,"id":"a63eugz3pxqc","address":"76 E Peak Blvd","phone number":"918-681-1980","store hours":"Open 24 Hours","state":"OK"},"type":"Feature","geometry":{"type":"Point","coordinates":[-95.37509,35.71159]}},{"properties":{"city":"Muskogee","store number":853,"fax number":null,"latitude":35.7409134,"zip code":"74401","store details":"Pay at the Pump, Redbox","longitude":-95.374054,"id":"a63euh3ohnz0","address":"29 W Southside Blvd","phone number":"918-682-5471","store hours":null,"state":"OK"},"type":"Feature","geometry":{"type":"Point","coordinates":[-95.374054,35.7409134]}},{"properties":{"city":"Okmulgee","store number":855,"fax number":null,"latitude":35.6248627,"zip code":"74447","store details":"Diesel, Pay at the Pump, Redbox, Open 24 Hours","longitude":-95.9846954,"id":"a63euh55szmb","address":"1201 W 4th St","phone number":"918-756-3224","store hours":"Open 24 Hours","state":"OK"},"type":"Feature","geometry":{"type":"Point","coordinates":[-95.9846954,35.6248627]}},{"properties":{"city":"Okmulgee","store number":856,"fax number":null,"latitude":35.62125,"zip code":"74447","store details":"Pay at the Pump, Redbox, Open 24 Hours, Carwash","longitude":-95.96019,"id":"a63euh7rb3nj","address":"303 S Wood Dr","phone number":"918-756-8272","store hours":"Open 24 Hours","state":"OK"},"type":"Feature","geometry":{"type":"Point","coordinates":[-95.96019,35.62125]}},{"properties":{"city":"Okmulgee","store number":857,"fax number":null,"latitude":35.6101952,"zip code":"74447","store details":"Diesel, Pay at the Pump, Open 24 Hours","longitude":-95.96208,"id":"a63euh2pfy15","address":"1220 S Wood Dr","phone number":"918-758-0288","store hours":"Open 24 Hours","state":"OK"},"type":"Feature","geometry":{"type":"Point","coordinates":[-95.96208,35.6101952]}},{"properties":{"city":"Owasso","store number":858,"fax number":null,"latitude":36.2641449,"zip code":"74055","store details":"Pay at the Pump, Redbox, Open 24 Hours","longitude":-95.85239,"id":"a63euh5qy04t","address":"307 E 2nd Ave","phone number":"918-272-1577","store hours":"Open 24 Hours","state":"OK"},"type":"Feature","geometry":{"type":"Point","coordinates":[-95.85239,36.2641449]}},{"properties":{"city":"Owasso","store number":859,"fax number":null,"latitude":36.2790337,"zip code":"74055","store details":"Pay at the Pump, Redbox, Open 24 Hours, Carwash","longitude":-95.83046,"id":"a63euguvnz3e","address":"12807 E 86th St N","phone number":"918-274-7121","store hours":"Open 24 Hours","state":"OK"},"type":"Feature","geometry":{"type":"Point","coordinates":[-95.83046,36.2790337]}},{"properties":{"city":"Pawhuska","store number":860,"fax number":null,"latitude":36.66925,"zip code":"74056","store details":"Diesel, Pay at the Pump, Redbox, Open 24 Hours, Carwash","longitude":-96.31409,"id":"a63euh095le6","address":"210 E Main St","phone number":"918-287-2539","store hours":"Open 24 Hours","state":"OK"},"type":"Feature","geometry":{"type":"Point","coordinates":[-96.31409,36.66925]}},{"properties":{"city":"Pryor","store number":861,"fax number":null,"latitude":36.2926369,"zip code":"74361","store details":"Diesel, Pay at the Pump, Redbox, Open 24 Hours","longitude":-95.32415,"id":"a63euh48iz6h","address":"901 S Mill Rd","phone number":"918-825-1505","store hours":"Open 24 Hours","state":"OK"},"type":"Feature","geometry":{"type":"Point","coordinates":[-95.32415,36.2926369]}},{"properties":{"city":"Sand Springs","store number":862,"fax number":null,"latitude":36.13419,"zip code":"74063","store details":"Diesel, Pay at the Pump, Redbox, Open 24 Hours, Carwash","longitude":-96.10176,"id":"a63euh956nb8","address":"230 S Adams Rd","phone number":"918-246-2864","store hours":"Open 24 Hours","state":"OK"},"type":"Feature","geometry":{"type":"Point","coordinates":[-96.10176,36.13419]}},{"properties":{"city":"Sapulpa","store number":863,"fax number":null,"latitude":36.0077133,"zip code":"74066","store details":"Diesel, Pay at the Pump, Open 24 Hours","longitude":-96.11173,"id":"a63euh28az9l","address":"709 N 9th St","phone number":"918-248-7550","store hours":"Open 24 Hours","state":"OK"},"type":"Feature","geometry":{"type":"Point","coordinates":[-96.11173,36.0077133]}},{"properties":{"city":"Skiatook","store number":864,"fax number":null,"latitude":36.3684845,"zip code":"74070","store details":"Pay at the Pump, Redbox, Open 24 Hours, Carwash","longitude":-96.0162,"id":"a63euh1vmh89","address":"951 W Rogers Blvd","phone number":"918-396-0565","store hours":"Open 24 Hours","state":"OK"},"type":"Feature","geometry":{"type":"Point","coordinates":[-96.0162,36.3684845]}},{"properties":{"city":"Tulsa","store number":865,"fax number":null,"latitude":36.0901031,"zip code":"74145","store details":"Pay at the Pump, Redbox, Open 24 Hours, Carwash","longitude":-95.8906555,"id":"a63eugvcv2xx","address":"7675 E 51st St","phone number":"918-628-1479","store hours":"Open 24 Hours","state":"OK"},"type":"Feature","geometry":{"type":"Point","coordinates":[-95.8906555,36.0901031]}},{"properties":{"city":"Tulsa","store number":866,"fax number":null,"latitude":36.0901642,"zip code":"74012","store details":"Diesel, Pay at the Pump, Redbox, Open 24 Hours, Carwash","longitude":-95.81546,"id":"a63euh1ajmop","address":"14495 E 51st St S","phone number":"918-355-8407","store hours":"Open 24 Hours","state":"OK"},"type":"Feature","geometry":{"type":"Point","coordinates":[-95.81546,36.0901642]}},{"properties":{"city":"Tulsa","store number":867,"fax number":null,"latitude":36.0606155,"zip code":"74133","store details":"Pay at the Pump, Redbox, Open 24 Hours, Carwash","longitude":-95.85539,"id":"a63euh9lpx82","address":"11296 E 71st St","phone number":"918-254-8101","store hours":"Open 24 Hours","state":"OK"},"type":"Feature","geometry":{"type":"Point","coordinates":[-95.85539,36.0606155]}},{"properties":{"city":"Tulsa","store number":871,"fax number":null,"latitude":36.0898,"zip code":"74145","store details":"Diesel, Pay at the Pump, Redbox, Open 24 Hours, Carwash","longitude":-95.86847,"id":"a63euh8u4rpv","address":"5105 S Mingo Rd","phone number":"918-663-3243","store hours":"Open 24 Hours","state":"OK"},"type":"Feature","geometry":{"type":"Point","coordinates":[-95.86847,36.0898]}},{"properties":{"city":"Tulsa","store number":872,"fax number":null,"latitude":36.0176239,"zip code":"74133","store details":"Pay at the Pump, Redbox, Open 24 Hours","longitude":-95.8687744,"id":"a63euh8v6y2l","address":"10032 S Mingo Rd","phone number":"918-250-0164","store hours":"Open 24 Hours","state":"OK"},"type":"Feature","geometry":{"type":"Point","coordinates":[-95.8687744,36.0176239]}},{"properties":{"city":"Tulsa","store number":873,"fax number":null,"latitude":36.1052,"zip code":"74105","store details":"Pay at the Pump, Redbox, Open 24 Hours","longitude":-95.9743,"id":"a63eugtx3qpm","address":"3939 S Peoria Ave","phone number":"918-743-1811","store hours":"Open 24 Hours","state":"OK"},"type":"Feature","geometry":{"type":"Point","coordinates":[-95.9743,36.1052]}},{"properties":{"city":"Tulsa","store number":874,"fax number":null,"latitude":36.0170937,"zip code":"74137","store details":"Diesel, Pay at the Pump, Redbox, Open 24 Hours","longitude":-95.94943,"id":"a63euguuu09y","address":"10010 S Riverside Pkwy","phone number":"918-298-1278","store hours":"Open 24 Hours","state":"OK"},"type":"Feature","geometry":{"type":"Point","coordinates":[-95.94943,36.0170937]}},{"properties":{"city":"Jenks","store number":875,"fax number":null,"latitude":36.0177841,"zip code":"74037","store details":"Diesel, Pay at the Pump, Restaurant: Subway, Redbox, Open 24 Hours","longitude":-95.97618,"id":"a63euh4e5b42","address":"510 S Elm St","phone number":"918-299-3653","store hours":"Open 24 Hours","state":"OK"},"type":"Feature","geometry":{"type":"Point","coordinates":[-95.97618,36.0177841]}},{"properties":{"city":"Owasso","store number":876,"fax number":null,"latitude":36.27889,"zip code":"74055","store details":"E85, Diesel, Pay at the Pump, Redbox, Open 24 Hours","longitude":-95.8119,"id":"a63euh52d7k3","address":"14505 E 86th St N","phone number":"918-274-8006","store hours":"Open 24 Hours","state":"OK"},"type":"Feature","geometry":{"type":"Point","coordinates":[-95.8119,36.27889]}},{"properties":{"city":"Broken Arrow","store number":877,"fax number":null,"latitude":36.0755234,"zip code":"74012","store details":"E85, Diesel, Pay at the Pump, Restaurant: Subway, Redbox, Open 24 Hours","longitude":-95.7779541,"id":"a63euh4ts8ba","address":"1050 E Albany St","phone number":"918-355-0341","store hours":"Open 24 Hours","state":"OK"},"type":"Feature","geometry":{"type":"Point","coordinates":[-95.7779541,36.0755234]}},{"properties":{"city":"Stillwater","store number":878,"fax number":null,"latitude":36.1405258,"zip code":"74075","store details":"Diesel, Pay at the Pump, Redbox, Open 24 Hours","longitude":-97.05188,"id":"a63eugxkgpvx","address":"1890 N Perkins Rd","phone number":"405-707-0471","store hours":"Open 24 Hours","state":"OK"},"type":"Feature","geometry":{"type":"Point","coordinates":[-97.05188,36.1405258]}},{"properties":{"city":"Broken Arrow","store number":879,"fax number":null,"latitude":36.04651,"zip code":"74012","store details":"Diesel, Pay at the Pump, Restaurant: Subway, Redbox, Open 24 Hours","longitude":-95.85076,"id":"a63eugv5gkbx","address":"8001 S Garnett Rd","phone number":"918-294-1805","store hours":"Open 24 Hours","state":"OK"},"type":"Feature","geometry":{"type":"Point","coordinates":[-95.85076,36.04651]}},{"properties":{"city":"Lone Chimney","store number":880,"fax number":null,"latitude":36.22491,"zip code":"74032","store details":"E85, Diesel, Pay at the Pump, Restaurant: McDonald's, Redbox, Open 24 Hours","longitude":-96.797,"id":"a63euh4q0jus","address":"Cimarron Turnpike, Exit 36","phone number":"918-454-2808","store hours":"Open 24 Hours","state":"OK"},"type":"Feature","geometry":{"type":"Point","coordinates":[-96.797,36.22491]}},{"properties":{"city":"Tulsa","store number":881,"fax number":null,"latitude":36.19133,"zip code":"74110","store details":"E85, Diesel, Pay at the Pump, Go Fresh Market, Redbox, Open 24 Hours","longitude":-95.94076,"id":"a63euh7tofd3","address":"2502  N Harvard Ave","phone number":"918-835-5348","store hours":"Open 24 Hours","state":"OK"},"type":"Feature","geometry":{"type":"Point","coordinates":[-95.94076,36.19133]}},{"properties":{"city":"Owasso","store number":886,"fax number":null,"latitude":36.27872,"zip code":"74055","store details":"Diesel, Pay at the Pump, Redbox, Open 24 Hours","longitude":-95.85472,"id":"a63euh2apj3l","address":"10603 E 86th St N","phone number":"918-376-2546","store hours":"Open 24 Hours","state":"OK"},"type":"Feature","geometry":{"type":"Point","coordinates":[-95.85472,36.27872]}},{"properties":{"city":"Yampa","store number":900,"fax number":null,"latitude":40.15042,"zip code":"80483","store details":"Diesel, Pay at the Pump, Semi-Truck Accessible","longitude":-106.902367,"id":"a63euh6kkl5c","address":"16065 CO Highway 131","phone number":"970-638-4283","store hours":null,"state":"CO"},"type":"Feature","geometry":{"type":"Point","coordinates":[-106.902367,40.15042]}},{"properties":{"city":"Craig","store number":901,"fax number":null,"latitude":40.521328,"zip code":"81625","store details":"Diesel, Pay at the Pump, Redbox, Open 24 Hours","longitude":-107.54705,"id":"a63euh3ay7ja","address":"895 Yampa Ave","phone number":"970-824-7325","store hours":"Open 24 Hours","state":"CO"},"type":"Feature","geometry":{"type":"Point","coordinates":[-107.54705,40.521328]}},{"properties":{"city":"Craig","store number":902,"fax number":null,"latitude":40.51395,"zip code":"81625","store details":"Diesel, Pay at the Pump, Redbox, Open 24 Hours","longitude":-107.562973,"id":"a63euh6t4x2w","address":"1302 W Victory Way","phone number":"970-824-2568","store hours":"Open 24 Hours","state":"CO"},"type":"Feature","geometry":{"type":"Point","coordinates":[-107.562973,40.51395]}},{"properties":{"city":"Craig","store number":903,"fax number":null,"latitude":40.5144,"zip code":"81625","store details":"Diesel, Pay at the Pump, Redbox, Open 24 Hours","longitude":-107.5355,"id":"a63euh61i4as","address":"700 E Victory Way","phone number":"970-824-2418","store hours":"Open 24 Hours","state":"CO"},"type":"Feature","geometry":{"type":"Point","coordinates":[-107.5355,40.5144]}},{"properties":{"city":"Silt","store number":905,"fax number":null,"latitude":39.54693,"zip code":"81652","store details":"Diesel, Pay at the Pump, Redbox, Open 24 Hours","longitude":-107.653404,"id":"a63eugy33m70","address":"905 Main St","phone number":"970-876-0683","store hours":"Open 24 Hours","state":"CO"},"type":"Feature","geometry":{"type":"Point","coordinates":[-107.653404,39.54693]}},{"properties":{"city":"Battlement Mesa","store number":906,"fax number":null,"latitude":39.4022865,"zip code":"81635","store details":"Diesel, Pay at the Pump, Redbox, Open 24 Hours","longitude":-108.106064,"id":"a63euh9hmz88","address":"10 Stone Quarry Rd","phone number":"970-285-5637","store hours":"Open 24 Hours","state":"CO"},"type":"Feature","geometry":{"type":"Point","coordinates":[-108.106064,39.4022865]}},{"properties":{"city":"Silverthorne","store number":907,"fax number":null,"latitude":39.646347,"zip code":"80498","store details":"Diesel, Pay at the Pump, Open 24 Hours","longitude":-106.079079,"id":"a63eugwnan5h","address":"101 Ruby Ranch Rd","phone number":"970-468-0888","store hours":"Open 24 Hours","state":"CO"},"type":"Feature","geometry":{"type":"Point","coordinates":[-106.079079,39.646347]}},{"properties":{"city":"Kremmling","store number":909,"fax number":null,"latitude":40.05897,"zip code":"80459","store details":"Diesel, Pay at the Pump, Open 24 Hours","longitude":-106.388626,"id":"a63euh76zh40","address":"605 Park Ave","phone number":"970-724-1105","store hours":"Open 24 Hours","state":"CO"},"type":"Feature","geometry":{"type":"Point","coordinates":[-106.388626,40.05897]}},{"properties":{"city":"Greeley","store number":910,"fax number":null,"latitude":40.4295921,"zip code":"80634","store details":"Diesel, Pay at the Pump, Go Fresh Market, Redbox, Open 24 Hours","longitude":-104.792976,"id":"a63euguwc3ec","address":"366 71st Ave","phone number":"970-353-1110","store hours":"Open 24 Hours","state":"CO"},"type":"Feature","geometry":{"type":"Point","coordinates":[-104.792976,40.4295921]}},{"properties":{"city":"Conifer","store number":912,"fax number":null,"latitude":39.491333,"zip code":"80433","store details":"E85, Diesel, Pay at the Pump, Open 24 Hours","longitude":-105.348022,"id":"a63eugz9ysyk","address":"30393 Kings Valley Dr","phone number":"303-816-0558","store hours":"Open 24 Hours","state":"CO"},"type":"Feature","geometry":{"type":"Point","coordinates":[-105.348022,39.491333]}},{"properties":{"city":"Longmont","store number":913,"fax number":null,"latitude":40.20423,"zip code":"80504","store details":"E85, Diesel, Pay at the Pump, Redbox, Open 24 Hours","longitude":-104.974693,"id":"a63euh1u7pm6","address":"13799 Pacific Cir","phone number":"970-535-4601","store hours":"Open 24 Hours","state":"CO"},"type":"Feature","geometry":{"type":"Point","coordinates":[-104.974693,40.20423]}},{"properties":{"city":"Greeley","store number":914,"fax number":null,"latitude":40.40716,"zip code":"80634","store details":"E85, Diesel, Pay at the Pump, Go Fresh Market, Redbox, Open 24 Hours","longitude":-104.79393,"id":"a63eugznbci0","address":"7027 20th St","phone number":"970-330-8552","store hours":"Open 24 Hours","state":"CO"},"type":"Feature","geometry":{"type":"Point","coordinates":[-104.79393,40.40716]}},{"properties":{"city":"Leadville","store number":915,"fax number":null,"latitude":39.2463722,"zip code":"80461","store details":"Diesel, Pay at the Pump, Open 24 Hours","longitude":-106.290855,"id":"a63eugzd025h","address":"300 Harrison Ave","phone number":"719-486-3175","store hours":"Open 24 Hours","state":"CO"},"type":"Feature","geometry":{"type":"Point","coordinates":[-106.290855,39.2463722]}},{"properties":{"city":"Leadville","store number":916,"fax number":null,"latitude":39.25948,"zip code":"80461","store details":null,"longitude":-106.29364,"id":"a63euh6g3dka","address":"203 Mountain View Dr","phone number":"719-486-1221","store hours":null,"state":"CO"},"type":"Feature","geometry":{"type":"Point","coordinates":[-106.29364,39.25948]}},{"properties":{"city":"Rangely","store number":919,"fax number":null,"latitude":40.0874443,"zip code":"81648","store details":"Diesel, Pay at the Pump, Redbox, Open 24 Hours","longitude":-108.800392,"id":"a63eugzd247z","address":"317 E Main St","phone number":"970-675-2858","store hours":"Open 24 Hours","state":"CO"},"type":"Feature","geometry":{"type":"Point","coordinates":[-108.800392,40.0874443]}},{"properties":{"city":"Steamboat Springs","store number":920,"fax number":null,"latitude":40.5017471,"zip code":"80487","store details":"Diesel, Pay at the Pump, Restaurant: Subway","longitude":-106.85701,"id":"a63eugzfe97p","address":"2032 Curve Plz","phone number":"970-871-3324","store hours":null,"state":"CO"},"type":"Feature","geometry":{"type":"Point","coordinates":[-106.85701,40.5017471]}},{"properties":{"city":"Rifle","store number":921,"fax number":null,"latitude":39.52974,"zip code":"81650","store details":"Pay at the Pump, Open 24 Hours","longitude":-107.782257,"id":"a63euh62j3gg","address":"120 E 1st St","phone number":"970-625-3806","store hours":"Open 24 Hours","state":"CO"},"type":"Feature","geometry":{"type":"Point","coordinates":[-107.782257,39.52974]}},{"properties":{"city":"Rifle","store number":922,"fax number":"970-625-2700","latitude":39.55271,"zip code":"81650","store details":"E85, Diesel, Pay at the Pump, Go Fresh Market, Redbox, Open 24 Hours","longitude":-107.77723,"id":"a63euguk9ufl","address":"120 E 26th St","phone number":"970-625-2274","store hours":"Open 24 Hours","state":"CO"},"type":"Feature","geometry":{"type":"Point","coordinates":[-107.77723,39.55271]}},{"properties":{"city":"New Castle","store number":927,"fax number":null,"latitude":39.5684624,"zip code":"81647","store details":"Diesel, Pay at the Pump, Redbox, Open 24 Hours","longitude":-107.5163,"id":"a63eugw4j3ep","address":"801 Castle Valley Blvd","phone number":"970-984-9618","store hours":"Open 24 Hours","state":"CO"},"type":"Feature","geometry":{"type":"Point","coordinates":[-107.5163,39.5684624]}},{"properties":{"city":"Steamboat Springs","store number":928,"fax number":null,"latitude":40.46817,"zip code":"80487","store details":"Diesel, Pay at the Pump, Redbox, Open 24 Hours","longitude":-106.827141,"id":"a63eugv59jby","address":"80 Anglers Dr","phone number":"970-871-0753","store hours":"Open 24 Hours","state":"CO"},"type":"Feature","geometry":{"type":"Point","coordinates":[-106.827141,40.46817]}},{"properties":{"city":"Battlement Mesa","store number":929,"fax number":null,"latitude":39.4285126,"zip code":"81635","store details":"Diesel, Pay at the Pump, Open 24 Hours","longitude":-108.036858,"id":"a63eugyi4uy6","address":"59 Tamarisk Trl","phone number":"970-285-7381","store hours":"Open 24 Hours","state":"CO"},"type":"Feature","geometry":{"type":"Point","coordinates":[-108.036858,39.4285126]}},{"properties":{"city":"Brighton","store number":930,"fax number":null,"latitude":39.9866562,"zip code":"80601","store details":"Diesel, Pay at the Pump, Go Fresh Market, Redbox, Open 24 Hours","longitude":-104.796028,"id":"a63eugy35bpt","address":"2150 E Bridge St","phone number":"720-685-3161","store hours":"Open 24 Hours","state":"CO"},"type":"Feature","geometry":{"type":"Point","coordinates":[-104.796028,39.9866562]}},{"properties":{"city":"Evans","store number":931,"fax number":null,"latitude":40.3776855,"zip code":"80620","store details":"Diesel, Pay at the Pump, Go Fresh Market, Redbox, Open 24 Hours","longitude":-104.725533,"id":"a63euh5x9s0t","address":"2901 37th St","phone number":"970-330-3206","store hours":"Open 24 Hours","state":"CO"},"type":"Feature","geometry":{"type":"Point","coordinates":[-104.725533,40.3776855]}},{"properties":{"city":"Loveland","store number":933,"fax number":null,"latitude":40.43848,"zip code":"80538","store details":"Diesel, Pay at the Pump, Go Fresh Market, Redbox, Open 24 Hours","longitude":-105.0771,"id":"a63eugzl975z","address":"115 Knobcone Dr","phone number":"970-669-2889","store hours":"Open 24 Hours","state":"CO"},"type":"Feature","geometry":{"type":"Point","coordinates":[-105.0771,40.43848]}},{"properties":{"city":"Wellington","store number":934,"fax number":null,"latitude":40.70301,"zip code":"80549","store details":"E85, Diesel, Pay at the Pump, Open 24 Hours","longitude":-104.999985,"id":"a63euh56gn7h","address":"8150 6th St","phone number":"970-568-3173","store hours":"Open 24 Hours","state":"CO"},"type":"Feature","geometry":{"type":"Point","coordinates":[-104.999985,40.70301]}},{"properties":{"city":"Gypsum","store number":935,"fax number":null,"latitude":39.64575,"zip code":"81637","store details":"Pay at the Pump","longitude":-106.94738,"id":"a63euh03nz4r","address":"103 Oakridge Dr","phone number":"970-524-1833","store hours":null,"state":"CO"},"type":"Feature","geometry":{"type":"Point","coordinates":[-106.94738,39.64575]}},{"properties":{"city":"De Beque","store number":937,"fax number":null,"latitude":39.32612,"zip code":"81630","store details":"Diesel, Pay at the Pump, Restaurant: Subway, Redbox, Open 24 Hours, Semi-Truck Accessible","longitude":-108.208107,"id":"a63euh89bwlw","address":"4530 Old US Highway 6","phone number":"970-283-8635","store hours":"Open 24 Hours","state":"CO"},"type":"Feature","geometry":{"type":"Point","coordinates":[-108.208107,39.32612]}},{"properties":{"city":"Granby","store number":938,"fax number":null,"latitude":40.0854721,"zip code":"80446","store details":"E85, Diesel, Pay at the Pump, Redbox, Open 24 Hours","longitude":-105.939308,"id":"a63euh208xlh","address":"308 Agate Ave","phone number":"970-887-3031","store hours":"Open 24 Hours","state":"CO"},"type":"Feature","geometry":{"type":"Point","coordinates":[-105.939308,40.0854721]}},{"properties":{"city":"Brighton","store number":940,"fax number":null,"latitude":39.98668,"zip code":"80601","store details":"E85, Diesel, Pay at the Pump, Go Fresh Market, Redbox, Open 24 Hours","longitude":-104.82653,"id":"a63euh5f8osd","address":"70 W Bridge St","phone number":"303-659-9546","store hours":"Open 24 Hours","state":"CO"},"type":"Feature","geometry":{"type":"Point","coordinates":[-104.82653,39.98668]}},{"properties":{"city":"Buffalo","store number":953,"fax number":null,"latitude":44.34911,"zip code":"82834","store details":"Diesel, Pay at the Pump, Redbox, Open 24 Hours","longitude":-106.698807,"id":"a63euh5m5z7g","address":"109 N Main St","phone number":"307-684-2736","store hours":"Open 24 Hours","state":"WY"},"type":"Feature","geometry":{"type":"Point","coordinates":[-106.698807,44.34911]}},{"properties":{"city":"Casper","store number":954,"fax number":null,"latitude":42.8355675,"zip code":"82601","store details":"Diesel, Pay at the Pump, Redbox, Open 24 Hours","longitude":-106.312332,"id":"a63eugultdh7","address":"1455 S McKinley St","phone number":"307-237-5735","store hours":"Open 24 Hours","state":"WY"},"type":"Feature","geometry":{"type":"Point","coordinates":[-106.312332,42.8355675]}},{"properties":{"city":"Cheyenne","store number":955,"fax number":null,"latitude":41.10254,"zip code":"82007","store details":"Open 24 Hours","longitude":-104.800056,"id":"a63eugwgekhu","address":"1617 S Greeley Hwy","phone number":"307-634-3480","store hours":"Open 24 Hours","state":"WY"},"type":"Feature","geometry":{"type":"Point","coordinates":[-104.800056,41.10254]}},{"properties":{"city":"Cheyenne","store number":956,"fax number":null,"latitude":41.133812,"zip code":"82001","store details":"Diesel, Pay at the Pump, Redbox, Open 24 Hours","longitude":-104.812004,"id":"a63euh5pcr2a","address":"215 E Lincolnway","phone number":"307-637-5436","store hours":"Open 24 Hours","state":"WY"},"type":"Feature","geometry":{"type":"Point","coordinates":[-104.812004,41.133812]}},{"properties":{"city":"Cheyenne","store number":957,"fax number":null,"latitude":41.15987,"zip code":"82001","store details":"Diesel, Pay at the Pump, Redbox, Open 24 Hours","longitude":-104.7679,"id":"a63euh3p89xs","address":"4505 Ridge Rd","phone number":"307-638-8069","store hours":"Open 24 Hours","state":"WY"},"type":"Feature","geometry":{"type":"Point","coordinates":[-104.7679,41.15987]}},{"properties":{"city":"Evansville","store number":958,"fax number":null,"latitude":42.85748,"zip code":"82609","store details":"Diesel, Pay at the Pump, Redbox, Open 24 Hours","longitude":-106.270683,"id":"a63euh1ely5m","address":"3 Curtiss St","phone number":"307-237-9323","store hours":"Open 24 Hours","state":"WY"},"type":"Feature","geometry":{"type":"Point","coordinates":[-106.270683,42.85748]}},{"properties":{"city":"Gillette","store number":959,"fax number":null,"latitude":44.32149,"zip code":"82716","store details":"Pay at the Pump, Redbox, Open 24 Hours","longitude":-105.530472,"id":"a63euh0pgago","address":"719 US Highway 14","phone number":"307-682-9155","store hours":"Open 24 Hours","state":"WY"},"type":"Feature","geometry":{"type":"Point","coordinates":[-105.530472,44.32149]}},{"properties":{"city":"Gillette","store number":960,"fax number":null,"latitude":44.2911644,"zip code":"82716","store details":"Pay at the Pump, Redbox, Open 24 Hours","longitude":-105.478271,"id":"a63euh0rpz3h","address":"1504 US Highway 14-16","phone number":"307-686-2365","store hours":"Open 24 Hours","state":"WY"},"type":"Feature","geometry":{"type":"Point","coordinates":[-105.478271,44.2911644]}},{"properties":{"city":"Gillette","store number":961,"fax number":null,"latitude":44.2913437,"zip code":"82718","store details":"Diesel, Pay at the Pump, Redbox, Open 24 Hours","longitude":-105.531876,"id":"a63eugtm5nfm","address":"310 Skyline Dr","phone number":"307-686-3703","store hours":"Open 24 Hours","state":"WY"},"type":"Feature","geometry":{"type":"Point","coordinates":[-105.531876,44.2913437]}},{"properties":{"city":"Kemmerer","store number":963,"fax number":null,"latitude":41.78949,"zip code":"83101","store details":"Diesel, Open 24 Hours","longitude":-110.539368,"id":"a63euh3a9qq3","address":"1209 Beech St","phone number":"307-877-9475","store hours":"Open 24 Hours","state":"WY"},"type":"Feature","geometry":{"type":"Point","coordinates":[-110.539368,41.78949]}},{"properties":{"city":"Laramie","store number":964,"fax number":null,"latitude":41.317318,"zip code":"82072","store details":"Pay at the Pump, Redbox, Open 24 Hours","longitude":-105.592766,"id":"a63euh5u98ri","address":"569 N 3rd St","phone number":"307-742-2198","store hours":"Open 24 Hours","state":"WY"},"type":"Feature","geometry":{"type":"Point","coordinates":[-105.592766,41.317318]}},{"properties":{"city":"Rawlins","store number":966,"fax number":null,"latitude":41.7986679,"zip code":"82301","store details":"Diesel, Pay at the Pump, Redbox, Open 24 Hours, Semi-Truck Accessible","longitude":-107.216393,"id":"a63euh8r584y","address":"1115 N Higley Blvd","phone number":"307-328-1688","store hours":"Open 24 Hours","state":"WY"},"type":"Feature","geometry":{"type":"Point","coordinates":[-107.216393,41.7986679]}},{"properties":{"city":"Rock Springs","store number":967,"fax number":null,"latitude":41.617527,"zip code":"82901","store details":"E85, Diesel, Pay at the Pump, Go Fresh Market, Redbox, Open 24 Hours","longitude":-109.2313,"id":"a63euh8bmjse","address":"1806 Elk St","phone number":"307-362-7525","store hours":"Open 24 Hours","state":"WY"},"type":"Feature","geometry":{"type":"Point","coordinates":[-109.2313,41.617527]}},{"properties":{"city":"Rock Springs","store number":968,"fax number":null,"latitude":41.5755577,"zip code":"82901","store details":"Diesel, Pay at the Pump, Redbox, Open 24 Hours","longitude":-109.2475,"id":"a63eugx2nguh","address":"2004 Dewer Dr","phone number":"307-362-7711","store hours":"Open 24 Hours","state":"WY"},"type":"Feature","geometry":{"type":"Point","coordinates":[-109.2475,41.5755577]}},{"properties":{"city":"Rock Springs","store number":969,"fax number":null,"latitude":41.5978928,"zip code":"82901","store details":"E85, Diesel, Pay at the Pump, Go Fresh Market, Redbox, Open 24 Hours","longitude":-109.206039,"id":"a63euh5k9aw0","address":"1540 9th St","phone number":"307-382-1097","store hours":"Open 24 Hours","state":"WY"},"type":"Feature","geometry":{"type":"Point","coordinates":[-109.206039,41.5978928]}},{"properties":{"city":"Saratoga","store number":970,"fax number":null,"latitude":41.4521828,"zip code":"82331","store details":"Diesel, Pay at the Pump, Redbox, Open 24 Hours","longitude":-106.807777,"id":"a63euh8ru8rq","address":"312 S 1st St","phone number":"307-326-5346","store hours":"Open 24 Hours","state":"WY"},"type":"Feature","geometry":{"type":"Point","coordinates":[-106.807777,41.4521828]}},{"properties":{"city":"Boulder","store number":972,"fax number":null,"latitude":40.0176239,"zip code":"80302","store details":"Pay at the Pump","longitude":-105.263474,"id":"a63euh2xdanc","address":"2375 Canyon Blvd","phone number":"303-440-1457","store hours":null,"state":"CO"},"type":"Feature","geometry":{"type":"Point","coordinates":[-105.263474,40.0176239]}},{"properties":{"city":"Dacono","store number":973,"fax number":null,"latitude":40.0869064,"zip code":"80514","store details":"E85, Diesel, Pay at the Pump, Go Fresh Market, Redbox, Open 24 Hours","longitude":-104.974556,"id":"a63euh29wndf","address":"127 Laura Way","phone number":"303-833-3935","store hours":"Open 24 Hours","state":"CO"},"type":"Feature","geometry":{"type":"Point","coordinates":[-104.974556,40.0869064]}},{"properties":{"city":"Idaho Springs","store number":975,"fax number":null,"latitude":39.74179,"zip code":"80452","store details":"Diesel, Pay at the Pump, Redbox, Open 24 Hours","longitude":-105.519112,"id":"a63euh95pcwc","address":"1319 Miner St","phone number":"303-567-2385","store hours":"Open 24 Hours","state":"CO"},"type":"Feature","geometry":{"type":"Point","coordinates":[-105.519112,39.74179]}},{"properties":{"city":"Eagle","store number":978,"fax number":null,"latitude":39.6609268,"zip code":"81631","store details":"Diesel, Pay at the Pump, Redbox, Open 24 Hours","longitude":-106.828072,"id":"a63eugtvr6ne","address":"18 Market Dr","phone number":"970-328-0806","store hours":"Open 24 Hours","state":"CO"},"type":"Feature","geometry":{"type":"Point","coordinates":[-106.828072,39.6609268]}},{"properties":{"city":"Bartlesville","store number":980,"fax number":null,"latitude":36.7515869,"zip code":"74003","store details":"Diesel, Pay at the Pump, Redbox, Open 24 Hours","longitude":-95.9881744,"id":"a63euh0dih3z","address":"925 SW Frank Phillips Blvd","phone number":"918-336-6140","store hours":"Open 24 Hours","state":"OK"},"type":"Feature","geometry":{"type":"Point","coordinates":[-95.9881744,36.7515869]}},{"properties":{"city":"Bristow","store number":981,"fax number":null,"latitude":35.8286171,"zip code":"74010","store details":"Diesel, Pay at the Pump, Redbox, Open 24 Hours","longitude":-96.39117,"id":"a63euh9tc6rf","address":"510 S Main St","phone number":"918-367-6404","store hours":"Open 24 Hours","state":"OK"},"type":"Feature","geometry":{"type":"Point","coordinates":[-96.39117,35.8286171]}},{"properties":{"city":"Coweta","store number":982,"fax number":null,"latitude":35.9444962,"zip code":"74429","store details":"E85, Diesel, Pay at the Pump, Redbox, Open 24 Hours","longitude":-95.6501846,"id":"a63eugunq7ig","address":"15139 S OK Highway 72","phone number":"918-486-4711","store hours":"Open 24 Hours","state":"OK"},"type":"Feature","geometry":{"type":"Point","coordinates":[-95.6501846,35.9444962]}},{"properties":{"city":"Muskogee","store number":986,"fax number":null,"latitude":35.7405052,"zip code":"74403","store details":"Diesel, Pay at the Pump, Redbox, Open 24 Hours","longitude":-95.32975,"id":"a63euh95bkbx","address":"3305 Chandler Rd","phone number":"918-682-5560","store hours":"Open 24 Hours","state":"OK"},"type":"Feature","geometry":{"type":"Point","coordinates":[-95.32975,35.7405052]}},{"properties":{"city":"Muskogee","store number":987,"fax number":null,"latitude":35.72598,"zip code":"74403","store details":"Diesel, Pay at the Pump, Redbox, Open 24 Hours","longitude":-95.3405,"id":"a63euh75ji9s","address":"2301 S York St","phone number":"918-682-0953","store hours":"Open 24 Hours","state":"OK"},"type":"Feature","geometry":{"type":"Point","coordinates":[-95.3405,35.72598]}},{"properties":{"city":"Muskogee","store number":989,"fax number":null,"latitude":35.77049,"zip code":"74403","store details":"Diesel, Pay at the Pump, Redbox, Open 24 Hours","longitude":-95.3231354,"id":"a63eugx8x6mw","address":"3450 E Shawnee Rd","phone number":"918-686-7405","store hours":"Open 24 Hours","state":"OK"},"type":"Feature","geometry":{"type":"Point","coordinates":[-95.3231354,35.77049]}},{"properties":{"city":"Wagoner","store number":991,"fax number":null,"latitude":35.95879,"zip code":"74467","store details":"Diesel, Pay at the Pump, Redbox, Open 24 Hours","longitude":-95.40955,"id":"a63euh8l6czb","address":"2221 W OK Highway 51","phone number":"918-485-5736","store hours":"Open 24 Hours","state":"OK"},"type":"Feature","geometry":{"type":"Point","coordinates":[-95.40955,35.95879]}},{"properties":{"city":"Knoxville","store number":1272,"fax number":null,"latitude":41.3190422,"zip code":"50138","store details":"Pay at the Pump, Open 24 Hours","longitude":-93.08649,"id":"a63eugyn3mxm","address":"1201 E Main St","phone number":"641-842-3380","store hours":"Open 24 Hours","state":"IA"},"type":"Feature","geometry":{"type":"Point","coordinates":[-93.08649,41.3190422]}},{"properties":{"city":"Oskaloosa","store number":1273,"fax number":null,"latitude":41.30524,"zip code":"52577","store details":"Pay at the Pump","longitude":-92.6456146,"id":"a63euh8jp9z6","address":"1201 N Market St","phone number":"641-673-9505","store hours":null,"state":"IA"},"type":"Feature","geometry":{"type":"Point","coordinates":[-92.6456146,41.30524]}},{"properties":{"city":"Eldora","store number":1959,"fax number":null,"latitude":42.3604164,"zip code":"50627","store details":"Diesel, Pay at the Pump, Restaurant: Subway, Redbox, Open 24 Hours","longitude":-93.11371,"id":"a63euh3cv9gh","address":"2359 Edgington Ave","phone number":"641-858-5111","store hours":"Open 24 Hours","state":"IA"},"type":"Feature","geometry":{"type":"Point","coordinates":[-93.11371,42.3604164]}},{"properties":{"city":"West Des Moines","store number":2035,"fax number":null,"latitude":41.5894279,"zip code":"50266","store details":"Pay at the Pump, Restaurant: Subway, Redbox, Open 24 Hours","longitude":-93.80785,"id":"a63euh84j1tb","address":"7265 Vista Dr","phone number":"515-225-7128","store hours":"Open 24 Hours","state":"IA"},"type":"Feature","geometry":{"type":"Point","coordinates":[-93.80785,41.5894279]}},{"properties":{"city":"West Des Moines","store number":2091,"fax number":null,"latitude":41.5850143,"zip code":"50266","store details":"Pay at the Pump, Redbox, Open 24 Hours","longitude":-93.78975,"id":"a63euh5z3zfd","address":"5969 Ashworth Rd","phone number":"515-226-1322","store hours":"Open 24 Hours","state":"IA"},"type":"Feature","geometry":{"type":"Point","coordinates":[-93.78975,41.5850143]}},{"properties":{"city":"Adel","store number":2093,"fax number":null,"latitude":41.6141853,"zip code":"50003","store details":"Diesel, Pay at the Pump, Redbox, Open 24 Hours","longitude":-94.01713,"id":"a63eugwkbkfn","address":"409 Nile Kinnick Dr","phone number":"515-993-4236","store hours":"Open 24 Hours","state":"IA"},"type":"Feature","geometry":{"type":"Point","coordinates":[-94.01713,41.6141853]}},{"properties":{"city":"Boone","store number":2217,"fax number":null,"latitude":42.05877,"zip code":"50036","store details":"Diesel, Pay at the Pump, Open 24 Hours","longitude":-93.88024,"id":"a63eugzxo2fh","address":"315 Story St","phone number":"515-432-3790","store hours":"Open 24 Hours","state":"IA"},"type":"Feature","geometry":{"type":"Point","coordinates":[-93.88024,42.05877]}},{"properties":{"city":"Des Moines","store number":2722,"fax number":null,"latitude":41.6002922,"zip code":"50311","store details":"Pay at the Pump, Redbox, Open 24 Hours","longitude":-93.64689,"id":"a63euh3lae3h","address":"2211 University Ave","phone number":"515-243-2837","store hours":"Open 24 Hours","state":"IA"},"type":"Feature","geometry":{"type":"Point","coordinates":[-93.64689,41.6002922]}},{"properties":{"city":"Des Moines","store number":2731,"fax number":null,"latitude":41.60025,"zip code":"50311","store details":"Pay at the Pump, Go Fresh Market, Redbox, Open 24 Hours","longitude":-93.65951,"id":"a63eugx3wqmq","address":"3104 University Ave","phone number":"515-255-6711","store hours":"Open 24 Hours","state":"IA"},"type":"Feature","geometry":{"type":"Point","coordinates":[-93.65951,41.60025]}},{"properties":{"city":"Hettinger","store number":2811,"fax number":null,"latitude":46.0013237,"zip code":"58639","store details":"Open 24 Hours","longitude":-102.638672,"id":"a63eugwlpn9l","address":"306 Adams Ave","phone number":"701-567-2711","store hours":"Open 24 Hours","state":"ND"},"type":"Feature","geometry":{"type":"Point","coordinates":[-102.638672,46.0013237]}},{"properties":{"city":"Tioga","store number":2812,"fax number":null,"latitude":48.39553,"zip code":"58852","store details":"Diesel, Pay at the Pump, Redbox","longitude":-102.9294,"id":"a63eugxuigq4","address":"518 2nd St NE","phone number":"701-664-2993","store hours":null,"state":"ND"},"type":"Feature","geometry":{"type":"Point","coordinates":[-102.9294,48.39553]}},{"properties":{"city":"Meeker","store number":2925,"fax number":null,"latitude":40.022522,"zip code":"81641","store details":"Diesel, Pay at the Pump, Open 24 Hours, Semi-Truck Accessible","longitude":-107.957062,"id":"a63euh23xpqq","address":"39065 CO Highway 13","phone number":"970-878-5131","store hours":"Open 24 Hours","state":"CO"},"type":"Feature","geometry":{"type":"Point","coordinates":[-107.957062,40.022522]}},{"properties":{"city":"Glenwood Springs","store number":2926,"fax number":null,"latitude":39.56064,"zip code":"81601","store details":"Pay at the Pump, Redbox, Open 24 Hours, Carwash","longitude":-107.364967,"id":"a63euh7uffto","address":"2510 Gilstrap Ct","phone number":"970-947-1469","store hours":"Open 24 Hours","state":"CO"},"type":"Feature","geometry":{"type":"Point","coordinates":[-107.364967,39.56064]}},{"properties":{"city":"Ankeny","store number":4020,"fax number":null,"latitude":41.70239,"zip code":"50021","store details":"E85, Diesel, Pay at the Pump, Redbox, Open 24 Hours","longitude":-93.62437,"id":"a63eugybkbd2","address":"1910 SW White Birch Cir","phone number":"515-289-0874","store hours":"Open 24 Hours","state":"IA"},"type":"Feature","geometry":{"type":"Point","coordinates":[-93.62437,41.70239]}},{"properties":{"city":"Altoona","store number":4084,"fax number":null,"latitude":41.6442337,"zip code":"50009","store details":"Pay at the Pump, Redbox, Open 24 Hours","longitude":-93.46432,"id":"a63euh2dyp8n","address":"101 8th St SW","phone number":"515-967-4148","store hours":"Open 24 Hours","state":"IA"},"type":"Feature","geometry":{"type":"Point","coordinates":[-93.46432,41.6442337]}},{"properties":{"city":"Windsor Heights","store number":4098,"fax number":null,"latitude":41.600647,"zip code":"50324","store details":"Pay at the Pump, Go Fresh Market, Redbox, Open 24 Hours","longitude":-93.7177658,"id":"a63euh9hp042","address":"7229 University Ave","phone number":"515-255-0300","store hours":"Open 24 Hours","state":"IA"},"type":"Feature","geometry":{"type":"Point","coordinates":[-93.7177658,41.600647]}},{"properties":{"city":"Des Moines","store number":4110,"fax number":null,"latitude":41.61535,"zip code":"50317","store details":"E85, Diesel, Pay at the Pump, Redbox, Open 24 Hours, Semi-Truck Accessible","longitude":-93.57904,"id":"a63eugusox4o","address":"2110 Guthrie Ave","phone number":"515-265-2535","store hours":"Open 24 Hours","state":"IA"},"type":"Feature","geometry":{"type":"Point","coordinates":[-93.57904,41.61535]}},{"properties":{"city":"Sloan","store number":4127,"fax number":null,"latitude":42.22803,"zip code":"51055","store details":"E85, Diesel, Pay at the Pump, Restaurant: Subway, Redbox, Open 24 Hours, Semi-Truck Accessible","longitude":-96.23658,"id":"a63eugwlkyue","address":"1864 Old Hwy 141","phone number":"712-428-4877","store hours":"Open 24 Hours","state":"IA"},"type":"Feature","geometry":{"type":"Point","coordinates":[-96.23658,42.22803]}},{"properties":{"city":"Shenandoah","store number":4205,"fax number":null,"latitude":40.76603,"zip code":"51601","store details":"Pay at the Pump, Open 24 Hours","longitude":-95.38409,"id":"a63eugujv3fm","address":"1301 W Sheridan Ave","phone number":"712-246-4744","store hours":"Open 24 Hours","state":"IA"},"type":"Feature","geometry":{"type":"Point","coordinates":[-95.38409,40.76603]}},{"properties":{"city":"Belmond","store number":4786,"fax number":null,"latitude":42.8454475,"zip code":"50421","store details":"Diesel, Pay at the Pump, Restaurant: Subway, Open 24 Hours","longitude":-93.61706,"id":"a63eugu3xmuf","address":"112 River Ave S","phone number":"641-444-3235","store hours":"Open 24 Hours","state":"IA"},"type":"Feature","geometry":{"type":"Point","coordinates":[-93.61706,42.8454475]}},{"properties":{"city":"Hayden","store number":4904,"fax number":null,"latitude":40.4949379,"zip code":"81639","store details":"Diesel, Pay at the Pump, Open 24 Hours","longitude":-107.258949,"id":"a63euh7yqhmq","address":"230 W Jefferson Ave","phone number":"970-276-3625","store hours":"Open 24 Hours","state":"CO"},"type":"Feature","geometry":{"type":"Point","coordinates":[-107.258949,40.4949379]}},{"properties":{"city":"Rifle","store number":4923,"fax number":null,"latitude":39.52242,"zip code":"81650","store details":"Diesel, Pay at the Pump, Open 24 Hours","longitude":-107.776848,"id":"a63eugy4u14q","address":"365 7th St S","phone number":"970-625-5045","store hours":"Open 24 Hours","state":"CO"},"type":"Feature","geometry":{"type":"Point","coordinates":[-107.776848,39.52242]}},{"properties":{"city":"Rifle","store number":4924,"fax number":null,"latitude":39.5372543,"zip code":"81650","store details":"Diesel, Pay at the Pump","longitude":-107.783043,"id":"a63eugwhh4qz","address":"1248 Railroad Ave","phone number":"970-625-4179","store hours":null,"state":"CO"},"type":"Feature","geometry":{"type":"Point","coordinates":[-107.783043,39.5372543]}},{"properties":{"city":"Glenwood Springs","store number":4951,"fax number":null,"latitude":39.5504532,"zip code":"81601","store details":"Pay at the Pump, Open 24 Hours","longitude":-107.326805,"id":"a63eugx27amj","address":"105 6th St","phone number":"970-945-7628","store hours":"Open 24 Hours","state":"CO"},"type":"Feature","geometry":{"type":"Point","coordinates":[-107.326805,39.5504532]}},{"properties":{"city":"Manson","store number":5100,"fax number":null,"latitude":42.5179863,"zip code":"50563","store details":"Pay at the Pump","longitude":-94.53491,"id":"a63eugtwfq3h","address":"208 Main St","phone number":"712-469-9901","store hours":null,"state":"IA"},"type":"Feature","geometry":{"type":"Point","coordinates":[-94.53491,42.5179863]}}],"is_temporal":false,"author":{"url":"","metadata":"","contact_name":"","contact_address":"","source":"","contact_phone":""},"source":"","pagination":{"sort":null,"start":0,"total":427,"limit":1000000},"state":"complete","tags":"and,go,kum","published":"2014-08-15T01:38:24-04:00","id":247474}