{"type":"FeatureCollection","data_type":"Dataset","url_type":null,"permissions":[{"permissions":{"download":true,"view":true},"group_id":"everyone"}],"classification":null,"title":"In-N-Out burger stores I've visited","count":73,"stream_id":248368,"contributor":{"url":"http://geocommons.com/users/45907","name":"igortest"},"data_attributes":null,"calculation_params":null,"icon_link":null,"link":"http://geocommons.com/overlays/248368.json","extent":[-122.814,32.7928,-111.891,40.5865],"geometry_types":["point"],"unique_name":null,"name":"In-N-Out burger stores I've visited","feature_count":73,"description":"These are retail stores of In-N-Out that I've visited in CA. ","next_feature":null,"is_raster":false,"short_classification":"Y","stats":{},"features":[{"properties":{"name":"Fremont","zip":"94538","county":"Alameda","geo_score":0.49,"sunday":"Y","id":"a66w1bvwj0vk","address":"43349 Pacific Commons Blvd., Fremont, CA 94538","geo_precision":"street","streetaddress":"43349 Pacific Commons Blvd.","state":"CA"},"type":"Feature","geometry":{"type":"Point","coordinates":[-121.953481,37.527701]}},{"properties":{"name":"Livermore","zip":"94550","county":"Alameda","geo_score":0.536,"sunday":"Y","id":"a66w1bnbid6c","address":"1881 N. Livermore Ave., Livermore, CA 94550","geo_precision":"street","streetaddress":"1881 N. Livermore Ave.","state":"CA"},"type":"Feature","geometry":{"type":"Point","coordinates":[-121.771176,37.683994]}},{"properties":{"name":"Pleasanton","zip":"94588","county":"Alameda","geo_score":0.429,"sunday":"Y","id":"a66w1bz041ow","address":"6015 Johnson Dr., Pleasanton, CA 94588","geo_precision":"street","streetaddress":"6015 Johnson Dr.","state":"CA"},"type":"Feature","geometry":{"type":"Point","coordinates":[-121.906791,37.692271]}},{"properties":{"name":"San Leandro","zip":"94579","county":"Alameda","geo_score":0.49,"sunday":"N","id":"a66w1bym8xou","address":"15575 Hesperian Blvd., San Leandro, CA 94579","geo_precision":"street","streetaddress":"15575 Hesperian Blvd.","state":"CA"},"type":"Feature","geometry":{"type":"Point","coordinates":[-122.15578,37.702218]}},{"properties":{"name":"Union City","zip":"94587","county":"Alameda","geo_score":0.49,"sunday":"Y","id":"a66w1bs22f8z","address":"32060 Union Landing Blvd., Union City, CA 94587","geo_precision":"street","streetaddress":"32060 Union Landing Blvd.","state":"CA"},"type":"Feature","geometry":{"type":"Point","coordinates":[-122.021907,37.605657]}},{"properties":{"name":"Chico","zip":"95928","county":"Butte","geo_score":0.643,"sunday":"N","id":"a66w1brsbcfn","address":"2050 Business Ln., Chico, CA 95928","geo_precision":"street","streetaddress":"2050 Business Ln.","state":"CA"},"type":"Feature","geometry":{"type":"Point","coordinates":[-121.806141,39.7273]}},{"properties":{"name":"Henderson","zip":"89014","county":"Clark","geo_score":0.333,"sunday":"N","id":"a66w1c1obh9g","address":"1051 W. Sunset Rd., Henderson, CA 89014","geo_precision":"street","streetaddress":"1051 W. Sunset Rd.","state":"CA"},"type":"Feature","geometry":{"type":"Point","coordinates":[-115.068686,36.072666]}},{"properties":{"name":"Placerville","zip":"95667","county":"El Dorado","geo_score":0.857,"sunday":"N","id":"a66w1bvkholg","address":"3055 Forni Road, Placerville, CA 95667","geo_precision":"street","streetaddress":"3055 Forni Road","state":"CA"},"type":"Feature","geometry":{"type":"Point","coordinates":[-120.811168,38.728395]}},{"properties":{"name":"Clovis","zip":"93612","county":"Fresno","geo_score":0.471,"sunday":"Y","id":"a66w1btq2awu","address":"382 N. Clovis Ave., Clovis, CA 93612","geo_precision":"street","streetaddress":"382 N. Clovis Ave.","state":"CA"},"type":"Feature","geometry":{"type":"Point","coordinates":[-119.699979,36.833912]}},{"properties":{"name":"El Centro","zip":"92243","county":"Imperial","geo_score":0.5,"sunday":"N","id":"a66w1bwwh16d","address":"2390 S. 4th St., El Centro, CA 92243","geo_precision":"street","streetaddress":"2390 S. 4th St.","state":"CA"},"type":"Feature","geometry":{"type":"Point","coordinates":[-115.552512,32.792837]}},{"properties":{"name":"Bakersfield","zip":"93307","county":"Kern","geo_score":0.49,"sunday":"Y","id":"a66w1c0txsoh","address":"2310 Panama Ln., Bakersfield, CA 93307","geo_precision":"street","streetaddress":"2310 Panama Ln.","state":"CA"},"type":"Feature","geometry":{"type":"Point","coordinates":[-118.99193,35.347602]}},{"properties":{"name":"Bakersfield","zip":"93309","county":"Kern","geo_score":0.5,"sunday":"Y","id":"a66w1bz2nct3","address":"5100 Stockdale Hwy., Bakersfield, CA 93309","geo_precision":"street","streetaddress":"5100 Stockdale Hwy.","state":"CA"},"type":"Feature","geometry":{"type":"Point","coordinates":[-119.077592,35.35447]}},{"properties":{"name":"Kettleman City","zip":"93239","county":"Kings","geo_score":0.471,"sunday":"N","id":"a66w1c0qv62h","address":"Highway 41 at Bernard Dr., Kettleman City, CA 93239","geo_precision":"street","streetaddress":"Highway 41 at Bernard Dr.","state":"CA"},"type":"Feature","geometry":{"type":"Point","coordinates":[-119.959324,36.007287]}},{"properties":{"name":"Arcadia","zip":"91006","county":"Los Angeles","geo_score":0.462,"sunday":"N","id":"a66w1bpwcj43","address":"420 N. Santa Anita Ave., Arcadia, CA 91006","geo_precision":"street","streetaddress":"420 N. Santa Anita Ave.","state":"CA"},"type":"Feature","geometry":{"type":"Point","coordinates":[-118.031424,34.140048]}},{"properties":{"name":"Woodland Hills","zip":"91364","county":"Los Angeles","geo_score":0.457,"sunday":"Y","id":"a66w1bv2ghhk","address":"19920 Ventura Blvd., Woodland Hills, CA 91364","geo_precision":"street","streetaddress":"19920 Ventura Blvd.","state":"CA"},"type":"Feature","geometry":{"type":"Point","coordinates":[-118.601979,34.142897]}},{"properties":{"name":"Peoria","zip":"85382","county":"Maricopa","geo_score":0.347,"sunday":"N","id":"a66w1bnkoscy","address":"8285 W. Bell Rd., Peoria, CA 85382","geo_precision":"street","streetaddress":"8285 W. Bell Rd.","state":"CA"},"type":"Feature","geometry":{"type":"Point","coordinates":[-112.236032,33.638169]}},{"properties":{"name":"Mill Valley","zip":"94941","county":"Marin","geo_score":0.482,"sunday":"Y","id":"a66w1bzy3ath","address":"798 Redwood Hwy., Mill Valley, CA 94941","geo_precision":"street","streetaddress":"798 Redwood Hwy.","state":"CA"},"type":"Feature","geometry":{"type":"Point","coordinates":[-122.516426,37.904289]}},{"properties":{"name":"Merced","zip":"95340","county":"Merced","geo_score":0.49,"sunday":"N","id":"a66w1bpfdwlr","address":"1579 Martin Luther King Jr. Way, Merced, CA 95340","geo_precision":"street","streetaddress":"1579 Martin Luther King Jr. Way","state":"CA"},"type":"Feature","geometry":{"type":"Point","coordinates":[-120.487414,37.288232]}},{"properties":{"name":"Kingman","zip":"86409","county":"Mohave","geo_score":0.0,"sunday":"N","id":"a66w1braq9m2","address":"1770 E. Beverly Ave., Kingman, CA 86409","geo_precision":"unmatched","streetaddress":"1770 E. Beverly Ave.","state":"CA"},"type":"Feature","geometry":null},{"properties":{"name":"Lake Havasu","zip":"86403","county":"Mohave","geo_score":0.316,"sunday":"Y","id":"a66w1c1yj5gh","address":"81-101 London Bridge Rd., Lake Havasu, CA 86403","geo_precision":"street","streetaddress":"81-101 London Bridge Rd.","state":"CA"},"type":"Feature","geometry":{"type":"Point","coordinates":[-114.342813,34.472913]}},{"properties":{"name":"Salinas","zip":"93905","county":"Monterey","geo_score":0.857,"sunday":"N","id":"a66w1bw7mfm0","address":"151 Kern St., Salinas, CA 93905","geo_precision":"street","streetaddress":"151 Kern St.","state":"CA"},"type":"Feature","geometry":{"type":"Point","coordinates":[-121.640393,36.679452]}},{"properties":{"name":"Napa","zip":"94559","county":"Napa","geo_score":0.714,"sunday":"N","id":"a66w1bnwpnu9","address":"820 Imola Ave., Napa, CA 94559","geo_precision":"street","streetaddress":"820 Imola Ave.","state":"CA"},"type":"Feature","geometry":{"type":"Point","coordinates":[-122.285072,38.304275]}},{"properties":{"name":"Anaheim","zip":"92804","county":"Orange","geo_score":0.464,"sunday":"N","id":"a66w1bvic6v6","address":"600 S. Brookhurst St., Anaheim, CA 92804","geo_precision":"street","streetaddress":"600 S. Brookhurst St.","state":"CA"},"type":"Feature","geometry":{"type":"Point","coordinates":[-117.958955,33.832527]}},{"properties":{"name":"Tustin","zip":"92782","county":"Orange","geo_score":0.429,"sunday":"Y","id":"a66w1br2zxqw","address":"3020 El Camino Real, Tustin, CA 92782","geo_precision":"street","streetaddress":"3020 El Camino Real","state":"CA"},"type":"Feature","geometry":{"type":"Point","coordinates":[-117.77594,33.75042]}},{"properties":{"name":"Westminster","zip":"92683","county":"Orange","geo_score":0.429,"sunday":"Y","id":"a66w1c28u73l","address":"6292 Westminster Blvd., Westminster, CA 92683","geo_precision":"street","streetaddress":"6292 Westminster Blvd.","state":"CA"},"type":"Feature","geometry":{"type":"Point","coordinates":[-118.01405,33.7496]}},{"properties":{"name":"Oro Valley","zip":"85755","county":"Pima","geo_score":0.0,"sunday":"Y","id":"a66w1by9q3i4","address":"11545 N. Oracle Rd., Oro Valley, CA 85755","geo_precision":"unmatched","streetaddress":"11545 N. Oracle Rd.","state":"CA"},"type":"Feature","geometry":null},{"properties":{"name":"Auburn","zip":"95603","county":"Placer","geo_score":0.714,"sunday":"Y","id":"a66w1bypi8b1","address":"130 Grass Valley Hwy., Auburn, CA 95603","geo_precision":"street","streetaddress":"130 Grass Valley Hwy.","state":"CA"},"type":"Feature","geometry":{"type":"Point","coordinates":[-120.950834,39.096834]}},{"properties":{"name":"Roseville","zip":"95661","county":"Placer","geo_score":0.408,"sunday":"Y","id":"a66w1buof3nw","address":"1803 Taylor Rd., Roseville, CA 95661","geo_precision":"street","streetaddress":"1803 Taylor Rd.","state":"CA"},"type":"Feature","geometry":{"type":"Point","coordinates":[-121.106407,38.937395]}},{"properties":{"name":"Corona","zip":"92881","county":"Riverside","geo_score":0.471,"sunday":"N","id":"a66w1bzdjm5m","address":"2305 Compton Ave., Corona, CA 92881","geo_precision":"street","streetaddress":"2305 Compton Ave.","state":"CA"},"type":"Feature","geometry":{"type":"Point","coordinates":[-117.53701,33.859612]}},{"properties":{"name":"Thousand Palms","zip":"92276","county":"Riverside","geo_score":0.482,"sunday":"Y","id":"a66w1bo3fxku","address":"72265 Varner Rd., Thousand Palms, CA 92276","geo_precision":"street","streetaddress":"72265 Varner Rd.","state":"CA"},"type":"Feature","geometry":{"type":"Point","coordinates":[-116.423348,33.835761]}},{"properties":{"name":"Elk Grove","zip":"95624","county":"Sacramento","geo_score":0.5,"sunday":"N","id":"a66w1bq6l0ng","address":"9188 E. Stockton Blvd., Elk Grove, CA 95624","geo_precision":"street","streetaddress":"9188 E. Stockton Blvd.","state":"CA"},"type":"Feature","geometry":{"type":"Point","coordinates":[-121.382722,38.417322]}},{"properties":{"name":"Sacramento","zip":"95841","county":"Sacramento","geo_score":0.471,"sunday":"N","id":"a66w1c189e7e","address":"4600 Madison Ave., Sacramento, CA 95841","geo_precision":"street","streetaddress":"4600 Madison Ave.","state":"CA"},"type":"Feature","geometry":{"type":"Point","coordinates":[-121.359841,38.660996]}},{"properties":{"name":"Draper","zip":"84020","county":"Salt Lake","geo_score":0.347,"sunday":"N","id":"a66w1bob44gj","address":"12191 S. State St., Draper, CA 84020","geo_precision":"street","streetaddress":"12191 S. State St.","state":"CA"},"type":"Feature","geometry":{"type":"Point","coordinates":[-111.890723,40.537015]}},{"properties":{"name":"San Bernardino","zip":"92410","county":"San Bernardino","geo_score":0.468,"sunday":"Y","id":"a66w1bvxpmrr","address":"190 Bungalow Ct., San Bernardino, CA 92410","geo_precision":"street","streetaddress":"190 Bungalow Ct.","state":"CA"},"type":"Feature","geometry":{"type":"Point","coordinates":[-117.299966,34.102726]}},{"properties":{"name":"Carlsbad","zip":"92008","county":"San Diego","geo_score":0.551,"sunday":"N","id":"a66w1bsl5ahj","address":"5950 Avenida Encinas, Carlsbad, CA 92008","geo_precision":"street","streetaddress":"5950 Avenida Encinas","state":"CA"},"type":"Feature","geometry":{"type":"Point","coordinates":[-117.293822,33.174261]}},{"properties":{"name":"Vista","zip":"92081","county":"San Diego","geo_score":0.0,"sunday":"Y","id":"a66w1budt5y2","address":"2010 Hacienda Dr., Vista, CA 92081","geo_precision":"unmatched","streetaddress":"2010 Hacienda Dr.","state":"CA"},"type":"Feature","geometry":null},{"properties":{"name":"San Francisco","zip":"94133","county":"San Francisco","geo_score":0.468,"sunday":"Y","id":"a66w1c22rgbs","address":"333 Jefferson St., San Francisco, CA 94133","geo_precision":"street","streetaddress":"333 Jefferson St.","state":"CA"},"type":"Feature","geometry":{"type":"Point","coordinates":[-122.405357,37.805696]}},{"properties":{"name":"Lodi","zip":"95242","county":"San Joaquin","geo_score":0.464,"sunday":"N","id":"a66w1bpk1tgf","address":"2625 W. Kettleman Ln., Lodi, CA 95242","geo_precision":"street","streetaddress":"2625 W. Kettleman Ln.","state":"CA"},"type":"Feature","geometry":{"type":"Point","coordinates":[-121.275964,38.115502]}},{"properties":{"name":"Tracy","zip":"95376","county":"San Joaquin","geo_score":0.667,"sunday":"N","id":"a66w1btcyldk","address":"575 Clover Rd., Tracy, CA 95376","geo_precision":"street","streetaddress":"575 Clover Rd.","state":"CA"},"type":"Feature","geometry":{"type":"Point","coordinates":[-121.434859,37.733641]}},{"properties":{"name":"Arroyo Grande","zip":"93420","county":"San Luis Obispo","geo_score":0.476,"sunday":"Y","id":"a66w1bpi0q1c","address":"1170 W. Branch St., Arroyo Grande, CA 93420","geo_precision":"street","streetaddress":"1170 W. Branch St.","state":"CA"},"type":"Feature","geometry":{"type":"Point","coordinates":[-120.582325,35.122416]}},{"properties":{"name":"Atascadero","zip":"93422","county":"San Luis Obispo","geo_score":0.5,"sunday":"N","id":"a66w1boyooyf","address":"6000 San Anselmo Rd., Atascadero, CA 93422","geo_precision":"street","streetaddress":"6000 San Anselmo Rd.","state":"CA"},"type":"Feature","geometry":{"type":"Point","coordinates":[-120.639997,35.439264]}},{"properties":{"name":"Daly City","zip":"94015","county":"San Mateo","geo_score":0.464,"sunday":"Y","id":"a66w1bxqe9aj","address":"260 Washington Street, Daly City, CA 94015","geo_precision":"street","streetaddress":"260 Washington Street","state":"CA"},"type":"Feature","geometry":{"type":"Point","coordinates":[-122.468688,37.687908]}},{"properties":{"name":"San Carlos","zip":"94070","county":"San Mateo","geo_score":0.429,"sunday":"N","id":"a66w1bpuxrg9","address":"445 Industrial Rd.*, San Carlos, CA 94070","geo_precision":"street","streetaddress":"445 Industrial Rd.*","state":"CA"},"type":"Feature","geometry":{"type":"Point","coordinates":[-122.259937,37.513586]}},{"properties":{"name":"Goleta","zip":"93111","county":"Santa Barbara","geo_score":0.551,"sunday":"N","id":"a66w1bwkbwb7","address":"4865 Calle Real, Goleta, CA 93111","geo_precision":"street","streetaddress":"4865 Calle Real","state":"CA"},"type":"Feature","geometry":{"type":"Point","coordinates":[-119.789361,34.443861]}},{"properties":{"name":"Santa Maria","zip":"93454","county":"Santa Barbara","geo_score":0.471,"sunday":"Y","id":"a66w1c2v5zf1","address":"1330 S. Bradley Rd., Santa Maria, CA 93454","geo_precision":"street","streetaddress":"1330 S. Bradley Rd.","state":"CA"},"type":"Feature","geometry":{"type":"Point","coordinates":[-120.418131,34.952963]}},{"properties":{"name":"Gilroy","zip":"95020","county":"Santa Clara","geo_score":0.662,"sunday":"N","id":"a66w1bp53y0n","address":"641 Leavesley Rd., Gilroy, CA 95020","geo_precision":"street","streetaddress":"641 Leavesley Rd.","state":"CA"},"type":"Feature","geometry":{"type":"Point","coordinates":[-121.566283,37.005901]}},{"properties":{"name":"Milpitas","zip":"95035","county":"Santa Clara","geo_score":0.857,"sunday":"N","id":"a66w1bq3f9ug","address":"50 Ranch Dr., Milpitas, CA 95035","geo_precision":"street","streetaddress":"50 Ranch Dr.","state":"CA"},"type":"Feature","geometry":{"type":"Point","coordinates":[-121.924065,37.426204]}},{"properties":{"name":"Morgan Hill","zip":"95037","county":"Santa Clara","geo_score":0.506,"sunday":"N","id":"a66w1bugywt6","address":"895 Cochrane Road , Morgan Hill, CA 95037","geo_precision":"street","streetaddress":"895 Cochrane Road","state":"CA"},"type":"Feature","geometry":{"type":"Point","coordinates":[-121.66416,37.146779]}},{"properties":{"name":"Mountain View","zip":"94043","county":"Santa Clara","geo_score":0.459,"sunday":"Y","id":"a66w1bqxii0x","address":"1159 N. Rengstorff Ave., Mountain View, CA 94043","geo_precision":"street","streetaddress":"1159 N. Rengstorff Ave.","state":"CA"},"type":"Feature","geometry":{"type":"Point","coordinates":[-122.09736,37.403159]}},{"properties":{"name":"Mountain View","zip":"94040","county":"Santa Clara","geo_score":0.462,"sunday":"Y","id":"a66w1bxm1lfa","address":"53 W. El Camino Real, Mountain View, CA 94040","geo_precision":"street","streetaddress":"53 W. El Camino Real","state":"CA"},"type":"Feature","geometry":{"type":"Point","coordinates":[-122.06914,37.37865]}},{"properties":{"name":"San Jose","zip":"95148","county":"Santa Clara","geo_score":0.468,"sunday":"Y","id":"a66w1bzfsx57","address":"2950 E. Capitol Expressway, San Jose, CA 95148","geo_precision":"street","streetaddress":"2950 E. Capitol Expressway","state":"CA"},"type":"Feature","geometry":{"type":"Point","coordinates":[-121.818687,37.339175]}},{"properties":{"name":"San Jose","zip":"95110","county":"Santa Clara","geo_score":0.429,"sunday":"Y","id":"a66w1bzykzjq","address":"550 Newhall Dr., San Jose, CA 95110","geo_precision":"street","streetaddress":"550 Newhall Dr.","state":"CA"},"type":"Feature","geometry":{"type":"Point","coordinates":[-121.92179,37.348292]}},{"properties":{"name":"San Jose","zip":"95123","county":"Santa Clara","geo_score":0.49,"sunday":"Y","id":"a66w1btc7e3u","address":"5611 Santa Teresa Blvd., San Jose, CA 95123","geo_precision":"street","streetaddress":"5611 Santa Teresa Blvd.","state":"CA"},"type":"Feature","geometry":{"type":"Point","coordinates":[-121.821899,37.255464]}},{"properties":{"name":"Santa Clara","zip":"95054","county":"Santa Clara","geo_score":0.495,"sunday":"N","id":"a66w1buqxf0u","address":"3001 Mission College Blvd., Santa Clara, CA 95054","geo_precision":"street","streetaddress":"3001 Mission College Blvd.","state":"CA"},"type":"Feature","geometry":{"type":"Point","coordinates":[-121.963436,37.393851]}},{"properties":{"name":"Sunnyvale","zip":"94087","county":"Santa Clara","geo_score":0.464,"sunday":"Y","id":"a66w1bxk2dzq","address":"604 E. El Camino Real, Sunnyvale, CA 94087","geo_precision":"street","streetaddress":"604 E. El Camino Real","state":"CA"},"type":"Feature","geometry":{"type":"Point","coordinates":[-122.01127,37.351941]}},{"properties":{"name":"Redding","zip":"96003","county":"Shasta","geo_score":0.857,"sunday":"N","id":"a66w1bo1ctmu","address":"1275 Dana Drive, Redding, CA 96003","geo_precision":"street","streetaddress":"1275 Dana Drive","state":"CA"},"type":"Feature","geometry":{"type":"Point","coordinates":[-122.357959,40.586527]}},{"properties":{"name":"Fairfield","zip":"94534","county":"Solano","geo_score":0.429,"sunday":"N","id":"a66w1bovbr4f","address":"1364 Holiday Ln., Fairfield, CA 94534","geo_precision":"street","streetaddress":"1364 Holiday Ln.","state":"CA"},"type":"Feature","geometry":{"type":"Point","coordinates":[-122.065069,38.258314]}},{"properties":{"name":"Vacaville","zip":"95687","county":"Solano","geo_score":0.429,"sunday":"N","id":"a66w1bqofgwx","address":"170 Nut Tree Pkwy., Vacaville, CA 95687","geo_precision":"street","streetaddress":"170 Nut Tree Pkwy.","state":"CA"},"type":"Feature","geometry":{"type":"Point","coordinates":[-121.979161,38.341792]}},{"properties":{"name":"Petaluma","zip":"94952","county":"Sonoma","geo_score":0.49,"sunday":"Y","id":"a66w1bnln13u","address":"1010 Lakeville St. , Petaluma, CA 94952","geo_precision":"street","streetaddress":"1010 Lakeville St.","state":"CA"},"type":"Feature","geometry":{"type":"Point","coordinates":[-122.637637,38.233584]}},{"properties":{"name":"Rohnert Park","zip":"94928","county":"Sonoma","geo_score":0.429,"sunday":"N","id":"a66w1bpctt16","address":"5145 Redwood Dr., Rohnert Park, CA 94928","geo_precision":"street","streetaddress":"5145 Redwood Dr.","state":"CA"},"type":"Feature","geometry":{"type":"Point","coordinates":[-122.714969,38.363292]}},{"properties":{"name":"Santa Rosa","zip":"95401","county":"Sonoma","geo_score":0.49,"sunday":"Y","id":"a66w1bq7jy36","address":"2131 County Center Dr., Santa Rosa, CA 95401","geo_precision":"street","streetaddress":"2131 County Center Dr.","state":"CA"},"type":"Feature","geometry":{"type":"Point","coordinates":[-122.814217,38.452435]}},{"properties":{"name":"Modesto","zip":"95356","county":"Stanislaus","geo_score":0.464,"sunday":"Y","id":"a66w1c061uko","address":"3900 Pelandale Ave., Modesto, CA 95356","geo_precision":"street","streetaddress":"3900 Pelandale Ave.","state":"CA"},"type":"Feature","geometry":{"type":"Point","coordinates":[-120.997525,37.700064]}},{"properties":{"name":"Turlock","zip":"95380","county":"Stanislaus","geo_score":0.49,"sunday":"N","id":"a66w1boo9jve","address":"3071 Countryside Dr., Turlock, CA 95380","geo_precision":"street","streetaddress":"3071 Countryside Dr.","state":"CA"},"type":"Feature","geometry":{"type":"Point","coordinates":[-120.844304,37.490189]}},{"properties":{"name":"Yuba City","zip":"95993","county":"Sutter","geo_score":0.49,"sunday":"N","id":"a66w1br8gssl","address":"1375 Sunsweet Blvd., Yuba City, CA 95993","geo_precision":"street","streetaddress":"1375 Sunsweet Blvd.","state":"CA"},"type":"Feature","geometry":{"type":"Point","coordinates":[-121.668939,39.155076]}},{"properties":{"name":"Visalia","zip":"93277","county":"Tulare","geo_score":0.468,"sunday":"Y","id":"a66w1bv6z9wq","address":"1933 S. Mooney Blvd., Visalia, CA 93277","geo_precision":"street","streetaddress":"1933 S. Mooney Blvd.","state":"CA"},"type":"Feature","geometry":{"type":"Point","coordinates":[-119.31324,36.272991]}},{"properties":{"name":"Camarillo","zip":"93010","county":"Ventura","geo_score":0.506,"sunday":"N","id":"a66w1c30i63i","address":"1316 Ventura Blvd., Camarillo, CA 93010","geo_precision":"street","streetaddress":"1316 Ventura Blvd.","state":"CA"},"type":"Feature","geometry":{"type":"Point","coordinates":[-119.052963,34.241605]}},{"properties":{"name":"Moorpark","zip":"93021","county":"Ventura","geo_score":0.468,"sunday":"Y","id":"a66w1brrkrye","address":"856 Los Angeles Ave., Moorpark, CA 93021","geo_precision":"street","streetaddress":"856 Los Angeles Ave.","state":"CA"},"type":"Feature","geometry":{"type":"Point","coordinates":[-118.882097,34.278867]}},{"properties":{"name":"Newbury Park","zip":"91320","county":"Ventura","geo_score":0.551,"sunday":"N","id":"a66w1bv8qgja","address":"1550 Newbury Rd., Newbury Park, CA 91320","geo_precision":"street","streetaddress":"1550 Newbury Rd.","state":"CA"},"type":"Feature","geometry":{"type":"Point","coordinates":[-118.946502,34.180222]}},{"properties":{"name":"Oxnard","zip":"93030","county":"Ventura","geo_score":0.429,"sunday":"N","id":"a66w1bnra8x8","address":"381 W. Esplanade, Oxnard, CA 93030","geo_precision":"street","streetaddress":"381 W. Esplanade","state":"CA"},"type":"Feature","geometry":{"type":"Point","coordinates":[-119.191625,34.202587]}},{"properties":{"name":"Simi Valley","zip":"93063","county":"Ventura","geo_score":0.49,"sunday":"Y","id":"a66w1c0vjr5y","address":"2600 Stearns St., Simi Valley, CA 93063","geo_precision":"street","streetaddress":"2600 Stearns St.","state":"CA"},"type":"Feature","geometry":{"type":"Point","coordinates":[-118.666477,34.268115]}},{"properties":{"name":"Davis","zip":"95616","county":"Yolo","geo_score":0.857,"sunday":"N","id":"a66w1c06og2g","address":"1020 Olive Dr., Davis, CA 95616","geo_precision":"street","streetaddress":"1020 Olive Dr.","state":"CA"},"type":"Feature","geometry":{"type":"Point","coordinates":[-121.738582,38.540807]}},{"properties":{"name":"West Sacramento","zip":"95605","county":"Yolo","geo_score":0.5,"sunday":"N","id":"a66w1c0euxwo","address":"780 Ikea Court, West Sacramento, CA 95605","geo_precision":"street","streetaddress":"780 Ikea Court","state":"CA"},"type":"Feature","geometry":{"type":"Point","coordinates":[-121.509097,38.588421]}},{"properties":{"name":"Woodland","zip":"95776","county":"Yolo","geo_score":0.49,"sunday":"Y","id":"a66w1bqvzmn7","address":"2011 Bronze Star Dr., Woodland, CA 95776","geo_precision":"street","streetaddress":"2011 Bronze Star Dr.","state":"CA"},"type":"Feature","geometry":{"type":"Point","coordinates":[-121.762124,38.678625]}}],"is_temporal":false,"author":{"url":"","metadata":"","contact_name":"None for now","contact_address":"","source":"My own records","contact_phone":""},"source":"","pagination":{"sort":null,"start":0,"total":73,"limit":1000000},"state":"complete","tags":"in-n-out","published":"2012-06-04T16:00:00Z","id":248368}