{"type":"FeatureCollection","data_type":"Dataset","url_type":null,"permissions":[{"permissions":{"download":true,"view":true},"group_id":"everyone"}],"classification":null,"title":"NE_set 2_Juvenile Arrests 1-1-09 thru 1-1-10","count":527,"stream_id":24853,"contributor":{"url":"http://geocommons.com/users/11456","name":"snam"},"data_attributes":null,"calculation_params":null,"icon_link":null,"link":"http://geocommons.com/overlays/24853.json","extent":[-77.0452,38.8637,-76.9137,38.9632],"geometry_types":["point"],"unique_name":null,"name":"NE_set 2_Juvenile Arrests 1-1-09 thru 1-1-10","feature_count":527,"description":"","next_feature":null,"is_raster":false,"short_classification":"Y","stats":{"geo_score":{"max":0.902,"mean":0.790738140417454,"variance":0.00815322787714375,"stdev":0.0902952262145887,"min":0.488,"median":0.714}},"features":[{"properties":{"city":"Washington","geo_score":0.902,"offensedescription":"ADULTERY/BIGAMY/INCEST/SEDUCTION, ETC","id":"a6qlzzs8ktbc","geo_precision":"range","address":"4400  PONDS STREET NE","state":"D.C."},"type":"Feature","geometry":{"type":"Point","coordinates":[-76.938638,38.911743]}},{"properties":{"city":"Washington","geo_score":0.902,"offensedescription":"ADW -- GUN","id":"a6qlzzjwu75t","geo_precision":"range","address":"5400  NANNIE HELEN BURROUGHS AVENUE NE","state":"D.C."},"type":"Feature","geometry":{"type":"Point","coordinates":[-76.922511,38.898358]}},{"properties":{"city":"Washington","geo_score":0.714,"offensedescription":"ADW -- GUN","id":"a6qlzzmhlnou","geo_precision":"city","address":null,"state":"D.C."},"type":"Feature","geometry":{"type":"Point","coordinates":[-77.036366,38.895112]}},{"properties":{"city":"Washington","geo_score":0.902,"offensedescription":"ADW -- KNIFE","id":"a6qlzzjzhr9q","geo_precision":"range","address":"4100  AMES STREET NE","state":"D.C."},"type":"Feature","geometry":{"type":"Point","coordinates":[-76.944559,38.890882]}},{"properties":{"city":"Washington","geo_score":0.902,"offensedescription":"ADW -- KNIFE","id":"a6qlzzgb4s7q","geo_precision":"range","address":"5300  CLAY TERRACE NE","state":"D.C."},"type":"Feature","geometry":{"type":"Point","coordinates":[-76.925249,38.893522]}},{"properties":{"city":"Washington","geo_score":0.714,"offensedescription":"ADW -- OTHER DANGEROUS WEAPON/ASSAULT W/INTENT TO COMMIT SODOMY WHILE ARMED","id":"a6qlzzm1bunn","geo_precision":"city","address":null,"state":"D.C."},"type":"Feature","geometry":{"type":"Point","coordinates":[-77.036366,38.895112]}},{"properties":{"city":"Washington","geo_score":0.714,"offensedescription":"ADW -- OTHER DANGEROUS WEAPON/ASSAULT W/INTENT TO COMMIT SODOMY WHILE ARMED","id":"a6qlzziremqb","geo_precision":"city","address":null,"state":"D.C."},"type":"Feature","geometry":{"type":"Point","coordinates":[-77.036366,38.895112]}},{"properties":{"city":"Washington","geo_score":0.714,"offensedescription":"ADW -- OTHER DANGEROUS WEAPON/ASSAULT W/INTENT TO COMMIT SODOMY WHILE ARMED","id":"a6qlzzkahm1e","geo_precision":"city","address":null,"state":"D.C."},"type":"Feature","geometry":{"type":"Point","coordinates":[-77.036366,38.895112]}},{"properties":{"city":"Washington","geo_score":0.714,"offensedescription":"ADW -- OTHER DANGEROUS WEAPON/ASSAULT W/INTENT TO COMMIT SODOMY WHILE ARMED","id":"a6qlzzgahx1v","geo_precision":"city","address":null,"state":"D.C."},"type":"Feature","geometry":{"type":"Point","coordinates":[-77.036366,38.895112]}},{"properties":{"city":"Washington","geo_score":0.902,"offensedescription":"ADW -- OTHER DANGEROUS WEAPON/ASSAULT W/INTENT TO COMMIT SODOMY WHILE ARMED","id":"a6qlzzjr4fp7","geo_precision":"range","address":"5300  CLAY TERRACE NE","state":"D.C."},"type":"Feature","geometry":{"type":"Point","coordinates":[-76.925249,38.893522]}},{"properties":{"city":"Washington","geo_score":0.902,"offensedescription":"ADW -- OTHER DANGEROUS WEAPON/ASSAULT W/INTENT TO COMMIT SODOMY WHILE ARMED","id":"a6qlzzki0b5t","geo_precision":"range","address":"4000  MINNESOTA AVENUE NE","state":"D.C."},"type":"Feature","geometry":{"type":"Point","coordinates":[-76.949159,38.895133]}},{"properties":{"city":"Washington","geo_score":0.714,"offensedescription":"AFFRAYS","id":"a6qlzznatvbk","geo_precision":"city","address":null,"state":"D.C."},"type":"Feature","geometry":{"type":"Point","coordinates":[-77.036366,38.895112]}},{"properties":{"city":"Washington","geo_score":0.714,"offensedescription":"ANY OTHER NARCOTICS VIOLATION","id":"a6qlzztvqaxz","geo_precision":"city","address":null,"state":"D.C."},"type":"Feature","geometry":{"type":"Point","coordinates":[-77.036366,38.895112]}},{"properties":{"city":"Washington","geo_score":0.902,"offensedescription":"ARMED ROBBERY","id":"a6qlzzk3xih0","geo_precision":"range","address":"5300  DIX STREET NE","state":"D.C."},"type":"Feature","geometry":{"type":"Point","coordinates":[-76.924691,38.895056]}},{"properties":{"city":"Washington","geo_score":0.829,"offensedescription":"ARMED ROBBERY","id":"a6qlzzmbnwhh","geo_precision":"range","address":"800  48TH PLACE NE","state":"D.C."},"type":"Feature","geometry":{"type":"Point","coordinates":[-76.932715,38.899724]}},{"properties":{"city":"Washington","geo_score":0.714,"offensedescription":"ARMED ROBBERY","id":"a6qlzztlf37a","geo_precision":"city","address":null,"state":"D.C."},"type":"Feature","geometry":{"type":"Point","coordinates":[-77.036366,38.895112]}},{"properties":{"city":"Washington","geo_score":0.902,"offensedescription":"ARMED ROBBERY","id":"a6qlzzsq8y15","geo_precision":"range","address":"5300  DIX STREET NE","state":"D.C."},"type":"Feature","geometry":{"type":"Point","coordinates":[-76.924691,38.895056]}},{"properties":{"city":"Washington","geo_score":0.829,"offensedescription":"ARMED ROBBERY","id":"a6qlzzpph0r0","geo_precision":"range","address":"800  48TH PLACE NE","state":"D.C."},"type":"Feature","geometry":{"type":"Point","coordinates":[-76.932715,38.899724]}},{"properties":{"city":"Washington","geo_score":0.714,"offensedescription":"ARMED ROBBERY","id":"a6qlzzpeafty","geo_precision":"city","address":null,"state":"D.C."},"type":"Feature","geometry":{"type":"Point","coordinates":[-77.036366,38.895112]}},{"properties":{"city":"Washington","geo_score":0.714,"offensedescription":"ARMED ROBBERY","id":"a6qlzzk011z6","geo_precision":"city","address":null,"state":"D.C."},"type":"Feature","geometry":{"type":"Point","coordinates":[-77.036366,38.895112]}},{"properties":{"city":"Washington","geo_score":0.902,"offensedescription":"ARMED ROBBERY","id":"a6qlzze3ma90","geo_precision":"range","address":"3300  BAKER STREET NE","state":"D.C."},"type":"Feature","geometry":{"type":"Point","coordinates":[-76.959784,38.892801]}},{"properties":{"city":"Washington","geo_score":0.902,"offensedescription":"ARMED ROBBERY","id":"a6qlzzq23mod","geo_precision":"range","address":"3300  BAKER STREET NE","state":"D.C."},"type":"Feature","geometry":{"type":"Point","coordinates":[-76.959784,38.892801]}},{"properties":{"city":"Washington","geo_score":0.902,"offensedescription":"ARMED ROBBERY","id":"a6qlzzl7sacm","geo_precision":"range","address":"3300  BAKER STREET NE","state":"D.C."},"type":"Feature","geometry":{"type":"Point","coordinates":[-76.959784,38.892801]}},{"properties":{"city":"Washington","geo_score":0.829,"offensedescription":"ASSAULT ON MEMBER OF POLICE OR FIRE DEPT (ARMED OR OTHERWISE)","id":"a6qlzzto13i2","geo_precision":"range","address":"1000  45TH STREET NE","state":"D.C."},"type":"Feature","geometry":{"type":"Point","coordinates":[-76.937828,38.902744]}},{"properties":{"city":"Washington","geo_score":0.902,"offensedescription":"ASSAULT ON MEMBER OF POLICE OR FIRE DEPT (ARMED OR OTHERWISE)","id":"a6qlzzq9d8ek","geo_precision":"range","address":"1400  RHODE ISLAND AVENUE NE","state":"D.C."},"type":"Feature","geometry":{"type":"Point","coordinates":[-76.985595,38.924566]}},{"properties":{"city":"Washington","geo_score":0.829,"offensedescription":"ASSAULT ON MEMBER OF POLICE OR FIRE DEPT (ARMED OR OTHERWISE)","id":"a6qlzzjnre23","geo_precision":"range","address":"1000  45TH STREET NE","state":"D.C."},"type":"Feature","geometry":{"type":"Point","coordinates":[-76.937828,38.902744]}},{"properties":{"city":"Washington","geo_score":0.714,"offensedescription":"ASSAULT ON MEMBER OF POLICE OR FIRE DEPT (ARMED OR OTHERWISE)","id":"a6qlzzgraqnt","geo_precision":"city","address":null,"state":"D.C."},"type":"Feature","geometry":{"type":"Point","coordinates":[-77.036366,38.895112]}},{"properties":{"city":"Washington","geo_score":0.902,"offensedescription":"ASSAULT ON MEMBER OF POLICE OR FIRE DEPT (ARMED OR OTHERWISE)","id":"a6qlzznlg6po","geo_precision":"range","address":"4700  MINNESOTA AVENUE NE","state":"D.C."},"type":"Feature","geometry":{"type":"Point","coordinates":[-76.935093,38.907276]}},{"properties":{"city":"Washington","geo_score":0.714,"offensedescription":"ASSAULT ON MEMBER OF POLICE OR FIRE DEPT (ARMED OR OTHERWISE)","id":"a6qlzzel920q","geo_precision":"city","address":null,"state":"D.C."},"type":"Feature","geometry":{"type":"Point","coordinates":[-77.036366,38.895112]}},{"properties":{"city":"Washington","geo_score":0.819,"offensedescription":"ASSAULT ON MEMBER OF POLICE OR FIRE DEPT (ARMED OR OTHERWISE)","id":"a6qlzzip679x","geo_precision":"range","address":"5100  4TH STREET NE","state":"D.C."},"type":"Feature","geometry":{"type":"Point","coordinates":[-76.998933,38.95256]}},{"properties":{"city":"Washington","geo_score":0.829,"offensedescription":"ASSAULT ON MEMBER OF POLICE OR FIRE DEPT (ARMED OR OTHERWISE)","id":"a6qlzzhpg9k9","geo_precision":"range","address":"200  53RD STREET NE","state":"D.C."},"type":"Feature","geometry":{"type":"Point","coordinates":[-76.925904,38.891729]}},{"properties":{"city":"Washington","geo_score":0.714,"offensedescription":"ASSAULT ON MEMBER OF POLICE OR FIRE DEPT (ARMED OR OTHERWISE)","id":"a6qlzzpgs3fw","geo_precision":"city","address":null,"state":"D.C."},"type":"Feature","geometry":{"type":"Point","coordinates":[-77.036366,38.895112]}},{"properties":{"city":"Washington","geo_score":0.902,"offensedescription":"ASSAULT SIMPLE IN MENACING MANNER","id":"a6qlzzojt75l","geo_precision":"range","address":"1600  MARYLAND AVENUE NE","state":"D.C."},"type":"Feature","geometry":{"type":"Point","coordinates":[-76.980879,38.901164]}},{"properties":{"city":"Washington","geo_score":0.714,"offensedescription":"ASSAULT SIMPLE IN MENACING MANNER","id":"a6qlzze75tsn","geo_precision":"city","address":null,"state":"D.C."},"type":"Feature","geometry":{"type":"Point","coordinates":[-77.036366,38.895112]}},{"properties":{"city":"Washington","geo_score":0.714,"offensedescription":"ASSAULT SIMPLE IN MENACING MANNER","id":"a6qlzzfvl7vz","geo_precision":"city","address":null,"state":"D.C."},"type":"Feature","geometry":{"type":"Point","coordinates":[-77.036366,38.895112]}},{"properties":{"city":"Washington","geo_score":0.714,"offensedescription":"ASSAULT SIMPLE IN MENACING MANNER","id":"a6qlzzmvqp98","geo_precision":"city","address":null,"state":"D.C."},"type":"Feature","geometry":{"type":"Point","coordinates":[-77.036366,38.895112]}},{"properties":{"city":"Washington","geo_score":0.902,"offensedescription":"ASSAULT SIMPLE IN MENACING MANNER","id":"a6qlzzk1hnb7","geo_precision":"range","address":"4800  MEADE STREET NE","state":"D.C."},"type":"Feature","geometry":{"type":"Point","coordinates":[-76.933753,38.90607]}},{"properties":{"city":"Washington","geo_score":0.714,"offensedescription":"ASSAULT SIMPLE IN MENACING MANNER","id":"a6qlzzovwky5","geo_precision":"city","address":null,"state":"D.C."},"type":"Feature","geometry":{"type":"Point","coordinates":[-77.036366,38.895112]}},{"properties":{"city":"Washington","geo_score":0.714,"offensedescription":"ASSAULT SIMPLE IN MENACING MANNER","id":"a6qlzzrktqr9","geo_precision":"city","address":null,"state":"D.C."},"type":"Feature","geometry":{"type":"Point","coordinates":[-77.036366,38.895112]}},{"properties":{"city":"Washington","geo_score":0.902,"offensedescription":"ASSAULT SIMPLE IN MENACING MANNER","id":"a6qlzzh2852n","geo_precision":"range","address":"6000  CHILLUM PLACE NE","state":"D.C."},"type":"Feature","geometry":{"type":"Point","coordinates":[-77.007101,38.963169]}},{"properties":{"city":"Washington","geo_score":0.714,"offensedescription":"ASSAULT SIMPLE IN MENACING MANNER","id":"a6qlzzn73a74","geo_precision":"city","address":null,"state":"D.C."},"type":"Feature","geometry":{"type":"Point","coordinates":[-77.036366,38.895112]}},{"properties":{"city":"Washington","geo_score":0.902,"offensedescription":"ASSAULT SIMPLE IN MENACING MANNER","id":"a6qlzzn8m72y","geo_precision":"range","address":"4800  MEADE STREET NE","state":"D.C."},"type":"Feature","geometry":{"type":"Point","coordinates":[-76.933753,38.90607]}},{"properties":{"city":"Washington","geo_score":0.714,"offensedescription":"ASSAULT SIMPLE IN MENACING MANNER","id":"a6qlzznt81sl","geo_precision":"city","address":null,"state":"D.C."},"type":"Feature","geometry":{"type":"Point","coordinates":[-77.036366,38.895112]}},{"properties":{"city":"Washington","geo_score":0.714,"offensedescription":"ASSAULT SIMPLE IN MENACING MANNER","id":"a6qlzzj96kl7","geo_precision":"city","address":null,"state":"D.C."},"type":"Feature","geometry":{"type":"Point","coordinates":[-77.036366,38.895112]}},{"properties":{"city":"Washington","geo_score":0.902,"offensedescription":"ASSAULT SIMPLE IN MENACING MANNER","id":"a6qlzzqwg96t","geo_precision":"range","address":"5200  BANKS PLACE NE","state":"D.C."},"type":"Feature","geometry":{"type":"Point","coordinates":[-76.927635,38.892843]}},{"properties":{"city":"Washington","geo_score":0.902,"offensedescription":"ASSAULT SIMPLE IN MENACING MANNER","id":"a6qlzzegmn7r","geo_precision":"range","address":"200  CROMWELL TERRACE NE","state":"D.C."},"type":"Feature","geometry":{"type":"Point","coordinates":[-77.003503,38.9229]}},{"properties":{"city":"Washington","geo_score":0.714,"offensedescription":"ASSAULT SIMPLE IN MENACING MANNER","id":"a6qlzzojrpyz","geo_precision":"city","address":null,"state":"D.C."},"type":"Feature","geometry":{"type":"Point","coordinates":[-77.036366,38.895112]}},{"properties":{"city":"Washington","geo_score":0.902,"offensedescription":"ASSAULT SIMPLE IN MENACING MANNER","id":"a6qlzzkzigf7","geo_precision":"range","address":"500  DIVISION AVENUE NE","state":"D.C."},"type":"Feature","geometry":{"type":"Point","coordinates":[-76.926373,38.89634]}},{"properties":{"city":"Washington","geo_score":0.902,"offensedescription":"ASSAULT SIMPLE IN MENACING MANNER","id":"a6qlzziaim69","geo_precision":"range","address":"1300  E STREET NE","state":"D.C."},"type":"Feature","geometry":{"type":"Point","coordinates":[-76.988309,38.896115]}},{"properties":{"city":"Washington","geo_score":0.902,"offensedescription":"ASSAULT SIMPLE IN MENACING MANNER","id":"a6qlzzryb647","geo_precision":"range","address":"200  CROMWELL TERRACE NE","state":"D.C."},"type":"Feature","geometry":{"type":"Point","coordinates":[-77.003503,38.9229]}},{"properties":{"city":"Washington","geo_score":0.902,"offensedescription":"ASSAULT SIMPLE IN MENACING MANNER","id":"a6qlzzp238wy","geo_precision":"range","address":"200  CROMWELL TERRACE NE","state":"D.C."},"type":"Feature","geometry":{"type":"Point","coordinates":[-77.003503,38.9229]}},{"properties":{"city":"Washington","geo_score":0.714,"offensedescription":"ASSAULT SIMPLE IN MENACING MANNER","id":"a6qlzzsakqk2","geo_precision":"city","address":null,"state":"D.C."},"type":"Feature","geometry":{"type":"Point","coordinates":[-77.036366,38.895112]}},{"properties":{"city":"Washington","geo_score":0.714,"offensedescription":"ASSAULT SIMPLE IN MENACING MANNER","id":"a6qlzzr2w8i7","geo_precision":"city","address":null,"state":"D.C."},"type":"Feature","geometry":{"type":"Point","coordinates":[-77.036366,38.895112]}},{"properties":{"city":"Washington","geo_score":0.902,"offensedescription":"ASSAULT SIMPLE IN MENACING MANNER","id":"a6qlzzew9bd7","geo_precision":"range","address":"3900  MINNESOTA AVENUE NE","state":"D.C."},"type":"Feature","geometry":{"type":"Point","coordinates":[-76.950543,38.893257]}},{"properties":{"city":"Washington","geo_score":0.902,"offensedescription":"ASSAULT SIMPLE IN MENACING MANNER","id":"a6qlzzk5458f","geo_precision":"range","address":"3800  HAYES STREET NE","state":"D.C."},"type":"Feature","geometry":{"type":"Point","coordinates":[-76.948341,38.901484]}},{"properties":{"city":"Washington","geo_score":0.902,"offensedescription":"ASSAULT SIMPLE IN MENACING MANNER","id":"a6qlzzpqu3hg","geo_precision":"range","address":"4700  MINNESOTA AVENUE NE","state":"D.C."},"type":"Feature","geometry":{"type":"Point","coordinates":[-76.935093,38.907276]}},{"properties":{"city":"Washington","geo_score":0.714,"offensedescription":"ASSAULT SIMPLE IN MENACING MANNER","id":"a6qlzzp2l27o","geo_precision":"city","address":null,"state":"D.C."},"type":"Feature","geometry":{"type":"Point","coordinates":[-77.036366,38.895112]}},{"properties":{"city":"Washington","geo_score":0.902,"offensedescription":"ASSAULT SIMPLE IN MENACING MANNER","id":"a6qlzznqjrme","geo_precision":"range","address":"1400  MONTELLO AVENUE NE","state":"D.C."},"type":"Feature","geometry":{"type":"Point","coordinates":[-76.988277,38.90547]}},{"properties":{"city":"Washington","geo_score":0.902,"offensedescription":"ASSAULT THREATENED IN MENACING MANNER/THREATS TO BODILY HARM","id":"a6qlzzfpy9js","geo_precision":"range","address":"1600  BENNING ROAD NE","state":"D.C."},"type":"Feature","geometry":{"type":"Point","coordinates":[-76.981481,38.899808]}},{"properties":{"city":"Washington","geo_score":0.714,"offensedescription":"ASSAULT THREATENED IN MENACING MANNER/THREATS TO BODILY HARM","id":"a6qlzzkas0kd","geo_precision":"city","address":null,"state":"D.C."},"type":"Feature","geometry":{"type":"Point","coordinates":[-77.036366,38.895112]}},{"properties":{"city":"Washington","geo_score":0.714,"offensedescription":"ASSAULT THREATENED IN MENACING MANNER/THREATS TO BODILY HARM","id":"a6qlzzh690m2","geo_precision":"city","address":null,"state":"D.C."},"type":"Feature","geometry":{"type":"Point","coordinates":[-77.036366,38.895112]}},{"properties":{"city":"Washington","geo_score":0.714,"offensedescription":"ASSAULT THREATENED IN MENACING MANNER/THREATS TO BODILY HARM","id":"a6qlzzgpvxdd","geo_precision":"city","address":null,"state":"D.C."},"type":"Feature","geometry":{"type":"Point","coordinates":[-77.036366,38.895112]}},{"properties":{"city":"Washington","geo_score":0.714,"offensedescription":"ASSAULT W/DEADLY WEAPON (UNKNOWN WEAPONS)","id":"a6qlzzlzfiot","geo_precision":"city","address":null,"state":"D.C."},"type":"Feature","geometry":{"type":"Point","coordinates":[-77.036366,38.895112]}},{"properties":{"city":"Washington","geo_score":0.902,"offensedescription":"ASSAULT W/INTENT TO COMMIT ANY OTHER OFFENSE","id":"a6qlzzt6vubl","geo_precision":"range","address":"900  MONROE STREET NE","state":"D.C."},"type":"Feature","geometry":{"type":"Point","coordinates":[-76.993691,38.932404]}},{"properties":{"city":"Washington","geo_score":0.902,"offensedescription":"ASSAULT W/INTENT TO COMMIT ANY OTHER OFFENSE","id":"a6qlzzpuxj6f","geo_precision":"range","address":"900  MONROE STREET NE","state":"D.C."},"type":"Feature","geometry":{"type":"Point","coordinates":[-76.993691,38.932404]}},{"properties":{"city":"Washington","geo_score":0.902,"offensedescription":"ASSAULT W/INTENT TO COMMIT ANY OTHER OFFENSE","id":"a6qlzzpuc10a","geo_precision":"range","address":"900  MONROE STREET NE","state":"D.C."},"type":"Feature","geometry":{"type":"Point","coordinates":[-76.993691,38.932404]}},{"properties":{"city":"Washington","geo_score":0.902,"offensedescription":"ASSAULT W/INTENT TO COMMIT ANY OTHER OFFENSE","id":"a6qlzzr828mi","geo_precision":"range","address":"600  EDGEWOOD STREET NE","state":"D.C."},"type":"Feature","geometry":{"type":"Point","coordinates":[-76.998431,38.923987]}},{"properties":{"city":"Washington","geo_score":0.732,"offensedescription":"ATTEMPT AUTO THEFT","id":"a6qlzzit0z59","geo_precision":"street","address":"500  51ST STREET NE","state":"D.C."},"type":"Feature","geometry":{"type":"Point","coordinates":[-76.927405,38.896422]}},{"properties":{"city":"Washington","geo_score":0.714,"offensedescription":"CARJACKING -- ARMED","id":"a6qlzznjbilo","geo_precision":"city","address":null,"state":"D.C."},"type":"Feature","geometry":{"type":"Point","coordinates":[-77.036366,38.895112]}},{"properties":{"city":"Washington","geo_score":0.714,"offensedescription":"CARJACKING -- ARMED","id":"a6qlzzg1mlvl","geo_precision":"city","address":null,"state":"D.C."},"type":"Feature","geometry":{"type":"Point","coordinates":[-77.036366,38.895112]}},{"properties":{"city":"Washington","geo_score":0.714,"offensedescription":"CARRYING DANGEROUS WEAPON (CDW) OR KNIFE","id":"a6qlzzjcdujj","geo_precision":"city","address":null,"state":"D.C."},"type":"Feature","geometry":{"type":"Point","coordinates":[-77.036366,38.895112]}},{"properties":{"city":"Washington","geo_score":0.902,"offensedescription":"CARRYING DANGEROUS WEAPON (CDW) OR KNIFE","id":"a6qlzzsumsi8","geo_precision":"range","address":"100  T STREET NE","state":"D.C."},"type":"Feature","geometry":{"type":"Point","coordinates":[-77.00509,38.915563]}},{"properties":{"city":"Washington","geo_score":0.714,"offensedescription":"CARRYING PISTOL W/OUT LICENSE, 1ST OFFENSE","id":"a6qlzzmcnl88","geo_precision":"city","address":null,"state":"D.C."},"type":"Feature","geometry":{"type":"Point","coordinates":[-77.036366,38.895112]}},{"properties":{"city":"Washington","geo_score":0.902,"offensedescription":"CARRYING PISTOL W/OUT LICENSE, 1ST OFFENSE","id":"a6qlzzjmfhlk","geo_precision":"range","address":"4700  MINNESOTA AVENUE NE","state":"D.C."},"type":"Feature","geometry":{"type":"Point","coordinates":[-76.935093,38.907276]}},{"properties":{"city":"Washington","geo_score":0.829,"offensedescription":"CARRYING PISTOL W/OUT LICENSE, 1ST OFFENSE","id":"a6qlzzthb18l","geo_precision":"range","address":"900  22ND STREET NE","state":"D.C."},"type":"Feature","geometry":{"type":"Point","coordinates":[-76.97189,38.903721]}},{"properties":{"city":"Washington","geo_score":0.829,"offensedescription":"CARRYING PISTOL W/OUT LICENSE, 1ST OFFENSE","id":"a6qlzzmbhnk7","geo_precision":"range","address":"300  51ST STREET NE","state":"D.C."},"type":"Feature","geometry":{"type":"Point","coordinates":[-76.928896,38.893662]}},{"properties":{"city":"Washington","geo_score":0.857,"offensedescription":"CARRYING PISTOL W/OUT LICENSE, 1ST OFFENSE","id":"a6qlzzqo8j82","geo_precision":"street","address":"MARTIN LUTHER KING JR AVENUE SE &amp; TALBERT STREET SE","state":"D.C."},"type":"Feature","geometry":{"type":"Point","coordinates":[-76.993149,38.863729]}},{"properties":{"city":"Washington","geo_score":0.857,"offensedescription":"CARRYING PISTOL W/OUT LICENSE, 1ST OFFENSE","id":"a6qlzzj3bhzr","geo_precision":"street","address":"10TH STREET NE &amp; I STREET NE","state":"D.C."},"type":"Feature","geometry":{"type":"Point","coordinates":[-77.006242,38.901298]}},{"properties":{"city":"Washington","geo_score":0.708,"offensedescription":"CARRYING PISTOL W/OUT LICENSE, 1ST OFFENSE","id":"a6qlzzn62lay","geo_precision":"street","address":"800  KENILWORTH AVENUE NE","state":"D.C."},"type":"Feature","geometry":{"type":"Point","coordinates":[-76.94384,38.902438]}},{"properties":{"city":"Washington","geo_score":0.714,"offensedescription":"CARRYING PISTOL W/OUT LICENSE, 1ST OFFENSE","id":"a6qlzzebpi3u","geo_precision":"city","address":null,"state":"D.C."},"type":"Feature","geometry":{"type":"Point","coordinates":[-77.036366,38.895112]}},{"properties":{"city":"Washington","geo_score":0.829,"offensedescription":"CONSPIRACY/THREATS (FELONY)","id":"a6qlzzoyig7i","geo_precision":"range","address":"3700  10TH STREET NE","state":"D.C."},"type":"Feature","geometry":{"type":"Point","coordinates":[-76.99282,38.93485]}},{"properties":{"city":"Washington","geo_score":0.714,"offensedescription":"CONSPIRACY/THREATS (FELONY)","id":"a6qlzzn1ymxp","geo_precision":"city","address":null,"state":"D.C."},"type":"Feature","geometry":{"type":"Point","coordinates":[-77.036366,38.895112]}},{"properties":{"city":"Washington","geo_score":0.714,"offensedescription":"CONSPIRACY/THREATS (FELONY)","id":"a6qlzzpk3uux","geo_precision":"city","address":null,"state":"D.C."},"type":"Feature","geometry":{"type":"Point","coordinates":[-77.036366,38.895112]}},{"properties":{"city":"Washington","geo_score":0.714,"offensedescription":"CONSPIRACY/THREATS (FELONY)","id":"a6qlzzsdnhqp","geo_precision":"city","address":null,"state":"D.C."},"type":"Feature","geometry":{"type":"Point","coordinates":[-77.036366,38.895112]}},{"properties":{"city":"Washington","geo_score":0.714,"offensedescription":"CONSPIRACY/THREATS (FELONY)","id":"a6qlzzj3p6t7","geo_precision":"city","address":null,"state":"D.C."},"type":"Feature","geometry":{"type":"Point","coordinates":[-77.036366,38.895112]}},{"properties":{"city":"Washington","geo_score":0.714,"offensedescription":"CONSPIRACY/THREATS (FELONY)","id":"a6qlzzrbg45e","geo_precision":"city","address":null,"state":"D.C."},"type":"Feature","geometry":{"type":"Point","coordinates":[-77.036366,38.895112]}},{"properties":{"city":"Washington","geo_score":0.902,"offensedescription":"CSA DISTRIBUTING MARIJUANA","id":"a6qlzziq3i65","geo_precision":"range","address":"4400  QUARLES STREET NE","state":"D.C."},"type":"Feature","geometry":{"type":"Point","coordinates":[-76.9367,38.911972]}},{"properties":{"city":"Washington","geo_score":0.714,"offensedescription":"CSA DISTRIBUTING MARIJUANA","id":"a6qlzzki30nq","geo_precision":"city","address":null,"state":"D.C."},"type":"Feature","geometry":{"type":"Point","coordinates":[-77.036366,38.895112]}},{"properties":{"city":"Washington","geo_score":0.714,"offensedescription":"CSA DISTRIBUTING MARIJUANA","id":"a6qlzzgngl66","geo_precision":"city","address":null,"state":"D.C."},"type":"Feature","geometry":{"type":"Point","coordinates":[-77.036366,38.895112]}},{"properties":{"city":"Washington","geo_score":0.714,"offensedescription":"CSA DISTRIBUTING MARIJUANA","id":"a6qlzzg2g185","geo_precision":"city","address":null,"state":"D.C."},"type":"Feature","geometry":{"type":"Point","coordinates":[-77.036366,38.895112]}},{"properties":{"city":"Washington","geo_score":0.714,"offensedescription":"CSA DISTRIBUTION COCAINE (CRACK)","id":"a6qlzzl7tlvy","geo_precision":"city","address":null,"state":"D.C."},"type":"Feature","geometry":{"type":"Point","coordinates":[-77.036366,38.895112]}},{"properties":{"city":"Washington","geo_score":0.714,"offensedescription":"CSA DISTRIBUTION COCAINE (CRACK)","id":"a6qlzzdt03tt","geo_precision":"city","address":null,"state":"D.C."},"type":"Feature","geometry":{"type":"Point","coordinates":[-77.036366,38.895112]}},{"properties":{"city":"Washington","geo_score":0.714,"offensedescription":"CSA DISTRIBUTION COCAINE (CRACK)","id":"a6qlzzo6i54r","geo_precision":"city","address":null,"state":"D.C."},"type":"Feature","geometry":{"type":"Point","coordinates":[-77.036366,38.895112]}},{"properties":{"city":"Washington","geo_score":0.714,"offensedescription":"CSA DISTRIBUTION COCAINE (CRACK)","id":"a6qlzzelysfb","geo_precision":"city","address":null,"state":"D.C."},"type":"Feature","geometry":{"type":"Point","coordinates":[-77.036366,38.895112]}},{"properties":{"city":"Washington","geo_score":0.902,"offensedescription":"CSA DISTRIBUTION COCAINE (CRACK)","id":"a6qlzzjwp8kt","geo_precision":"range","address":"5800  FIELD PLACE NE","state":"D.C."},"type":"Feature","geometry":{"type":"Point","coordinates":[-76.91778,38.897923]}},{"properties":{"city":"Washington","geo_score":0.714,"offensedescription":"CSA DISTRIBUTION COCAINE (CRACK)","id":"a6qlzzs93isn","geo_precision":"city","address":null,"state":"D.C."},"type":"Feature","geometry":{"type":"Point","coordinates":[-77.036366,38.895112]}},{"properties":{"city":"Washington","geo_score":0.902,"offensedescription":"CSA DISTRIBUTION COCAINE (CRACK)","id":"a6qlzzkx7gib","geo_precision":"range","address":"1200  NORTH CAPITOL STREET NE","state":"D.C."},"type":"Feature","geometry":{"type":"Point","coordinates":[-77.009063,38.905646]}},{"properties":{"city":"Washington","geo_score":0.714,"offensedescription":"CSA POSSESSION COCAINE (CRACK)","id":"a6qlzziekfit","geo_precision":"city","address":null,"state":"D.C."},"type":"Feature","geometry":{"type":"Point","coordinates":[-77.036366,38.895112]}},{"properties":{"city":"Washington","geo_score":0.902,"offensedescription":"CSA POSSESSION COCAINE (CRACK)","id":"a6qlzzmrm83g","geo_precision":"range","address":"900  KENT PLACE NE","state":"D.C."},"type":"Feature","geometry":{"type":"Point","coordinates":[-76.993755,38.903163]}},{"properties":{"city":"Washington","geo_score":0.902,"offensedescription":"CSA POSSESSION COCAINE (CRACK)","id":"a6qlzzg8jtj0","geo_precision":"range","address":"900  KENT PLACE NE","state":"D.C."},"type":"Feature","geometry":{"type":"Point","coordinates":[-76.993755,38.903163]}},{"properties":{"city":"Washington","geo_score":0.829,"offensedescription":"CSA POSSESSION HEROIN","id":"a6qlzzihc8ka","geo_precision":"range","address":"200  44TH STREET NE","state":"D.C."},"type":"Feature","geometry":{"type":"Point","coordinates":[-76.939199,38.893433]}},{"properties":{"city":"Washington","geo_score":0.902,"offensedescription":"CSA POSSESSION MARIJUANA","id":"a6qlzzqm2fxa","geo_precision":"range","address":"3700  HAYES STREET NE","state":"D.C."},"type":"Feature","geometry":{"type":"Point","coordinates":[-76.950765,38.903508]}},{"properties":{"city":"Washington","geo_score":0.714,"offensedescription":"CSA POSSESSION MARIJUANA","id":"a6qlzzeb1qty","geo_precision":"city","address":null,"state":"D.C."},"type":"Feature","geometry":{"type":"Point","coordinates":[-77.036366,38.895112]}},{"properties":{"city":"Washington","geo_score":0.829,"offensedescription":"CSA POSSESSION MARIJUANA","id":"a6qlzzlmlodx","geo_precision":"range","address":"200  53RD STREET NE","state":"D.C."},"type":"Feature","geometry":{"type":"Point","coordinates":[-76.925904,38.891729]}},{"properties":{"city":"Washington","geo_score":0.902,"offensedescription":"CSA POSSESSION MARIJUANA","id":"a6qlzze8dz51","geo_precision":"range","address":"600  EDGEWOOD STREET NE","state":"D.C."},"type":"Feature","geometry":{"type":"Point","coordinates":[-76.998431,38.923987]}},{"properties":{"city":"Washington","geo_score":0.714,"offensedescription":"CSA POSSESSION MARIJUANA","id":"a6qlzzjada0j","geo_precision":"city","address":null,"state":"D.C."},"type":"Feature","geometry":{"type":"Point","coordinates":[-77.036366,38.895112]}},{"properties":{"city":"Washington","geo_score":0.714,"offensedescription":"CSA POSSESSION MARIJUANA","id":"a6qlzzp1wkql","geo_precision":"city","address":null,"state":"D.C."},"type":"Feature","geometry":{"type":"Point","coordinates":[-77.036366,38.895112]}},{"properties":{"city":"Washington","geo_score":0.714,"offensedescription":"CSA POSSESSION MARIJUANA","id":"a6qlzztsjzqr","geo_precision":"city","address":null,"state":"D.C."},"type":"Feature","geometry":{"type":"Point","coordinates":[-77.036366,38.895112]}},{"properties":{"city":"Washington","geo_score":0.714,"offensedescription":"CSA POSSESSION MARIJUANA","id":"a6qlzzq2dnga","geo_precision":"city","address":null,"state":"D.C."},"type":"Feature","geometry":{"type":"Point","coordinates":[-77.036366,38.895112]}},{"properties":{"city":"Washington","geo_score":0.714,"offensedescription":"CSA POSSESSION MARIJUANA","id":"a6qlzzft1m91","geo_precision":"city","address":null,"state":"D.C."},"type":"Feature","geometry":{"type":"Point","coordinates":[-77.036366,38.895112]}},{"properties":{"city":"Washington","geo_score":0.902,"offensedescription":"CSA POSSESSION MARIJUANA","id":"a6qlzznt8izt","geo_precision":"range","address":"100  T STREET NE","state":"D.C."},"type":"Feature","geometry":{"type":"Point","coordinates":[-77.00509,38.915563]}},{"properties":{"city":"Washington","geo_score":0.714,"offensedescription":"CSA POSSESSION MARIJUANA","id":"a6qlzzk08ltv","geo_precision":"city","address":null,"state":"D.C."},"type":"Feature","geometry":{"type":"Point","coordinates":[-77.036366,38.895112]}},{"properties":{"city":"Washington","geo_score":0.714,"offensedescription":"CSA POSSESSION MARIJUANA","id":"a6qlzzs3db2n","geo_precision":"city","address":null,"state":"D.C."},"type":"Feature","geometry":{"type":"Point","coordinates":[-77.036366,38.895112]}},{"properties":{"city":"Washington","geo_score":0.714,"offensedescription":"CSA POSSESSION MARIJUANA","id":"a6qlzzj2qbs1","geo_precision":"city","address":null,"state":"D.C."},"type":"Feature","geometry":{"type":"Point","coordinates":[-77.036366,38.895112]}},{"properties":{"city":"Washington","geo_score":0.714,"offensedescription":"CSA POSSESSION MARIJUANA","id":"a6qlzzkel0r1","geo_precision":"city","address":null,"state":"D.C."},"type":"Feature","geometry":{"type":"Point","coordinates":[-77.036366,38.895112]}},{"properties":{"city":"Washington","geo_score":0.714,"offensedescription":"CSA POSSESSION MARIJUANA","id":"a6qlzzryc202","geo_precision":"city","address":null,"state":"D.C."},"type":"Feature","geometry":{"type":"Point","coordinates":[-77.036366,38.895112]}},{"properties":{"city":"Washington","geo_score":0.902,"offensedescription":"CSA POSSESSION MARIJUANA","id":"a6qlzzqifucj","geo_precision":"range","address":"1700  HOLBROOK STREET NE","state":"D.C."},"type":"Feature","geometry":{"type":"Point","coordinates":[-76.981393,38.90646]}},{"properties":{"city":"Washington","geo_score":0.902,"offensedescription":"CSA POSSESSION OTHER","id":"a6qlzzqczkkh","geo_precision":"range","address":"3100  NEWTON STREET NE","state":"D.C."},"type":"Feature","geometry":{"type":"Point","coordinates":[-76.965702,38.934098]}},{"properties":{"city":"Washington","geo_score":0.714,"offensedescription":"CSA POSSESSION OTHER","id":"a6qlzzrzh7mq","geo_precision":"city","address":null,"state":"D.C."},"type":"Feature","geometry":{"type":"Point","coordinates":[-77.036366,38.895112]}},{"properties":{"city":"Washington","geo_score":0.714,"offensedescription":"CSA PWID COCAINE","id":"a6qlzznqh5jg","geo_precision":"city","address":null,"state":"D.C."},"type":"Feature","geometry":{"type":"Point","coordinates":[-77.036366,38.895112]}},{"properties":{"city":"Washington","geo_score":0.829,"offensedescription":"CSA PWID COCAINE","id":"a6qlzzj7hryz","geo_precision":"range","address":"900  52ND STREET NE","state":"D.C."},"type":"Feature","geometry":{"type":"Point","coordinates":[-76.925628,38.901838]}},{"properties":{"city":"Washington","geo_score":0.829,"offensedescription":"CSA PWID COCAINE","id":"a6qlzzoab3p5","geo_precision":"range","address":"200  51ST STREET NE","state":"D.C."},"type":"Feature","geometry":{"type":"Point","coordinates":[-76.929274,38.892143]}},{"properties":{"city":"Washington","geo_score":0.902,"offensedescription":"CSA PWID COCAINE (CRACK)","id":"a6qlzzrq90bp","geo_precision":"range","address":"5800  FIELD PLACE NE","state":"D.C."},"type":"Feature","geometry":{"type":"Point","coordinates":[-76.91778,38.897923]}},{"properties":{"city":"Washington","geo_score":0.714,"offensedescription":"CSA PWID COCAINE (CRACK)","id":"a6qlzzri1pjs","geo_precision":"city","address":null,"state":"D.C."},"type":"Feature","geometry":{"type":"Point","coordinates":[-77.036366,38.895112]}},{"properties":{"city":"Washington","geo_score":0.819,"offensedescription":"CSA PWID COCAINE (CRACK)","id":"a6qlzzjkir69","geo_precision":"range","address":"900  6TH STREET NE","state":"D.C."},"type":"Feature","geometry":{"type":"Point","coordinates":[-76.998446,38.901323]}},{"properties":{"city":"Washington","geo_score":0.714,"offensedescription":"CSA PWID COCAINE (CRACK)","id":"a6qlzzqszilp","geo_precision":"city","address":null,"state":"D.C."},"type":"Feature","geometry":{"type":"Point","coordinates":[-77.036366,38.895112]}},{"properties":{"city":"Washington","geo_score":0.902,"offensedescription":"CSA PWID COCAINE (CRACK)","id":"a6qlzzeq4m30","geo_precision":"range","address":"5800  FIELD PLACE NE","state":"D.C."},"type":"Feature","geometry":{"type":"Point","coordinates":[-76.91778,38.897923]}},{"properties":{"city":"Washington","geo_score":0.902,"offensedescription":"CSA PWID HEROIN","id":"a6qlzzh4k96m","geo_precision":"range","address":"600  DIVISION AVENUE NE","state":"D.C."},"type":"Feature","geometry":{"type":"Point","coordinates":[-76.926088,38.897169]}},{"properties":{"city":"Washington","geo_score":0.714,"offensedescription":"CSA PWID HEROIN","id":"a6qlzzgxktpz","geo_precision":"city","address":null,"state":"D.C."},"type":"Feature","geometry":{"type":"Point","coordinates":[-77.036366,38.895112]}},{"properties":{"city":"Washington","geo_score":0.714,"offensedescription":"CSA PWID MARIJUANA","id":"a6qlzzr2907r","geo_precision":"city","address":null,"state":"D.C."},"type":"Feature","geometry":{"type":"Point","coordinates":[-77.036366,38.895112]}},{"properties":{"city":"Washington","geo_score":0.829,"offensedescription":"CSA PWID MARIJUANA","id":"a6qlzzo3q9yu","geo_precision":"range","address":"300  50TH STREET NE","state":"D.C."},"type":"Feature","geometry":{"type":"Point","coordinates":[-76.929988,38.893563]}},{"properties":{"city":"Washington","geo_score":0.829,"offensedescription":"CSA PWID MARIJUANA","id":"a6qlzzu1npzw","geo_precision":"range","address":"2200  15TH STREET NE","state":"D.C."},"type":"Feature","geometry":{"type":"Point","coordinates":[-76.98205,38.919179]}},{"properties":{"city":"Washington","geo_score":0.902,"offensedescription":"CSA PWID MARIJUANA","id":"a6qlzzmssl3t","geo_precision":"range","address":"4500  QUARLES STREET NE","state":"D.C."},"type":"Feature","geometry":{"type":"Point","coordinates":[-76.936284,38.91174]}},{"properties":{"city":"Washington","geo_score":0.714,"offensedescription":"CSA PWID OTHER","id":"a6qlzzjru2xd","geo_precision":"city","address":null,"state":"D.C."},"type":"Feature","geometry":{"type":"Point","coordinates":[-77.036366,38.895112]}},{"properties":{"city":"Washington","geo_score":0.714,"offensedescription":"CSA PWID PCP","id":"a6qlzzle8xac","geo_precision":"city","address":null,"state":"D.C."},"type":"Feature","geometry":{"type":"Point","coordinates":[-77.036366,38.895112]}},{"properties":{"city":"Washington","geo_score":0.829,"offensedescription":"CSA PWID PCP","id":"a6qlzznp6ikr","geo_precision":"range","address":"300  53RD STREET NE","state":"D.C."},"type":"Feature","geometry":{"type":"Point","coordinates":[-76.925089,38.894005]}},{"properties":{"city":"Washington","geo_score":0.902,"offensedescription":"DESTRUCTION OF PROPERTY (FELONY)","id":"a6qlzzpn4yyf","geo_precision":"range","address":"1200  OATES STREET NE","state":"D.C."},"type":"Feature","geometry":{"type":"Point","coordinates":[-76.988277,38.90547]}},{"properties":{"city":"Washington","geo_score":0.902,"offensedescription":"DESTRUCTION OF PROPERTY (FELONY)","id":"a6qlzzh3g2n3","geo_precision":"range","address":"3800  JAY STREET NE","state":"D.C."},"type":"Feature","geometry":{"type":"Point","coordinates":[-76.945628,38.901983]}},{"properties":{"city":"Washington","geo_score":0.902,"offensedescription":"DESTRUCTION OF PROPERTY (FELONY)","id":"a6qlzzpwbfe0","geo_precision":"range","address":"3800  JAY STREET NE","state":"D.C."},"type":"Feature","geometry":{"type":"Point","coordinates":[-76.945628,38.901983]}},{"properties":{"city":"Washington","geo_score":0.902,"offensedescription":"DESTRUCTION OF PROPERTY (FELONY)","id":"a6qlzzlb22pk","geo_precision":"range","address":"1200  QUEEN STREET NE","state":"D.C."},"type":"Feature","geometry":{"type":"Point","coordinates":[-76.987167,38.907063]}},{"properties":{"city":"Washington","geo_score":0.902,"offensedescription":"DESTRUCTION OF PROPERTY (FELONY)","id":"a6qlzzdut5wp","geo_precision":"range","address":"3800  JAY STREET NE","state":"D.C."},"type":"Feature","geometry":{"type":"Point","coordinates":[-76.945628,38.901983]}},{"properties":{"city":"Washington","geo_score":0.714,"offensedescription":"DESTRUCTION OF PROPERTY (FELONY)","id":"a6qlzzpitnlc","geo_precision":"city","address":null,"state":"D.C."},"type":"Feature","geometry":{"type":"Point","coordinates":[-77.036366,38.895112]}},{"properties":{"city":"Washington","geo_score":0.902,"offensedescription":"DESTRUCTION OF PROPERTY (FELONY)","id":"a6qlzzrizmh7","geo_precision":"range","address":"1700  H STREET NE","state":"D.C."},"type":"Feature","geometry":{"type":"Point","coordinates":[-76.979068,38.900211]}},{"properties":{"city":"Washington","geo_score":0.902,"offensedescription":"DESTRUCTION OF PROPERTY (FELONY)","id":"a6qlzzm55ate","geo_precision":"range","address":"5700  EAST CAPITOL STREET NE","state":"D.C."},"type":"Feature","geometry":{"type":"Point","coordinates":[-76.919395,38.88975]}},{"properties":{"city":"Washington","geo_score":0.714,"offensedescription":"DESTRUCTION OF PROPERTY (FELONY)","id":"a6qlzzjavbhg","geo_precision":"city","address":null,"state":"D.C."},"type":"Feature","geometry":{"type":"Point","coordinates":[-77.036366,38.895112]}},{"properties":{"city":"Washington","geo_score":0.714,"offensedescription":"DESTRUCTION OF PROPERTY (FELONY)","id":"a6qlzzsmq15o","geo_precision":"city","address":null,"state":"D.C."},"type":"Feature","geometry":{"type":"Point","coordinates":[-77.036366,38.895112]}},{"properties":{"city":"Washington","geo_score":0.902,"offensedescription":"DESTRUCTION OF PROPERTY (FELONY)","id":"a6qlzzetnd4d","geo_precision":"range","address":"5700  EAST CAPITOL STREET NE","state":"D.C."},"type":"Feature","geometry":{"type":"Point","coordinates":[-76.919395,38.88975]}},{"properties":{"city":"Washington","geo_score":0.643,"offensedescription":"DESTRUCTION OF PROPERTY (FELONY)","id":"a6qlzzj7hund","geo_precision":"street","address":"UNIT  54TH STREET SE","state":"D.C."},"type":"Feature","geometry":{"type":"Point","coordinates":[-76.923926,38.889754]}},{"properties":{"city":"Washington","geo_score":0.902,"offensedescription":"DESTRUCTION OF PROPERTY (FELONY)","id":"a6qlzzmrebcd","geo_precision":"range","address":"800  RHODE ISLAND AVENUE NE","state":"D.C."},"type":"Feature","geometry":{"type":"Point","coordinates":[-76.994767,38.9217]}},{"properties":{"city":"Washington","geo_score":0.902,"offensedescription":"DESTRUCTION OF PROPERTY (FELONY)","id":"a6qlzzpyi9hc","geo_precision":"range","address":"1100  QUEEN STREET NE","state":"D.C."},"type":"Feature","geometry":{"type":"Point","coordinates":[-76.98883,38.907776]}},{"properties":{"city":"Washington","geo_score":0.902,"offensedescription":"DESTRUCTION OF PROPERTY (FELONY)","id":"a6qlzzna28yb","geo_precision":"range","address":"800  RHODE ISLAND AVENUE NE","state":"D.C."},"type":"Feature","geometry":{"type":"Point","coordinates":[-76.994767,38.9217]}},{"properties":{"city":"Washington","geo_score":0.902,"offensedescription":"DESTRUCTION OF PROPERTY (FELONY)","id":"a6qlzzp3fm0z","geo_precision":"range","address":"400  D STREET NE","state":"D.C."},"type":"Feature","geometry":{"type":"Point","coordinates":[-77.000577,38.894788]}},{"properties":{"city":"Washington","geo_score":0.902,"offensedescription":"DESTRUCTION OF PROPERTY (FELONY)","id":"a6qlzzpu2x7p","geo_precision":"range","address":"400  D STREET NE","state":"D.C."},"type":"Feature","geometry":{"type":"Point","coordinates":[-77.000577,38.894788]}},{"properties":{"city":"Washington","geo_score":0.902,"offensedescription":"DESTRUCTION OF PROPERTY (FELONY)","id":"a6qlzztdnt15","geo_precision":"range","address":"5700  EAST CAPITOL STREET NE","state":"D.C."},"type":"Feature","geometry":{"type":"Point","coordinates":[-76.919395,38.88975]}},{"properties":{"city":"Washington","geo_score":0.902,"offensedescription":"DESTRUCTION OF PROPERTY (MISDEMEANOR)","id":"a6qlzzi78fol","geo_precision":"range","address":"1100  QUEEN STREET NE","state":"D.C."},"type":"Feature","geometry":{"type":"Point","coordinates":[-76.98883,38.907776]}},{"properties":{"city":"Washington","geo_score":0.714,"offensedescription":"DESTRUCTION OF PROPERTY (MISDEMEANOR)","id":"a6qlzzm0lcqk","geo_precision":"city","address":null,"state":"D.C."},"type":"Feature","geometry":{"type":"Point","coordinates":[-77.036366,38.895112]}},{"properties":{"city":"Washington","geo_score":0.902,"offensedescription":"DESTRUCTION OF PROPERTY (MISDEMEANOR)","id":"a6qlzzfmrtvl","geo_precision":"range","address":"900  RHODE ISLAND AVENUE NE","state":"D.C."},"type":"Feature","geometry":{"type":"Point","coordinates":[-76.993862,38.92199]}},{"properties":{"city":"Washington","geo_score":0.714,"offensedescription":"DESTRUCTION OF PROPERTY (MISDEMEANOR)","id":"a6qlzznompnp","geo_precision":"city","address":null,"state":"D.C."},"type":"Feature","geometry":{"type":"Point","coordinates":[-77.036366,38.895112]}},{"properties":{"city":"Washington","geo_score":0.902,"offensedescription":"DESTRUCTION OF PROPERTY (MISDEMEANOR)","id":"a6qlzzivuhcy","geo_precision":"range","address":"1300  FLORIDA AVENUE NE","state":"D.C."},"type":"Feature","geometry":{"type":"Point","coordinates":[-76.988004,38.901785]}},{"properties":{"city":"Washington","geo_score":0.732,"offensedescription":"DESTRUCTION OF PROPERTY (MISDEMEANOR)","id":"a6qlzzm6t4qk","geo_precision":"street","address":"500  51ST STREET NE","state":"D.C."},"type":"Feature","geometry":{"type":"Point","coordinates":[-76.927405,38.896422]}},{"properties":{"city":"Washington","geo_score":0.75,"offensedescription":"DESTRUCTION OF PROPERTY (MISDEMEANOR)","id":"a6qlzzrg0ysm","geo_precision":"street","address":"21ST STREET NE &amp; BENNING ROAD NE","state":"D.C."},"type":"Feature","geometry":{"type":"Point","coordinates":[-76.974982,38.894779]}},{"properties":{"city":"Washington","geo_score":0.714,"offensedescription":"DESTRUCTION OF PROPERTY (MISDEMEANOR)","id":"a6qlzzm8ujp9","geo_precision":"city","address":null,"state":"D.C."},"type":"Feature","geometry":{"type":"Point","coordinates":[-77.036366,38.895112]}},{"properties":{"city":"Washington","geo_score":0.902,"offensedescription":"DESTRUCTION OF PROPERTY (MISDEMEANOR)","id":"a6qlzzhw2jwt","geo_precision":"range","address":"2000  CHANNING STREET NE","state":"D.C."},"type":"Feature","geometry":{"type":"Point","coordinates":[-76.976182,38.922346]}},{"properties":{"city":"Washington","geo_score":0.714,"offensedescription":"DESTRUCTION OF PROPERTY (MISDEMEANOR)","id":"a6qlzzmhfrey","geo_precision":"city","address":null,"state":"D.C."},"type":"Feature","geometry":{"type":"Point","coordinates":[-77.036366,38.895112]}},{"properties":{"city":"Washington","geo_score":0.902,"offensedescription":"DESTRUCTION OF PROPERTY (MISDEMEANOR)","id":"a6qlzzponh8e","geo_precision":"range","address":"2000  CHANNING STREET NE","state":"D.C."},"type":"Feature","geometry":{"type":"Point","coordinates":[-76.976182,38.922346]}},{"properties":{"city":"Washington","geo_score":0.902,"offensedescription":"DESTRUCTION OF PROPERTY (MISDEMEANOR)","id":"a6qlzzpjpvo5","geo_precision":"range","address":"4500  DOUGLAS STREET NE","state":"D.C."},"type":"Feature","geometry":{"type":"Point","coordinates":[-76.937851,38.910143]}},{"properties":{"city":"Washington","geo_score":0.902,"offensedescription":"DESTRUCTION OF PROPERTY (MISDEMEANOR)","id":"a6qlzzixy7n3","geo_precision":"range","address":"4400  PONDS STREET NE","state":"D.C."},"type":"Feature","geometry":{"type":"Point","coordinates":[-76.938638,38.911743]}},{"properties":{"city":"Washington","geo_score":0.902,"offensedescription":"DISORDERLY (CRAPS)","id":"a6qlzzhueye1","geo_precision":"range","address":"3100  NEWTON STREET NE","state":"D.C."},"type":"Feature","geometry":{"type":"Point","coordinates":[-76.965702,38.934098]}},{"properties":{"city":"Washington","geo_score":0.714,"offensedescription":"DISORDERLY (CRAPS)","id":"a6qlzze102wr","geo_precision":"city","address":null,"state":"D.C."},"type":"Feature","geometry":{"type":"Point","coordinates":[-77.036366,38.895112]}},{"properties":{"city":"Washington","geo_score":0.829,"offensedescription":"DISORDERLY (CRAPS)","id":"a6qlzzj8e0vm","geo_precision":"range","address":"300  18TH STREET NE","state":"D.C."},"type":"Feature","geometry":{"type":"Point","coordinates":[-76.978994,38.893301]}},{"properties":{"city":"Washington","geo_score":0.714,"offensedescription":"DISORDERLY CONDUCT (INCOMMODING)","id":"a6qlzzlpjjmm","geo_precision":"city","address":null,"state":"D.C."},"type":"Feature","geometry":{"type":"Point","coordinates":[-77.036366,38.895112]}},{"properties":{"city":"Washington","geo_score":0.714,"offensedescription":"DISORDERLY CONDUCT (LOUD &amp; BOISTEROUS)","id":"a6qlzzmtjwp6","geo_precision":"city","address":null,"state":"D.C."},"type":"Feature","geometry":{"type":"Point","coordinates":[-77.036366,38.895112]}},{"properties":{"city":"Washington","geo_score":0.902,"offensedescription":"DISORDERLY CONDUCT (LOUD &amp; BOISTEROUS)","id":"a6qlzzksj5s5","geo_precision":"range","address":"3100  RHODE ISLAND AVENUE NE","state":"D.C."},"type":"Feature","geometry":{"type":"Point","coordinates":[-76.964132,38.934895]}},{"properties":{"city":"Washington","geo_score":0.732,"offensedescription":"DISORDERLY CONDUCT (LOUD &amp; BOISTEROUS)","id":"a6qlzzexz5d6","geo_precision":"street","address":"500  51ST STREET NE","state":"D.C."},"type":"Feature","geometry":{"type":"Point","coordinates":[-76.927405,38.896422]}},{"properties":{"city":"Washington","geo_score":0.902,"offensedescription":"EXTORTION","id":"a6qlzzg0bkox","geo_precision":"range","address":"500  CONSTITUTION AVENUE NE","state":"D.C."},"type":"Feature","geometry":{"type":"Point","coordinates":[-76.999505,38.892015]}},{"properties":{"city":"Washington","geo_score":0.902,"offensedescription":"FUGITIVE FROM JUSTICE","id":"a6qlzzltyztg","geo_precision":"range","address":"2100  MARYLAND AVENUE NE","state":"D.C."},"type":"Feature","geometry":{"type":"Point","coordinates":[-76.97417,38.90389]}},{"properties":{"city":"Washington","geo_score":0.902,"offensedescription":"FUGITIVE FROM JUSTICE","id":"a6qlzzqr0vii","geo_precision":"range","address":"500  RIGGS ROAD NE","state":"D.C."},"type":"Feature","geometry":{"type":"Point","coordinates":[-77.000059,38.960139]}},{"properties":{"city":"Washington","geo_score":0.902,"offensedescription":"FUGITIVE FROM JUSTICE","id":"a6qlzzffbu28","geo_precision":"range","address":"1800  BLADENSBURG ROAD NE","state":"D.C."},"type":"Feature","geometry":{"type":"Point","coordinates":[-76.975068,38.914128]}},{"properties":{"city":"Washington","geo_score":0.902,"offensedescription":"FUGITIVE FROM JUSTICE","id":"a6qlzzqfeyto","geo_precision":"range","address":"500  INGRAHAM STREET NE","state":"D.C."},"type":"Feature","geometry":{"type":"Point","coordinates":[-76.998837,38.954187]}},{"properties":{"city":"Washington","geo_score":0.902,"offensedescription":"FUGITIVE FROM JUSTICE","id":"a6qlzzqkzbio","geo_precision":"range","address":"1000  MOUNT OLIVET ROAD NE","state":"D.C."},"type":"Feature","geometry":{"type":"Point","coordinates":[-76.991372,38.91227]}},{"properties":{"city":"Washington","geo_score":0.819,"offensedescription":"FUGITIVE FROM JUSTICE","id":"a6qlzzeoeir6","geo_precision":"range","address":"5100  4TH STREET NE","state":"D.C."},"type":"Feature","geometry":{"type":"Point","coordinates":[-76.998933,38.95256]}},{"properties":{"city":"Washington","geo_score":0.714,"offensedescription":"FUGITIVE FROM JUSTICE","id":"a6qlzzloqjhv","geo_precision":"city","address":null,"state":"D.C."},"type":"Feature","geometry":{"type":"Point","coordinates":[-77.036366,38.895112]}},{"properties":{"city":"Washington","geo_score":0.902,"offensedescription":"FUGITIVE FROM JUSTICE","id":"a6qlzzjggpst","geo_precision":"range","address":"4200  MINNESOTA AVENUE NE","state":"D.C."},"type":"Feature","geometry":{"type":"Point","coordinates":[-76.942608,38.901927]}},{"properties":{"city":"Washington","geo_score":0.829,"offensedescription":"FUGITIVE FROM JUSTICE","id":"a6qlzzne0e0w","geo_precision":"range","address":"500  47TH STREET NE","state":"D.C."},"type":"Feature","geometry":{"type":"Point","coordinates":[-76.934872,38.895002]}},{"properties":{"city":"Washington","geo_score":0.902,"offensedescription":"LEAVING SCENE OF ACCIDENTS -- PERSONAL INJURY OR PROPERTY DAMAGE","id":"a6qlzzr1gsox","geo_precision":"range","address":"1900  MARYLAND AVENUE NE","state":"D.C."},"type":"Feature","geometry":{"type":"Point","coordinates":[-76.976216,38.903068]}},{"properties":{"city":"Washington","geo_score":0.902,"offensedescription":"LEAVING SCENE OF ACCIDENTS -- PERSONAL INJURY OR PROPERTY DAMAGE","id":"a6qlzzen3580","geo_precision":"range","address":"900  KENT PLACE NE","state":"D.C."},"type":"Feature","geometry":{"type":"Point","coordinates":[-76.993755,38.903163]}},{"properties":{"city":"Washington","geo_score":0.714,"offensedescription":"LEAVING SCENE OF ACCIDENTS -- PERSONAL INJURY OR PROPERTY DAMAGE","id":"a6qlzzp1li5s","geo_precision":"city","address":null,"state":"D.C."},"type":"Feature","geometry":{"type":"Point","coordinates":[-77.036366,38.895112]}},{"properties":{"city":"Washington","geo_score":0.819,"offensedescription":"LEAVING SCENE OF ACCIDENTS -- PERSONAL INJURY OR PROPERTY DAMAGE","id":"a6qlzziq4fg5","geo_precision":"range","address":"2000  4TH STREET NE","state":"D.C."},"type":"Feature","geometry":{"type":"Point","coordinates":[-77.000569,38.916993]}},{"properties":{"city":"Washington","geo_score":0.714,"offensedescription":"METRO MISCONDUCT","id":"a6qlzzgebp5q","geo_precision":"city","address":null,"state":"D.C."},"type":"Feature","geometry":{"type":"Point","coordinates":[-77.036366,38.895112]}},{"properties":{"city":"Washington","geo_score":0.902,"offensedescription":"METRO MISCONDUCT","id":"a6qlzzr4gon0","geo_precision":"range","address":"4100  MINNESOTA AVENUE NE","state":"D.C."},"type":"Feature","geometry":{"type":"Point","coordinates":[-76.946582,38.898381]}},{"properties":{"city":"Washington","geo_score":0.714,"offensedescription":"NO PERMIT","id":"a6qlzzhsqyu0","geo_precision":"city","address":null,"state":"D.C."},"type":"Feature","geometry":{"type":"Point","coordinates":[-77.036366,38.895112]}},{"properties":{"city":"Washington","geo_score":0.902,"offensedescription":"NO PERMIT","id":"a6qlzzmla18u","geo_precision":"range","address":"1100  HOLBROOK TERRACE NE","state":"D.C."},"type":"Feature","geometry":{"type":"Point","coordinates":[-76.988284,38.908263]}},{"properties":{"city":"Washington","geo_score":0.714,"offensedescription":"NO PERMIT","id":"a6qlzzitvn6g","geo_precision":"city","address":null,"state":"D.C."},"type":"Feature","geometry":{"type":"Point","coordinates":[-77.036366,38.895112]}},{"properties":{"city":"Washington","geo_score":0.861,"offensedescription":"NO PERMIT","id":"a6qlzzfmtm2n","geo_precision":"range","address":"2000  WEST VIRGINIA AVENUE NE","state":"D.C."},"type":"Feature","geometry":{"type":"Point","coordinates":[-77.04521,38.894527]}},{"properties":{"city":"Washington","geo_score":0.714,"offensedescription":"NO PERMIT","id":"a6qlzzosrqgg","geo_precision":"city","address":null,"state":"D.C."},"type":"Feature","geometry":{"type":"Point","coordinates":[-77.036366,38.895112]}},{"properties":{"city":"Washington","geo_score":0.819,"offensedescription":"NO PERMIT","id":"a6qlzzlonn5d","geo_precision":"range","address":"2000  4TH STREET NE","state":"D.C."},"type":"Feature","geometry":{"type":"Point","coordinates":[-77.000569,38.916993]}},{"properties":{"city":"Washington","geo_score":0.902,"offensedescription":"NO PERMIT","id":"a6qlzzrp3l65","geo_precision":"range","address":"6100  BANKS PLACE NE","state":"D.C."},"type":"Feature","geometry":{"type":"Point","coordinates":[-76.913663,38.891968]}},{"properties":{"city":"Washington","geo_score":0.714,"offensedescription":"NO PERMIT","id":"a6qlzzmof9bw","geo_precision":"city","address":null,"state":"D.C."},"type":"Feature","geometry":{"type":"Point","coordinates":[-77.036366,38.895112]}},{"properties":{"city":"Washington","geo_score":0.902,"offensedescription":"NO PERMIT","id":"a6qlzzqph8lk","geo_precision":"range","address":"1200  RAUM STREET NE","state":"D.C."},"type":"Feature","geometry":{"type":"Point","coordinates":[-76.98584,38.908967]}},{"properties":{"city":"Washington","geo_score":0.902,"offensedescription":"NO PERMIT","id":"a6qlzzgcibon","geo_precision":"range","address":"1700  HOLBROOK STREET NE","state":"D.C."},"type":"Feature","geometry":{"type":"Point","coordinates":[-76.981393,38.90646]}},{"properties":{"city":"Washington","geo_score":0.714,"offensedescription":"NO PERMIT","id":"a6qlzzsn921a","geo_precision":"city","address":null,"state":"D.C."},"type":"Feature","geometry":{"type":"Point","coordinates":[-77.036366,38.895112]}},{"properties":{"city":"Washington","geo_score":0.902,"offensedescription":"NO PERMIT","id":"a6qlzzkpuxt7","geo_precision":"range","address":"1200  NORTH CAPITOL STREET NE","state":"D.C."},"type":"Feature","geometry":{"type":"Point","coordinates":[-77.009063,38.905646]}},{"properties":{"city":"Washington","geo_score":0.714,"offensedescription":"NO PERMIT","id":"a6qlzzmrtmif","geo_precision":"city","address":null,"state":"D.C."},"type":"Feature","geometry":{"type":"Point","coordinates":[-77.036366,38.895112]}},{"properties":{"city":"Washington","geo_score":0.714,"offensedescription":"NO PERMIT","id":"a6qlzzmva70t","geo_precision":"city","address":null,"state":"D.C."},"type":"Feature","geometry":{"type":"Point","coordinates":[-77.036366,38.895112]}},{"properties":{"city":"Washington","geo_score":0.714,"offensedescription":"NO PERMIT","id":"a6qlzzqjt824","geo_precision":"city","address":null,"state":"D.C."},"type":"Feature","geometry":{"type":"Point","coordinates":[-77.036366,38.895112]}},{"properties":{"city":"Washington","geo_score":0.714,"offensedescription":"NO PERMIT","id":"a6qlzzon0dcj","geo_precision":"city","address":null,"state":"D.C."},"type":"Feature","geometry":{"type":"Point","coordinates":[-77.036366,38.895112]}},{"properties":{"city":"Washington","geo_score":0.714,"offensedescription":"NO PERMIT","id":"a6qlzzfqr34x","geo_precision":"city","address":null,"state":"D.C."},"type":"Feature","geometry":{"type":"Point","coordinates":[-77.036366,38.895112]}},{"properties":{"city":"Washington","geo_score":0.714,"offensedescription":"NO PERMIT (MOTORCYCLE)","id":"a6qlzzlxxbyj","geo_precision":"city","address":null,"state":"D.C."},"type":"Feature","geometry":{"type":"Point","coordinates":[-77.036366,38.895112]}},{"properties":{"city":"Washington","geo_score":0.714,"offensedescription":"OBSTRUCTING JUSTICE","id":"a6qlzzq52t71","geo_precision":"city","address":null,"state":"D.C."},"type":"Feature","geometry":{"type":"Point","coordinates":[-77.036366,38.895112]}},{"properties":{"city":"Washington","geo_score":0.714,"offensedescription":"OBSTRUCTING JUSTICE","id":"a6qlzzm7y6cq","geo_precision":"city","address":null,"state":"D.C."},"type":"Feature","geometry":{"type":"Point","coordinates":[-77.036366,38.895112]}},{"properties":{"city":"Washington","geo_score":0.714,"offensedescription":"OTHER FELONY OFFENSE","id":"a6qlzzipos17","geo_precision":"city","address":null,"state":"D.C."},"type":"Feature","geometry":{"type":"Point","coordinates":[-77.036366,38.895112]}},{"properties":{"city":"Washington","geo_score":0.714,"offensedescription":"OTHER FELONY OFFENSE","id":"a6qlzzq6el2w","geo_precision":"city","address":null,"state":"D.C."},"type":"Feature","geometry":{"type":"Point","coordinates":[-77.036366,38.895112]}},{"properties":{"city":"Washington","geo_score":0.819,"offensedescription":"OTHER FELONY OFFENSE","id":"a6qlzzkwd299","geo_precision":"range","address":"5100  4TH STREET NE","state":"D.C."},"type":"Feature","geometry":{"type":"Point","coordinates":[-76.998933,38.95256]}},{"properties":{"city":"Washington","geo_score":0.714,"offensedescription":"OTHER FELONY OFFENSE","id":"a6qlzzgdg3cr","geo_precision":"city","address":null,"state":"D.C."},"type":"Feature","geometry":{"type":"Point","coordinates":[-77.036366,38.895112]}},{"properties":{"city":"Washington","geo_score":0.902,"offensedescription":"OTHER FELONY OFFENSE","id":"a6qlzzkukvks","geo_precision":"range","address":"4600  MINNESOTA AVENUE NE","state":"D.C."},"type":"Feature","geometry":{"type":"Point","coordinates":[-76.936511,38.906068]}},{"properties":{"city":"Washington","geo_score":0.714,"offensedescription":"OTHER FELONY OFFENSE","id":"a6qlzzroalhl","geo_precision":"city","address":null,"state":"D.C."},"type":"Feature","geometry":{"type":"Point","coordinates":[-77.036366,38.895112]}},{"properties":{"city":"Washington","geo_score":0.714,"offensedescription":"OTHER FELONY OFFENSE","id":"a6qlzzlbwkgf","geo_precision":"city","address":null,"state":"D.C."},"type":"Feature","geometry":{"type":"Point","coordinates":[-77.036366,38.895112]}},{"properties":{"city":"Washington","geo_score":0.861,"offensedescription":"OTHER FELONY OFFENSE","id":"a6qlzzds5wcp","geo_precision":"range","address":"2000  WEST VIRGINIA AVENUE NE","state":"D.C."},"type":"Feature","geometry":{"type":"Point","coordinates":[-77.04521,38.894527]}},{"properties":{"city":"Washington","geo_score":0.714,"offensedescription":"OTHER FELONY OFFENSE","id":"a6qlzzqt3fbn","geo_precision":"city","address":null,"state":"D.C."},"type":"Feature","geometry":{"type":"Point","coordinates":[-77.036366,38.895112]}},{"properties":{"city":"Washington","geo_score":0.714,"offensedescription":"OTHER FELONY OFFENSE","id":"a6qlzzjbzhob","geo_precision":"city","address":null,"state":"D.C."},"type":"Feature","geometry":{"type":"Point","coordinates":[-77.036366,38.895112]}},{"properties":{"city":"Washington","geo_score":0.902,"offensedescription":"OTHER FELONY OFFENSE","id":"a6qlzzdygcsi","geo_precision":"range","address":"1300  E STREET NE","state":"D.C."},"type":"Feature","geometry":{"type":"Point","coordinates":[-76.988309,38.896115]}},{"properties":{"city":"Washington","geo_score":0.714,"offensedescription":"OTHER FELONY OFFENSE","id":"a6qlzzpxsg32","geo_precision":"city","address":null,"state":"D.C."},"type":"Feature","geometry":{"type":"Point","coordinates":[-77.036366,38.895112]}},{"properties":{"city":"Washington","geo_score":0.714,"offensedescription":"OTHER FELONY OFFENSE","id":"a6qlzzm5w1ug","geo_precision":"city","address":null,"state":"D.C."},"type":"Feature","geometry":{"type":"Point","coordinates":[-77.036366,38.895112]}},{"properties":{"city":"Washington","geo_score":0.902,"offensedescription":"OTHER FELONY OFFENSE","id":"a6qlzzdruoh0","geo_precision":"range","address":"1800  LINCOLN ROAD NE","state":"D.C."},"type":"Feature","geometry":{"type":"Point","coordinates":[-77.008108,38.914078]}},{"properties":{"city":"Washington","geo_score":0.714,"offensedescription":"OTHER FELONY OFFENSE","id":"a6qlzzgtm7xu","geo_precision":"city","address":null,"state":"D.C."},"type":"Feature","geometry":{"type":"Point","coordinates":[-77.036366,38.895112]}},{"properties":{"city":"Washington","geo_score":0.902,"offensedescription":"OTHER FELONY OFFENSE","id":"a6qlzzkqb2zv","geo_precision":"range","address":"600  OGLETHORPE STREET NE","state":"D.C."},"type":"Feature","geometry":{"type":"Point","coordinates":[-76.999098,38.961267]}},{"properties":{"city":"Washington","geo_score":0.714,"offensedescription":"OTHER FELONY OFFENSE","id":"a6qlzzsy6h2k","geo_precision":"city","address":null,"state":"D.C."},"type":"Feature","geometry":{"type":"Point","coordinates":[-77.036366,38.895112]}},{"properties":{"city":"Washington","geo_score":0.714,"offensedescription":"OTHER FELONY OFFENSE","id":"a6qlzzn0pbik","geo_precision":"city","address":null,"state":"D.C."},"type":"Feature","geometry":{"type":"Point","coordinates":[-77.036366,38.895112]}},{"properties":{"city":"Washington","geo_score":0.714,"offensedescription":"OTHER FELONY OFFENSE","id":"a6qlzzkyy1ls","geo_precision":"city","address":null,"state":"D.C."},"type":"Feature","geometry":{"type":"Point","coordinates":[-77.036366,38.895112]}},{"properties":{"city":"Washington","geo_score":0.714,"offensedescription":"OTHER FELONY OFFENSE","id":"a6qlzzmd8auj","geo_precision":"city","address":null,"state":"D.C."},"type":"Feature","geometry":{"type":"Point","coordinates":[-77.036366,38.895112]}},{"properties":{"city":"Washington","geo_score":0.714,"offensedescription":"OTHER FELONY OFFENSE","id":"a6qlzzlgg4to","geo_precision":"city","address":null,"state":"D.C."},"type":"Feature","geometry":{"type":"Point","coordinates":[-77.036366,38.895112]}},{"properties":{"city":"Washington","geo_score":0.902,"offensedescription":"OTHER FELONY OFFENSE","id":"a6qlzzf8py6p","geo_precision":"range","address":"4800  SARGENT ROAD NE","state":"D.C."},"type":"Feature","geometry":{"type":"Point","coordinates":[-76.989168,38.947303]}},{"properties":{"city":"Washington","geo_score":0.714,"offensedescription":"OTHER FELONY OFFENSE","id":"a6qlzzliz9tp","geo_precision":"city","address":null,"state":"D.C."},"type":"Feature","geometry":{"type":"Point","coordinates":[-77.036366,38.895112]}},{"properties":{"city":"Washington","geo_score":0.714,"offensedescription":"OTHER FELONY OFFENSE","id":"a6qlzzhk2w8f","geo_precision":"city","address":null,"state":"D.C."},"type":"Feature","geometry":{"type":"Point","coordinates":[-77.036366,38.895112]}},{"properties":{"city":"Washington","geo_score":0.714,"offensedescription":"OTHER FELONY OFFENSE","id":"a6qlzzivn90j","geo_precision":"city","address":null,"state":"D.C."},"type":"Feature","geometry":{"type":"Point","coordinates":[-77.036366,38.895112]}},{"properties":{"city":"Washington","geo_score":0.902,"offensedescription":"OTHER FELONY OFFENSE","id":"a6qlzzqy3ai1","geo_precision":"range","address":"4100  MINNESOTA AVENUE NE","state":"D.C."},"type":"Feature","geometry":{"type":"Point","coordinates":[-76.946582,38.898381]}},{"properties":{"city":"Washington","geo_score":0.714,"offensedescription":"OTHER FELONY OFFENSE","id":"a6qlzzrb770j","geo_precision":"city","address":null,"state":"D.C."},"type":"Feature","geometry":{"type":"Point","coordinates":[-77.036366,38.895112]}},{"properties":{"city":"Washington","geo_score":0.902,"offensedescription":"OTHER FELONY OFFENSE","id":"a6qlzzq7vq1x","geo_precision":"range","address":"200  DIVISION AVENUE NE","state":"D.C."},"type":"Feature","geometry":{"type":"Point","coordinates":[-76.927956,38.891884]}},{"properties":{"city":"Washington","geo_score":0.714,"offensedescription":"OTHER FELONY OFFENSE","id":"a6qlzzebx3e1","geo_precision":"city","address":null,"state":"D.C."},"type":"Feature","geometry":{"type":"Point","coordinates":[-77.036366,38.895112]}},{"properties":{"city":"Washington","geo_score":0.902,"offensedescription":"OTHER FELONY OFFENSE","id":"a6qlzzidmns5","geo_precision":"range","address":"5200  CLAY STREET NE","state":"D.C."},"type":"Feature","geometry":{"type":"Point","coordinates":[-76.927336,38.893668]}},{"properties":{"city":"Washington","geo_score":0.714,"offensedescription":"OTHER FELONY OFFENSE","id":"a6qlzzflp0xv","geo_precision":"city","address":null,"state":"D.C."},"type":"Feature","geometry":{"type":"Point","coordinates":[-77.036366,38.895112]}},{"properties":{"city":"Washington","geo_score":0.714,"offensedescription":"OTHER FELONY OFFENSE","id":"a6qlzzjiirot","geo_precision":"city","address":null,"state":"D.C."},"type":"Feature","geometry":{"type":"Point","coordinates":[-77.036366,38.895112]}},{"properties":{"city":"Washington","geo_score":0.902,"offensedescription":"OTHER FELONY OFFENSE","id":"a6qlzzdr0ok2","geo_precision":"range","address":"3300  BAKER STREET NE","state":"D.C."},"type":"Feature","geometry":{"type":"Point","coordinates":[-76.959784,38.892801]}},{"properties":{"city":"Washington","geo_score":0.902,"offensedescription":"OTHER FELONY OFFENSE","id":"a6qlzzli88gj","geo_precision":"range","address":"3300  BAKER STREET NE","state":"D.C."},"type":"Feature","geometry":{"type":"Point","coordinates":[-76.959784,38.892801]}},{"properties":{"city":"Washington","geo_score":0.902,"offensedescription":"OTHER FELONY OFFENSE","id":"a6qlzzttya29","geo_precision":"range","address":"300  DIVISION AVENUE NE","state":"D.C."},"type":"Feature","geometry":{"type":"Point","coordinates":[-76.927042,38.894482]}},{"properties":{"city":"Washington","geo_score":0.714,"offensedescription":"OTHER FELONY OFFENSE","id":"a6qlzzef2l8x","geo_precision":"city","address":null,"state":"D.C."},"type":"Feature","geometry":{"type":"Point","coordinates":[-77.036366,38.895112]}},{"properties":{"city":"Washington","geo_score":0.829,"offensedescription":"OTHER FELONY OFFENSE","id":"a6qlzzs2b6xr","geo_precision":"range","address":"900  22ND STREET NE","state":"D.C."},"type":"Feature","geometry":{"type":"Point","coordinates":[-76.97189,38.903721]}},{"properties":{"city":"Washington","geo_score":0.714,"offensedescription":"OTHER FELONY OFFENSE","id":"a6qlzzruuwi9","geo_precision":"city","address":null,"state":"D.C."},"type":"Feature","geometry":{"type":"Point","coordinates":[-77.036366,38.895112]}},{"properties":{"city":"Washington","geo_score":0.902,"offensedescription":"OTHER FELONY OFFENSE","id":"a6qlzzh6v2vd","geo_precision":"range","address":"3300  BAKER STREET NE","state":"D.C."},"type":"Feature","geometry":{"type":"Point","coordinates":[-76.959784,38.892801]}},{"properties":{"city":"Washington","geo_score":0.829,"offensedescription":"OTHER FELONY OFFENSE","id":"a6qlzztgdcbx","geo_precision":"range","address":"700  21ST STREET NE","state":"D.C."},"type":"Feature","geometry":{"type":"Point","coordinates":[-76.974173,38.898503]}},{"properties":{"city":"Washington","geo_score":0.714,"offensedescription":"OTHER FELONY OFFENSE","id":"a6qlzziey1q8","geo_precision":"city","address":null,"state":"D.C."},"type":"Feature","geometry":{"type":"Point","coordinates":[-77.036366,38.895112]}},{"properties":{"city":"Washington","geo_score":0.714,"offensedescription":"OTHER FELONY OFFENSE","id":"a6qlzzizhhzo","geo_precision":"city","address":null,"state":"D.C."},"type":"Feature","geometry":{"type":"Point","coordinates":[-77.036366,38.895112]}},{"properties":{"city":"Washington","geo_score":0.902,"offensedescription":"OTHER FELONY OFFENSE","id":"a6qlzzn7oqjx","geo_precision":"range","address":"1000  MOUNT OLIVET ROAD NE","state":"D.C."},"type":"Feature","geometry":{"type":"Point","coordinates":[-76.991372,38.91227]}},{"properties":{"city":"Washington","geo_score":0.714,"offensedescription":"OTHER FELONY OFFENSE","id":"a6qlzzlb4wel","geo_precision":"city","address":null,"state":"D.C."},"type":"Feature","geometry":{"type":"Point","coordinates":[-77.036366,38.895112]}},{"properties":{"city":"Washington","geo_score":0.829,"offensedescription":"OTHER FELONY OFFENSE","id":"a6qlzztnvq16","geo_precision":"range","address":"700  21ST STREET NE","state":"D.C."},"type":"Feature","geometry":{"type":"Point","coordinates":[-76.974173,38.898503]}},{"properties":{"city":"Washington","geo_score":0.902,"offensedescription":"OTHER FELONY OFFENSE","id":"a6qlzzhlfsh2","geo_precision":"range","address":"200  DIVISION AVENUE NE","state":"D.C."},"type":"Feature","geometry":{"type":"Point","coordinates":[-76.927956,38.891884]}},{"properties":{"city":"Washington","geo_score":0.714,"offensedescription":"OTHER FELONY OFFENSE","id":"a6qlzzhhackk","geo_precision":"city","address":null,"state":"D.C."},"type":"Feature","geometry":{"type":"Point","coordinates":[-77.036366,38.895112]}},{"properties":{"city":"Washington","geo_score":0.902,"offensedescription":"OTHER MISDEMEANOR OFFENSE","id":"a6qlzzj20d3o","geo_precision":"range","address":"1600  F STREET NE","state":"D.C."},"type":"Feature","geometry":{"type":"Point","coordinates":[-76.982214,38.896664]}},{"properties":{"city":"Washington","geo_score":0.714,"offensedescription":"OTHER MISDEMEANOR OFFENSE","id":"a6qlzzl0arpn","geo_precision":"city","address":null,"state":"D.C."},"type":"Feature","geometry":{"type":"Point","coordinates":[-77.036366,38.895112]}},{"properties":{"city":"Washington","geo_score":0.714,"offensedescription":"OTHER MISDEMEANOR OFFENSE","id":"a6qlzzfo7deh","geo_precision":"city","address":null,"state":"D.C."},"type":"Feature","geometry":{"type":"Point","coordinates":[-77.036366,38.895112]}},{"properties":{"city":"Washington","geo_score":0.902,"offensedescription":"OTHER MISDEMEANOR OFFENSE","id":"a6qlzzfq77gk","geo_precision":"range","address":"2000  CHANNING STREET NE","state":"D.C."},"type":"Feature","geometry":{"type":"Point","coordinates":[-76.976182,38.922346]}},{"properties":{"city":"Washington","geo_score":0.902,"offensedescription":"OTHER MISDEMEANOR OFFENSE","id":"a6qlzzt5neyx","geo_precision":"range","address":"4500  QUARLES STREET NE","state":"D.C."},"type":"Feature","geometry":{"type":"Point","coordinates":[-76.936284,38.91174]}},{"properties":{"city":"Washington","geo_score":0.902,"offensedescription":"OTHER MISDEMEANOR OFFENSE","id":"a6qlzzpv9o3e","geo_precision":"range","address":"5500  EADS STREET NE","state":"D.C."},"type":"Feature","geometry":{"type":"Point","coordinates":[-76.921892,38.895804]}},{"properties":{"city":"Washington","geo_score":0.714,"offensedescription":"OTHER MISDEMEANOR OFFENSE","id":"a6qlzzezt6ne","geo_precision":"city","address":null,"state":"D.C."},"type":"Feature","geometry":{"type":"Point","coordinates":[-77.036366,38.895112]}},{"properties":{"city":"Washington","geo_score":0.714,"offensedescription":"OTHER MISDEMEANOR OFFENSE","id":"a6qlzzew8ca8","geo_precision":"city","address":null,"state":"D.C."},"type":"Feature","geometry":{"type":"Point","coordinates":[-77.036366,38.895112]}},{"properties":{"city":"Washington","geo_score":0.714,"offensedescription":"OTHER MISDEMEANOR OFFENSE","id":"a6qlzzld34k7","geo_precision":"city","address":null,"state":"D.C."},"type":"Feature","geometry":{"type":"Point","coordinates":[-77.036366,38.895112]}},{"properties":{"city":"Washington","geo_score":0.714,"offensedescription":"OTHER MISDEMEANOR OFFENSE","id":"a6qlzzrjxf3y","geo_precision":"city","address":null,"state":"D.C."},"type":"Feature","geometry":{"type":"Point","coordinates":[-77.036366,38.895112]}},{"properties":{"city":"Washington","geo_score":0.829,"offensedescription":"OTHER MISDEMEANOR OFFENSE","id":"a6qlzzm6cg9b","geo_precision":"range","address":"5000  13TH PLACE NE","state":"D.C."},"type":"Feature","geometry":{"type":"Point","coordinates":[-76.987611,38.950267]}},{"properties":{"city":"Washington","geo_score":0.714,"offensedescription":"OTHER MISDEMEANOR OFFENSE","id":"a6qlzzote6gz","geo_precision":"city","address":null,"state":"D.C."},"type":"Feature","geometry":{"type":"Point","coordinates":[-77.036366,38.895112]}},{"properties":{"city":"Washington","geo_score":0.714,"offensedescription":"OTHER MISDEMEANOR OFFENSE","id":"a6qlzzis4spe","geo_precision":"city","address":null,"state":"D.C."},"type":"Feature","geometry":{"type":"Point","coordinates":[-77.036366,38.895112]}},{"properties":{"city":"Washington","geo_score":0.902,"offensedescription":"OTHER MISDEMEANOR OFFENSE","id":"a6qlzzgrs7uy","geo_precision":"range","address":"4300  NANNIE HELEN BURROUGHS AVENUE NE","state":"D.C."},"type":"Feature","geometry":{"type":"Point","coordinates":[-76.940913,38.901248]}},{"properties":{"city":"Washington","geo_score":0.714,"offensedescription":"OTHER MISDEMEANOR OFFENSE","id":"a6qlzznhhw62","geo_precision":"city","address":null,"state":"D.C."},"type":"Feature","geometry":{"type":"Point","coordinates":[-77.036366,38.895112]}},{"properties":{"city":"Washington","geo_score":0.714,"offensedescription":"OTHER MISDEMEANOR OFFENSE","id":"a6qlzzojhln1","geo_precision":"city","address":null,"state":"D.C."},"type":"Feature","geometry":{"type":"Point","coordinates":[-77.036366,38.895112]}},{"properties":{"city":"Washington","geo_score":0.829,"offensedescription":"OTHER MISDEMEANOR OFFENSE","id":"a6qlzzn4qpv0","geo_precision":"range","address":"900  22ND STREET NE","state":"D.C."},"type":"Feature","geometry":{"type":"Point","coordinates":[-76.97189,38.903721]}},{"properties":{"city":"Washington","geo_score":0.75,"offensedescription":"OTHER MISDEMEANOR OFFENSE","id":"a6qlzzpflhjx","geo_precision":"street","address":"21ST STREET NE &amp; GALES STREET NE","state":"D.C."},"type":"Feature","geometry":{"type":"Point","coordinates":[-76.974982,38.894779]}},{"properties":{"city":"Washington","geo_score":0.902,"offensedescription":"OTHER MISDEMEANOR OFFENSE","id":"a6qlzze68ptr","geo_precision":"range","address":"1500  BENNING ROAD NE","state":"D.C."},"type":"Feature","geometry":{"type":"Point","coordinates":[-76.983442,38.900131]}},{"properties":{"city":"Washington","geo_score":0.714,"offensedescription":"OTHER MISDEMEANOR OFFENSE","id":"a6qlzzhs3974","geo_precision":"city","address":null,"state":"D.C."},"type":"Feature","geometry":{"type":"Point","coordinates":[-77.036366,38.895112]}},{"properties":{"city":"Washington","geo_score":0.714,"offensedescription":"OTHER MISDEMEANOR OFFENSE","id":"a6qlzzjrto0i","geo_precision":"city","address":null,"state":"D.C."},"type":"Feature","geometry":{"type":"Point","coordinates":[-77.036366,38.895112]}},{"properties":{"city":"Washington","geo_score":0.714,"offensedescription":"OTHER MISDEMEANOR OFFENSE","id":"a6qlzzlg8b9s","geo_precision":"city","address":null,"state":"D.C."},"type":"Feature","geometry":{"type":"Point","coordinates":[-77.036366,38.895112]}},{"properties":{"city":"Washington","geo_score":0.488,"offensedescription":"OTHER MISDEMEANOR OFFENSE","id":"a6qlzzf4er99","geo_precision":"city","address":"3100  SOUTH DAKOTA AVENUE NE","state":"D.C."},"type":"Feature","geometry":{"type":"Point","coordinates":[-77.036366,38.895112]}},{"properties":{"city":"Washington","geo_score":0.902,"offensedescription":"OTHER MISDEMEANOR OFFENSE","id":"a6qlzzklz1lc","geo_precision":"range","address":"1400  MONTELLO AVENUE NE","state":"D.C."},"type":"Feature","geometry":{"type":"Point","coordinates":[-76.988277,38.90547]}},{"properties":{"city":"Washington","geo_score":0.714,"offensedescription":"OTHER MISDEMEANOR OFFENSE","id":"a6qlzzmlxit0","geo_precision":"city","address":null,"state":"D.C."},"type":"Feature","geometry":{"type":"Point","coordinates":[-77.036366,38.895112]}},{"properties":{"city":"Washington","geo_score":0.902,"offensedescription":"OTHER MISDEMEANOR OFFENSE","id":"a6qlzzrs2r7i","geo_precision":"range","address":"4000  MINNESOTA AVENUE NE","state":"D.C."},"type":"Feature","geometry":{"type":"Point","coordinates":[-76.949159,38.895133]}},{"properties":{"city":"Washington","geo_score":0.902,"offensedescription":"OTHER MISDEMEANOR OFFENSE","id":"a6qlzzti9sni","geo_precision":"range","address":"100  FRANKLIN STREET NE","state":"D.C."},"type":"Feature","geometry":{"type":"Point","coordinates":[-77.00573,38.926303]}},{"properties":{"city":"Washington","geo_score":0.714,"offensedescription":"OTHER MISDEMEANOR OFFENSE","id":"a6qlzzqo3dgs","geo_precision":"city","address":null,"state":"D.C."},"type":"Feature","geometry":{"type":"Point","coordinates":[-77.036366,38.895112]}},{"properties":{"city":"Washington","geo_score":0.714,"offensedescription":"OTHER MISDEMEANOR OFFENSE","id":"a6qlzzhj1skk","geo_precision":"city","address":null,"state":"D.C."},"type":"Feature","geometry":{"type":"Point","coordinates":[-77.036366,38.895112]}},{"properties":{"city":"Washington","geo_score":0.714,"offensedescription":"OTHER MISDEMEANOR OFFENSE","id":"a6qlzzi0auav","geo_precision":"city","address":null,"state":"D.C."},"type":"Feature","geometry":{"type":"Point","coordinates":[-77.036366,38.895112]}},{"properties":{"city":"Washington","geo_score":0.902,"offensedescription":"OTHER MISDEMEANOR OFFENSE","id":"a6qlzzj9pcsv","geo_precision":"range","address":"4000  MINNESOTA AVENUE NE","state":"D.C."},"type":"Feature","geometry":{"type":"Point","coordinates":[-76.949159,38.895133]}},{"properties":{"city":"Washington","geo_score":0.714,"offensedescription":"OTHER MISDEMEANOR OFFENSE","id":"a6qlzzh2vx6z","geo_precision":"city","address":null,"state":"D.C."},"type":"Feature","geometry":{"type":"Point","coordinates":[-77.036366,38.895112]}},{"properties":{"city":"Washington","geo_score":0.829,"offensedescription":"OTHER MISDEMEANOR OFFENSE","id":"a6qlzztrsscz","geo_precision":"range","address":"100  47TH STREET NE","state":"D.C."},"type":"Feature","geometry":{"type":"Point","coordinates":[-76.934878,38.890285]}},{"properties":{"city":"Washington","geo_score":0.714,"offensedescription":"OTHER MISDEMEANOR OFFENSE","id":"a6qlzzs87dpm","geo_precision":"city","address":null,"state":"D.C."},"type":"Feature","geometry":{"type":"Point","coordinates":[-77.036366,38.895112]}},{"properties":{"city":"Washington","geo_score":0.714,"offensedescription":"OTHER MISDEMEANOR OFFENSE","id":"a6qlzzsfthgc","geo_precision":"city","address":null,"state":"D.C."},"type":"Feature","geometry":{"type":"Point","coordinates":[-77.036366,38.895112]}},{"properties":{"city":"Washington","geo_score":0.714,"offensedescription":"OTHER MISDEMEANOR OFFENSE","id":"a6qlzztt0he4","geo_precision":"city","address":null,"state":"D.C."},"type":"Feature","geometry":{"type":"Point","coordinates":[-77.036366,38.895112]}},{"properties":{"city":"Washington","geo_score":0.714,"offensedescription":"OTHER MISDEMEANOR OFFENSE","id":"a6qlzzpjllw6","geo_precision":"city","address":null,"state":"D.C."},"type":"Feature","geometry":{"type":"Point","coordinates":[-77.036366,38.895112]}},{"properties":{"city":"Washington","geo_score":0.829,"offensedescription":"OTHER MISDEMEANOR OFFENSE","id":"a6qlzzk0bf4c","geo_precision":"range","address":"100  42ND STREET NE","state":"D.C."},"type":"Feature","geometry":{"type":"Point","coordinates":[-76.942611,38.892245]}},{"properties":{"city":"Washington","geo_score":0.902,"offensedescription":"OTHER MISDEMEANOR OFFENSE","id":"a6qlzzsfyh1o","geo_precision":"range","address":"2500  BENNING ROAD NE","state":"D.C."},"type":"Feature","geometry":{"type":"Point","coordinates":[-76.965809,38.897408]}},{"properties":{"city":"Washington","geo_score":0.714,"offensedescription":"OTHER MISDEMEANOR OFFENSE","id":"a6qlzzu3oq40","geo_precision":"city","address":null,"state":"D.C."},"type":"Feature","geometry":{"type":"Point","coordinates":[-77.036366,38.895112]}},{"properties":{"city":"Washington","geo_score":0.714,"offensedescription":"OTHER MISDEMEANOR OFFENSE","id":"a6qlzzr4e43z","geo_precision":"city","address":null,"state":"D.C."},"type":"Feature","geometry":{"type":"Point","coordinates":[-77.036366,38.895112]}},{"properties":{"city":"Washington","geo_score":0.714,"offensedescription":"OTHER MISDEMEANOR OFFENSE","id":"a6qlzzq0uajs","geo_precision":"city","address":null,"state":"D.C."},"type":"Feature","geometry":{"type":"Point","coordinates":[-77.036366,38.895112]}},{"properties":{"city":"Washington","geo_score":0.714,"offensedescription":"OTHER MISDEMEANOR OFFENSE","id":"a6qlzznj005y","geo_precision":"city","address":null,"state":"D.C."},"type":"Feature","geometry":{"type":"Point","coordinates":[-77.036366,38.895112]}},{"properties":{"city":"Washington","geo_score":0.902,"offensedescription":"OTHER MISDEMEANOR OFFENSE","id":"a6qlzzru36pq","geo_precision":"range","address":"1600  MARYLAND AVENUE NE","state":"D.C."},"type":"Feature","geometry":{"type":"Point","coordinates":[-76.980879,38.901164]}},{"properties":{"city":"Washington","geo_score":0.902,"offensedescription":"OTHER MISDEMEANOR OFFENSE","id":"a6qlzzt3g84m","geo_precision":"range","address":"600  H STREET NE","state":"D.C."},"type":"Feature","geometry":{"type":"Point","coordinates":[-76.998442,38.900203]}},{"properties":{"city":"Washington","geo_score":0.714,"offensedescription":"OTHER MISDEMEANOR OFFENSE","id":"a6qlzzn2hjts","geo_precision":"city","address":null,"state":"D.C."},"type":"Feature","geometry":{"type":"Point","coordinates":[-77.036366,38.895112]}},{"properties":{"city":"Washington","geo_score":0.902,"offensedescription":"OTHER MISDEMEANOR OFFENSE","id":"a6qlzzjdibvl","geo_precision":"range","address":"4800  SARGENT ROAD NE","state":"D.C."},"type":"Feature","geometry":{"type":"Point","coordinates":[-76.989168,38.947303]}},{"properties":{"city":"Washington","geo_score":0.714,"offensedescription":"OTHER MISDEMEANOR OFFENSE","id":"a6qlzzq7e6oe","geo_precision":"city","address":null,"state":"D.C."},"type":"Feature","geometry":{"type":"Point","coordinates":[-77.036366,38.895112]}},{"properties":{"city":"Washington","geo_score":0.714,"offensedescription":"OTHER MISDEMEANOR OFFENSE","id":"a6qlzzq3eku1","geo_precision":"city","address":null,"state":"D.C."},"type":"Feature","geometry":{"type":"Point","coordinates":[-77.036366,38.895112]}},{"properties":{"city":"Washington","geo_score":0.714,"offensedescription":"OTHER MISDEMEANOR OFFENSE","id":"a6qlzzdxfy30","geo_precision":"city","address":null,"state":"D.C."},"type":"Feature","geometry":{"type":"Point","coordinates":[-77.036366,38.895112]}},{"properties":{"city":"Washington","geo_score":0.902,"offensedescription":"OTHER MISDEMEANOR OFFENSE","id":"a6qlzzh9bw3n","geo_precision":"range","address":"4100  AMES STREET NE","state":"D.C."},"type":"Feature","geometry":{"type":"Point","coordinates":[-76.944559,38.890882]}},{"properties":{"city":"Washington","geo_score":0.902,"offensedescription":"OTHER MISDEMEANOR OFFENSE","id":"a6qlzzq06vjm","geo_precision":"range","address":"1500  BENNING ROAD NE","state":"D.C."},"type":"Feature","geometry":{"type":"Point","coordinates":[-76.983442,38.900131]}},{"properties":{"city":"Washington","geo_score":0.902,"offensedescription":"OTHER MISDEMEANOR OFFENSE","id":"a6qlzzreez8a","geo_precision":"range","address":"1600  BENNING ROAD NE","state":"D.C."},"type":"Feature","geometry":{"type":"Point","coordinates":[-76.981481,38.899808]}},{"properties":{"city":"Washington","geo_score":0.902,"offensedescription":"OTHER MISDEMEANOR OFFENSE","id":"a6qlzzl0on0k","geo_precision":"range","address":"1600  BENNING ROAD NE","state":"D.C."},"type":"Feature","geometry":{"type":"Point","coordinates":[-76.981481,38.899808]}},{"properties":{"city":"Washington","geo_score":0.714,"offensedescription":"OTHER MISDEMEANOR OFFENSE","id":"a6qlzzmxdlst","geo_precision":"city","address":null,"state":"D.C."},"type":"Feature","geometry":{"type":"Point","coordinates":[-77.036366,38.895112]}},{"properties":{"city":"Washington","geo_score":0.714,"offensedescription":"OTHER MISDEMEANOR OFFENSE","id":"a6qlzzm9wwzm","geo_precision":"city","address":null,"state":"D.C."},"type":"Feature","geometry":{"type":"Point","coordinates":[-77.036366,38.895112]}},{"properties":{"city":"Washington","geo_score":0.902,"offensedescription":"OTHER MISDEMEANOR OFFENSE","id":"a6qlzzkf792u","geo_precision":"range","address":"300  BRYANT STREET NE","state":"D.C."},"type":"Feature","geometry":{"type":"Point","coordinates":[-77.002029,38.921298]}},{"properties":{"city":"Washington","geo_score":0.714,"offensedescription":"OTHER MISDEMEANOR OFFENSE","id":"a6qlzzknktwz","geo_precision":"city","address":null,"state":"D.C."},"type":"Feature","geometry":{"type":"Point","coordinates":[-77.036366,38.895112]}},{"properties":{"city":"Washington","geo_score":0.714,"offensedescription":"OTHER MISDEMEANOR OFFENSE","id":"a6qlzzrzna0e","geo_precision":"city","address":null,"state":"D.C."},"type":"Feature","geometry":{"type":"Point","coordinates":[-77.036366,38.895112]}},{"properties":{"city":"Washington","geo_score":0.714,"offensedescription":"OTHER MISDEMEANOR OFFENSE","id":"a6qlzzse3v1b","geo_precision":"city","address":null,"state":"D.C."},"type":"Feature","geometry":{"type":"Point","coordinates":[-77.036366,38.895112]}},{"properties":{"city":"Washington","geo_score":0.902,"offensedescription":"OTHER MISDEMEANOR OFFENSE","id":"a6qlzznppsjo","geo_precision":"range","address":"1700  I STREET NE","state":"D.C."},"type":"Feature","geometry":{"type":"Point","coordinates":[-76.978994,38.900829]}},{"properties":{"city":"Washington","geo_score":0.902,"offensedescription":"OTHER MISDEMEANOR OFFENSE","id":"a6qlzzkokn0o","geo_precision":"range","address":"4100  MINNESOTA AVENUE NE","state":"D.C."},"type":"Feature","geometry":{"type":"Point","coordinates":[-76.946582,38.898381]}},{"properties":{"city":"Washington","geo_score":0.714,"offensedescription":"OTHER MISDEMEANOR OFFENSE","id":"a6qlzzjbvnk3","geo_precision":"city","address":null,"state":"D.C."},"type":"Feature","geometry":{"type":"Point","coordinates":[-77.036366,38.895112]}},{"properties":{"city":"Washington","geo_score":0.714,"offensedescription":"OTHER MISDEMEANOR OFFENSE","id":"a6qlzzssakxx","geo_precision":"city","address":null,"state":"D.C."},"type":"Feature","geometry":{"type":"Point","coordinates":[-77.036366,38.895112]}},{"properties":{"city":"Washington","geo_score":0.829,"offensedescription":"OTHER MISDEMEANOR OFFENSE","id":"a6qlzzstq6xk","geo_precision":"range","address":"100  53RD STREET NE","state":"D.C."},"type":"Feature","geometry":{"type":"Point","coordinates":[-76.926054,38.890775]}},{"properties":{"city":"Washington","geo_score":0.902,"offensedescription":"OTHER MISDEMEANOR OFFENSE","id":"a6qlzzt6njoz","geo_precision":"range","address":"4600  POLK STREET NE","state":"D.C."},"type":"Feature","geometry":{"type":"Point","coordinates":[-76.936168,38.909585]}},{"properties":{"city":"Washington","geo_score":0.902,"offensedescription":"OTHER MISDEMEANOR OFFENSE","id":"a6qlzzgsva9s","geo_precision":"range","address":"100  T STREET NE","state":"D.C."},"type":"Feature","geometry":{"type":"Point","coordinates":[-77.00509,38.915563]}},{"properties":{"city":"Washington","geo_score":0.714,"offensedescription":"OTHER MISDEMEANOR OFFENSE","id":"a6qlzzdonfpt","geo_precision":"city","address":null,"state":"D.C."},"type":"Feature","geometry":{"type":"Point","coordinates":[-77.036366,38.895112]}},{"properties":{"city":"Washington","geo_score":0.714,"offensedescription":"OTHER MISDEMEANOR OFFENSE","id":"a6qlzzk8indn","geo_precision":"city","address":null,"state":"D.C."},"type":"Feature","geometry":{"type":"Point","coordinates":[-77.036366,38.895112]}},{"properties":{"city":"Washington","geo_score":0.714,"offensedescription":"OTHER MISDEMEANOR OFFENSE","id":"a6qlzzmzqpdb","geo_precision":"city","address":null,"state":"D.C."},"type":"Feature","geometry":{"type":"Point","coordinates":[-77.036366,38.895112]}},{"properties":{"city":"Washington","geo_score":0.714,"offensedescription":"OTHER MISDEMEANOR OFFENSE","id":"a6qlzzg0ys7n","geo_precision":"city","address":null,"state":"D.C."},"type":"Feature","geometry":{"type":"Point","coordinates":[-77.036366,38.895112]}},{"properties":{"city":"Washington","geo_score":0.902,"offensedescription":"OTHER MISDEMEANOR OFFENSE","id":"a6qlzzp5bavk","geo_precision":"range","address":"4000  MINNESOTA AVENUE NE","state":"D.C."},"type":"Feature","geometry":{"type":"Point","coordinates":[-76.949159,38.895133]}},{"properties":{"city":"Washington","geo_score":0.714,"offensedescription":"OTHER MISDEMEANOR OFFENSE","id":"a6qlzzf5cfzy","geo_precision":"city","address":null,"state":"D.C."},"type":"Feature","geometry":{"type":"Point","coordinates":[-77.036366,38.895112]}},{"properties":{"city":"Washington","geo_score":0.714,"offensedescription":"OTHER MISDEMEANOR OFFENSE","id":"a6qlzzqjlmjt","geo_precision":"city","address":null,"state":"D.C."},"type":"Feature","geometry":{"type":"Point","coordinates":[-77.036366,38.895112]}},{"properties":{"city":"Washington","geo_score":0.829,"offensedescription":"OTHER MISDEMEANOR OFFENSE","id":"a6qlzzm5j4q1","geo_precision":"range","address":"800  49TH STREET NE","state":"D.C."},"type":"Feature","geometry":{"type":"Point","coordinates":[-76.931666,38.899755]}},{"properties":{"city":"Washington","geo_score":0.902,"offensedescription":"OTHER MISDEMEANOR OFFENSE","id":"a6qlzzk2onir","geo_precision":"range","address":"1000  MOUNT OLIVET ROAD NE","state":"D.C."},"type":"Feature","geometry":{"type":"Point","coordinates":[-76.991372,38.91227]}},{"properties":{"city":"Washington","geo_score":0.902,"offensedescription":"OTHER MISDEMEANOR OFFENSE","id":"a6qlzzq3vxl0","geo_precision":"range","address":"1200  WYLIE STREET NE","state":"D.C."},"type":"Feature","geometry":{"type":"Point","coordinates":[-76.990242,38.900763]}},{"properties":{"city":"Washington","geo_score":0.714,"offensedescription":"OTHER MISDEMEANOR OFFENSE","id":"a6qlzzfz0rew","geo_precision":"city","address":null,"state":"D.C."},"type":"Feature","geometry":{"type":"Point","coordinates":[-77.036366,38.895112]}},{"properties":{"city":"Washington","geo_score":0.714,"offensedescription":"OTHER MISDEMEANOR OFFENSE","id":"a6qlzzqhnffu","geo_precision":"city","address":null,"state":"D.C."},"type":"Feature","geometry":{"type":"Point","coordinates":[-77.036366,38.895112]}},{"properties":{"city":"Washington","geo_score":0.902,"offensedescription":"OTHER MISDEMEANOR OFFENSE","id":"a6qlzze9uiu1","geo_precision":"range","address":"5300  CLAY TERRACE NE","state":"D.C."},"type":"Feature","geometry":{"type":"Point","coordinates":[-76.925249,38.893522]}},{"properties":{"city":"Washington","geo_score":0.714,"offensedescription":"OTHER MISDEMEANOR OFFENSE","id":"a6qlzzoezjzd","geo_precision":"city","address":null,"state":"D.C."},"type":"Feature","geometry":{"type":"Point","coordinates":[-77.036366,38.895112]}},{"properties":{"city":"Washington","geo_score":0.714,"offensedescription":"OTHER MISDEMEANOR OFFENSE","id":"a6qlzzk1gdo6","geo_precision":"city","address":null,"state":"D.C."},"type":"Feature","geometry":{"type":"Point","coordinates":[-77.036366,38.895112]}},{"properties":{"city":"Washington","geo_score":0.714,"offensedescription":"OTHER MISDEMEANOR OFFENSE","id":"a6qlzzkf5ke5","geo_precision":"city","address":null,"state":"D.C."},"type":"Feature","geometry":{"type":"Point","coordinates":[-77.036366,38.895112]}},{"properties":{"city":"Washington","geo_score":0.902,"offensedescription":"OTHER MISDEMEANOR OFFENSE","id":"a6qlzzozvfls","geo_precision":"range","address":"100  L STREET NE","state":"D.C."},"type":"Feature","geometry":{"type":"Point","coordinates":[-77.005884,38.903732]}},{"properties":{"city":"Washington","geo_score":0.714,"offensedescription":"OTHER MISDEMEANOR OFFENSE","id":"a6qlzzp46lht","geo_precision":"city","address":null,"state":"D.C."},"type":"Feature","geometry":{"type":"Point","coordinates":[-77.036366,38.895112]}},{"properties":{"city":"Washington","geo_score":0.714,"offensedescription":"OTHER MISDEMEANOR OFFENSE","id":"a6qlzzqmzo69","geo_precision":"city","address":null,"state":"D.C."},"type":"Feature","geometry":{"type":"Point","coordinates":[-77.036366,38.895112]}},{"properties":{"city":"Washington","geo_score":0.902,"offensedescription":"OTHER MISDEMEANOR OFFENSE","id":"a6qlzzjp111s","geo_precision":"range","address":"5300  CLAY TERRACE NE","state":"D.C."},"type":"Feature","geometry":{"type":"Point","coordinates":[-76.925249,38.893522]}},{"properties":{"city":"Washington","geo_score":0.714,"offensedescription":"OTHER MISDEMEANOR OFFENSE","id":"a6qlzzm1xewb","geo_precision":"city","address":null,"state":"D.C."},"type":"Feature","geometry":{"type":"Point","coordinates":[-77.036366,38.895112]}},{"properties":{"city":"Washington","geo_score":0.829,"offensedescription":"OTHER MISDEMEANOR OFFENSE","id":"a6qlzzrhm6up","geo_precision":"range","address":"300  53RD STREET NE","state":"D.C."},"type":"Feature","geometry":{"type":"Point","coordinates":[-76.925089,38.894005]}},{"properties":{"city":"Washington","geo_score":0.902,"offensedescription":"OTHER MISDEMEANOR OFFENSE","id":"a6qlzzn6j3i9","geo_precision":"range","address":"4400  QUARLES STREET NE","state":"D.C."},"type":"Feature","geometry":{"type":"Point","coordinates":[-76.9367,38.911972]}},{"properties":{"city":"Washington","geo_score":0.902,"offensedescription":"OTHER MISDEMEANOR OFFENSE","id":"a6qlzzn80oha","geo_precision":"range","address":"1200  NEAL STREET NE","state":"D.C."},"type":"Feature","geometry":{"type":"Point","coordinates":[-76.98892,38.904559]}},{"properties":{"city":"Washington","geo_score":0.902,"offensedescription":"OTHER MISDEMEANOR OFFENSE","id":"a6qlzzj6gxnz","geo_precision":"range","address":"4100  LEE STREET NE","state":"D.C."},"type":"Feature","geometry":{"type":"Point","coordinates":[-76.945915,38.904595]}},{"properties":{"city":"Washington","geo_score":0.714,"offensedescription":"OTHER MISDEMEANOR OFFENSE","id":"a6qlzzqrahex","geo_precision":"city","address":null,"state":"D.C."},"type":"Feature","geometry":{"type":"Point","coordinates":[-77.036366,38.895112]}},{"properties":{"city":"Washington","geo_score":0.829,"offensedescription":"OTHER MISDEMEANOR OFFENSE","id":"a6qlzzizl2z0","geo_precision":"range","address":"500  14TH STREET NE","state":"D.C."},"type":"Feature","geometry":{"type":"Point","coordinates":[-76.985508,38.896115]}},{"properties":{"city":"Washington","geo_score":0.714,"offensedescription":"OTHER MISDEMEANOR OFFENSE","id":"a6qlzzft3xwa","geo_precision":"city","address":null,"state":"D.C."},"type":"Feature","geometry":{"type":"Point","coordinates":[-77.036366,38.895112]}},{"properties":{"city":"Washington","geo_score":0.714,"offensedescription":"OTHER MISDEMEANOR OFFENSE","id":"a6qlzzhsvldb","geo_precision":"city","address":null,"state":"D.C."},"type":"Feature","geometry":{"type":"Point","coordinates":[-77.036366,38.895112]}},{"properties":{"city":"Washington","geo_score":0.78,"offensedescription":"OTHER MISDEMEANOR OFFENSE","id":"a6qlzzf5pjdv","geo_precision":"street","address":"700  KENILWORTH AVENUE NE","state":"D.C."},"type":"Feature","geometry":{"type":"Point","coordinates":[-76.946553,38.899989]}},{"properties":{"city":"Washington","geo_score":0.714,"offensedescription":"OTHER MISDEMEANOR OFFENSE","id":"a6qlzzezh1bg","geo_precision":"city","address":null,"state":"D.C."},"type":"Feature","geometry":{"type":"Point","coordinates":[-77.036366,38.895112]}},{"properties":{"city":"Washington","geo_score":0.714,"offensedescription":"OTHER MISDEMEANOR OFFENSE","id":"a6qlzzpnjtkg","geo_precision":"city","address":null,"state":"D.C."},"type":"Feature","geometry":{"type":"Point","coordinates":[-77.036366,38.895112]}},{"properties":{"city":"Washington","geo_score":0.714,"offensedescription":"OTHER MISDEMEANOR OFFENSE","id":"a6qlzzoz1prs","geo_precision":"city","address":null,"state":"D.C."},"type":"Feature","geometry":{"type":"Point","coordinates":[-77.036366,38.895112]}},{"properties":{"city":"Washington","geo_score":0.714,"offensedescription":"OTHER MISDEMEANOR OFFENSE","id":"a6qlzzspu95s","geo_precision":"city","address":null,"state":"D.C."},"type":"Feature","geometry":{"type":"Point","coordinates":[-77.036366,38.895112]}},{"properties":{"city":"Washington","geo_score":0.714,"offensedescription":"OTHER MISDEMEANOR OFFENSE","id":"a6qlzznht6ic","geo_precision":"city","address":null,"state":"D.C."},"type":"Feature","geometry":{"type":"Point","coordinates":[-77.036366,38.895112]}},{"properties":{"city":"Washington","geo_score":0.902,"offensedescription":"OTHER MISDEMEANOR OFFENSE","id":"a6qlzze1gqep","geo_precision":"range","address":"4100  MINNESOTA AVENUE NE","state":"D.C."},"type":"Feature","geometry":{"type":"Point","coordinates":[-76.946582,38.898381]}},{"properties":{"city":"Washington","geo_score":0.714,"offensedescription":"OTHER MISDEMEANOR OFFENSE","id":"a6qlzzern8rg","geo_precision":"city","address":null,"state":"D.C."},"type":"Feature","geometry":{"type":"Point","coordinates":[-77.036366,38.895112]}},{"properties":{"city":"Washington","geo_score":0.708,"offensedescription":"OTHER MISDEMEANOR OFFENSE","id":"a6qlzzneybsh","geo_precision":"street","address":"800  KENILWORTH AVENUE NE","state":"D.C."},"type":"Feature","geometry":{"type":"Point","coordinates":[-76.94384,38.902438]}},{"properties":{"city":"Washington","geo_score":0.714,"offensedescription":"OTHER MISDEMEANOR OFFENSE","id":"a6qlzzprc97b","geo_precision":"city","address":null,"state":"D.C."},"type":"Feature","geometry":{"type":"Point","coordinates":[-77.036366,38.895112]}},{"properties":{"city":"Washington","geo_score":0.714,"offensedescription":"OTHER MISDEMEANOR OFFENSE","id":"a6qlzztsls8t","geo_precision":"city","address":null,"state":"D.C."},"type":"Feature","geometry":{"type":"Point","coordinates":[-77.036366,38.895112]}},{"properties":{"city":"Washington","geo_score":0.902,"offensedescription":"OTHER MISDEMEANOR OFFENSE","id":"a6qlzzkdcws5","geo_precision":"range","address":"1600  MARYLAND AVENUE NE","state":"D.C."},"type":"Feature","geometry":{"type":"Point","coordinates":[-76.980879,38.901164]}},{"properties":{"city":"Washington","geo_score":0.714,"offensedescription":"OTHER MISDEMEANOR OFFENSE","id":"a6qlzzdo6mmm","geo_precision":"city","address":null,"state":"D.C."},"type":"Feature","geometry":{"type":"Point","coordinates":[-77.036366,38.895112]}},{"properties":{"city":"Washington","geo_score":0.714,"offensedescription":"OTHER MISDEMEANOR OFFENSE","id":"a6qlzzhyv8v9","geo_precision":"city","address":null,"state":"D.C."},"type":"Feature","geometry":{"type":"Point","coordinates":[-77.036366,38.895112]}},{"properties":{"city":"Washington","geo_score":0.714,"offensedescription":"OTHER MISDEMEANOR OFFENSE","id":"a6qlzzn7cmgh","geo_precision":"city","address":null,"state":"D.C."},"type":"Feature","geometry":{"type":"Point","coordinates":[-77.036366,38.895112]}},{"properties":{"city":"Washington","geo_score":0.902,"offensedescription":"OTHER MISDEMEANOR OFFENSE","id":"a6qlzzl4zbms","geo_precision":"range","address":"1700  I STREET NE","state":"D.C."},"type":"Feature","geometry":{"type":"Point","coordinates":[-76.978994,38.900829]}},{"properties":{"city":"Washington","geo_score":0.902,"offensedescription":"OTHER MISDEMEANOR OFFENSE","id":"a6qlzzo51vj2","geo_precision":"range","address":"600  EDGEWOOD STREET NE","state":"D.C."},"type":"Feature","geometry":{"type":"Point","coordinates":[-76.998431,38.923987]}},{"properties":{"city":"Washington","geo_score":0.714,"offensedescription":"OTHER MISDEMEANOR OFFENSE","id":"a6qlzzth4alz","geo_precision":"city","address":null,"state":"D.C."},"type":"Feature","geometry":{"type":"Point","coordinates":[-77.036366,38.895112]}},{"properties":{"city":"Washington","geo_score":0.714,"offensedescription":"OTHER MISDEMEANOR OFFENSE","id":"a6qlzztc6ej1","geo_precision":"city","address":null,"state":"D.C."},"type":"Feature","geometry":{"type":"Point","coordinates":[-77.036366,38.895112]}},{"properties":{"city":"Washington","geo_score":0.902,"offensedescription":"OTHER MISDEMEANOR OFFENSE","id":"a6qlzzp1sgm3","geo_precision":"range","address":"1100  QUEEN STREET NE","state":"D.C."},"type":"Feature","geometry":{"type":"Point","coordinates":[-76.98883,38.907776]}},{"properties":{"city":"Washington","geo_score":0.714,"offensedescription":"OTHER MISDEMEANOR OFFENSE","id":"a6qlzzgo16rr","geo_precision":"city","address":null,"state":"D.C."},"type":"Feature","geometry":{"type":"Point","coordinates":[-77.036366,38.895112]}},{"properties":{"city":"Washington","geo_score":0.714,"offensedescription":"OTHER MISDEMEANOR OFFENSE","id":"a6qlzzruall7","geo_precision":"city","address":null,"state":"D.C."},"type":"Feature","geometry":{"type":"Point","coordinates":[-77.036366,38.895112]}},{"properties":{"city":"Washington","geo_score":0.714,"offensedescription":"OTHER TRAFFIC CHARGE","id":"a6qlzzfbl20y","geo_precision":"city","address":null,"state":"D.C."},"type":"Feature","geometry":{"type":"Point","coordinates":[-77.036366,38.895112]}},{"properties":{"city":"Washington","geo_score":0.902,"offensedescription":"OTHER TRAFFIC CHARGE","id":"a6qlzzefq0kr","geo_precision":"range","address":"700  K STREET NE","state":"D.C."},"type":"Feature","geometry":{"type":"Point","coordinates":[-76.996164,38.902512]}},{"properties":{"city":"Washington","geo_score":0.714,"offensedescription":"OTHER TRAFFIC CHARGE","id":"a6qlzzmf2gd6","geo_precision":"city","address":null,"state":"D.C."},"type":"Feature","geometry":{"type":"Point","coordinates":[-77.036366,38.895112]}},{"properties":{"city":"Washington","geo_score":0.714,"offensedescription":"OTHER TRAFFIC CHARGE","id":"a6qlzztbtfjn","geo_precision":"city","address":null,"state":"D.C."},"type":"Feature","geometry":{"type":"Point","coordinates":[-77.036366,38.895112]}},{"properties":{"city":"Washington","geo_score":0.902,"offensedescription":"OTHER TRAFFIC CHARGE","id":"a6qlzztgvzey","geo_precision":"range","address":"800  H STREET NE","state":"D.C."},"type":"Feature","geometry":{"type":"Point","coordinates":[-76.994961,38.900203]}},{"properties":{"city":"Washington","geo_score":0.714,"offensedescription":"OTHER TRAFFIC CHARGE","id":"a6qlzznfpstz","geo_precision":"city","address":null,"state":"D.C."},"type":"Feature","geometry":{"type":"Point","coordinates":[-77.036366,38.895112]}},{"properties":{"city":"Washington","geo_score":0.819,"offensedescription":"OTHER TRAFFIC CHARGE","id":"a6qlzzewjf05","geo_precision":"range","address":"2000  4TH STREET NE","state":"D.C."},"type":"Feature","geometry":{"type":"Point","coordinates":[-77.000569,38.916993]}},{"properties":{"city":"Washington","geo_score":0.714,"offensedescription":"OTHER TRAFFIC CHARGE","id":"a6qlzzgnjrei","geo_precision":"city","address":null,"state":"D.C."},"type":"Feature","geometry":{"type":"Point","coordinates":[-77.036366,38.895112]}},{"properties":{"city":"Washington","geo_score":0.714,"offensedescription":"OTHER TRAFFIC CHARGE","id":"a6qlzzov1ff0","geo_precision":"city","address":null,"state":"D.C."},"type":"Feature","geometry":{"type":"Point","coordinates":[-77.036366,38.895112]}},{"properties":{"city":"Washington","geo_score":0.714,"offensedescription":"OTHER TRAFFIC CHARGE","id":"a6qlzzm6tvtb","geo_precision":"city","address":null,"state":"D.C."},"type":"Feature","geometry":{"type":"Point","coordinates":[-77.036366,38.895112]}},{"properties":{"city":"Washington","geo_score":0.714,"offensedescription":"OTHER TRAFFIC CHARGE","id":"a6qlzzee4u6e","geo_precision":"city","address":null,"state":"D.C."},"type":"Feature","geometry":{"type":"Point","coordinates":[-77.036366,38.895112]}},{"properties":{"city":"Washington","geo_score":0.714,"offensedescription":"OTHER TRAFFIC CHARGE","id":"a6qlzzok7r9u","geo_precision":"city","address":null,"state":"D.C."},"type":"Feature","geometry":{"type":"Point","coordinates":[-77.036366,38.895112]}},{"properties":{"city":"Washington","geo_score":0.714,"offensedescription":"OTHER WEAPONS OFFENSE","id":"a6qlzzr3xyca","geo_precision":"city","address":null,"state":"D.C."},"type":"Feature","geometry":{"type":"Point","coordinates":[-77.036366,38.895112]}},{"properties":{"city":"Washington","geo_score":0.885,"offensedescription":"OTHER WEAPONS OFFENSE","id":"a6qlzzt5q9nh","geo_precision":"range","address":"1200  PENNSYLVANIA AVENUE NE","state":"D.C."},"type":"Feature","geometry":{"type":"Point","coordinates":[-76.990242,38.88225]}},{"properties":{"city":"Washington","geo_score":0.714,"offensedescription":"OTHER WEAPONS OFFENSE","id":"a6qlzzsszro0","geo_precision":"city","address":null,"state":"D.C."},"type":"Feature","geometry":{"type":"Point","coordinates":[-77.036366,38.895112]}},{"properties":{"city":"Washington","geo_score":0.902,"offensedescription":"POSSESSION OF IMPLEMENTS OF CRIME","id":"a6qlzzsxcczs","geo_precision":"range","address":"900  RHODE ISLAND AVENUE NE","state":"D.C."},"type":"Feature","geometry":{"type":"Point","coordinates":[-76.993862,38.92199]}},{"properties":{"city":"Washington","geo_score":0.714,"offensedescription":"POSSESSION OF PROHIBITED WEAPONS (B)","id":"a6qlzzivtj87","geo_precision":"city","address":null,"state":"D.C."},"type":"Feature","geometry":{"type":"Point","coordinates":[-77.036366,38.895112]}},{"properties":{"city":"Washington","geo_score":0.725,"offensedescription":"POSSESSION OF PROHIBITED WEAPONS (B)","id":"a6qlzzthvdup","geo_precision":"street","address":"UNIT  RIGGS ROAD NE","state":"D.C."},"type":"Feature","geometry":{"type":"Point","coordinates":[-77.004686,38.95576]}},{"properties":{"city":"Washington","geo_score":0.714,"offensedescription":"POSSESSION OF PROHIBITED WEAPONS (B)","id":"a6qlzzeu8w5w","geo_precision":"city","address":null,"state":"D.C."},"type":"Feature","geometry":{"type":"Point","coordinates":[-77.036366,38.895112]}},{"properties":{"city":"Washington","geo_score":0.885,"offensedescription":"POSSESSION OF PROHIBITED WEAPONS (B)","id":"a6qlzzresp7y","geo_precision":"range","address":"1200  PENNSYLVANIA AVENUE NE","state":"D.C."},"type":"Feature","geometry":{"type":"Point","coordinates":[-76.990242,38.88225]}},{"properties":{"city":"Washington","geo_score":0.714,"offensedescription":"POSSESSION OF PROHIBITED WEAPONS (B)","id":"a6qlzzo6xdfi","geo_precision":"city","address":null,"state":"D.C."},"type":"Feature","geometry":{"type":"Point","coordinates":[-77.036366,38.895112]}},{"properties":{"city":"Washington","geo_score":0.714,"offensedescription":"POSSESSION OF PROHIBITED WEAPONS (B)","id":"a6qlzzeraxwe","geo_precision":"city","address":null,"state":"D.C."},"type":"Feature","geometry":{"type":"Point","coordinates":[-77.036366,38.895112]}},{"properties":{"city":"Washington","geo_score":0.902,"offensedescription":"POSSESSION OF PROHIBITED WEAPONS (B)","id":"a6qlzzs1ml2e","geo_precision":"range","address":"1900  BENNETT PLACE NE","state":"D.C."},"type":"Feature","geometry":{"type":"Point","coordinates":[-76.976216,38.899488]}},{"properties":{"city":"Washington","geo_score":0.732,"offensedescription":"POSSESSION OF PROHIBITED WEAPONS (B)","id":"a6qlzzmhu6ms","geo_precision":"street","address":"500  51ST STREET NE","state":"D.C."},"type":"Feature","geometry":{"type":"Point","coordinates":[-76.927405,38.896422]}},{"properties":{"city":"Washington","geo_score":0.714,"offensedescription":"POSSESSION OPEN CONTAINER OF ALCOHOL (POCA)","id":"a6qlzzl5w7ml","geo_precision":"city","address":null,"state":"D.C."},"type":"Feature","geometry":{"type":"Point","coordinates":[-77.036366,38.895112]}},{"properties":{"city":"Washington","geo_score":0.902,"offensedescription":"POSSESSION OPEN CONTAINER OF ALCOHOL (POCA)","id":"a6qlzzj9gkjn","geo_precision":"range","address":"1100  RAUM STREET NE","state":"D.C."},"type":"Feature","geometry":{"type":"Point","coordinates":[-76.98695,38.909445]}},{"properties":{"city":"Washington","geo_score":0.714,"offensedescription":"RECEIVING STOLEN GOODS -- $100 &amp; OVER","id":"a6qlzzesqx6o","geo_precision":"city","address":null,"state":"D.C."},"type":"Feature","geometry":{"type":"Point","coordinates":[-77.036366,38.895112]}},{"properties":{"city":"Washington","geo_score":0.829,"offensedescription":"RECEIVING STOLEN GOODS -- $100 &amp; OVER","id":"a6qlzzo4uhqo","geo_precision":"range","address":"5000  13TH PLACE NE","state":"D.C."},"type":"Feature","geometry":{"type":"Point","coordinates":[-76.987611,38.950267]}},{"properties":{"city":"Washington","geo_score":0.714,"offensedescription":"RECEIVING STOLEN GOODS -- $100 &amp; OVER","id":"a6qlzzl8mc83","geo_precision":"city","address":null,"state":"D.C."},"type":"Feature","geometry":{"type":"Point","coordinates":[-77.036366,38.895112]}},{"properties":{"city":"Washington","geo_score":0.708,"offensedescription":"RECEIVING STOLEN GOODS -- $100 &amp; OVER","id":"a6qlzzi99pcb","geo_precision":"street","address":"800  KENILWORTH AVENUE NE","state":"D.C."},"type":"Feature","geometry":{"type":"Point","coordinates":[-76.94384,38.902438]}},{"properties":{"city":"Washington","geo_score":0.714,"offensedescription":"RECEIVING STOLEN GOODS -- $100 &amp; OVER","id":"a6qlzzmem0vc","geo_precision":"city","address":null,"state":"D.C."},"type":"Feature","geometry":{"type":"Point","coordinates":[-77.036366,38.895112]}},{"properties":{"city":"Washington","geo_score":0.902,"offensedescription":"RECEIVING STOLEN GOODS -- $100 &amp; OVER","id":"a6qlzzg0f86m","geo_precision":"range","address":"3300  BAKER STREET NE","state":"D.C."},"type":"Feature","geometry":{"type":"Point","coordinates":[-76.959784,38.892801]}},{"properties":{"city":"Washington","geo_score":0.902,"offensedescription":"RECEIVING STOLEN GOODS -- $100 &amp; OVER","id":"a6qlzzldpjp3","geo_precision":"range","address":"3300  BAKER STREET NE","state":"D.C."},"type":"Feature","geometry":{"type":"Point","coordinates":[-76.959784,38.892801]}},{"properties":{"city":"Washington","geo_score":0.902,"offensedescription":"RECEIVING STOLEN GOODS -- $100 &amp; OVER","id":"a6qlzzgoy8hz","geo_precision":"range","address":"3300  BAKER STREET NE","state":"D.C."},"type":"Feature","geometry":{"type":"Point","coordinates":[-76.959784,38.892801]}},{"properties":{"city":"Washington","geo_score":0.902,"offensedescription":"RECEIVING STOLEN GOODS -- $100 &amp; OVER","id":"a6qlzzkyd3b8","geo_precision":"range","address":"1200  RAUM STREET NE","state":"D.C."},"type":"Feature","geometry":{"type":"Point","coordinates":[-76.98584,38.908967]}},{"properties":{"city":"Washington","geo_score":0.714,"offensedescription":"RECEIVING STOLEN GOODS -- $100 &amp; OVER","id":"a6qlzzs9f4ri","geo_precision":"city","address":null,"state":"D.C."},"type":"Feature","geometry":{"type":"Point","coordinates":[-77.036366,38.895112]}},{"properties":{"city":"Washington","geo_score":0.902,"offensedescription":"RECEIVING STOLEN GOODS -- $100 &amp; OVER","id":"a6qlzzo9kqv9","geo_precision":"range","address":"4200  MINNESOTA AVENUE NE","state":"D.C."},"type":"Feature","geometry":{"type":"Point","coordinates":[-76.942608,38.901927]}},{"properties":{"city":"Washington","geo_score":0.902,"offensedescription":"RECEIVING STOLEN GOODS -- $100 &amp; OVER","id":"a6qlzzkxtsgn","geo_precision":"range","address":"5200  NANNIE HELEN BURROUGHS AVENUE NE","state":"D.C."},"type":"Feature","geometry":{"type":"Point","coordinates":[-76.92594,38.898348]}},{"properties":{"city":"Washington","geo_score":0.714,"offensedescription":"RECEIVING STOLEN GOODS -- $100 &amp; OVER","id":"a6qlzztu9qxh","geo_precision":"city","address":null,"state":"D.C."},"type":"Feature","geometry":{"type":"Point","coordinates":[-77.036366,38.895112]}},{"properties":{"city":"Washington","geo_score":0.714,"offensedescription":"RECEIVING STOLEN GOODS -- $100 &amp; OVER","id":"a6qlzzgt9l0c","geo_precision":"city","address":null,"state":"D.C."},"type":"Feature","geometry":{"type":"Point","coordinates":[-77.036366,38.895112]}},{"properties":{"city":"Washington","geo_score":0.902,"offensedescription":"RECEIVING STOLEN GOODS -- $100 &amp; OVER","id":"a6qlzzqp4jze","geo_precision":"range","address":"1900  BENNETT PLACE NE","state":"D.C."},"type":"Feature","geometry":{"type":"Point","coordinates":[-76.976216,38.899488]}},{"properties":{"city":"Washington","geo_score":0.714,"offensedescription":"RECEIVING STOLEN GOODS -- $100 &amp; OVER","id":"a6qlzztfjo44","geo_precision":"city","address":null,"state":"D.C."},"type":"Feature","geometry":{"type":"Point","coordinates":[-77.036366,38.895112]}},{"properties":{"city":"Washington","geo_score":0.902,"offensedescription":"RECEIVING STOLEN GOODS -- $100 &amp; OVER","id":"a6qlzznrevaa","geo_precision":"range","address":"5200  NANNIE HELEN BURROUGHS AVENUE NE","state":"D.C."},"type":"Feature","geometry":{"type":"Point","coordinates":[-76.92594,38.898348]}},{"properties":{"city":"Washington","geo_score":0.714,"offensedescription":"RECEIVING STOLEN GOODS -- $100 &amp; OVER","id":"a6qlzzgc05fr","geo_precision":"city","address":null,"state":"D.C."},"type":"Feature","geometry":{"type":"Point","coordinates":[-77.036366,38.895112]}},{"properties":{"city":"Washington","geo_score":0.714,"offensedescription":"RECEIVING STOLEN GOODS -- $100 &amp; OVER","id":"a6qlzzf9gxyh","geo_precision":"city","address":null,"state":"D.C."},"type":"Feature","geometry":{"type":"Point","coordinates":[-77.036366,38.895112]}},{"properties":{"city":"Washington","geo_score":0.902,"offensedescription":"RECEIVING STOLEN GOODS -- $100 &amp; OVER","id":"a6qlzzjhpgsi","geo_precision":"range","address":"1100  QUEEN STREET NE","state":"D.C."},"type":"Feature","geometry":{"type":"Point","coordinates":[-76.98883,38.907776]}},{"properties":{"city":"Washington","geo_score":0.902,"offensedescription":"RECEIVING STOLEN GOODS -- $100 &amp; OVER","id":"a6qlzzqq3xco","geo_precision":"range","address":"400  EDGEWOOD STREET NE","state":"D.C."},"type":"Feature","geometry":{"type":"Point","coordinates":[-77.000569,38.922985]}},{"properties":{"city":"Washington","geo_score":0.714,"offensedescription":"RECEIVING STOLEN GOODS -- $100 &amp; OVER","id":"a6qlzzdrvfu5","geo_precision":"city","address":null,"state":"D.C."},"type":"Feature","geometry":{"type":"Point","coordinates":[-77.036366,38.895112]}},{"properties":{"city":"Washington","geo_score":0.857,"offensedescription":"RECEIVING STOLEN GOODS -- $100 &amp; OVER","id":"a6qlzzmq2dxl","geo_precision":"street","address":"9TH STREET NE &amp; T STREET NE","state":"D.C."},"type":"Feature","geometry":{"type":"Point","coordinates":[-77.009045,38.915563]}},{"properties":{"city":"Washington","geo_score":0.902,"offensedescription":"RECEIVING STOLEN GOODS -- $100 &amp; OVER","id":"a6qlzzplxv87","geo_precision":"range","address":"4400  DOUGLAS STREET NE","state":"D.C."},"type":"Feature","geometry":{"type":"Point","coordinates":[-76.939992,38.910711]}},{"properties":{"city":"Washington","geo_score":0.902,"offensedescription":"RECEIVING STOLEN GOODS -- $100 &amp; OVER","id":"a6qlzzibhy5d","geo_precision":"range","address":"3800  JAY STREET NE","state":"D.C."},"type":"Feature","geometry":{"type":"Point","coordinates":[-76.945628,38.901983]}},{"properties":{"city":"Washington","geo_score":0.902,"offensedescription":"RECEIVING STOLEN GOODS -- $100 &amp; OVER","id":"a6qlzzdt0e0d","geo_precision":"range","address":"3800  JAY STREET NE","state":"D.C."},"type":"Feature","geometry":{"type":"Point","coordinates":[-76.945628,38.901983]}},{"properties":{"city":"Washington","geo_score":0.714,"offensedescription":"RECEIVING STOLEN GOODS -- $100 &amp; OVER","id":"a6qlzzoh4k4e","geo_precision":"city","address":null,"state":"D.C."},"type":"Feature","geometry":{"type":"Point","coordinates":[-77.036366,38.895112]}},{"properties":{"city":"Washington","geo_score":0.805,"offensedescription":"RECEIVING STOLEN GOODS -- $100 &amp; OVER","id":"a6qlzzp8breg","geo_precision":"street","address":"1100  EASTERN AVENUE NE","state":"D.C."},"type":"Feature","geometry":{"type":"Point","coordinates":[-76.924504,38.904706]}},{"properties":{"city":"Washington","geo_score":0.902,"offensedescription":"RECEIVING STOLEN GOODS -- $100 &amp; OVER","id":"a6qlzzm8e3n0","geo_precision":"range","address":"3800  JAY STREET NE","state":"D.C."},"type":"Feature","geometry":{"type":"Point","coordinates":[-76.945628,38.901983]}},{"properties":{"city":"Washington","geo_score":0.902,"offensedescription":"RECEIVING STOLEN GOODS -- $100 &amp; OVER","id":"a6qlzzhshml1","geo_precision":"range","address":"1200  QUEEN STREET NE","state":"D.C."},"type":"Feature","geometry":{"type":"Point","coordinates":[-76.987167,38.907063]}},{"properties":{"city":"Washington","geo_score":0.902,"offensedescription":"RECEIVING STOLEN GOODS -- $100 &amp; OVER","id":"a6qlzzgneumy","geo_precision":"range","address":"3900  BENNING ROAD NE","state":"D.C."},"type":"Feature","geometry":{"type":"Point","coordinates":[-76.949159,38.895133]}},{"properties":{"city":"Washington","geo_score":0.714,"offensedescription":"RECEIVING STOLEN GOODS -- $100 &amp; OVER","id":"a6qlzzkfj8pm","geo_precision":"city","address":null,"state":"D.C."},"type":"Feature","geometry":{"type":"Point","coordinates":[-77.036366,38.895112]}},{"properties":{"city":"Washington","geo_score":0.902,"offensedescription":"RECEIVING STOLEN GOODS -- $100 &amp; OVER","id":"a6qlzzqw7rtp","geo_precision":"range","address":"600  EDGEWOOD STREET NE","state":"D.C."},"type":"Feature","geometry":{"type":"Point","coordinates":[-76.998431,38.923987]}},{"properties":{"city":"Washington","geo_score":0.714,"offensedescription":"RECKLESS DRIVING","id":"a6qlzzpc6vfk","geo_precision":"city","address":null,"state":"D.C."},"type":"Feature","geometry":{"type":"Point","coordinates":[-77.036366,38.895112]}},{"properties":{"city":"Washington","geo_score":0.714,"offensedescription":"RECKLESS DRIVING","id":"a6qlzzpbi9yw","geo_precision":"city","address":null,"state":"D.C."},"type":"Feature","geometry":{"type":"Point","coordinates":[-77.036366,38.895112]}},{"properties":{"city":"Washington","geo_score":0.714,"offensedescription":"RECKLESS DRIVING","id":"a6qlzzr2tuq5","geo_precision":"city","address":null,"state":"D.C."},"type":"Feature","geometry":{"type":"Point","coordinates":[-77.036366,38.895112]}},{"properties":{"city":"Washington","geo_score":0.714,"offensedescription":"RECKLESS DRIVING","id":"a6qlzzklbtuj","geo_precision":"city","address":null,"state":"D.C."},"type":"Feature","geometry":{"type":"Point","coordinates":[-77.036366,38.895112]}},{"properties":{"city":"Washington","geo_score":0.714,"offensedescription":"RECKLESS DRIVING","id":"a6qlzznbbwtn","geo_precision":"city","address":null,"state":"D.C."},"type":"Feature","geometry":{"type":"Point","coordinates":[-77.036366,38.895112]}},{"properties":{"city":"Washington","geo_score":0.714,"offensedescription":"RECKLESS DRIVING","id":"a6qlzztqdq23","geo_precision":"city","address":null,"state":"D.C."},"type":"Feature","geometry":{"type":"Point","coordinates":[-77.036366,38.895112]}},{"properties":{"city":"Washington","geo_score":0.714,"offensedescription":"RECKLESS DRIVING","id":"a6qlzzgy8433","geo_precision":"city","address":null,"state":"D.C."},"type":"Feature","geometry":{"type":"Point","coordinates":[-77.036366,38.895112]}},{"properties":{"city":"Washington","geo_score":0.714,"offensedescription":"ROBBERY -- FORCE &amp; VIOLENCE","id":"a6qlzzowcift","geo_precision":"city","address":null,"state":"D.C."},"type":"Feature","geometry":{"type":"Point","coordinates":[-77.036366,38.895112]}},{"properties":{"city":"Washington","geo_score":0.902,"offensedescription":"ROBBERY -- FORCE &amp; VIOLENCE","id":"a6qlzzgp0wbf","geo_precision":"range","address":"4100  MINNESOTA AVENUE NE","state":"D.C."},"type":"Feature","geometry":{"type":"Point","coordinates":[-76.946582,38.898381]}},{"properties":{"city":"Washington","geo_score":0.714,"offensedescription":"ROBBERY -- PURSESNATCH (FORCE) $100 &amp; OVER","id":"a6qlzzm22irv","geo_precision":"city","address":null,"state":"D.C."},"type":"Feature","geometry":{"type":"Point","coordinates":[-77.036366,38.895112]}},{"properties":{"city":"Washington","geo_score":0.714,"offensedescription":"ROBBERY -- PURSESNATCH (FORCE) $100 &amp; OVER","id":"a6qlzztlqetj","geo_precision":"city","address":null,"state":"D.C."},"type":"Feature","geometry":{"type":"Point","coordinates":[-77.036366,38.895112]}},{"properties":{"city":"Washington","geo_score":0.902,"offensedescription":"ROBBERY -- PURSESNATCH (FORCE) $100 &amp; OVER","id":"a6qlzzhqu4tu","geo_precision":"range","address":"800  RHODE ISLAND AVENUE NE","state":"D.C."},"type":"Feature","geometry":{"type":"Point","coordinates":[-76.994767,38.9217]}},{"properties":{"city":"Washington","geo_score":0.714,"offensedescription":"ROBBERY -- PURSESNATCH (FORCE) $100 &amp; OVER","id":"a6qlzzhxa53i","geo_precision":"city","address":null,"state":"D.C."},"type":"Feature","geometry":{"type":"Point","coordinates":[-77.036366,38.895112]}},{"properties":{"city":"Washington","geo_score":0.819,"offensedescription":"ROBBERY -- PURSESNATCH (FORCE) $100 &amp; OVER","id":"a6qlzzny75tr","geo_precision":"range","address":"5100  4TH STREET NE","state":"D.C."},"type":"Feature","geometry":{"type":"Point","coordinates":[-76.998933,38.95256]}},{"properties":{"city":"Washington","geo_score":0.819,"offensedescription":"ROBBERY/ATTEMPT TO COMMIT ROBBERY","id":"a6qlzzsnzkzd","geo_precision":"range","address":"5100  4TH STREET NE","state":"D.C."},"type":"Feature","geometry":{"type":"Point","coordinates":[-76.998933,38.95256]}},{"properties":{"city":"Washington","geo_score":0.902,"offensedescription":"ROBBERY/ATTEMPT TO COMMIT ROBBERY","id":"a6qlzzp6nutr","geo_precision":"range","address":"1000  MOUNT OLIVET ROAD NE","state":"D.C."},"type":"Feature","geometry":{"type":"Point","coordinates":[-76.991372,38.91227]}},{"properties":{"city":"Washington","geo_score":0.819,"offensedescription":"ROBBERY/ATTEMPT TO COMMIT ROBBERY","id":"a6qlzzl01h28","geo_precision":"range","address":"5100  4TH STREET NE","state":"D.C."},"type":"Feature","geometry":{"type":"Point","coordinates":[-76.998933,38.95256]}},{"properties":{"city":"Washington","geo_score":0.488,"offensedescription":"SECOND DEGREE BURGLARY (ARMED OR OTHERWISE)","id":"a6qlzzpjwx6j","geo_precision":"city","address":"3100  SOUTH DAKOTA AVENUE NE","state":"D.C."},"type":"Feature","geometry":{"type":"Point","coordinates":[-77.036366,38.895112]}},{"properties":{"city":"Washington","geo_score":0.902,"offensedescription":"TAMPERING W/AUTO","id":"a6qlzzo5dud6","geo_precision":"range","address":"4400  PONDS STREET NE","state":"D.C."},"type":"Feature","geometry":{"type":"Point","coordinates":[-76.938638,38.911743]}},{"properties":{"city":"Washington","geo_score":0.829,"offensedescription":"THEFT 1ST DEGREE","id":"a6qlzzq4edvj","geo_precision":"range","address":"100  44TH STREET NE","state":"D.C."},"type":"Feature","geometry":{"type":"Point","coordinates":[-76.939206,38.891527]}},{"properties":{"city":"Washington","geo_score":0.75,"offensedescription":"THEFT 1ST DEGREE","id":"a6qlzzhh6eha","geo_precision":"street","address":"21ST STREET NE &amp; GALES STREET NE","state":"D.C."},"type":"Feature","geometry":{"type":"Point","coordinates":[-76.974982,38.894779]}},{"properties":{"city":"Washington","geo_score":0.902,"offensedescription":"THEFT 1ST DEGREE","id":"a6qlzzeifp78","geo_precision":"range","address":"1700  HOLBROOK STREET NE","state":"D.C."},"type":"Feature","geometry":{"type":"Point","coordinates":[-76.981393,38.90646]}},{"properties":{"city":"Washington","geo_score":0.714,"offensedescription":"THEFT 2ND DEGREE","id":"a6qlzzoe6ktr","geo_precision":"city","address":null,"state":"D.C."},"type":"Feature","geometry":{"type":"Point","coordinates":[-77.036366,38.895112]}},{"properties":{"city":"Washington","geo_score":0.708,"offensedescription":"THEFT 2ND DEGREE","id":"a6qlzzlimmxu","geo_precision":"street","address":"800  KENILWORTH AVENUE NE","state":"D.C."},"type":"Feature","geometry":{"type":"Point","coordinates":[-76.94384,38.902438]}},{"properties":{"city":"Washington","geo_score":0.714,"offensedescription":"THEFT FROM AUTO II","id":"a6qlzzeb0ol2","geo_precision":"city","address":null,"state":"D.C."},"type":"Feature","geometry":{"type":"Point","coordinates":[-77.036366,38.895112]}},{"properties":{"city":"Washington","geo_score":0.714,"offensedescription":"UCSA POSSESSION DRUG PARAPHERNALIA","id":"a6qlzzgdkpxl","geo_precision":"city","address":null,"state":"D.C."},"type":"Feature","geometry":{"type":"Point","coordinates":[-77.036366,38.895112]}},{"properties":{"city":"Washington","geo_score":0.714,"offensedescription":"UCSA POSSESSION DRUG PARAPHERNALIA","id":"a6qlzzf3t8k5","geo_precision":"city","address":null,"state":"D.C."},"type":"Feature","geometry":{"type":"Point","coordinates":[-77.036366,38.895112]}},{"properties":{"city":"Washington","geo_score":0.714,"offensedescription":"UCSA POSSESSION DRUG PARAPHERNALIA","id":"a6qlzzjx7j2w","geo_precision":"city","address":null,"state":"D.C."},"type":"Feature","geometry":{"type":"Point","coordinates":[-77.036366,38.895112]}},{"properties":{"city":"Washington","geo_score":0.714,"offensedescription":"UCSA POSSESSION DRUG PARAPHERNALIA","id":"a6qlzzhic3ip","geo_precision":"city","address":null,"state":"D.C."},"type":"Feature","geometry":{"type":"Point","coordinates":[-77.036366,38.895112]}},{"properties":{"city":"Washington","geo_score":0.829,"offensedescription":"UCSA POSSESSION DRUG PARAPHERNALIA","id":"a6qlzzdx82ne","geo_precision":"range","address":"300  18TH STREET NE","state":"D.C."},"type":"Feature","geometry":{"type":"Point","coordinates":[-76.978994,38.893301]}},{"properties":{"city":"Washington","geo_score":0.714,"offensedescription":"UCSA POSSESSION DRUG PARAPHERNALIA","id":"a6qlzzn8vxoi","geo_precision":"city","address":null,"state":"D.C."},"type":"Feature","geometry":{"type":"Point","coordinates":[-77.036366,38.895112]}},{"properties":{"city":"Washington","geo_score":0.714,"offensedescription":"UCSA POSSESSION DRUG PARAPHERNALIA","id":"a6qlzzoz1xis","geo_precision":"city","address":null,"state":"D.C."},"type":"Feature","geometry":{"type":"Point","coordinates":[-77.036366,38.895112]}},{"properties":{"city":"Washington","geo_score":0.714,"offensedescription":"UNAUTHORIZED USE OF VEHICLE (DRIVER)","id":"a6qlzzgjyekn","geo_precision":"city","address":null,"state":"D.C."},"type":"Feature","geometry":{"type":"Point","coordinates":[-77.036366,38.895112]}},{"properties":{"city":"Washington","geo_score":0.714,"offensedescription":"UNAUTHORIZED USE OF VEHICLE (DRIVER)","id":"a6qlzzjdan01","geo_precision":"city","address":null,"state":"D.C."},"type":"Feature","geometry":{"type":"Point","coordinates":[-77.036366,38.895112]}},{"properties":{"city":"Washington","geo_score":0.714,"offensedescription":"UNAUTHORIZED USE OF VEHICLE (DRIVER)","id":"a6qlzznxuj95","geo_precision":"city","address":null,"state":"D.C."},"type":"Feature","geometry":{"type":"Point","coordinates":[-77.036366,38.895112]}},{"properties":{"city":"Washington","geo_score":0.714,"offensedescription":"UNAUTHORIZED USE OF VEHICLE (DRIVER)","id":"a6qlzzlvddb9","geo_precision":"city","address":null,"state":"D.C."},"type":"Feature","geometry":{"type":"Point","coordinates":[-77.036366,38.895112]}},{"properties":{"city":"Washington","geo_score":0.714,"offensedescription":"UNAUTHORIZED USE OF VEHICLE (DRIVER)","id":"a6qlzzjsyl1z","geo_precision":"city","address":null,"state":"D.C."},"type":"Feature","geometry":{"type":"Point","coordinates":[-77.036366,38.895112]}},{"properties":{"city":"Washington","geo_score":0.714,"offensedescription":"UNAUTHORIZED USE OF VEHICLE (DRIVER)","id":"a6qlzzrffzh2","geo_precision":"city","address":null,"state":"D.C."},"type":"Feature","geometry":{"type":"Point","coordinates":[-77.036366,38.895112]}},{"properties":{"city":"Washington","geo_score":0.902,"offensedescription":"UNAUTHORIZED USE OF VEHICLE (DRIVER)","id":"a6qlzzpra5pw","geo_precision":"range","address":"1700  HOLBROOK STREET NE","state":"D.C."},"type":"Feature","geometry":{"type":"Point","coordinates":[-76.981393,38.90646]}},{"properties":{"city":"Washington","geo_score":0.829,"offensedescription":"UNAUTHORIZED USE OF VEHICLE (DRIVER)","id":"a6qlzzotvfxm","geo_precision":"range","address":"2200  15TH STREET NE","state":"D.C."},"type":"Feature","geometry":{"type":"Point","coordinates":[-76.98205,38.919179]}},{"properties":{"city":"Washington","geo_score":0.714,"offensedescription":"UNAUTHORIZED USE OF VEHICLE (DRIVER)","id":"a6qlzzmlve7z","geo_precision":"city","address":null,"state":"D.C."},"type":"Feature","geometry":{"type":"Point","coordinates":[-77.036366,38.895112]}},{"properties":{"city":"Washington","geo_score":0.714,"offensedescription":"UNAUTHORIZED USE OF VEHICLE (DRIVER)","id":"a6qlzzdq2fy2","geo_precision":"city","address":null,"state":"D.C."},"type":"Feature","geometry":{"type":"Point","coordinates":[-77.036366,38.895112]}},{"properties":{"city":"Washington","geo_score":0.902,"offensedescription":"UNAUTHORIZED USE OF VEHICLE (DRIVER)","id":"a6qlzzp64ptk","geo_precision":"range","address":"1100  QUEEN STREET NE","state":"D.C."},"type":"Feature","geometry":{"type":"Point","coordinates":[-76.98883,38.907776]}},{"properties":{"city":"Washington","geo_score":0.714,"offensedescription":"UNAUTHORIZED USE OF VEHICLE (DRIVER)","id":"a6qlzzn308hp","geo_precision":"city","address":null,"state":"D.C."},"type":"Feature","geometry":{"type":"Point","coordinates":[-77.036366,38.895112]}},{"properties":{"city":"Washington","geo_score":0.714,"offensedescription":"UNAUTHORIZED USE OF VEHICLE (DRIVER)","id":"a6qlzzh8zg4q","geo_precision":"city","address":null,"state":"D.C."},"type":"Feature","geometry":{"type":"Point","coordinates":[-77.036366,38.895112]}},{"properties":{"city":"Washington","geo_score":0.902,"offensedescription":"UNAUTHORIZED USE OF VEHICLE (DRIVER)","id":"a6qlzzsjp197","geo_precision":"range","address":"1200  RAUM STREET NE","state":"D.C."},"type":"Feature","geometry":{"type":"Point","coordinates":[-76.98584,38.908967]}},{"properties":{"city":"Washington","geo_score":0.714,"offensedescription":"UNAUTHORIZED USE OF VEHICLE (DRIVER)","id":"a6qlzzhc3qne","geo_precision":"city","address":null,"state":"D.C."},"type":"Feature","geometry":{"type":"Point","coordinates":[-77.036366,38.895112]}},{"properties":{"city":"Washington","geo_score":0.902,"offensedescription":"UNAUTHORIZED USE OF VEHICLE (DRIVER)","id":"a6qlzzqfsvdo","geo_precision":"range","address":"5000  BLAINE STREET NE","state":"D.C."},"type":"Feature","geometry":{"type":"Point","coordinates":[-76.930055,38.89188]}},{"properties":{"city":"Washington","geo_score":0.714,"offensedescription":"UNAUTHORIZED USE OF VEHICLE (DRIVER)","id":"a6qlzzotou87","geo_precision":"city","address":null,"state":"D.C."},"type":"Feature","geometry":{"type":"Point","coordinates":[-77.036366,38.895112]}},{"properties":{"city":"Washington","geo_score":0.714,"offensedescription":"UNAUTHORIZED USE OF VEHICLE (DRIVER)","id":"a6qlzzifktzp","geo_precision":"city","address":null,"state":"D.C."},"type":"Feature","geometry":{"type":"Point","coordinates":[-77.036366,38.895112]}},{"properties":{"city":"Washington","geo_score":0.714,"offensedescription":"UNAUTHORIZED USE OF VEHICLE (DRIVER)","id":"a6qlzzjj4fui","geo_precision":"city","address":null,"state":"D.C."},"type":"Feature","geometry":{"type":"Point","coordinates":[-77.036366,38.895112]}},{"properties":{"city":"Washington","geo_score":0.829,"offensedescription":"UNAUTHORIZED USE OF VEHICLE (PASSENGER)","id":"a6qlzzll3z7h","geo_precision":"range","address":"800  17TH STREET NE","state":"D.C."},"type":"Feature","geometry":{"type":"Point","coordinates":[-76.979068,38.900211]}},{"properties":{"city":"Washington","geo_score":0.902,"offensedescription":"UNAUTHORIZED USE OF VEHICLE (PASSENGER)","id":"a6qlzzfadn2x","geo_precision":"range","address":"1700  HOLBROOK STREET NE","state":"D.C."},"type":"Feature","geometry":{"type":"Point","coordinates":[-76.981393,38.90646]}},{"properties":{"city":"Washington","geo_score":0.714,"offensedescription":"UNAUTHORIZED USE OF VEHICLE (PASSENGER)","id":"a6qlzzsna11c","geo_precision":"city","address":null,"state":"D.C."},"type":"Feature","geometry":{"type":"Point","coordinates":[-77.036366,38.895112]}},{"properties":{"city":"Washington","geo_score":0.714,"offensedescription":"UNAUTHORIZED USE OF VEHICLE (PASSENGER)","id":"a6qlzzgcn98j","geo_precision":"city","address":null,"state":"D.C."},"type":"Feature","geometry":{"type":"Point","coordinates":[-77.036366,38.895112]}},{"properties":{"city":"Washington","geo_score":0.902,"offensedescription":"UNAUTHORIZED USE OF VEHICLE (PASSENGER)","id":"a6qlzznwjtw4","geo_precision":"range","address":"3600  HAYES STREET NE","state":"D.C."},"type":"Feature","geometry":{"type":"Point","coordinates":[-76.952792,38.905411]}},{"properties":{"city":"Washington","geo_score":0.714,"offensedescription":"UNAUTHORIZED USE OF VEHICLE (PASSENGER)","id":"a6qlzzu22pi4","geo_precision":"city","address":null,"state":"D.C."},"type":"Feature","geometry":{"type":"Point","coordinates":[-77.036366,38.895112]}},{"properties":{"city":"Washington","geo_score":0.902,"offensedescription":"UNAUTHORIZED USE OF VEHICLE (PASSENGER)","id":"a6qlzzhbsltv","geo_precision":"range","address":"1200  QUEEN STREET NE","state":"D.C."},"type":"Feature","geometry":{"type":"Point","coordinates":[-76.987167,38.907063]}},{"properties":{"city":"Washington","geo_score":0.714,"offensedescription":"UNAUTHORIZED USE OF VEHICLE (PASSENGER)","id":"a6qlzzqo4v91","geo_precision":"city","address":null,"state":"D.C."},"type":"Feature","geometry":{"type":"Point","coordinates":[-77.036366,38.895112]}},{"properties":{"city":"Washington","geo_score":0.714,"offensedescription":"UNAUTHORIZED USE OF VEHICLE (PASSENGER)","id":"a6qlzzrpruy1","geo_precision":"city","address":null,"state":"D.C."},"type":"Feature","geometry":{"type":"Point","coordinates":[-77.036366,38.895112]}},{"properties":{"city":"Washington","geo_score":0.714,"offensedescription":"UNAUTHORIZED USE OF VEHICLE (PASSENGER)","id":"a6qlzzn867k3","geo_precision":"city","address":null,"state":"D.C."},"type":"Feature","geometry":{"type":"Point","coordinates":[-77.036366,38.895112]}},{"properties":{"city":"Washington","geo_score":0.902,"offensedescription":"UNAUTHORIZED USE OF VEHICLE (PASSENGER)","id":"a6qlzzrr7z2q","geo_precision":"range","address":"4200  MINNESOTA AVENUE NE","state":"D.C."},"type":"Feature","geometry":{"type":"Point","coordinates":[-76.942608,38.901927]}},{"properties":{"city":"Washington","geo_score":0.902,"offensedescription":"UNAUTHORIZED USE OF VEHICLE (PASSENGER)","id":"a6qlzzql6ldj","geo_precision":"range","address":"1600  TRINIDAD AVENUE NE","state":"D.C."},"type":"Feature","geometry":{"type":"Point","coordinates":[-76.984393,38.905879]}},{"properties":{"city":"Washington","geo_score":0.829,"offensedescription":"UNLAWFUL ENTRY ON PROPERTY","id":"a6qlzzipob3r","geo_precision":"range","address":"1000  45TH STREET NE","state":"D.C."},"type":"Feature","geometry":{"type":"Point","coordinates":[-76.937828,38.902744]}},{"properties":{"city":"Washington","geo_score":0.902,"offensedescription":"UNLAWFUL ENTRY ON PROPERTY","id":"a6qlzztuso3a","geo_precision":"range","address":"4300  NANNIE HELEN BURROUGHS AVENUE NE","state":"D.C."},"type":"Feature","geometry":{"type":"Point","coordinates":[-76.940913,38.901248]}},{"properties":{"city":"Washington","geo_score":0.714,"offensedescription":"UNLAWFUL ENTRY ON PROPERTY","id":"a6qlzzfej5dq","geo_precision":"city","address":null,"state":"D.C."},"type":"Feature","geometry":{"type":"Point","coordinates":[-77.036366,38.895112]}},{"properties":{"city":"Washington","geo_score":0.902,"offensedescription":"UNLAWFUL ENTRY ON PROPERTY","id":"a6qlzzj75hbs","geo_precision":"range","address":"1500  BENNING ROAD NE","state":"D.C."},"type":"Feature","geometry":{"type":"Point","coordinates":[-76.983442,38.900131]}},{"properties":{"city":"Washington","geo_score":0.714,"offensedescription":"UNLAWFUL ENTRY ON PROPERTY","id":"a6qlzzlp5j95","geo_precision":"city","address":null,"state":"D.C."},"type":"Feature","geometry":{"type":"Point","coordinates":[-77.036366,38.895112]}},{"properties":{"city":"Washington","geo_score":0.714,"offensedescription":"UNLAWFUL ENTRY ON PROPERTY","id":"a6qlzzdv3gph","geo_precision":"city","address":null,"state":"D.C."},"type":"Feature","geometry":{"type":"Point","coordinates":[-77.036366,38.895112]}},{"properties":{"city":"Washington","geo_score":0.488,"offensedescription":"UNLAWFUL ENTRY ON PROPERTY","id":"a6qlzziwlg37","geo_precision":"city","address":"4900  SOUTH DAKOTA AVENUE NE","state":"D.C."},"type":"Feature","geometry":{"type":"Point","coordinates":[-77.036366,38.895112]}},{"properties":{"city":"Washington","geo_score":0.714,"offensedescription":"UNLAWFUL ENTRY ON PROPERTY","id":"a6qlzzi393yi","geo_precision":"city","address":null,"state":"D.C."},"type":"Feature","geometry":{"type":"Point","coordinates":[-77.036366,38.895112]}},{"properties":{"city":"Washington","geo_score":0.714,"offensedescription":"UNREGISTERED AMMUNITION","id":"a6qlzzjqie80","geo_precision":"city","address":null,"state":"D.C."},"type":"Feature","geometry":{"type":"Point","coordinates":[-77.036366,38.895112]}},{"properties":{"city":"Washington","geo_score":0.902,"offensedescription":"UNREGISTERED AMMUNITION","id":"a6qlzzjdz9tp","geo_precision":"range","address":"900  DIVISION AVENUE NE","state":"D.C."},"type":"Feature","geometry":{"type":"Point","coordinates":[-76.924467,38.901647]}},{"properties":{"city":"Washington","geo_score":0.829,"offensedescription":"UNREGISTERED AMMUNITION","id":"a6qlzzqn1kvf","geo_precision":"range","address":"300  51ST STREET NE","state":"D.C."},"type":"Feature","geometry":{"type":"Point","coordinates":[-76.928896,38.893662]}},{"properties":{"city":"Washington","geo_score":0.714,"offensedescription":"UNREGISTERED AMMUNITION","id":"a6qlzznnvuba","geo_precision":"city","address":null,"state":"D.C."},"type":"Feature","geometry":{"type":"Point","coordinates":[-77.036366,38.895112]}},{"properties":{"city":"Washington","geo_score":0.714,"offensedescription":"UNREGISTERED AMMUNITION","id":"a6qlzzrvyogp","geo_precision":"city","address":null,"state":"D.C."},"type":"Feature","geometry":{"type":"Point","coordinates":[-77.036366,38.895112]}},{"properties":{"city":"Washington","geo_score":0.819,"offensedescription":"UNREGISTERED AMMUNITION","id":"a6qlzzl1a5hi","geo_precision":"range","address":"5100  4TH STREET NE","state":"D.C."},"type":"Feature","geometry":{"type":"Point","coordinates":[-76.998933,38.95256]}},{"properties":{"city":"Washington","geo_score":0.829,"offensedescription":"UNREGISTERED AMMUNITION","id":"a6qlzzqhrn2k","geo_precision":"range","address":"2200  15TH STREET NE","state":"D.C."},"type":"Feature","geometry":{"type":"Point","coordinates":[-76.98205,38.919179]}},{"properties":{"city":"Washington","geo_score":0.902,"offensedescription":"UNREGISTERED AMMUNITION","id":"a6qlzzriepid","geo_precision":"range","address":"5000  JUST STREET NE","state":"D.C."},"type":"Feature","geometry":{"type":"Point","coordinates":[-76.929758,38.90265]}},{"properties":{"city":"Washington","geo_score":0.714,"offensedescription":"UNREGISTERED AMMUNITION","id":"a6qlzzhc4gsa","geo_precision":"city","address":null,"state":"D.C."},"type":"Feature","geometry":{"type":"Point","coordinates":[-77.036366,38.895112]}},{"properties":{"city":"Washington","geo_score":0.857,"offensedescription":"UNREGISTERED AMMUNITION","id":"a6qlzzjvp8nl","geo_precision":"street","address":"MARTIN LUTHER KING JR AVENUE SE &amp; TALBERT STREET SE","state":"D.C."},"type":"Feature","geometry":{"type":"Point","coordinates":[-76.993149,38.863729]}},{"properties":{"city":"Washington","geo_score":0.902,"offensedescription":"UNREGISTERED AMMUNITION","id":"a6qlzznswtu7","geo_precision":"range","address":"5000  JUST STREET NE","state":"D.C."},"type":"Feature","geometry":{"type":"Point","coordinates":[-76.929758,38.90265]}},{"properties":{"city":"Washington","geo_score":0.714,"offensedescription":"UNREGISTERED AMMUNITION","id":"a6qlzzdz3u3o","geo_precision":"city","address":null,"state":"D.C."},"type":"Feature","geometry":{"type":"Point","coordinates":[-77.036366,38.895112]}},{"properties":{"city":"Washington","geo_score":0.902,"offensedescription":"UNREGISTERED AMMUNITION","id":"a6qlzzoy4siz","geo_precision":"range","address":"4500  CLAY STREET NE","state":"D.C."},"type":"Feature","geometry":{"type":"Point","coordinates":[-76.937874,38.89395]}},{"properties":{"city":"Washington","geo_score":0.902,"offensedescription":"UNREGISTERED FIREARM","id":"a6qlzzrcxqoj","geo_precision":"range","address":"5000  JUST STREET NE","state":"D.C."},"type":"Feature","geometry":{"type":"Point","coordinates":[-76.929758,38.90265]}},{"properties":{"city":"Washington","geo_score":0.714,"offensedescription":"UNREGISTERED FIREARM","id":"a6qlzznbycky","geo_precision":"city","address":null,"state":"D.C."},"type":"Feature","geometry":{"type":"Point","coordinates":[-77.036366,38.895112]}},{"properties":{"city":"Washington","geo_score":0.829,"offensedescription":"UNREGISTERED FIREARM","id":"a6qlzzu4jcec","geo_precision":"range","address":"300  51ST STREET NE","state":"D.C."},"type":"Feature","geometry":{"type":"Point","coordinates":[-76.928896,38.893662]}},{"properties":{"city":"Washington","geo_score":0.902,"offensedescription":"UNREGISTERED FIREARM","id":"a6qlzzgknie0","geo_precision":"range","address":"5000  JUST STREET NE","state":"D.C."},"type":"Feature","geometry":{"type":"Point","coordinates":[-76.929758,38.90265]}},{"properties":{"city":"Washington","geo_score":0.714,"offensedescription":"UNREGISTERED FIREARM","id":"a6qlzzpvtb2o","geo_precision":"city","address":null,"state":"D.C."},"type":"Feature","geometry":{"type":"Point","coordinates":[-77.036366,38.895112]}},{"properties":{"city":"Washington","geo_score":0.819,"offensedescription":"UNREGISTERED FIREARM","id":"a6qlzzt4wy38","geo_precision":"range","address":"5100  4TH STREET NE","state":"D.C."},"type":"Feature","geometry":{"type":"Point","coordinates":[-76.998933,38.95256]}},{"properties":{"city":"Washington","geo_score":0.829,"offensedescription":"UNREGISTERED FIREARM","id":"a6qlzzdn1az4","geo_precision":"range","address":"2200  15TH STREET NE","state":"D.C."},"type":"Feature","geometry":{"type":"Point","coordinates":[-76.98205,38.919179]}},{"properties":{"city":"Washington","geo_score":0.714,"offensedescription":"UNREGISTERED FIREARM","id":"a6qlzzrhs9s2","geo_precision":"city","address":null,"state":"D.C."},"type":"Feature","geometry":{"type":"Point","coordinates":[-77.036366,38.895112]}},{"properties":{"city":"Washington","geo_score":0.714,"offensedescription":"UNREGISTERED FIREARM","id":"a6qlzzq4vn0p","geo_precision":"city","address":null,"state":"D.C."},"type":"Feature","geometry":{"type":"Point","coordinates":[-77.036366,38.895112]}}],"is_temporal":false,"author":{"url":"","metadata":"","contact_name":"","contact_address":"","source":"","contact_phone":""},"source":"","pagination":{"sort":null,"start":0,"total":527,"limit":1000000},"state":"complete","tags":"","published":"2014-08-10T17:54:24-04:00","id":24853}