{"type":"FeatureCollection","data_type":"Dataset","url_type":null,"permissions":[{"permissions":{"download":true,"view":true},"group_id":"everyone"}],"classification":null,"title":"Installed Sites","count":69,"stream_id":248581,"contributor":{"url":"http://geocommons.com/users/33693","name":"pg8767"},"data_attributes":null,"calculation_params":null,"icon_link":null,"link":"http://geocommons.com/overlays/248581.json","extent":[-117.077,29.3084,-72.507,44.5121],"geometry_types":["point"],"unique_name":null,"name":"Installed Sites","feature_count":69,"description":"","next_feature":null,"is_raster":false,"short_classification":"Y","stats":{"count":{"max":331,"mean":52.4347826086956,"variance":3881.6905370844,"stdev":62.3032145004124,"min":2,"median":27}},"features":[{"properties":{"city":"Phoenix","cutover":{"end_time":"2011/03/26 00:00:00 -0400","original":"03/25/11","granularity":"day","time":"2011/03/25 00:00:00 -0400"},"geo_score":0.327,"court sites  state":"AZ","court type":"SDSD","count":86,"id":"a67m3563o22a","address":"40 North Central Avenue, Phoenix, AZ 85004","geo_precision":"street"},"type":"Feature","geometry":{"type":"Point","coordinates":[-112.007825,33.669376]}},{"properties":{"city":"Green Bay","cutover":{"end_time":"2011/06/17 00:00:00 -0400","original":"06/16/11","granularity":"day","time":"2011/06/16 00:00:00 -0400"},"geo_score":0.286,"court sites  state":"WI","court type":"Probation","count":11,"id":"a67m355rf5rp","address":"Jefferson Court Building, 125 South Jefferson Street, Room 301, Green Bay, WI 54301","geo_precision":"street"},"type":"Feature","geometry":{"type":"Point","coordinates":[-88.014151,44.512074]}},{"properties":{"city":"San Antonio","cutover":{"end_time":"2011/06/30 00:00:00 -0400","original":"06/29/11","granularity":"day","time":"2011/06/29 00:00:00 -0400"},"geo_score":0.408,"court sites  state":"TX","court type":"NWC","count":331,"id":"a67m351aul2x","address":"NWC - 7550 IH 10 West, Suite 1100, San Antonio, TX 78229","geo_precision":"street"},"type":"Feature","geometry":{"type":"Point","coordinates":[-98.56031,29.308389]}},{"properties":{"city":"San Antonio","cutover":{"end_time":"2011/06/30 00:00:00 -0400","original":"06/29/11","granularity":"day","time":"2011/06/29 00:00:00 -0400"},"geo_score":0.393,"court sites  state":"TX","court type":"DTC","count":16,"id":"a67m359urvgt","address":"DTC - Adrian A. Spears Judicial Training Center, 643 E. Durango Blvd., San Antonio, TX 78206","geo_precision":"street"},"type":"Feature","geometry":{"type":"Point","coordinates":[-98.480949,29.437586]}},{"properties":{"city":"Milwaukee","cutover":{"end_time":"2011/07/15 00:00:00 -0400","original":"07/14/11","granularity":"day","time":"2011/07/14 00:00:00 -0400"},"geo_score":0.319,"court sites  state":"WI","court type":"District","count":140,"id":"a67m357vjn2z","address":"517 East Wisconsin Avenue, Room 362, Milwaukee WI 53202","geo_precision":"street"},"type":"Feature","geometry":{"type":"Point","coordinates":[-87.907827,43.03865]}},{"properties":{"city":"Milwaukee","cutover":{"end_time":"2011/07/15 00:00:00 -0400","original":"07/14/11","granularity":"day","time":"2011/07/14 00:00:00 -0400"},"geo_score":0.352,"court sites  state":"WI","court type":"Appeals","count":14,"id":"a67m34zvcq1m","address":"517 East Wisconsin Avenue, Suite 182, Milwaukee, WI 53202","geo_precision":"street"},"type":"Feature","geometry":{"type":"Point","coordinates":[-87.907827,43.03865]}},{"properties":{"city":"Milwaukee","cutover":{"end_time":"2011/07/15 00:00:00 -0400","original":"07/14/11","granularity":"day","time":"2011/07/14 00:00:00 -0400"},"geo_score":0.319,"court sites  state":"WI","court type":"Bankruptcy","count":87,"id":"a67m356bbxwr","address":"517 East Wisconsin Avenue, Room 126, Milwaukee WI 53202","geo_precision":"street"},"type":"Feature","geometry":{"type":"Point","coordinates":[-87.907827,43.03865]}},{"properties":{"city":"Milwaukee","cutover":{"end_time":"2011/07/15 00:00:00 -0400","original":"07/14/11","granularity":"day","time":"2011/07/14 00:00:00 -0400"},"geo_score":0.429,"court sites  state":"WI","court type":"Probation","count":66,"id":"a67m3598n1h5","address":"517 East Wisconsin Avenue, Room 001, Milwaukee, WI 53202","geo_precision":"street"},"type":"Feature","geometry":{"type":"Point","coordinates":[-87.994202,43.049645]}},{"properties":{"city":"Dover","cutover":{"end_time":"2011/08/12 00:00:00 -0400","original":"08/11/11","granularity":"day","time":"2011/08/11 00:00:00 -0400"},"geo_score":0.429,"court sites  state":"DE","court type":"Probation","count":9,"id":"a67m35cvgd5t","address":"J. Allen Frear Federal Building, 300 S. New St. Room 2201, Dover, DE 19904","geo_precision":"street"},"type":"Feature","geometry":{"type":"Point","coordinates":[-75.521363,39.155141]}},{"properties":{"city":"Wilmington","cutover":{"end_time":"2011/09/02 00:00:00 -0400","original":"09/01/11","granularity":"day","time":"2011/09/01 00:00:00 -0400"},"geo_score":0.333,"court sites  state":"DE","court type":"Probation","count":48,"id":"a67m35bynzvk","address":"824 N. Market St., Suite 400, Wilmington, DE 19801","geo_precision":"street"},"type":"Feature","geometry":{"type":"Point","coordinates":[-75.552725,39.738277]}},{"properties":{"city":"Wilmington","cutover":{"end_time":"2011/09/02 00:00:00 -0400","original":"09/01/11","granularity":"day","time":"2011/09/01 00:00:00 -0400"},"geo_score":0.35,"court sites  state":"DE","court type":"Bankruptcy","count":200,"id":"a67m355juii7","address":"824 N. Market St., 3rd Floor, Wilmington, DE, 19801-3024","geo_precision":"street"},"type":"Feature","geometry":{"type":"Point","coordinates":[-75.515953,39.763553]}},{"properties":{"city":"Green Bay","cutover":{"end_time":"2011/09/09 00:00:00 -0400","original":"09/08/11","granularity":"day","time":"2011/09/08 00:00:00 -0400"},"geo_score":0.381,"court sites  state":"WI","court type":"District","count":17,"id":"a67m35a8rvqu","address":"Jefferson Court Building, 125 South Jefferson Street, 1st Floor, Green Bay, WI 54301","geo_precision":"street"},"type":"Feature","geometry":{"type":"Point","coordinates":[-87.991501,44.501267]}},{"properties":{"city":"Salisbury","cutover":{"end_time":"2011/10/04 00:00:00 -0400","original":"10/03/11","granularity":"day","time":"2011/10/03 00:00:00 -0400"},"geo_score":0.551,"court sites  state":"MD","court type":"District","count":8,"id":"a67m35cpcuq7","address":"Maude R. Toulson Federal Building, 209 East Main Street, Salisbury, MD 21801-4920","geo_precision":"street"},"type":"Feature","geometry":{"type":"Point","coordinates":[-75.602728,38.365268]}},{"properties":{"city":"Baltimore - Pratt","cutover":{"end_time":"2011/11/16 00:00:00 -0500","original":"11/15/11","granularity":"day","time":"2011/11/15 00:00:00 -0500"},"geo_score":0.425,"court sites  state":"MD","court type":"Probation","count":144,"id":"a67m356tunjk","address":"250 West Pratt Street, Room 400, Baltimore, MD 21201-2423","geo_precision":"street"},"type":"Feature","geometry":{"type":"Point","coordinates":[-76.726201,39.313082]}},{"properties":{"city":"Baltimore - Lombard","cutover":{"end_time":"2011/11/16 00:00:00 -0500","original":"11/15/11","granularity":"day","time":"2011/11/15 00:00:00 -0500"},"geo_score":0.405,"court sites  state":"MD","court type":"Probation","count":121,"id":"a67m34yu1fym","address":"101 West Lombard Street, Room 1625, Baltimore MD 21201-2605","geo_precision":"street"},"type":"Feature","geometry":{"type":"Point","coordinates":[-76.722079,39.299351]}},{"properties":{"city":"Greenbelt - Edmonston","cutover":{"end_time":"2011/11/18 00:00:00 -0500","original":"11/17/11","granularity":"day","time":"2011/11/17 00:00:00 -0500"},"geo_score":0.396,"court sites  state":"MD","court type":"Probation","count":120,"id":"a67m3556cgmd","address":"9200 Edmonston Rd., Room 200, Greenbelt, MD 20770","geo_precision":"street"},"type":"Feature","geometry":{"type":"Point","coordinates":[-76.93157,38.943782]}},{"properties":{"city":"Baltimore - Lombard","cutover":{"end_time":"2011/12/16 00:00:00 -0500","original":"12/15/11","granularity":"day","time":"2011/12/15 00:00:00 -0500"},"geo_score":0.366,"court sites  state":"MD","court type":"District","count":269,"id":"a67m357ue8ud","address":"101 West Lombard Street, Room 4415, Baltimore, MD 21201-2605","geo_precision":"street"},"type":"Feature","geometry":{"type":"Point","coordinates":[-76.726201,39.313082]}},{"properties":{"city":"Baltimore - Lombard","cutover":{"end_time":"2011/12/17 00:00:00 -0500","original":"12/16/11","granularity":"day","time":"2011/12/16 00:00:00 -0500"},"geo_score":0.366,"court sites  state":"MD","court type":"Bankruptcy","count":126,"id":"a67m350lybgp","address":"101 West Lombard Street, Suite 8530, Baltimore, MD 21201-2605","geo_precision":"street"},"type":"Feature","geometry":{"type":"Point","coordinates":[-76.726201,39.313082]}},{"properties":{"city":"Baltimore - Lombard","cutover":{"end_time":"2011/12/17 00:00:00 -0500","original":"12/16/11","granularity":"day","time":"2011/12/16 00:00:00 -0500"},"geo_score":0.483,"court sites  state":"MD","court type":"Appeals","count":23,"id":"a67m34zfwdn9","address":"101 South Charles Street, 9th Floor, Baltimore MD 21201-2725","geo_precision":"street"},"type":"Feature","geometry":{"type":"Point","coordinates":[-76.722079,39.299351]}},{"properties":{"city":"Huntington","cutover":{"end_time":"2011/12/17 00:00:00 -0500","original":"12/16/11","granularity":"day","time":"2011/12/16 00:00:00 -0500"},"geo_score":0.571,"court sites  state":"WV","court type":"District","count":53,"id":"a67m35cgxgy1","address":"Sidney L. Christie Federal Building, 845 Fifth Avenue, Room 101, Huntington, WV 25701-2014","geo_precision":"street"},"type":"Feature","geometry":{"type":"Point","coordinates":[-82.389135,38.427899]}},{"properties":{"city":"Huntington","cutover":{"end_time":"2011/12/17 00:00:00 -0500","original":"12/16/11","granularity":"day","time":"2011/12/16 00:00:00 -0500"},"geo_score":0.571,"court sites  state":"WV","court type":"Bankruptcy","count":18,"id":"a67m35aq3s4t","address":"Sidney L. Christie Federal Building, 845 Fifth Avenue, Room 336, Huntington, WV 25701-2014","geo_precision":"street"},"type":"Feature","geometry":{"type":"Point","coordinates":[-82.389135,38.427899]}},{"properties":{"city":"Huntington","cutover":{"end_time":"2011/12/17 00:00:00 -0500","original":"12/16/11","granularity":"day","time":"2011/12/16 00:00:00 -0500"},"geo_score":0.571,"court sites  state":"WV","court type":"Probation","count":20,"id":"a67m34zdpgrn","address":"Sidney L. Christie Federal Building, 845 Fifth Avenue, Suite 324, Huntington, WV 25701-2014","geo_precision":"street"},"type":"Feature","geometry":{"type":"Point","coordinates":[-82.389135,38.427899]}},{"properties":{"city":"Greenbelt - Cherrywood","cutover":{"end_time":"2011/12/21 00:00:00 -0500","original":"12/20/11","granularity":"day","time":"2011/12/20 00:00:00 -0500"},"geo_score":0.381,"court sites  state":"MD","court type":"District","count":169,"id":"a67m35c8o60m","address":"6500 Cherrywood Lane, Suite 200, Greenbelt, MD 20770","geo_precision":"street"},"type":"Feature","geometry":{"type":"Point","coordinates":[-76.855618,38.895028]}},{"properties":{"city":"Greenbelt - Cherrywood","cutover":{"end_time":"2011/12/21 00:00:00 -0500","original":"12/20/11","granularity":"day","time":"2011/12/20 00:00:00 -0500"},"geo_score":0.381,"court sites  state":"MD","court type":"Bankruptcy","count":66,"id":"a67m359tglo6","address":"6500 Cherrywood Lane, Suite 300, Greenbelt, MD 20770","geo_precision":"street"},"type":"Feature","geometry":{"type":"Point","coordinates":[-76.855618,38.895028]}},{"properties":{"city":"Greenbelt - Cherrywood","cutover":{"end_time":"2011/12/21 00:00:00 -0500","original":"12/20/11","granularity":"day","time":"2011/12/20 00:00:00 -0500"},"geo_score":0.714,"court sites  state":"MD","court type":"Appeals","count":5,"id":"a67m35buhqpr","address":"Capitol Office Park 4, 6411 Ivy Lane, Room 710, Greenbelt, MD 20770","geo_precision":"street"},"type":"Feature","geometry":{"type":"Point","coordinates":[-76.889995,39.007632]}},{"properties":{"city":"Greenbelt - Cherrywood","cutover":{"end_time":"2011/12/21 00:00:00 -0500","original":"12/20/11","granularity":"day","time":"2011/12/20 00:00:00 -0500"},"geo_score":0.381,"court sites  state":"MD","court type":"Probation","count":19,"id":"a67m353788dt","address":"6500 Cherrywood Lane, Room 180, Greenbelt, MD 20770","geo_precision":"street"},"type":"Feature","geometry":{"type":"Point","coordinates":[-76.855618,38.895028]}},{"properties":{"city":"Asheville","cutover":{"end_time":"2011/12/24 00:00:00 -0500","original":"12/23/11","granularity":"day","time":"2011/12/23 00:00:00 -0500"},"geo_score":0.857,"court sites  state":"NC","court type":"District","count":74,"id":"a67m35bgl9fs","address":"United States Courthouse, 100 Otis Street, Room 309, Asheville, NC 28801-2611","geo_precision":"city"},"type":"Feature","geometry":{"type":"Point","coordinates":[-82.554015,35.600945]}},{"properties":{"city":"Asheville","cutover":{"end_time":"2011/12/24 00:00:00 -0500","original":"12/23/11","granularity":"day","time":"2011/12/23 00:00:00 -0500"},"geo_score":0.325,"court sites  state":"NC","court type":"Bankruptcy","count":27,"id":"a67m35do4ze4","address":"United States Courthouse, 100 Otis Street, Room 112, Asheville, NC 28801-2611","geo_precision":"street"},"type":"Feature","geometry":{"type":"Point","coordinates":[-82.607811,35.526641]}},{"properties":{"city":"Ashveille","cutover":{"end_time":"2011/12/24 00:00:00 -0500","original":"12/23/11","granularity":"day","time":"2011/12/23 00:00:00 -0500"},"geo_score":0.429,"court sites  state":"NC","court type":"Probation","count":37,"id":"a67m350y9y16","address":"United States Courthouse, 100 Otis Street, Room B-3, Asheville, NC 28801-2611","geo_precision":"street"},"type":"Feature","geometry":{"type":"Point","coordinates":[-82.561861,35.595892]}},{"properties":{"city":"Denver (BAP)","cutover":{"end_time":"2012/03/01 00:00:00 -0500","original":"02/29/12","granularity":"day","time":"2012/02/29 00:00:00 -0500"},"geo_score":0.714,"court sites  state":"CO","court type":"Appeals","count":15,"id":"a67m353phst1","address":"1823 Stout Street, Denver, CO 80257","geo_precision":"street"},"type":"Feature","geometry":{"type":"Point","coordinates":[-104.999155,39.741299]}},{"properties":{"city":"Ogden","cutover":{"end_time":"2012/03/02 00:00:00 -0500","original":"03/01/12","granularity":"day","time":"2012/03/01 00:00:00 -0500"},"geo_score":0.429,"court sites  state":"UT","court type":"Probation","count":9,"id":"a67m34zzhnzm","address":"James V. Hansen Federal Building, 324 Twenty-Fifth Street, Room 1307, Ogden, UT 84401-2310","geo_precision":"street"},"type":"Feature","geometry":{"type":"Point","coordinates":[-111.997413,41.224493]}},{"properties":{"city":"Flagstaff","cutover":{"end_time":"2012/03/09 00:00:00 -0500","original":"03/08/12","granularity":"day","time":"2012/03/08 00:00:00 -0500"},"geo_score":0.486,"court sites  state":"AZ","court type":"District","count":10,"id":"a67m35dsxz6c","address":"United States Courthouse, 123 North San Francisco Street, Suite 200, Flagstaff, AZ 86001-5296","geo_precision":"street"},"type":"Feature","geometry":{"type":"Point","coordinates":[-111.648062,35.197168]}},{"properties":{"city":"Flagstaff","cutover":{"end_time":"2012/03/09 00:00:00 -0500","original":"03/08/12","granularity":"day","time":"2012/03/08 00:00:00 -0500"},"geo_score":0.486,"court sites  state":"AZ","court type":"Probation","count":20,"id":"a67m350zvd1b","address":"United States Courthouse, 123 North San Francisco Street, Suite 202, Flagstaff, AZ 86001-5296","geo_precision":"street"},"type":"Feature","geometry":{"type":"Point","coordinates":[-111.648062,35.197168]}},{"properties":{"city":"Prescott","cutover":{"end_time":"2012/03/10 00:00:00 -0500","original":"03/09/12","granularity":"day","time":"2012/03/09 00:00:00 -0500"},"geo_score":0.329,"court sites  state":"AZ","court type":"District","count":6,"id":"a67m3546egnh","address":"101 W. Goodwin Street, Prescott, AZ 86303","geo_precision":"street"},"type":"Feature","geometry":{"type":"Point","coordinates":[-112.465225,34.539913]}},{"properties":{"city":"Prescott","cutover":{"end_time":"2012/03/10 00:00:00 -0500","original":"03/09/12","granularity":"day","time":"2012/03/09 00:00:00 -0500"},"geo_score":0.329,"court sites  state":"AZ","court type":"Probation","count":2,"id":"a67m3542yhjw","address":"101 W. Goodwin Street, Prescott, AZ 86303","geo_precision":"street"},"type":"Feature","geometry":{"type":"Point","coordinates":[-112.465225,34.539913]}},{"properties":{"city":"Rutland - 151 West St","cutover":{"end_time":"2012/04/12 00:00:00 -0400","original":"04/11/12","granularity":"day","time":"2012/04/11 00:00:00 -0400"},"geo_score":0.408,"court sites  state":"VT","court type":"Appeals","count":11,"id":"a67m34ycmrh6","address":"151 West Street, Rutland, VT 05701","geo_precision":"street"},"type":"Feature","geometry":{"type":"Point","coordinates":[-73.134478,44.00053]}},{"properties":{"city":"Rutland","cutover":{"end_time":"2012/04/12 00:00:00 -0400","original":"04/11/12","granularity":"day","time":"2012/04/11 00:00:00 -0400"},"geo_score":0.524,"court sites  state":"VT","court type":"District","count":21,"id":"a67m358dlyv4","address":"151 West St, Rutland VT","geo_precision":"street"},"type":"Feature","geometry":{"type":"Point","coordinates":[-72.962539,43.611717]}},{"properties":{"city":"Rutland","cutover":{"end_time":"2012/04/12 00:00:00 -0400","original":"04/11/12","granularity":"day","time":"2012/04/11 00:00:00 -0400"},"geo_score":0.524,"court sites  state":"VT","court type":"Probation","count":6,"id":"a67m355jjwc8","address":"151 West St, Rutland VT","geo_precision":"street"},"type":"Feature","geometry":{"type":"Point","coordinates":[-72.962539,43.611717]}},{"properties":{"city":"Greenville","cutover":{"end_time":"2012/04/17 00:00:00 -0400","original":"04/16/12","granularity":"day","time":"2012/04/16 00:00:00 -0400"},"geo_score":0.49,"court sites  state":"SC","court type":"Probation","count":65,"id":"a67m350k6w9c","address":"301 N. Main Street, Room 1600, Greenville SC 29601-2175","geo_precision":"street"},"type":"Feature","geometry":{"type":"Point","coordinates":[-82.398591,34.851558]}},{"properties":{"city":"Bratttleboro","cutover":{"end_time":"2012/04/18 00:00:00 -0400","original":"04/17/12","granularity":"day","time":"2012/04/17 00:00:00 -0400"},"geo_score":0.845,"court sites  state":"VT","court type":"District","count":11,"id":"a67m358q87sl","address":"204 Main Street , Brattleboro, VT 05301","geo_precision":"street"},"type":"Feature","geometry":{"type":"Point","coordinates":[-72.557518,42.851048]}},{"properties":{"city":"Brattleboro","cutover":{"end_time":"2012/04/18 00:00:00 -0400","original":"04/17/12","granularity":"day","time":"2012/04/17 00:00:00 -0400"},"geo_score":0.857,"court sites  state":"VT","court type":"Probation","count":3,"id":"a67m358zscdr","address":"204 Main Street, 3rd Floor, Brattleboro VT 05301","geo_precision":"street"},"type":"Feature","geometry":{"type":"Point","coordinates":[-72.557518,42.851048]}},{"properties":{"city":"San Antonio","cutover":{"end_time":"2012/04/19 00:00:00 -0400","original":"04/18/12","granularity":"day","time":"2012/04/18 00:00:00 -0400"},"geo_score":0.359,"court sites  state":"TX","court type":"Call Center","count":34,"id":"a67m3543dq7o","address":"7550 Highway 10 West","geo_precision":"street"},"type":"Feature","geometry":{"type":"Point","coordinates":[-98.60403,29.460096]}},{"properties":{"city":"Poughkeepsie","cutover":{"end_time":"2012/04/20 00:00:00 -0400","original":"04/19/12","granularity":"day","time":"2012/04/19 00:00:00 -0400"},"geo_score":0.514,"court sites  state":"NY","court type":"Bankruptcy","count":28,"id":"a67m3520sg86","address":"355 MAin St. 2nd Fl, Computer Rm","geo_precision":"street"},"type":"Feature","geometry":{"type":"Point","coordinates":[-73.932834,41.746628]}},{"properties":{"city":"Springfield","cutover":{"end_time":"2012/04/25 00:00:00 -0400","original":"04/24/12","granularity":"day","time":"2012/04/24 00:00:00 -0400"},"geo_score":0.411,"court sites  state":"MO","court type":"Bankruptcy","count":7,"id":"a67m352x60rz","address":"222 North John Q. Hammons Parkway","geo_precision":"street"},"type":"Feature","geometry":{"type":"Point","coordinates":[-90.964764,38.267543]}},{"properties":{"city":"Springfield","cutover":{"end_time":"2012/04/25 00:00:00 -0400","original":"04/24/12","granularity":"day","time":"2012/04/24 00:00:00 -0400"},"geo_score":0.411,"court sites  state":"MO","court type":"Probation","count":33,"id":"a67m356x85tc","address":"222 North John Q. Hammons Parkway","geo_precision":"street"},"type":"Feature","geometry":{"type":"Point","coordinates":[-90.964764,38.267543]}},{"properties":{"city":"Springfield","cutover":{"end_time":"2012/04/25 00:00:00 -0400","original":"04/24/12","granularity":"day","time":"2012/04/24 00:00:00 -0400"},"geo_score":0.411,"court sites  state":"MO","court type":"District","count":86,"id":"a67m353a41an","address":"222 North John Q. Hammons Parkway","geo_precision":"street"},"type":"Feature","geometry":{"type":"Point","coordinates":[-90.964764,38.267543]}},{"properties":{"city":"Elkins","cutover":{"end_time":"2012/04/25 00:00:00 -0400","original":"04/24/12","granularity":"day","time":"2012/04/24 00:00:00 -0400"},"geo_score":0.663,"court sites  state":"WV","court type":"District","count":33,"id":"a67m34zsf12w","address":"300 Third St","geo_precision":"street"},"type":"Feature","geometry":{"type":"Point","coordinates":[-79.846828,38.925098]}},{"properties":{"city":"Elkins","cutover":{"end_time":"2012/04/25 00:00:00 -0400","original":"04/24/12","granularity":"day","time":"2012/04/24 00:00:00 -0400"},"geo_score":0.663,"court sites  state":"WV","court type":"Probation","count":9,"id":"a67m35c5k85z","address":"300 Third St","geo_precision":"street"},"type":"Feature","geometry":{"type":"Point","coordinates":[-79.846828,38.925098]}},{"properties":{"city":"Burlington","cutover":{"end_time":"2012/04/25 00:00:00 -0400","original":"04/24/12","granularity":"day","time":"2012/04/24 00:00:00 -0400"},"geo_score":0.85,"court sites  state":"VT","court type":"District","count":51,"id":"a67m35d4co8i","address":"11 Elmwood Ave.","geo_precision":"range"},"type":"Feature","geometry":{"type":"Point","coordinates":[-72.507023,44.206037]}},{"properties":{"city":"Burlington","cutover":{"end_time":"2012/04/25 00:00:00 -0400","original":"04/24/12","granularity":"day","time":"2012/04/24 00:00:00 -0400"},"geo_score":0.85,"court sites  state":"VT","court type":"Probation","count":22,"id":"a67m353wre5x","address":"11 Elmwood Ave.","geo_precision":"range"},"type":"Feature","geometry":{"type":"Point","coordinates":[-72.507023,44.206037]}},{"properties":{"city":"Wheeling","cutover":{"end_time":"2012/05/09 00:00:00 -0400","original":"05/08/12","granularity":"day","time":"2012/05/08 00:00:00 -0400"},"geo_score":0.873,"court sites  state":"WV","court type":"Bankruptcy","count":36,"id":"a67m353qmif0","address":"1125 Chaplin St","geo_precision":"range"},"type":"Feature","geometry":{"type":"Point","coordinates":[-80.721516,40.068491]}},{"properties":{"city":"Wheeling","cutover":{"end_time":"2012/05/09 00:00:00 -0400","original":"05/08/12","granularity":"day","time":"2012/05/08 00:00:00 -0400"},"geo_score":0.873,"court sites  state":"WV","court type":"District","count":65,"id":"a67m35dpjaf3","address":"1125 Chaplin St","geo_precision":"range"},"type":"Feature","geometry":{"type":"Point","coordinates":[-80.721516,40.068491]}},{"properties":{"city":"Wheeling","cutover":{"end_time":"2012/05/09 00:00:00 -0400","original":"05/08/12","granularity":"day","time":"2012/05/08 00:00:00 -0400"},"geo_score":0.873,"court sites  state":"WV","court type":"Probation","count":19,"id":"a67m359x230b","address":"1125 Chaplin St","geo_precision":"range"},"type":"Feature","geometry":{"type":"Point","coordinates":[-80.721516,40.068491]}},{"properties":{"city":"Beckley","cutover":{"end_time":"2012/05/11 00:00:00 -0400","original":"05/10/12","granularity":"day","time":"2012/05/10 00:00:00 -0400"},"geo_score":0.902,"court sites  state":"WV","court type":"Bankruptcy","count":11,"id":"a67m35c1igny","address":"110 North Heber St","geo_precision":"range"},"type":"Feature","geometry":{"type":"Point","coordinates":[-81.189864,37.777258]}},{"properties":{"city":"Beckley","cutover":{"end_time":"2012/05/11 00:00:00 -0400","original":"05/10/12","granularity":"day","time":"2012/05/10 00:00:00 -0400"},"geo_score":0.902,"court sites  state":"WV","court type":"District","count":73,"id":"a67m351aa1rd","address":"110 North Heber St","geo_precision":"range"},"type":"Feature","geometry":{"type":"Point","coordinates":[-81.189864,37.777258]}},{"properties":{"city":"Beckley","cutover":{"end_time":"2012/05/11 00:00:00 -0400","original":"05/10/12","granularity":"day","time":"2012/05/10 00:00:00 -0400"},"geo_score":0.902,"court sites  state":"WV","court type":"Probation","count":14,"id":"a67m35aa1dvs","address":"110 North Heber St","geo_precision":"range"},"type":"Feature","geometry":{"type":"Point","coordinates":[-81.189864,37.777258]}},{"properties":{"city":"Clarksburg","cutover":{"end_time":"2012/05/16 00:00:00 -0400","original":"05/15/12","granularity":"day","time":"2012/05/15 00:00:00 -0400"},"geo_score":0.693,"court sites  state":"WV","court type":"Probation","count":13,"id":"a67m3500d1j8","address":"320 W Pike - 324 W Main","geo_precision":"range"},"type":"Feature","geometry":{"type":"Point","coordinates":[-80.339825,39.279377]}},{"properties":{"city":"Clarksburg","cutover":{"end_time":"2012/05/16 00:00:00 -0400","original":"05/15/12","granularity":"day","time":"2012/05/15 00:00:00 -0400"},"geo_score":0.693,"court sites  state":"WV","court type":"Bankruptcy","count":42,"id":"a67m353l9ow0","address":"320 W Pike - 324 W Main","geo_precision":"range"},"type":"Feature","geometry":{"type":"Point","coordinates":[-80.339825,39.279377]}},{"properties":{"city":"Clarksburg","cutover":{"end_time":"2012/05/16 00:00:00 -0400","original":"05/15/12","granularity":"day","time":"2012/05/15 00:00:00 -0400"},"geo_score":0.693,"court sites  state":"WV","court type":"District","count":22,"id":"a67m350pa0lk","address":"320 W Pike - 324 W Main","geo_precision":"range"},"type":"Feature","geometry":{"type":"Point","coordinates":[-80.339825,39.279377]}},{"properties":{"city":"Vista","cutover":{"end_time":"2012/05/16 00:00:00 -0400","original":"05/15/12","granularity":"day","time":"2012/05/15 00:00:00 -0400"},"geo_score":0.585,"court sites  state":"CA","court type":"Probation","count":9,"id":"a67m34z5bys8","address":"495 La Tortuga Dr","geo_precision":"city"},"type":"Feature","geometry":{"type":"Point","coordinates":[-116.846046,33.016928]}},{"properties":{"city":"Bluefield","cutover":{"end_time":"2012/05/18 00:00:00 -0400","original":"05/17/12","granularity":"day","time":"2012/05/17 00:00:00 -0400"},"geo_score":0.902,"court sites  state":"WV","court type":"District","count":45,"id":"a67m351enxec","address":"601 Federal St","geo_precision":"range"},"type":"Feature","geometry":{"type":"Point","coordinates":[-81.221949,37.267419]}},{"properties":{"city":"Bluefield","cutover":{"end_time":"2012/05/18 00:00:00 -0400","original":"05/17/12","granularity":"day","time":"2012/05/17 00:00:00 -0400"},"geo_score":0.902,"court sites  state":"WV","court type":"Probation","count":15,"id":"a67m34zk5cza","address":"601 Federal St","geo_precision":"range"},"type":"Feature","geometry":{"type":"Point","coordinates":[-81.221949,37.267419]}},{"properties":{"city":"Newark","cutover":{"end_time":"2012/05/19 00:00:00 -0400","original":"05/18/12","granularity":"day","time":"2012/05/18 00:00:00 -0400"},"geo_score":0.805,"court sites  state":"NJ","court type":"Bankruptcy","count":100,"id":"a67m351ib156","address":"50 Walnut St","geo_precision":"range"},"type":"Feature","geometry":{"type":"Point","coordinates":[-74.166134,40.792095]}},{"properties":{"city":"Newark","cutover":{"end_time":"2012/05/19 00:00:00 -0400","original":"05/18/12","granularity":"day","time":"2012/05/18 00:00:00 -0400"},"geo_score":0.805,"court sites  state":"NJ","court type":"Probation","count":74,"id":"a67m3538i6yk","address":"50 Walnut St","geo_precision":"range"},"type":"Feature","geometry":{"type":"Point","coordinates":[-74.166134,40.792095]}},{"properties":{"city":"Chula Vista","cutover":{"end_time":"2012/05/23 00:00:00 -0400","original":"05/22/12","granularity":"day","time":"2012/05/22 00:00:00 -0400"},"geo_score":0.805,"court sites  state":"CA","court type":"Probation","count":49,"id":"a67m35743b8b","address":"303 H St","geo_precision":"range"},"type":"Feature","geometry":{"type":"Point","coordinates":[-117.077268,32.634352]}},{"properties":{"city":"Martinsburg","cutover":{"end_time":"2012/05/23 00:00:00 -0400","original":"05/22/12","granularity":"day","time":"2012/05/22 00:00:00 -0400"},"geo_score":0.902,"court sites  state":"WV","court type":"District","count":46,"id":"a67m352d4g9a","address":"217 W King St","geo_precision":"range"},"type":"Feature","geometry":{"type":"Point","coordinates":[-77.965356,39.45651]}},{"properties":{"city":"Martinsburg","cutover":{"end_time":"2012/05/23 00:00:00 -0400","original":"05/22/12","granularity":"day","time":"2012/05/22 00:00:00 -0400"},"geo_score":0.902,"court sites  state":"WV","court type":"Probation","count":16,"id":"a67m355ac0jx","address":"217 W King St","geo_precision":"range"},"type":"Feature","geometry":{"type":"Point","coordinates":[-77.965356,39.45651]}},{"properties":{"city":"Lisle","cutover":{"end_time":"2012/05/24 00:00:00 -0400","original":"05/23/12","granularity":"day","time":"2012/05/23 00:00:00 -0400"},"geo_score":0.707,"court sites  state":"IL","court type":"Probation","count":16,"id":"a67m35bwghhr","address":"801 Warrenville Rd","geo_precision":"street"},"type":"Feature","geometry":{"type":"Point","coordinates":[-88.091491,41.808165]}},{"properties":{"city":"Manhattan","cutover":{"end_time":"2012/05/25 00:00:00 -0400","original":"05/24/12","granularity":"day","time":"2012/05/24 00:00:00 -0400"},"geo_score":0.0,"court sites  state":"NY","court type":"Bankruptcy","count":147,"id":"a67m358pckmi","address":"One Bowling Green","geo_precision":"unmatched"},"type":"Feature","geometry":null}],"is_temporal":true,"author":{"url":"","metadata":"","contact_name":"","contact_address":"","source":"","contact_phone":""},"source":"","pagination":{"sort":null,"start":0,"total":69,"limit":1000000},"state":"complete","tags":"","published":"2014-08-15T02:55:54-04:00","id":248581}