{"type":"FeatureCollection","data_type":"Dataset","url_type":null,"permissions":[{"permissions":{"download":true,"view":true},"group_id":"everyone"}],"classification":null,"title":"shell-varish","count":68,"stream_id":248519,"contributor":{"url":"http://geocommons.com/users/46671","name":"ericwaze"},"data_attributes":null,"calculation_params":null,"icon_link":null,"link":"http://geocommons.com/overlays/248519.json","extent":[-124.111,32.5949,-116.865,40.947],"geometry_types":["point"],"unique_name":null,"name":"shell-varish","feature_count":68,"description":"","next_feature":null,"is_raster":false,"short_classification":"Y","stats":{"zipcode":{"max":95133,"mean":94052.25,"variance":913666.160447761,"stdev":955.858860108416,"min":91911,"median":94107}},"features":[{"properties":{"city":"Campbell","zipcode":95008,"geo_score":0.482,"id":"a67hb2kfm7d3","address":"2029 S. Bascom Ave","geo_precision":"street","state":"CA"},"type":"Feature","geometry":{"type":"Point","coordinates":[-121.94725,37.25945]}},{"properties":{"city":"CUPERTINO","zipcode":95014,"geo_score":0.902,"id":"a67hb2vjkgzf","address":"19990 STEVENS CREEK BLVD","geo_precision":"range","state":"CA"},"type":"Feature","geometry":{"type":"Point","coordinates":[-122.022809,37.322847]}},{"properties":{"city":"MENLO PARK","zipcode":94025,"geo_score":0.415,"id":"a67hb2iwtqez","address":"495 EL CAMINO REAL","geo_precision":"street","state":"CA"},"type":"Feature","geometry":{"type":"Point","coordinates":[-124.106492,40.505437]}},{"properties":{"city":"MOUNTAIN VIEW","zipcode":94043,"geo_score":0.557,"id":"a67hb2u9oj7v","address":"1708 MIRAMONTE","geo_precision":"street","state":"CA"},"type":"Feature","geometry":{"type":"Point","coordinates":[-117.189327,34.029135]}},{"properties":{"city":"MOUNTAIN VIEW","zipcode":94040,"geo_score":0.523,"id":"a67hb2oxrguc","address":"790 E EL CAMINO REAL","geo_precision":"street","state":"CA"},"type":"Feature","geometry":{"type":"Point","coordinates":[-117.148255,34.028726]}},{"properties":{"city":"MOUNTAIN VIEW","zipcode":94040,"geo_score":0.545,"id":"a67hb2wxlluq","address":"1288 EL CAMINO REAL","geo_precision":"street","state":"CA"},"type":"Feature","geometry":{"type":"Point","coordinates":[-117.148255,34.028726]}},{"properties":{"city":"MOUNTAIN VIEW","zipcode":94043,"geo_score":0.557,"id":"a67hb2i96i7h","address":"110 N RENGSTORFF AVE","geo_precision":"city","state":"CA"},"type":"Feature","geometry":{"type":"Point","coordinates":[-117.348935,34.496663]}},{"properties":{"city":"PALO ALTO","zipcode":94303,"geo_score":0.902,"id":"a67hb2r7np4o","address":"1161 EMBARCADERO ROAD","geo_precision":"range","state":"CA"},"type":"Feature","geometry":{"type":"Point","coordinates":[-122.126279,37.447003]}},{"properties":{"city":"REDWOOD CITY","zipcode":94063,"geo_score":0.513,"id":"a67hb2myhd6r","address":"690 VETERANS BLVD","geo_precision":"street","state":"CA"},"type":"Feature","geometry":{"type":"Point","coordinates":[-117.02822,34.86907]}},{"properties":{"city":"SAN JOSE","zipcode":95125,"geo_score":0.805,"id":"a67hb2ob3jmc","address":"1610 MERIDIAN AVENUE","geo_precision":"range","state":"CA"},"type":"Feature","geometry":{"type":"Point","coordinates":[-121.913532,37.294259]}},{"properties":{"city":"REDWOOD CITY","zipcode":94061,"geo_score":0.551,"id":"a67hb2ma001l","address":"1667 WOODSIDE RD","geo_precision":"street","state":"CA"},"type":"Feature","geometry":{"type":"Point","coordinates":[-116.86467,34.252344]}},{"properties":{"city":"REDWOOD CITY","zipcode":94061,"geo_score":0.746,"id":"a67hb2ma6mxa","address":"582 WOODSIDE RD","geo_precision":"range","state":"CA"},"type":"Feature","geometry":{"type":"Point","coordinates":[-116.864587,34.252486]}},{"properties":{"city":"Atherton","zipcode":94027,"geo_score":0.829,"id":"a67hb2skpcgx","address":"3201 EL CAMINO REAL","geo_precision":"range","state":"CA"},"type":"Feature","geometry":{"type":"Point","coordinates":[-122.209011,37.467172]}},{"properties":{"city":"San Jose","zipcode":95121,"geo_score":0.347,"id":"a67hb2qksq9s","address":"3290 S. White Rd.","geo_precision":"street","state":"CA"},"type":"Feature","geometry":{"type":"Point","coordinates":[-121.903651,37.331866]}},{"properties":{"city":"Sunnyvale","zipcode":94086,"geo_score":0.456,"id":"a67hb2mz6ntu","address":"296 Fair Oaks","geo_precision":"street","state":"CA"},"type":"Feature","geometry":{"type":"Point","coordinates":[-122.0158,37.3867]}},{"properties":{"city":"San Jose","zipcode":95126,"geo_score":0.805,"id":"a67hb2j9klbv","address":"395 Bird Ave","geo_precision":"range","state":"CA"},"type":"Feature","geometry":{"type":"Point","coordinates":[-121.899323,37.323353]}},{"properties":{"city":"San Jose","zipcode":95112,"geo_score":0.61,"id":"a67hb2u2228o","address":"2180 Monterey Rd","geo_precision":"street","state":"CA"},"type":"Feature","geometry":{"type":"Point","coordinates":[-121.797205,37.25252]}},{"properties":{"city":"San Jose","zipcode":95035,"geo_score":0.805,"id":"a67hb2t2e7jc","address":"1699 Story Rd.","geo_precision":"range","state":"CA"},"type":"Feature","geometry":{"type":"Point","coordinates":[-121.843109,37.339904]}},{"properties":{"city":"SAN JOSE","zipcode":95119,"geo_score":0.805,"id":"a67hb2plk7qf","address":"101 BERNAL ROAD","geo_precision":"range","state":"CA"},"type":"Feature","geometry":{"type":"Point","coordinates":[-121.773676,37.230173]}},{"properties":{"city":"MORGAN HILL","zipcode":95037,"geo_score":0.902,"id":"a67hb2it462y","address":"810 E DUNNE AVENUE","geo_precision":"range","state":"CA"},"type":"Feature","geometry":{"type":"Point","coordinates":[-121.636138,37.130671]}},{"properties":{"city":"SAN JOSE","zipcode":95122,"geo_score":0.805,"id":"a67hb2widwgz","address":"1698 TULLY ROAD","geo_precision":"range","state":"CA"},"type":"Feature","geometry":{"type":"Point","coordinates":[-121.825893,37.322371]}},{"properties":{"city":"SAN JOSE","zipcode":95118,"geo_score":0.614,"id":"a67hb2kue9ty","address":"5607 ALMADEN ROAD","geo_precision":"street","state":"CA"},"type":"Feature","geometry":{"type":"Point","coordinates":[-121.875418,37.249223]}},{"properties":{"city":"SUNNYVALE","zipcode":94086,"geo_score":0.805,"id":"a67hb2u9sbkn","address":"703 S WOLFE RD","geo_precision":"range","state":"CA"},"type":"Feature","geometry":{"type":"Point","coordinates":[-122.01373,37.366573]}},{"properties":{"city":"SANTA CLARA","zipcode":95054,"geo_score":0.445,"id":"a67hb2lf5puj","address":"5390 GREAT AMERICA PARKWAY","geo_precision":"street","state":"CA"},"type":"Feature","geometry":{"type":"Point","coordinates":[-119.893857,36.258416]}},{"properties":{"city":"BURLINGAME","zipcode":94010,"geo_score":0.823,"id":"a67hb2vqi6o1","address":"1390 BAYSHORE DRIVE","geo_precision":"range","state":"CA"},"type":"Feature","geometry":{"type":"Point","coordinates":[-122.36546,37.596375]}},{"properties":{"city":"DALY CITY","zipcode":94014,"geo_score":0.513,"id":"a67hb2nprlu3","address":"950 HILLSIDE BLVD","geo_precision":"street","state":"CA"},"type":"Feature","geometry":{"type":"Point","coordinates":[-120.218617,40.026831]}},{"properties":{"city":"DALY CITY","zipcode":94015,"geo_score":0.512,"id":"a67hb2jhpwkg","address":"398 GELLERT BLVD","geo_precision":"city","state":"CA"},"type":"Feature","geometry":{"type":"Point","coordinates":[-120.20247,39.962841]}},{"properties":{"city":"DALY CITY","zipcode":94017,"geo_score":0.512,"id":"a67hb2o5bic3","address":"390 HICKEY","geo_precision":"city","state":"CA"},"type":"Feature","geometry":{"type":"Point","coordinates":[-120.20247,39.962841]}},{"properties":{"city":"PACIFICA","zipcode":94044,"geo_score":0.902,"id":"a67hb2x8snrh","address":"4475 COAST HWY","geo_precision":"range","state":"CA"},"type":"Feature","geometry":{"type":"Point","coordinates":[-122.496157,37.608168]}},{"properties":{"city":"PACIFICA","zipcode":94044,"geo_score":0.902,"id":"a67hb2k92mjv","address":"679 HICKEY BLVD","geo_precision":"range","state":"CA"},"type":"Feature","geometry":{"type":"Point","coordinates":[-122.478495,37.659094]}},{"properties":{"city":"SAN MATEO","zipcode":94403,"geo_score":0.746,"id":"a67hb2mpbodn","address":"2901 S NORFOLK","geo_precision":"range","state":"CA"},"type":"Feature","geometry":{"type":"Point","coordinates":[-122.285038,37.546212]}},{"properties":{"city":"SAN MATEO","zipcode":94401,"geo_score":0.721,"id":"a67hb2uxgjbo","address":"611 E THIRD AVE","geo_precision":"range","state":"CA"},"type":"Feature","geometry":{"type":"Point","coordinates":[-122.319997,37.567182]}},{"properties":{"city":"SAN MATEO","zipcode":94401,"geo_score":0.634,"id":"a67hb2ucubds","address":"400 PENINSULA","geo_precision":"street","state":"CA"},"type":"Feature","geometry":{"type":"Point","coordinates":[-122.338211,37.577843]}},{"properties":{"city":"SAN CARLOS","zipcode":94070,"geo_score":0.512,"id":"a67hb2nr0o1p","address":"1098 EL CAMINO REAL","geo_precision":"street","state":"CA"},"type":"Feature","geometry":{"type":"Point","coordinates":[-124.106492,40.505437]}},{"properties":{"city":"San Bruno","zipcode":94066,"geo_score":0.48,"id":"a67hb2r77opl","address":"798 El Camino","geo_precision":"street","state":"CA"},"type":"Feature","geometry":{"type":"Point","coordinates":[-117.25313,34.154012]}},{"properties":{"city":"SAN FRANCISCO","zipcode":94122,"geo_score":0.721,"id":"a67hb2ugzzro","address":"1200 19TH AVE","geo_precision":"range","state":"CA"},"type":"Feature","geometry":{"type":"Point","coordinates":[-122.477308,37.765448]}},{"properties":{"city":"SAN FRANCISCO","zipcode":94102,"geo_score":0.805,"id":"a67hb2j8m3zg","address":"800 TURK ST","geo_precision":"range","state":"CA"},"type":"Feature","geometry":{"type":"Point","coordinates":[-122.422287,37.781752]}},{"properties":{"city":"SAN FRANCISCO","zipcode":94112,"geo_score":0.805,"id":"a67hb2kgpzfj","address":"2200 ALEMANY BLVD","geo_precision":"range","state":"CA"},"type":"Feature","geometry":{"type":"Point","coordinates":[-122.442328,37.717833]}},{"properties":{"city":"SAN FRANCISCO","zipcode":94107,"geo_score":0.688,"id":"a67hb2wmivc1","address":"551 THIRD STREET","geo_precision":"range","state":"CA"},"type":"Feature","geometry":{"type":"Point","coordinates":[-122.395065,37.780701]}},{"properties":{"city":"SAN FRANCISCO","zipcode":94122,"geo_score":0.805,"id":"a67hb2rojkh3","address":"601 LINCOLN WAY","geo_precision":"range","state":"CA"},"type":"Feature","geometry":{"type":"Point","coordinates":[-122.464297,37.765963]}},{"properties":{"city":"SAN FRANCISCO","zipcode":94103,"geo_score":0.805,"id":"a67hb2uzxxfp","address":"1201 HARRISON ST","geo_precision":"range","state":"CA"},"type":"Feature","geometry":{"type":"Point","coordinates":[-122.408515,37.773759]}},{"properties":{"city":"SAN FRANCISCO","zipcode":94115,"geo_score":0.756,"id":"a67hb2sbw2y9","address":"2501 CALIFORNIA","geo_precision":"range","state":"CA"},"type":"Feature","geometry":{"type":"Point","coordinates":[-122.435486,37.788697]}},{"properties":{"city":"SAN FRANCISCO","zipcode":94123,"geo_score":0.74,"id":"a67hb2snyzaj","address":"1800 LOMBARD","geo_precision":"range","state":"CA"},"type":"Feature","geometry":{"type":"Point","coordinates":[-122.431115,37.800469]}},{"properties":{"city":"SAN FRANCISCO","zipcode":94116,"geo_score":0.721,"id":"a67hb2vrk7mv","address":"2399 19TH AVENUE","geo_precision":"range","state":"CA"},"type":"Feature","geometry":{"type":"Point","coordinates":[-122.475644,37.743052]}},{"properties":{"city":"SAN FRANCISCO","zipcode":94107,"geo_score":0.688,"id":"a67hb2pt4l5q","address":"2890 THIRD STREET","geo_precision":"range","state":"CA"},"type":"Feature","geometry":{"type":"Point","coordinates":[-122.387832,37.752924]}},{"properties":{"city":"SAN FRANCISCO","zipcode":94110,"geo_score":0.805,"id":"a67hb2k4ihgr","address":"3550 MISSION ST","geo_precision":"range","state":"CA"},"type":"Feature","geometry":{"type":"Point","coordinates":[-122.423288,37.740255]}},{"properties":{"city":"UNION CITY","zipcode":94587,"geo_score":0.902,"id":"a67hb2rn42l2","address":"2001 DECOTO ROAD","geo_precision":"range","state":"CA"},"type":"Feature","geometry":{"type":"Point","coordinates":[-122.021514,37.587181]}},{"properties":{"city":"Fremont","zipcode":94538,"geo_score":0.805,"id":"a67hb2hya51r","address":"5515 Automall Parkway","geo_precision":"range","state":"CA"},"type":"Feature","geometry":{"type":"Point","coordinates":[-121.973091,37.505078]}},{"properties":{"city":"Milpitas","zipcode":95035,"geo_score":0.902,"id":"a67hb2jk1ym9","address":"1780 South Main St.","geo_precision":"range","state":"CA"},"type":"Feature","geometry":{"type":"Point","coordinates":[-121.902873,37.404546]}},{"properties":{"city":"SAN JOSE","zipcode":95132,"geo_score":0.805,"id":"a67hb2th7lqp","address":"1601 N CAPITOL AVE","geo_precision":"range","state":"CA"},"type":"Feature","geometry":{"type":"Point","coordinates":[-121.871725,37.396703]}},{"properties":{"city":"San Jose","zipcode":95132,"geo_score":0.805,"id":"a67hb2su94i0","address":"3295 Sierra Rd.","geo_precision":"range","state":"CA"},"type":"Feature","geometry":{"type":"Point","coordinates":[-121.847086,37.399733]}},{"properties":{"city":"MILPITAS","zipcode":95035,"geo_score":0.902,"id":"a67hb2wfitjq","address":"990 JACKLIN ROAD","geo_precision":"range","state":"CA"},"type":"Feature","geometry":{"type":"Point","coordinates":[-121.89221,37.447002]}},{"properties":{"city":"SAN JOSE","zipcode":95133,"geo_score":0.752,"id":"a67hb2ukzuiq","address":"1705 BERRYESSA","geo_precision":"range","state":"CA"},"type":"Feature","geometry":{"type":"Point","coordinates":[-121.873908,37.373175]}},{"properties":{"city":"San Jose","zipcode":95116,"geo_score":0.725,"id":"a67hb2qidk5t","address":"2510 Alum Rock","geo_precision":"range","state":"CA"},"type":"Feature","geometry":{"type":"Point","coordinates":[-121.840755,37.359821]}},{"properties":{"city":"SANTA CLARA","zipcode":95054,"geo_score":0.517,"id":"a67hb2ohs0rx","address":"2800 AUGUSTINE DRIVE","geo_precision":"city","state":"CA"},"type":"Feature","geometry":{"type":"Point","coordinates":[-119.045658,36.114674]}},{"properties":{"city":"San Marcos","zipcode":92078,"geo_score":0.435,"id":"a67hb2iex3c7","address":"1710 San Elijo Road","geo_precision":"street","state":"CA"},"type":"Feature","geometry":{"type":"Point","coordinates":[-124.111475,40.946959]}},{"properties":{"city":"El Cajon","zipcode":92021,"geo_score":0.805,"id":"a67hb2pzm7a8","address":"13538 Camino Canada","geo_precision":"range","state":"CA"},"type":"Feature","geometry":{"type":"Point","coordinates":[-116.900022,32.828107]}},{"properties":{"city":"National City","zipcode":91950,"geo_score":0.5,"id":"a67hb2qs4pfn","address":"1601 E. Eight St","geo_precision":"street","state":"CA"},"type":"Feature","geometry":{"type":"Point","coordinates":[-117.106911,32.675815]}},{"properties":{"city":"Chula Vista","zipcode":91911,"geo_score":0.805,"id":"a67hb2lrtbop","address":"4555 Main Street","geo_precision":"range","state":"CA"},"type":"Feature","geometry":{"type":"Point","coordinates":[-117.032508,32.594918]}},{"properties":{"city":"Oceanside","zipcode":92054,"geo_score":0.61,"id":"a67hb2qvae53","address":"3490 Marron Road","geo_precision":"street","state":"CA"},"type":"Feature","geometry":{"type":"Point","coordinates":[-117.321252,33.17837]}},{"properties":{"city":"Aliso Viejo","zipcode":92656,"geo_score":0.902,"id":"a67hb2s34gkw","address":"27882 Aliso Creek Rd","geo_precision":"range","state":"CA"},"type":"Feature","geometry":{"type":"Point","coordinates":[-117.723937,33.557593]}},{"properties":{"city":"Lake Forrest","zipcode":92630,"geo_score":0.522,"id":"a67hb2lkia0s","address":"26721 Rancho Pkwy","geo_precision":"street","state":"CA"},"type":"Feature","geometry":{"type":"Point","coordinates":[-121.230197,37.810761]}},{"properties":{"city":"Winchester","zipcode":92596,"geo_score":0.708,"id":"a67hb2v022h0","address":"30616 Benton Road","geo_precision":"street","state":"CA"},"type":"Feature","geometry":{"type":"Point","coordinates":[-117.12501,33.592103]}},{"properties":{"city":"Temecula","zipcode":92591,"geo_score":0.805,"id":"a67hb2vc92y8","address":"42197 Margarita Rd","geo_precision":"range","state":"CA"},"type":"Feature","geometry":{"type":"Point","coordinates":[-117.12455,33.508285]}},{"properties":{"city":"Temecula","zipcode":92591,"geo_score":0.805,"id":"a67hb2iikvaq","address":"26680 Ynez Rd","geo_precision":"range","state":"CA"},"type":"Feature","geometry":{"type":"Point","coordinates":[-117.155467,33.515328]}},{"properties":{"city":"Fontana","zipcode":92335,"geo_score":0.805,"id":"a67hb2silk3v","address":"7330 Cherry Ave","geo_precision":"range","state":"CA"},"type":"Feature","geometry":{"type":"Point","coordinates":[-117.48853,34.12102]}},{"properties":{"city":"Lake Elsinore","zipcode":92532,"geo_score":0.43,"id":"a67hb2rilyra","address":"25361 Railroad Canyon Road","geo_precision":"street","state":"CA"},"type":"Feature","geometry":{"type":"Point","coordinates":[-118.336787,35.182026]}},{"properties":{"city":"La Quinta","zipcode":92253,"geo_score":0.341,"id":"a67hb2qh2nbc","address":"78-998 Highway 111","geo_precision":"street","state":"CA"},"type":"Feature","geometry":{"type":"Point","coordinates":[-121.732008,38.837357]}}],"is_temporal":false,"author":{"url":"","metadata":"","contact_name":"","contact_address":"","source":"","contact_phone":""},"source":"","pagination":{"sort":null,"start":0,"total":68,"limit":1000000},"state":"complete","tags":"","published":"2014-08-15T02:52:43-04:00","id":248519}