{"type":"FeatureCollection","data_type":"Dataset","url_type":null,"permissions":[{"permissions":{"download":true,"view":true},"group_id":"everyone"}],"classification":null,"title":"schueler2009","count":78,"stream_id":24925,"contributor":{"url":"http://geocommons.com/users/10321","name":"mbrueckmann"},"data_attributes":null,"calculation_params":null,"icon_link":null,"link":"http://geocommons.com/overlays/24925.json","extent":[7.74015,50.4746,8.12508,50.7099],"geometry_types":["point"],"unique_name":null,"name":"schueler2009","feature_count":78,"description":"","next_feature":null,"is_raster":false,"short_classification":"Y","stats":{"latitude":{"max":50.7099098795377,"mean":50.5812092647604,"variance":0.00334047099048921,"stdev":0.0577968077880536,"min":50.4746300354798,"median":50.582226560741},"longitude":{"max":8.12507629394531,"mean":7.95706035047733,"variance":0.00699222200705762,"stdev":0.0836195073356548,"min":7.740151,"median":7.95753479003906},"s":{"max":162,"mean":13.6794871794872,"variance":379.831002331002,"stdev":19.4892535088187,"min":2,"median":10}},"features":[{"properties":{"city":"Ailertchen","latitude":50.5990095471964,"zip":"56459","country":"Germany","longitude":7.94088363647461,"s":8,"id":"a6e04na01t7v"},"type":"Feature","geometry":{"type":"Point","coordinates":[7.94088363647461,50.5990095471964]}},{"properties":{"city":"Arnshoefen","latitude":50.5388246340748,"zip":"56244","country":"Germany","longitude":7.86775588989258,"s":2,"id":"a6e04nex05l2"},"type":"Feature","geometry":{"type":"Point","coordinates":[7.86775588989258,50.5388246340748]}},{"properties":{"city":"Bad Marienberg","latitude":50.6520146242811,"zip":"56470","country":"Germany","longitude":7.95427322387695,"s":29,"id":"a6e04n69frdn"},"type":"Feature","geometry":{"type":"Point","coordinates":[7.95427322387695,50.6520146242811]}},{"properties":{"city":"Bellingen","latitude":50.5909457419892,"zip":"56459","country":"Germany","longitude":7.90363311767578,"s":5,"id":"a6e04nfnud02"},"type":"Feature","geometry":{"type":"Point","coordinates":[7.90363311767578,50.5909457419892]}},{"properties":{"city":"Berod","latitude":50.4809660356304,"zip":"56414","country":"Germany","longitude":7.93556213378906,"s":11,"id":"a6e04ngjcd3s"},"type":"Feature","geometry":{"type":"Point","coordinates":[7.93556213378906,50.4809660356304]}},{"properties":{"city":"Berzhahn","latitude":50.538775,"zip":"56459","country":"Germany","longitude":8.004795,"s":10,"id":"a6e04n5bgp7t"},"type":"Feature","geometry":{"type":"Point","coordinates":[8.004795,50.538775]}},{"properties":{"city":"Bilkheim","latitude":50.4970207148907,"zip":"56414","country":"Germany","longitude":7.94912338256836,"s":18,"id":"a6e04ngln3b2"},"type":"Feature","geometry":{"type":"Point","coordinates":[7.94912338256836,50.4970207148907]}},{"properties":{"city":"Brandscheid","latitude":50.5588948141899,"zip":"56459","country":"Germany","longitude":7.9185676574707,"s":15,"id":"a6e04nfo3dlk"},"type":"Feature","geometry":{"type":"Point","coordinates":[7.9185676574707,50.5588948141899]}},{"properties":{"city":"Dornburg","latitude":50.5028077987334,"zip":"65599","country":"Germany","longitude":8.02602767944336,"s":2,"id":"a6e04n1hn7c0"},"type":"Feature","geometry":{"type":"Point","coordinates":[8.02602767944336,50.5028077987334]}},{"properties":{"city":"Dreisbach","latitude":50.6152419371447,"zip":"56472","country":"Germany","longitude":7.93144226074219,"s":3,"id":"a6e04n0h8bcx"},"type":"Feature","geometry":{"type":"Point","coordinates":[7.93144226074219,50.6152419371447]}},{"properties":{"city":"Elbingen","latitude":50.5268220762104,"zip":"56459","country":"Germany","longitude":7.90981292724609,"s":12,"id":"a6e04n9um7ll"},"type":"Feature","geometry":{"type":"Point","coordinates":[7.90981292724609,50.5268220762104]}},{"properties":{"city":"Elsoff","latitude":50.5747049700364,"zip":"56479","country":"Germany","longitude":8.11460494995117,"s":21,"id":"a6e04n7hpahj"},"type":"Feature","geometry":{"type":"Point","coordinates":[8.11460494995117,50.5747049700364]}},{"properties":{"city":"Enspel","latitude":50.6152419371447,"zip":"57647","country":"Germany","longitude":7.88509368896484,"s":8,"id":"a6e04ngtk6oo"},"type":"Feature","geometry":{"type":"Point","coordinates":[7.88509368896484,50.6152419371447]}},{"properties":{"city":"Ewighausen","latitude":50.510777526907,"zip":"56244","country":"Germany","longitude":7.8965950012207,"s":8,"id":"a6e04n6m4irq"},"type":"Feature","geometry":{"type":"Point","coordinates":[7.8965950012207,50.510777526907]}},{"properties":{"city":"Fehl-Ritzhausen","latitude":50.6440977883204,"zip":"56472","country":"Germany","longitude":8.00388336181641,"s":2,"id":"a6e04ngqy3o6"},"type":"Feature","geometry":{"type":"Point","coordinates":[8.00388336181641,50.6440977883204]}},{"properties":{"city":"Freilingen","latitude":50.5608577426246,"zip":"56244","country":"Germany","longitude":7.83359527587891,"s":16,"id":"a6e04n82yts2"},"type":"Feature","geometry":{"type":"Point","coordinates":[7.83359527587891,50.5608577426246]}},{"properties":{"city":"Friedewald","latitude":50.7099098795377,"zip":"57520","country":"Germany","longitude":7.96062469482422,"s":2,"id":"a6e04na7k46d"},"type":"Feature","geometry":{"type":"Point","coordinates":[7.96062469482422,50.7099098795377]}},{"properties":{"city":"Gehlert","latitude":50.6378925531058,"zip":"57627","country":"Germany","longitude":7.82878875732422,"s":2,"id":"a6e04nfy3hyv"},"type":"Feature","geometry":{"type":"Point","coordinates":[7.82878875732422,50.6378925531058]}},{"properties":{"city":"Gemuenden","latitude":50.56050151398,"zip":"56459","country":"Germany","longitude":8.01813125610351,"s":23,"id":"a6e04nf6pph5"},"type":"Feature","geometry":{"type":"Point","coordinates":[8.01813125610351,50.56050151398]}},{"properties":{"city":"Girkenroth","latitude":50.5203830823897,"zip":"56459","country":"Germany","longitude":7.97075271606445,"s":18,"id":"a6e04n4owv2h"},"type":"Feature","geometry":{"type":"Point","coordinates":[7.97075271606445,50.5203830823897]}},{"properties":{"city":"Grossseifen","latitude":50.6332108685447,"zip":"56472","country":"Germany","longitude":7.96680450439453,"s":2,"id":"a6e04n7e1rv1"},"type":"Feature","geometry":{"type":"Point","coordinates":[7.96680450439453,50.6332108685447]}},{"properties":{"city":"Guckheim","latitude":50.5292228320819,"zip":"56459","country":"Germany","longitude":7.94448852539062,"s":16,"id":"a6e04n6or8jd"},"type":"Feature","geometry":{"type":"Point","coordinates":[7.94448852539062,50.5292228320819]}},{"properties":{"city":"Hachenburg","latitude":50.6595528815096,"zip":"57627","country":"Germany","longitude":7.82415390014648,"s":14,"id":"a6e04nawa75b"},"type":"Feature","geometry":{"type":"Point","coordinates":[7.82415390014648,50.6595528815096]}},{"properties":{"city":"Haertlingen","latitude":50.5391519337855,"zip":"56459","country":"Germany","longitude":7.91358947753906,"s":6,"id":"a6e04n3n20k4"},"type":"Feature","geometry":{"type":"Point","coordinates":[7.91358947753906,50.5391519337855]}},{"properties":{"city":"Hahn","latitude":50.6314687273458,"zip":"56472","country":"Germany","longitude":7.94345855712891,"s":3,"id":"a6e04ncqz2au"},"type":"Feature","geometry":{"type":"Point","coordinates":[7.94345855712891,50.6314687273458]}},{"properties":{"city":"Hahn","latitude":50.5236572568332,"zip":"56244","country":"Germany","longitude":7.89024353027344,"s":7,"id":"a6e04n11iyts"},"type":"Feature","geometry":{"type":"Point","coordinates":[7.89024353027344,50.5236572568332]}},{"properties":{"city":"Halbs","latitude":50.5892020349059,"zip":"56457","country":"Germany","longitude":7.96405792236328,"s":6,"id":"a6e04nbz69jd"},"type":"Feature","geometry":{"type":"Point","coordinates":[7.96405792236328,50.5892020349059]}},{"properties":{"city":"Hattert","latitude":50.6599881626164,"zip":"57644","country":"Germany","longitude":7.76218414306641,"s":2,"id":"a6e04n0iooj0"},"type":"Feature","geometry":{"type":"Point","coordinates":[7.76218414306641,50.6599881626164]}},{"properties":{"city":"Hellenhahn","latitude":50.6117272105143,"zip":"56479","country":"Germany","longitude":8.02465438842773,"s":29,"id":"a6e04n9szw7x"},"type":"Feature","geometry":{"type":"Point","coordinates":[8.02465438842773,50.6117272105143]}},{"properties":{"city":"Hergenroth","latitude":50.582226560741,"zip":"56457","country":"Germany","longitude":7.97281265258789,"s":19,"id":"a6e04n6n4xdg"},"type":"Feature","geometry":{"type":"Point","coordinates":[7.97281265258789,50.582226560741]}},{"properties":{"city":"Herschbach Oww.","latitude":50.505004,"zip":"56414","country":"Germany","longitude":7.927476,"s":21,"id":"a6e04n3xgbji"},"type":"Feature","geometry":{"type":"Point","coordinates":[7.927476,50.505004]}},{"properties":{"city":"Herschbach Uww.","latitude":50.574955,"zip":"56249","country":"Germany","longitude":7.740151,"s":6,"id":"a6e04n4oqmkp"},"type":"Feature","geometry":{"type":"Point","coordinates":[7.740151,50.574955]}},{"properties":{"city":"Hoehn","latitude":50.6193518018401,"zip":"56462","country":"Germany","longitude":7.98688888549804,"s":44,"id":"a6e04namk4b7"},"type":"Feature","geometry":{"type":"Point","coordinates":[7.98688888549804,50.6193518018401]}},{"properties":{"city":"Hof","latitude":50.6666256996136,"zip":"56472","country":"Germany","longitude":8.01418304443359,"s":7,"id":"a6e04n9tzu2l"},"type":"Feature","geometry":{"type":"Point","coordinates":[8.01418304443359,50.6666256996136]}},{"properties":{"city":"Hueblingen","latitude":50.5659612,"zip":"56479","country":"Germany","longitude":8.0852628,"s":6,"id":"a6e04naav2be"},"type":"Feature","geometry":{"type":"Point","coordinates":[8.0852628,50.5659612]}},{"properties":{"city":"Irmtraut","latitude":50.5544233942299,"zip":"56479","country":"Germany","longitude":8.06087493896484,"s":12,"id":"a6e04n13sx7x"},"type":"Feature","geometry":{"type":"Point","coordinates":[8.06087493896484,50.5544233942299]}},{"properties":{"city":"Kaden","latitude":50.5467882822614,"zip":"56459","country":"Germany","longitude":7.91410446166992,"s":16,"id":"a6e04n30n54p"},"type":"Feature","geometry":{"type":"Point","coordinates":[7.91410446166992,50.5467882822614]}},{"properties":{"city":"Koelbingen","latitude":50.5519948360161,"zip":"56459","country":"Germany","longitude":7.93401718139648,"s":32,"id":"a6e04ncfjmiu"},"type":"Feature","geometry":{"type":"Point","coordinates":[7.93401718139648,50.5519948360161]}},{"properties":{"city":"Kuhnhoefen","latitude":50.5317325826144,"zip":"56244","country":"Germany","longitude":7.86157608032227,"s":3,"id":"a6e04nfmyv7u"},"type":"Feature","geometry":{"type":"Point","coordinates":[7.86157608032227,50.5317325826144]}},{"properties":{"city":"Langenhahn","latitude":50.5851404005413,"zip":"56459","country":"Germany","longitude":7.91753768920898,"s":26,"id":"a6e04n41vrn5"},"type":"Feature","geometry":{"type":"Point","coordinates":[7.91753768920898,50.5851404005413]}},{"properties":{"city":"Liebenscheid","latitude":50.6946888414854,"zip":"56479","country":"Germany","longitude":8.09640884399414,"s":4,"id":"a6e04neefec5"},"type":"Feature","geometry":{"type":"Point","coordinates":[8.09640884399414,50.6946888414854]}},{"properties":{"city":"Maehren","latitude":50.5236572568332,"zip":"56459","country":"Germany","longitude":7.92079925537109,"s":7,"id":"a6e04n47ruxi"},"type":"Feature","geometry":{"type":"Point","coordinates":[7.92079925537109,50.5236572568332]}},{"properties":{"city":"Maxsain","latitude":50.5422066215609,"zip":"56244","country":"Germany","longitude":7.78656005859375,"s":4,"id":"a6e04nd3arl8"},"type":"Feature","geometry":{"type":"Point","coordinates":[7.78656005859375,50.5422066215609]}},{"properties":{"city":"Meudt","latitude":50.4939339806828,"zip":"56414","country":"Germany","longitude":7.89762496948242,"s":32,"id":"a6e04nbbv5t7"},"type":"Feature","geometry":{"type":"Point","coordinates":[7.89762496948242,50.4939339806828]}},{"properties":{"city":"Molsberg","latitude":50.4807475670046,"zip":"56414","country":"Germany","longitude":7.965087890625,"s":2,"id":"a6e04newl1br"},"type":"Feature","geometry":{"type":"Point","coordinates":[7.965087890625,50.4807475670046]}},{"properties":{"city":"Neunkirchen","latitude":50.5446065945882,"zip":"56479","country":"Germany","longitude":8.10087203979492,"s":14,"id":"a6e04nf6cuua"},"type":"Feature","geometry":{"type":"Point","coordinates":[8.10087203979492,50.5446065945882]}},{"properties":{"city":"Neustadt","latitude":50.6296176315795,"zip":"56479","country":"Germany","longitude":8.04079055786133,"s":9,"id":"a6e04n1fb0sp"},"type":"Feature","geometry":{"type":"Point","coordinates":[8.04079055786133,50.6296176315795]}},{"properties":{"city":"Niederahr","latitude":50.4923250126372,"zip":"56414","country":"Germany","longitude":7.86397933959961,"s":3,"id":"a6e04n1dvlie"},"type":"Feature","geometry":{"type":"Point","coordinates":[7.86397933959961,50.4923250126372]}},{"properties":{"city":"Niederrossbach","latitude":50.6400699219281,"zip":"56479","country":"Germany","longitude":8.03289413452148,"s":4,"id":"a6e04nbddli6"},"type":"Feature","geometry":{"type":"Point","coordinates":[8.03289413452148,50.6400699219281]}},{"properties":{"city":"Nisterau","latitude":50.6594440606025,"zip":"56472","country":"Germany","longitude":7.98328399658203,"s":7,"id":"a6e04n4wdaqb"},"type":"Feature","geometry":{"type":"Point","coordinates":[7.98328399658203,50.6594440606025]}},{"properties":{"city":"Nisterberg","latitude":50.6789189861223,"zip":"56472","country":"Germany","longitude":7.97916412353516,"s":4,"id":"a6e04n7rrdns"},"type":"Feature","geometry":{"type":"Point","coordinates":[7.97916412353516,50.6789189861223]}},{"properties":{"city":"Nistertal","latitude":50.6300531900818,"zip":"57647","country":"Germany","longitude":7.90140151977539,"s":13,"id":"a6e04nduqzh6"},"type":"Feature","geometry":{"type":"Point","coordinates":[7.90140151977539,50.6300531900818]}},{"properties":{"city":"Norken","latitude":50.6707600844499,"zip":"57629","country":"Germany","longitude":7.89728164672852,"s":2,"id":"a6e04n6p9f8l"},"type":"Feature","geometry":{"type":"Point","coordinates":[7.89728164672852,50.6707600844499]}},{"properties":{"city":"Oberrod","latitude":50.5841885172946,"zip":"56479","country":"Germany","longitude":8.12507629394531,"s":16,"id":"a6e04n2i0007"},"type":"Feature","geometry":{"type":"Point","coordinates":[8.12507629394531,50.5841885172946]}},{"properties":{"city":"Oberrossbach","latitude":50.6511729338532,"zip":"56479","country":"Germany","longitude":8.0394172668457,"s":6,"id":"a6e04nct3p6e"},"type":"Feature","geometry":{"type":"Point","coordinates":[8.0394172668457,50.6511729338532]}},{"properties":{"city":"Pottum","latitude":50.5968302766061,"zip":"56459","country":"Germany","longitude":8.00045013427735,"s":13,"id":"a6e04n7el60b"},"type":"Feature","geometry":{"type":"Point","coordinates":[8.00045013427735,50.5968302766061]}},{"properties":{"city":"Rehe","latitude":50.6341617604875,"zip":"56479","country":"Germany","longitude":8.12009811401367,"s":24,"id":"a6e04ngaayh9"},"type":"Feature","geometry":{"type":"Point","coordinates":[8.12009811401367,50.6341617604875]}},{"properties":{"city":"Rennerod","latitude":50.6069339776494,"zip":"56477","country":"Germany","longitude":8.0672264099121,"s":48,"id":"a6e04nb9wkbz"},"type":"Feature","geometry":{"type":"Point","coordinates":[8.0672264099121,50.6069339776494]}},{"properties":{"city":"Rotenhain","latitude":50.5995543490778,"zip":"56459","country":"Germany","longitude":7.88200378417969,"s":9,"id":"a6e04n3luavh"},"type":"Feature","geometry":{"type":"Point","coordinates":[7.88200378417969,50.5995543490778]}},{"properties":{"city":"Rothenbach","latitude":50.5638019819902,"zip":"56459","country":"Germany","longitude":7.90105819702148,"s":13,"id":"a6e04nanab2d"},"type":"Feature","geometry":{"type":"Point","coordinates":[7.90105819702148,50.5638019819902]}},{"properties":{"city":"Salz","latitude":50.5096858628324,"zip":"56414","country":"Germany","longitude":7.96174049377441,"s":23,"id":"a6e04n6lv9mr"},"type":"Feature","geometry":{"type":"Point","coordinates":[7.96174049377441,50.5096858628324]}},{"properties":{"city":"Salzburg","latitude":50.6660816745041,"zip":"56479","country":"Germany","longitude":8.04834365844727,"s":4,"id":"a6e04ngqgn41"},"type":"Feature","geometry":{"type":"Point","coordinates":[8.04834365844727,50.6660816745041]}},{"properties":{"city":"Seck","latitude":50.5766672399365,"zip":"56479","country":"Germany","longitude":8.04662704467773,"s":14,"id":"a6e04n4hii6a"},"type":"Feature","geometry":{"type":"Point","coordinates":[8.04662704467773,50.5766672399365]}},{"properties":{"city":"Stahlhofen","latitude":50.5857144269913,"zip":"56459","country":"Germany","longitude":7.98912048339844,"s":11,"id":"a6e04n1ewagg"},"type":"Feature","geometry":{"type":"Point","coordinates":[7.98912048339844,50.5857144269913]}},{"properties":{"city":"Stockhausen-Illfurth","latitude":50.6426826313608,"zip":"56472","country":"Germany","longitude":7.98517227172852,"s":2,"id":"a6e04negux22"},"type":"Feature","geometry":{"type":"Point","coordinates":[7.98517227172852,50.6426826313608]}},{"properties":{"city":"Stockum-Pueschen","latitude":50.604784126272,"zip":"56459","country":"Germany","longitude":7.90260314941406,"s":7,"id":"a6e04n8cq3ur"},"type":"Feature","geometry":{"type":"Point","coordinates":[7.90260314941406,50.604784126272]}},{"properties":{"city":"Unnau","latitude":50.649649146379,"zip":"57648","country":"Germany","longitude":7.90792465209961,"s":17,"id":"a6e04n2sh2re"},"type":"Feature","geometry":{"type":"Point","coordinates":[7.90792465209961,50.649649146379]}},{"properties":{"city":"Waldmuehlen","latitude":50.586477363297,"zip":"56479","country":"Germany","longitude":8.06327819824219,"s":10,"id":"a6e04n2246kq"},"type":"Feature","geometry":{"type":"Point","coordinates":[8.06327819824219,50.586477363297]}},{"properties":{"city":"Wallmerod","latitude":50.4838060358698,"zip":"56414","country":"Germany","longitude":7.95221328735352,"s":8,"id":"a6e04n7obeo2"},"type":"Feature","geometry":{"type":"Point","coordinates":[7.95221328735352,50.4838060358698]}},{"properties":{"city":"Weidenhahn","latitude":50.5453701967558,"zip":"56244","country":"Germany","longitude":7.83462524414062,"s":17,"id":"a6e04n22dlka"},"type":"Feature","geometry":{"type":"Point","coordinates":[7.83462524414062,50.5453701967558]}},{"properties":{"city":"Weltersburg","latitude":50.52147449911,"zip":"56459","country":"Germany","longitude":7.95753479003906,"s":6,"id":"a6e04n2cyn30"},"type":"Feature","geometry":{"type":"Point","coordinates":[7.95753479003906,50.52147449911]}},{"properties":{"city":"Westerburg","latitude":50.5644271552645,"zip":"56457","country":"Germany","longitude":7.97315597534179,"s":162,"id":"a6e04n16tei0"},"type":"Feature","geometry":{"type":"Point","coordinates":[7.97315597534179,50.5644271552645]}},{"properties":{"city":"Westernohe","latitude":50.5882211712906,"zip":"56479","country":"Germany","longitude":8.09795379638672,"s":17,"id":"a6e04n2oy59t"},"type":"Feature","geometry":{"type":"Point","coordinates":[8.09795379638672,50.5882211712906]}},{"properties":{"city":"Willmenrod","latitude":50.5404611099157,"zip":"56459","country":"Germany","longitude":7.98139572143555,"s":12,"id":"a6e04n10embv"},"type":"Feature","geometry":{"type":"Point","coordinates":[7.98139572143555,50.5404611099157]}},{"properties":{"city":"Winnen","latitude":50.5716523877101,"zip":"56459","country":"Germany","longitude":8.00971984863281,"s":11,"id":"a6e04n2epppp"},"type":"Feature","geometry":{"type":"Point","coordinates":[8.00971984863281,50.5716523877101]}},{"properties":{"city":"Woelferlingen","latitude":50.5623844082199,"zip":"56244","country":"Germany","longitude":7.85058975219727,"s":11,"id":"a6e04n5j3aut"},"type":"Feature","geometry":{"type":"Point","coordinates":[7.85058975219727,50.5623844082199]}},{"properties":{"city":"Zehnhausen","latitude":50.4746300354798,"zip":"56414","country":"Germany","longitude":7.9240608215332,"s":4,"id":"a6e04n3fpyul"},"type":"Feature","geometry":{"type":"Point","coordinates":[7.9240608215332,50.4746300354798]}},{"properties":{"city":"Zehnhausen","latitude":50.6454040492255,"zip":"56477","country":"Germany","longitude":8.06070327758789,"s":5,"id":"a6e04n4xi921"},"type":"Feature","geometry":{"type":"Point","coordinates":[8.06070327758789,50.6454040492255]}}],"is_temporal":false,"author":{"url":"","metadata":"","contact_name":"","contact_address":"","source":"","contact_phone":""},"source":"","pagination":{"sort":null,"start":0,"total":78,"limit":1000000},"state":"complete","tags":"","published":"2014-08-10T18:00:49-04:00","id":24925}