{"type":"FeatureCollection","data_type":"Dataset","url_type":null,"permissions":[{"permissions":{"download":true,"view":true},"group_id":"everyone"}],"classification":null,"title":"ParentCityStates 154","count":153,"stream_id":249473,"contributor":{"url":"http://geocommons.com/users/42047","name":"toczek"},"data_attributes":null,"calculation_params":null,"icon_link":null,"link":"http://geocommons.com/overlays/249473.json","extent":[-149.9,25.7743,-70.2553,61.2181],"geometry_types":["point"],"unique_name":null,"name":"ParentCityStates 154","feature_count":153,"description":"","next_feature":null,"is_raster":false,"short_classification":"Y","stats":{"id":{"max":1,"mean":1.0,"variance":0.0,"stdev":0.0,"min":1,"median":1}},"features":[{"properties":{"city":"ABILENE","geo_score":0.857,"id":"a698o1r3ezrs","geo_precision":"city","state":"TX"},"type":"Feature","geometry":{"type":"Point","coordinates":[-99.80213,32.344457]}},{"properties":{"city":"ALBANY","geo_score":0.857,"id":"a698o24uen72","geo_precision":"city","state":"NY"},"type":"Feature","geometry":{"type":"Point","coordinates":[-73.756232,42.652579]}},{"properties":{"city":"ALBUQUERQUE","geo_score":0.857,"id":"a698o1pn2t2e","geo_precision":"city","state":"NM"},"type":"Feature","geometry":{"type":"Point","coordinates":[-106.651137,35.084491]}},{"properties":{"city":"ALEXANDRIA","geo_score":0.857,"id":"a698o1uvq1kx","geo_precision":"city","state":"LA"},"type":"Feature","geometry":{"type":"Point","coordinates":[-92.445137,31.311294]}},{"properties":{"city":"ALLENTOWN","geo_score":0.857,"id":"a698o1z3cwo0","geo_precision":"city","state":"PA"},"type":"Feature","geometry":{"type":"Point","coordinates":[-75.490183,40.608431]}},{"properties":{"city":"ALTOONA","geo_score":0.776,"id":"a698o227nka8","geo_precision":"city","state":"PA"},"type":"Feature","geometry":{"type":"Point","coordinates":[-76.012424,41.182027]}},{"properties":{"city":"AMARILLO","geo_score":0.857,"id":"a698o1zsu9h1","geo_precision":"city","state":"TX"},"type":"Feature","geometry":{"type":"Point","coordinates":[-101.831297,35.221997]}},{"properties":{"city":"ANCHORAGE","geo_score":0.857,"id":"a698o25dsnz1","geo_precision":"city","state":"AK"},"type":"Feature","geometry":{"type":"Point","coordinates":[-149.900278,61.218056]}},{"properties":{"city":"ASHBURNHAM","geo_score":0.857,"id":"a698o1uejs36","geo_precision":"city","state":"MA"},"type":"Feature","geometry":{"type":"Point","coordinates":[-71.920942,42.654906]}},{"properties":{"city":"ASHVILLE","geo_score":0.841,"id":"a698o1yhhtky","geo_precision":"city","state":"NC"},"type":"Feature","geometry":{"type":"Point","coordinates":[-82.554015,35.600945]}},{"properties":{"city":"ATLANTA","geo_score":0.857,"id":"a698o1y4wy90","geo_precision":"city","state":"GA"},"type":"Feature","geometry":{"type":"Point","coordinates":[-84.387982,33.748995]}},{"properties":{"city":"AUGUSTA","geo_score":0.857,"id":"a698o1yjhj08","geo_precision":"city","state":"GA"},"type":"Feature","geometry":{"type":"Point","coordinates":[-81.974838,33.47097]}},{"properties":{"city":"AUSTIN","geo_score":0.857,"id":"a698o1zen6gc","geo_precision":"city","state":"TX"},"type":"Feature","geometry":{"type":"Point","coordinates":[-97.743061,30.267153]}},{"properties":{"city":"BALTIMORE","geo_score":0.857,"id":"a698o1t9qm9h","geo_precision":"city","state":"MD"},"type":"Feature","geometry":{"type":"Point","coordinates":[-76.612189,39.290385]}},{"properties":{"city":"BEMIDJI","geo_score":0.857,"id":"a698o219fqn2","geo_precision":"city","state":"MN"},"type":"Feature","geometry":{"type":"Point","coordinates":[-94.801272,47.571964]}},{"properties":{"city":"BILOXI","geo_score":0.857,"id":"a698o1y37ngw","geo_precision":"city","state":"MS"},"type":"Feature","geometry":{"type":"Point","coordinates":[-88.978634,30.432454]}},{"properties":{"city":"BIRMINGHAM","geo_score":0.857,"id":"a698o1udzpsr","geo_precision":"city","state":"AL"},"type":"Feature","geometry":{"type":"Point","coordinates":[-86.80249,33.520661]}},{"properties":{"city":"BOISE","geo_score":0.857,"id":"a698o1s4cil3","geo_precision":"city","state":"ID"},"type":"Feature","geometry":{"type":"Point","coordinates":[-116.203451,43.6135]}},{"properties":{"city":"BOSTON","geo_score":0.857,"id":"a698o1uqvibu","geo_precision":"city","state":"MA"},"type":"Feature","geometry":{"type":"Point","coordinates":[-71.059773,42.358431]}},{"properties":{"city":"BOWLING GREEN","geo_score":0.738,"id":"a698o1yr2lpu","geo_precision":"city","state":"KY"},"type":"Feature","geometry":{"type":"Point","coordinates":[-83.355181,38.067306]}},{"properties":{"city":"BRYAN","geo_score":0.857,"id":"a698o1ut1mm7","geo_precision":"city","state":"TX"},"type":"Feature","geometry":{"type":"Point","coordinates":[-96.369963,30.674364]}},{"properties":{"city":"BUFFALO","geo_score":0.857,"id":"a698o1rfn5ye","geo_precision":"city","state":"NY"},"type":"Feature","geometry":{"type":"Point","coordinates":[-78.878369,42.886447]}},{"properties":{"city":"CARSON CITY","geo_score":0.857,"id":"a698o1v99orb","geo_precision":"city","state":"NV"},"type":"Feature","geometry":{"type":"Point","coordinates":[-119.73074,39.154485]}},{"properties":{"city":"CHAMPAIGN","geo_score":0.857,"id":"a698o1sv5ea0","geo_precision":"city","state":"IL"},"type":"Feature","geometry":{"type":"Point","coordinates":[-88.243383,40.116421]}},{"properties":{"city":"CHARLESTON","geo_score":0.798,"id":"a698o1wfev5f","geo_precision":"city","state":"SC"},"type":"Feature","geometry":{"type":"Point","coordinates":[-79.970643,32.85712]}},{"properties":{"city":"CHARLOTTE","geo_score":0.857,"id":"a698o21s4of4","geo_precision":"city","state":"NC"},"type":"Feature","geometry":{"type":"Point","coordinates":[-80.843127,35.227087]}},{"properties":{"city":"CHARLOTTESVILLE","geo_score":0.857,"id":"a698o22qsclw","geo_precision":"city","state":"VA"},"type":"Feature","geometry":{"type":"Point","coordinates":[-78.476678,38.029306]}},{"properties":{"city":"CHICAGO","geo_score":0.857,"id":"a698o1vbqynp","geo_precision":"city","state":"IL"},"type":"Feature","geometry":{"type":"Point","coordinates":[-87.650052,41.850033]}},{"properties":{"city":"CINCINNATI","geo_score":0.857,"id":"a698o1vzrfoq","geo_precision":"city","state":"OH"},"type":"Feature","geometry":{"type":"Point","coordinates":[-84.456886,39.162004]}},{"properties":{"city":"CLARKSVILLE","geo_score":0.798,"id":"a698o21hlk46","geo_precision":"city","state":"AR"},"type":"Feature","geometry":{"type":"Point","coordinates":[-90.612051,35.123424]}},{"properties":{"city":"CLEVELAND","geo_score":0.857,"id":"a698o1wv8tsm","geo_precision":"city","state":"OH"},"type":"Feature","geometry":{"type":"Point","coordinates":[-81.695409,41.499495]}},{"properties":{"city":"COLORADO SPRINGS","geo_score":0.857,"id":"a698o1u9o8rc","geo_precision":"city","state":"CO"},"type":"Feature","geometry":{"type":"Point","coordinates":[-104.821363,38.833882]}},{"properties":{"city":"COLUMBIA","geo_score":0.857,"id":"a698o1y4og03","geo_precision":"city","state":"SC"},"type":"Feature","geometry":{"type":"Point","coordinates":[-81.024864,33.987454]}},{"properties":{"city":"COLUMBUS","geo_score":0.857,"id":"a698o22xrihr","geo_precision":"city","state":"GA"},"type":"Feature","geometry":{"type":"Point","coordinates":[-84.987709,32.460976]}},{"properties":{"city":"COLUMBUS","geo_score":0.776,"id":"a698o1wxla2e","geo_precision":"city","state":"OH"},"type":"Feature","geometry":{"type":"Point","coordinates":[-82.695724,39.998397]}},{"properties":{"city":"CONCORD","geo_score":0.857,"id":"a698o1tdvt2r","geo_precision":"city","state":"NH"},"type":"Feature","geometry":{"type":"Point","coordinates":[-71.537572,43.208137]}},{"properties":{"city":"CONWAY","geo_score":0.857,"id":"a698o1wm7hnr","geo_precision":"city","state":"SC"},"type":"Feature","geometry":{"type":"Point","coordinates":[-78.948287,33.868775]}},{"properties":{"city":"DALLAS","geo_score":0.857,"id":"a698o1zg1ohs","geo_precision":"city","state":"TX"},"type":"Feature","geometry":{"type":"Point","coordinates":[-96.806667,32.783056]}},{"properties":{"city":"DANBURY","geo_score":0.857,"id":"a698o1w4s5vh","geo_precision":"city","state":"CT"},"type":"Feature","geometry":{"type":"Point","coordinates":[-73.471416,41.376242]}},{"properties":{"city":"DAVENPORT","geo_score":0.857,"id":"a698o25ecguf","geo_precision":"city","state":"IA"},"type":"Feature","geometry":{"type":"Point","coordinates":[-90.577637,41.523644]}},{"properties":{"city":"DENVER","geo_score":0.857,"id":"a698o1vhzobf","geo_precision":"city","state":"CO"},"type":"Feature","geometry":{"type":"Point","coordinates":[-104.984703,39.739154]}},{"properties":{"city":"DES MOINES","geo_score":0.857,"id":"a698o25qkeuq","geo_precision":"city","state":"IA"},"type":"Feature","geometry":{"type":"Point","coordinates":[-93.609106,41.600545]}},{"properties":{"city":"DETROIT","geo_score":0.857,"id":"a698o1vyt6wx","geo_precision":"city","state":"MI"},"type":"Feature","geometry":{"type":"Point","coordinates":[-83.045754,42.331427]}},{"properties":{"city":"DOVER","geo_score":0.857,"id":"a698o1v4rux1","geo_precision":"city","state":"DE"},"type":"Feature","geometry":{"type":"Point","coordinates":[-75.49549,39.156376]}},{"properties":{"city":"DULUTH","geo_score":0.857,"id":"a698o22k6e58","geo_precision":"city","state":"MN"},"type":"Feature","geometry":{"type":"Point","coordinates":[-92.106579,46.783273]}},{"properties":{"city":"DURHAM","geo_score":0.857,"id":"a698o200ljl4","geo_precision":"city","state":"NC"},"type":"Feature","geometry":{"type":"Point","coordinates":[-78.898619,35.994033]}},{"properties":{"city":"ERIE","geo_score":0.857,"id":"a698o24wri60","geo_precision":"city","state":"PA"},"type":"Feature","geometry":{"type":"Point","coordinates":[-80.085059,42.129224]}},{"properties":{"city":"FAIRFIELD","geo_score":0.857,"id":"a698o1rvjnwa","geo_precision":"city","state":"IA"},"type":"Feature","geometry":{"type":"Point","coordinates":[-91.957527,41.030998]}},{"properties":{"city":"FORT WALTON BEACH","geo_score":0.733,"id":"a698o1zbk5kj","geo_precision":"city","state":"FL"},"type":"Feature","geometry":{"type":"Point","coordinates":[-81.92122,30.435237]}},{"properties":{"city":"FORT WAYNE","geo_score":0.857,"id":"a698o1x4nd3d","geo_precision":"city","state":"IN"},"type":"Feature","geometry":{"type":"Point","coordinates":[-85.12886,41.130604]}},{"properties":{"city":"FREDERICK","geo_score":0.813,"id":"a698o1zwm9ud","geo_precision":"city","state":"MD"},"type":"Feature","geometry":{"type":"Point","coordinates":[-75.883828,39.366223]}},{"properties":{"city":"GAINESVILLE","geo_score":0.818,"id":"a698o1wdub4p","geo_precision":"city","state":"FL"},"type":"Feature","geometry":{"type":"Point","coordinates":[-85.354651,30.731305]}},{"properties":{"city":"GETTYSBURG","geo_score":0.857,"id":"a698o1xo2lex","geo_precision":"city","state":"PA"},"type":"Feature","geometry":{"type":"Point","coordinates":[-77.226591,39.840922]}},{"properties":{"city":"GRAND RAPIDS","geo_score":0.857,"id":"a698o1t6wxai","geo_precision":"city","state":"MI"},"type":"Feature","geometry":{"type":"Point","coordinates":[-85.668086,42.96336]}},{"properties":{"city":"GREENVILLE","geo_score":0.857,"id":"a698o22dlff6","geo_precision":"city","state":"SC"},"type":"Feature","geometry":{"type":"Point","coordinates":[-82.402871,34.848567]}},{"properties":{"city":"GREENVILLE","geo_score":0.831,"id":"a698o1yyu5ad","geo_precision":"city","state":"NC"},"type":"Feature","geometry":{"type":"Point","coordinates":[-81.703445,36.408734]}},{"properties":{"city":"GROTON","geo_score":0.857,"id":"a698o1tafq6g","geo_precision":"city","state":"CT"},"type":"Feature","geometry":{"type":"Point","coordinates":[-72.038268,41.355405]}},{"properties":{"city":"HARLINGEN","geo_score":0.857,"id":"a698o1x4h72i","geo_precision":"city","state":"TX"},"type":"Feature","geometry":{"type":"Point","coordinates":[-97.536807,26.185202]}},{"properties":{"city":"HARRISBURG","geo_score":0.857,"id":"a698o1wsoyx3","geo_precision":"city","state":"PA"},"type":"Feature","geometry":{"type":"Point","coordinates":[-76.884418,40.2737]}},{"properties":{"city":"HARRISONBURG","geo_score":0.857,"id":"a698o1rvvbpc","geo_precision":"city","state":"VA"},"type":"Feature","geometry":{"type":"Point","coordinates":[-78.877137,38.422777]}},{"properties":{"city":"HARTFORD","geo_score":0.857,"id":"a698o1zoxa7b","geo_precision":"city","state":"CT"},"type":"Feature","geometry":{"type":"Point","coordinates":[-72.685093,41.763711]}},{"properties":{"city":"HOUSTON","geo_score":0.816,"id":"a698o1t0n3u6","geo_precision":"city","state":"TX"},"type":"Feature","geometry":{"type":"Point","coordinates":[-96.919704,29.845783]}},{"properties":{"city":"HUNTSVILLE","geo_score":0.857,"id":"a698o1ql7z42","geo_precision":"city","state":"AL"},"type":"Feature","geometry":{"type":"Point","coordinates":[-86.556439,34.718428]}},{"properties":{"city":"INDIANAPOLIS","geo_score":0.857,"id":"a698o1zbv68r","geo_precision":"city","state":"IN"},"type":"Feature","geometry":{"type":"Point","coordinates":[-86.158042,39.768377]}},{"properties":{"city":"IOWA CITY","geo_score":0.732,"id":"a698o1yhj8ln","geo_precision":"city","state":"IA"},"type":"Feature","geometry":{"type":"Point","coordinates":[-92.161281,43.198027]}},{"properties":{"city":"JACKSONVILLE","geo_score":0.857,"id":"a698o20vgiy0","geo_precision":"city","state":"FL"},"type":"Feature","geometry":{"type":"Point","coordinates":[-81.655651,30.332184]}},{"properties":{"city":"JUPITER","geo_score":0.857,"id":"a698o1pkeabf","geo_precision":"city","state":"FL"},"type":"Feature","geometry":{"type":"Point","coordinates":[-80.430269,26.645895]}},{"properties":{"city":"KALAMAZOO","geo_score":0.857,"id":"a698o22lxz17","geo_precision":"city","state":"MI"},"type":"Feature","geometry":{"type":"Point","coordinates":[-85.588195,42.274887]}},{"properties":{"city":"KANSAS CITY","geo_score":0.857,"id":"a698o1tktxha","geo_precision":"city","state":"MO"},"type":"Feature","geometry":{"type":"Point","coordinates":[-94.598583,39.102404]}},{"properties":{"city":"KINGSPORT","geo_score":0.857,"id":"a698o1vneh15","geo_precision":"city","state":"TN"},"type":"Feature","geometry":{"type":"Point","coordinates":[-82.561819,36.548434]}},{"properties":{"city":"KNOXVILLE","geo_score":0.794,"id":"a698o1tdebeg","geo_precision":"city","state":"TN"},"type":"Feature","geometry":{"type":"Point","coordinates":[-86.784443,36.16589]}},{"properties":{"city":"KUTZTOWN","geo_score":0.857,"id":"a698o20amh7h","geo_precision":"city","state":"PA"},"type":"Feature","geometry":{"type":"Point","coordinates":[-76.321899,40.398703]}},{"properties":{"city":"LAKE CHARLES","geo_score":0.857,"id":"a698o257yqig","geo_precision":"city","state":"LA"},"type":"Feature","geometry":{"type":"Point","coordinates":[-93.217376,30.226595]}},{"properties":{"city":"LAS CRUCES","geo_score":0.857,"id":"a698o1xpmd1o","geo_precision":"city","state":"NM"},"type":"Feature","geometry":{"type":"Point","coordinates":[-106.778337,32.312316]}},{"properties":{"city":"LAS VEGAS","geo_score":0.857,"id":"a698o1sd341a","geo_precision":"city","state":"NV"},"type":"Feature","geometry":{"type":"Point","coordinates":[-115.137223,36.174971]}},{"properties":{"city":"LAWRENCE","geo_score":0.857,"id":"a698o20xz2g3","geo_precision":"city","state":"MA"},"type":"Feature","geometry":{"type":"Point","coordinates":[-71.161052,42.70734]}},{"properties":{"city":"LAWTON","geo_score":0.857,"id":"a698o1uothld","geo_precision":"city","state":"OK"},"type":"Feature","geometry":{"type":"Point","coordinates":[-98.390331,34.608685]}},{"properties":{"city":"LEXINGTON","geo_score":0.857,"id":"a698o24eqrks","geo_precision":"city","state":"KY"},"type":"Feature","geometry":{"type":"Point","coordinates":[-84.477715,37.988689]}},{"properties":{"city":"LINCOLN","geo_score":0.857,"id":"a698o23enp7j","geo_precision":"city","state":"NE"},"type":"Feature","geometry":{"type":"Point","coordinates":[-96.66696,40.800001]}},{"properties":{"city":"LITTLE ROCK","geo_score":0.857,"id":"a698o1xbi5ei","geo_precision":"city","state":"AR"},"type":"Feature","geometry":{"type":"Point","coordinates":[-92.289595,34.746481]}},{"properties":{"city":"LONGVIEW","geo_score":0.857,"id":"a698o1tdj0qj","geo_precision":"city","state":"TX"},"type":"Feature","geometry":{"type":"Point","coordinates":[-94.740489,32.500704]}},{"properties":{"city":"LOS ANGELES","geo_score":0.857,"id":"a698o1sadt6o","geo_precision":"city","state":"CA"},"type":"Feature","geometry":{"type":"Point","coordinates":[-118.243685,34.052234]}},{"properties":{"city":"LOUISVILLE","geo_score":0.857,"id":"a698o1w7fuv3","geo_precision":"city","state":"KY"},"type":"Feature","geometry":{"type":"Point","coordinates":[-85.759407,38.254238]}},{"properties":{"city":"LOWELL","geo_score":0.857,"id":"a698o25hujpl","geo_precision":"city","state":"MA"},"type":"Feature","geometry":{"type":"Point","coordinates":[-71.459405,42.446396]}},{"properties":{"city":"LUBBOCK","geo_score":0.857,"id":"a698o22kmoyq","geo_precision":"city","state":"TX"},"type":"Feature","geometry":{"type":"Point","coordinates":[-101.855167,33.577863]}},{"properties":{"city":"LYNCHBURG","geo_score":0.857,"id":"a698o1q559ud","geo_precision":"city","state":"VA"},"type":"Feature","geometry":{"type":"Point","coordinates":[-79.178326,37.383112]}},{"properties":{"city":"MACON","geo_score":0.857,"id":"a698o1w9etkk","geo_precision":"city","state":"GA"},"type":"Feature","geometry":{"type":"Point","coordinates":[-83.632402,32.840695]}},{"properties":{"city":"MADISON","geo_score":0.857,"id":"a698o1t48puu","geo_precision":"city","state":"WI"},"type":"Feature","geometry":{"type":"Point","coordinates":[-89.40123,43.073052]}},{"properties":{"city":"MADISONVILLE","geo_score":0.857,"id":"a698o1sq49x1","geo_precision":"city","state":"KY"},"type":"Feature","geometry":{"type":"Point","coordinates":[-87.532576,37.299458]}},{"properties":{"city":"MARION","geo_score":0.762,"id":"a698o24ex80s","geo_precision":"city","state":"IL"},"type":"Feature","geometry":{"type":"Point","coordinates":[-88.864303,40.519236]}},{"properties":{"city":"MEMPHIS","geo_score":0.857,"id":"a698o20afmv4","geo_precision":"city","state":"TN"},"type":"Feature","geometry":{"type":"Point","coordinates":[-90.04898,35.149534]}},{"properties":{"city":"MIAMI","geo_score":0.857,"id":"a698o1xb3r7k","geo_precision":"city","state":"FL"},"type":"Feature","geometry":{"type":"Point","coordinates":[-80.193659,25.774266]}},{"properties":{"city":"MIDDLETOWN","geo_score":0.857,"id":"a698o1wrccl6","geo_precision":"city","state":"NJ"},"type":"Feature","geometry":{"type":"Point","coordinates":[-74.51349,40.915932]}},{"properties":{"city":"MILWAUKEE","geo_score":0.857,"id":"a698o22edmdo","geo_precision":"city","state":"WI"},"type":"Feature","geometry":{"type":"Point","coordinates":[-87.906474,43.038903]}},{"properties":{"city":"MINNEAPOLIS","geo_score":0.857,"id":"a698o1qoi6jh","geo_precision":"city","state":"MN"},"type":"Feature","geometry":{"type":"Point","coordinates":[-93.263836,44.979965]}},{"properties":{"city":"MISSISSIPPI STATE","geo_score":0.821,"id":"a698o1t2ek3i","geo_precision":"city","state":"MS"},"type":"Feature","geometry":{"type":"Point","coordinates":[-89.043925,30.381865]}},{"properties":{"city":"NACOGDOCHES","geo_score":0.857,"id":"a698o24n968z","geo_precision":"city","state":"TX"},"type":"Feature","geometry":{"type":"Point","coordinates":[-94.65055,31.615186]}},{"properties":{"city":"NASHVILLE","geo_score":0.857,"id":"a698o1z4c05f","geo_precision":"city","state":"TN"},"type":"Feature","geometry":{"type":"Point","coordinates":[-86.784443,36.16589]}},{"properties":{"city":"NEW BRUNSWICK","geo_score":0.857,"id":"a698o1ptdfni","geo_precision":"city","state":"NJ"},"type":"Feature","geometry":{"type":"Point","coordinates":[-74.451819,40.486216]}},{"properties":{"city":"NEW HAVEN","geo_score":0.857,"id":"a698o234lya2","geo_precision":"city","state":"CT"},"type":"Feature","geometry":{"type":"Point","coordinates":[-72.928158,41.308153]}},{"properties":{"city":"NEW ORLEANS","geo_score":0.857,"id":"a698o1sqbqdb","geo_precision":"city","state":"LA"},"type":"Feature","geometry":{"type":"Point","coordinates":[-89.930956,30.068812]}},{"properties":{"city":"NEW YORK","geo_score":0.857,"id":"a698o1s0dayk","geo_precision":"city","state":"NY"},"type":"Feature","geometry":{"type":"Point","coordinates":[-74.005973,40.714269]}},{"properties":{"city":"NEWARK","geo_score":0.857,"id":"a698o1qowdh9","geo_precision":"city","state":"NJ"},"type":"Feature","geometry":{"type":"Point","coordinates":[-74.172367,40.735657]}},{"properties":{"city":"NORFOLK","geo_score":0.857,"id":"a698o1t63xsj","geo_precision":"city","state":"VA"},"type":"Feature","geometry":{"type":"Point","coordinates":[-76.285218,36.846815]}},{"properties":{"city":"OCEANSIDE","geo_score":0.857,"id":"a698o1xfq7qb","geo_precision":"city","state":"CA"},"type":"Feature","geometry":{"type":"Point","coordinates":[-117.379483,33.19587]}},{"properties":{"city":"OMAHA","geo_score":0.857,"id":"a698o23a0dq3","geo_precision":"city","state":"NE"},"type":"Feature","geometry":{"type":"Point","coordinates":[-95.937792,41.25861]}},{"properties":{"city":"ONANCOCK","geo_score":0.857,"id":"a698o1ua9dxx","geo_precision":"city","state":"VA"},"type":"Feature","geometry":{"type":"Point","coordinates":[-75.746,37.693197]}},{"properties":{"city":"ONEONTA","geo_score":0.857,"id":"a698o1vhh1h3","geo_precision":"city","state":"NY"},"type":"Feature","geometry":{"type":"Point","coordinates":[-75.096727,42.461688]}},{"properties":{"city":"ORLANDO","geo_score":0.857,"id":"a698o1tmf6va","geo_precision":"city","state":"FL"},"type":"Feature","geometry":{"type":"Point","coordinates":[-81.379237,28.538336]}},{"properties":{"city":"PHILADELPHIA","geo_score":0.857,"id":"a698o21b31ih","geo_precision":"city","state":"PA"},"type":"Feature","geometry":{"type":"Point","coordinates":[-75.163789,39.952335]}},{"properties":{"city":"PHOENIX","geo_score":0.857,"id":"a698o1sn3l57","geo_precision":"city","state":"AZ"},"type":"Feature","geometry":{"type":"Point","coordinates":[-112.074037,33.448377]}},{"properties":{"city":"PITTSBURGH","geo_score":0.857,"id":"a698o1yj7q9p","geo_precision":"city","state":"PA"},"type":"Feature","geometry":{"type":"Point","coordinates":[-79.995886,40.440625]}},{"properties":{"city":"PORTLAND","geo_score":0.857,"id":"a698o22zfenx","geo_precision":"city","state":"OR"},"type":"Feature","geometry":{"type":"Point","coordinates":[-122.676207,45.523452]}},{"properties":{"city":"PORTLAND","geo_score":0.857,"id":"a698o1svg2j7","geo_precision":"city","state":"ME"},"type":"Feature","geometry":{"type":"Point","coordinates":[-70.255326,43.661471]}},{"properties":{"city":"POTTSVILLE","geo_score":0.843,"id":"a698o23diwhj","geo_precision":"city","state":"PA"},"type":"Feature","geometry":{"type":"Point","coordinates":[-79.740606,41.256171]}},{"properties":{"city":"PROVIDENCE","geo_score":0.857,"id":"a698o24yphmh","geo_precision":"city","state":"RI"},"type":"Feature","geometry":{"type":"Point","coordinates":[-71.412834,41.823989]}},{"properties":{"city":"PUEBLO","geo_score":0.857,"id":"a698o24a589j","geo_precision":"city","state":"CO"},"type":"Feature","geometry":{"type":"Point","coordinates":[-104.609141,38.254447]}},{"properties":{"city":"RALEIGH","geo_score":0.857,"id":"a698o25oln7i","geo_precision":"city","state":"NC"},"type":"Feature","geometry":{"type":"Point","coordinates":[-78.638615,35.772096]}},{"properties":{"city":"RICHMOND","geo_score":0.857,"id":"a698o25aw1bd","geo_precision":"city","state":"VA"},"type":"Feature","geometry":{"type":"Point","coordinates":[-77.460262,37.553758]}},{"properties":{"city":"ROCHESTER","geo_score":0.857,"id":"a698o25nlm3p","geo_precision":"city","state":"NY"},"type":"Feature","geometry":{"type":"Point","coordinates":[-77.615557,43.154785]}},{"properties":{"city":"SACRAMENTO","geo_score":0.857,"id":"a698o1w5p0fc","geo_precision":"city","state":"CA"},"type":"Feature","geometry":{"type":"Point","coordinates":[-121.4944,38.581572]}},{"properties":{"city":"SAGINAW","geo_score":0.857,"id":"a698o1whmjkf","geo_precision":"city","state":"MI"},"type":"Feature","geometry":{"type":"Point","coordinates":[-83.886873,43.41242]}},{"properties":{"city":"SALEM","geo_score":0.857,"id":"a698o1wagdig","geo_precision":"city","state":"MA"},"type":"Feature","geometry":{"type":"Point","coordinates":[-70.873647,42.642845]}},{"properties":{"city":"SALT LAKE CITY","geo_score":0.857,"id":"a698o1upuihr","geo_precision":"city","state":"UT"},"type":"Feature","geometry":{"type":"Point","coordinates":[-111.891047,40.760779]}},{"properties":{"city":"SAN ANTONIO","geo_score":0.857,"id":"a698o24ih3s4","geo_precision":"city","state":"TX"},"type":"Feature","geometry":{"type":"Point","coordinates":[-98.493628,29.424122]}},{"properties":{"city":"SAN DIEGO","geo_score":0.857,"id":"a698o1ty5qs6","geo_precision":"city","state":"CA"},"type":"Feature","geometry":{"type":"Point","coordinates":[-117.157255,32.715329]}},{"properties":{"city":"SAN FRANCISCO","geo_score":0.857,"id":"a698o22fycur","geo_precision":"city","state":"CA"},"type":"Feature","geometry":{"type":"Point","coordinates":[-122.419416,37.77493]}},{"properties":{"city":"SEATTLE","geo_score":0.857,"id":"a698o1v6q497","geo_precision":"city","state":"WA"},"type":"Feature","geometry":{"type":"Point","coordinates":[-122.332071,47.60621]}},{"properties":{"city":"SIOUX FALLS","geo_score":0.857,"id":"a698o205xy11","geo_precision":"city","state":"SD"},"type":"Feature","geometry":{"type":"Point","coordinates":[-96.730328,43.546642]}},{"properties":{"city":"SPARTANBURG","geo_score":0.857,"id":"a698o24yqcd5","geo_precision":"city","state":"SC"},"type":"Feature","geometry":{"type":"Point","coordinates":[-81.932048,34.949567]}},{"properties":{"city":"SPOKANE","geo_score":0.857,"id":"a698o1ywk1pz","geo_precision":"city","state":"WA"},"type":"Feature","geometry":{"type":"Point","coordinates":[-117.426047,47.65878]}},{"properties":{"city":"SPRINGDALE","geo_score":0.814,"id":"a698o1ypxhyi","geo_precision":"city","state":"AR"},"type":"Feature","geometry":{"type":"Point","coordinates":[-93.648512,33.58762]}},{"properties":{"city":"SPRINGFIELD","geo_score":0.792,"id":"a698o1zku73c","geo_precision":"city","state":"MO"},"type":"Feature","geometry":{"type":"Point","coordinates":[-91.237925,38.295605]}},{"properties":{"city":"SAINT LOUIS","geo_score":0.857,"id":"a698o1vljgcv","geo_precision":"city","state":"MO"},"type":"Feature","geometry":{"type":"Point","coordinates":[-90.197889,38.627273]}},{"properties":{"city":"SUCCASUNNA","geo_score":0.857,"id":"a698o1y352al","geo_precision":"city","state":"NJ"},"type":"Feature","geometry":{"type":"Point","coordinates":[-74.655255,40.855286]}},{"properties":{"city":"SYRACUSE","geo_score":0.857,"id":"a698o1vmblx8","geo_precision":"city","state":"NY"},"type":"Feature","geometry":{"type":"Point","coordinates":[-76.147424,43.048122]}},{"properties":{"city":"TAMPA","geo_score":0.857,"id":"a698o1vjtiwk","geo_precision":"city","state":"FL"},"type":"Feature","geometry":{"type":"Point","coordinates":[-82.458428,27.947522]}},{"properties":{"city":"TEXARKANA","geo_score":0.857,"id":"a698o1y3j1u0","geo_precision":"city","state":"TX"},"type":"Feature","geometry":{"type":"Point","coordinates":[-94.047688,33.425125]}},{"properties":{"city":"TOLEDO","geo_score":0.857,"id":"a698o24wuo16","geo_precision":"city","state":"OH"},"type":"Feature","geometry":{"type":"Point","coordinates":[-83.555212,41.663938]}},{"properties":{"city":"TOPEKA","geo_score":0.857,"id":"a698o24fgawl","geo_precision":"city","state":"KS"},"type":"Feature","geometry":{"type":"Point","coordinates":[-95.678037,39.048334]}},{"properties":{"city":"TRENTON","geo_score":0.857,"id":"a698o1tfyb8u","geo_precision":"city","state":"NJ"},"type":"Feature","geometry":{"type":"Point","coordinates":[-74.742939,40.217053]}},{"properties":{"city":"TUCSON","geo_score":0.857,"id":"a698o2520y1c","geo_precision":"city","state":"AZ"},"type":"Feature","geometry":{"type":"Point","coordinates":[-110.926479,32.221743]}},{"properties":{"city":"TUSCALOOSA","geo_score":0.857,"id":"a698o1s58tp8","geo_precision":"city","state":"AL"},"type":"Feature","geometry":{"type":"Point","coordinates":[-87.569174,33.209841]}},{"properties":{"city":"VALDOSTA","geo_score":0.857,"id":"a698o1pdsrbf","geo_precision":"city","state":"GA"},"type":"Feature","geometry":{"type":"Point","coordinates":[-83.332068,30.753904]}},{"properties":{"city":"WASHINGTON","geo_score":0.857,"id":"a698o23u11qe","geo_precision":"city","state":"DC"},"type":"Feature","geometry":{"type":"Point","coordinates":[-77.036366,38.895112]}},{"properties":{"city":"WICHITA","geo_score":0.857,"id":"a698o1xdg0w1","geo_precision":"city","state":"KS"},"type":"Feature","geometry":{"type":"Point","coordinates":[-97.337545,37.692236]}},{"properties":{"city":"WILKES-BARRE","geo_score":0.857,"id":"a698o20qg183","geo_precision":"city","state":"PA"},"type":"Feature","geometry":{"type":"Point","coordinates":[-75.881308,41.245915]}},{"properties":{"city":"WILLIAMSBURG","geo_score":0.857,"id":"a698o22srnpd","geo_precision":"city","state":"VA"},"type":"Feature","geometry":{"type":"Point","coordinates":[-76.746769,37.310451]}},{"properties":{"city":"WILLMAR","geo_score":0.857,"id":"a698o21yn7qv","geo_precision":"city","state":"MN"},"type":"Feature","geometry":{"type":"Point","coordinates":[-94.977723,45.147104]}},{"properties":{"city":"WILMINGTON","geo_score":0.857,"id":"a698o1qpkaqy","geo_precision":"city","state":"DE"},"type":"Feature","geometry":{"type":"Point","coordinates":[-75.546589,39.745947]}},{"properties":{"city":"WINCHESTER","geo_score":0.857,"id":"a698o22jh081","geo_precision":"city","state":"VA"},"type":"Feature","geometry":{"type":"Point","coordinates":[-78.16856,39.169668]}},{"properties":{"city":"WINSTON-SALEM","geo_score":0.857,"id":"a698o1s07404","geo_precision":"city","state":"NC"},"type":"Feature","geometry":{"type":"Point","coordinates":[-80.244216,36.09986]}},{"properties":{"city":"YORK","geo_score":0.857,"id":"a698o21mylst","geo_precision":"city","state":"PA"},"type":"Feature","geometry":{"type":"Point","coordinates":[-76.727139,39.962998]}}],"is_temporal":false,"author":{"url":"","metadata":"","contact_name":"","contact_address":"","source":"","contact_phone":""},"source":"","pagination":{"sort":null,"start":0,"total":153,"limit":1000000},"state":"complete","tags":"","published":"2014-08-15T03:49:27-04:00","id":249473}