{"type":"FeatureCollection","data_type":"Dataset","url_type":null,"permissions":[{"permissions":{"download":true,"view":true},"group_id":"everyone"}],"classification":null,"title":"Locations Proposed to be Closed","count":83,"stream_id":249662,"contributor":{"url":"http://geocommons.com/users/44657","name":"UKAppCtr"},"data_attributes":null,"calculation_params":null,"icon_link":null,"link":"http://geocommons.com/overlays/249662.json","extent":[-85.8207,36.7141,-82.3103,38.6241],"geometry_types":["point"],"unique_name":null,"name":"Locations Proposed to be Closed","feature_count":83,"description":"Location of post offices proposed to be closed","next_feature":null,"is_raster":false,"short_classification":"Y","stats":{"latitude":{"max":38.62412395,"variance":0.200750485284669,"mean":37.3397083787952,"stdev":0.448051877894367,"min":36.7141352,"median":37.29597261},"longitude":{"max":-82.31026862,"variance":0.464788469558491,"mean":-83.3316079210844,"stdev":0.68175396556125,"min":-85.82074431,"median":-83.17019622}},"features":[{"properties":{"city":"BREEDING","status":"Proposed to be Closed","image description":null,"latitude":36.95764254,"county":"Adair","zip code":"42715","hyperlink":null,"street":"35 POST OFFICE LN","longitude":-85.43629877,"id":"a69i0jsm8i41","state":"KY"},"type":"Feature","geometry":{"type":"Point","coordinates":[-85.43629877,36.95764254]}},{"properties":{"city":"GRADYVILLE","status":"Proposed to be Closed","image description":null,"latitude":37.06356596,"county":"Adair","zip code":"42742","hyperlink":null,"street":"280 OLD GRADYVILLE RD","longitude":-85.42673301,"id":"a69i0jsu86rp","state":"KY"},"type":"Feature","geometry":{"type":"Point","coordinates":[-85.42673301,37.06356596]}},{"properties":{"city":"INGRAM","status":"Proposed to be Closed","image description":null,"latitude":36.73015118,"county":"Bell","zip code":"40955","hyperlink":null,"street":"3449 HIGHWAY 92","longitude":-83.79785968,"id":"a69i0jrph9fx","state":"KY"},"type":"Feature","geometry":{"type":"Point","coordinates":[-83.79785968,36.73015118]}},{"properties":{"city":"MIRACLE","status":"Proposed to be Closed","image description":null,"latitude":36.76126069,"county":"Bell","zip code":"40856","hyperlink":null,"street":"10845 HIGHWAY 987","longitude":-83.58518868,"id":"a69i0jgf0hp3","state":"KY"},"type":"Feature","geometry":{"type":"Point","coordinates":[-83.58518868,36.76126069]}},{"properties":{"city":"STONEY FORK","status":"Proposed to be Closed","image description":null,"latitude":36.89913416,"county":"Bell","zip code":"40988","hyperlink":null,"street":"HWY 221","longitude":-83.35143862,"id":"a69i0jn17iz1","state":"KY"},"type":"Feature","geometry":{"type":"Point","coordinates":[-83.35143862,36.89913416]}},{"properties":{"city":"GRAHN","status":"Proposed to be Closed","image description":"Post Office","latitude":38.28415047,"county":"Carter","zip code":"41142","hyperlink":"<a href=\"https://appalachiancenter.as.uky.edu/sites/default/files/webform/DSCF2460.JPG\">Grahn</a>","street":"61 POST OFFICE AVE","longitude":-83.07685781,"id":"a69i0jhj13vz","state":"KY"},"type":"Feature","geometry":{"type":"Point","coordinates":[-83.07685781,38.28415047]}},{"properties":{"city":"SOLDIER","status":"Proposed to be Closed","image description":"Post Office","latitude":38.25899256,"county":"Carter","zip code":"41173","hyperlink":"<a href=\"https://appalachiancenter.as.uky.edu/sites/default/files/webform/DSCF2456.JPG\">Soldier</a>","street":"8337 STATE HIGHWAY 174","longitude":-83.2995627,"id":"a69i0js6pm4l","state":"KY"},"type":"Feature","geometry":{"type":"Point","coordinates":[-83.2995627,38.25899256]}},{"properties":{"city":"HIMA","status":"Proposed to be Closed","image description":null,"latitude":37.12080362,"county":"Clay","zip code":"40951","hyperlink":null,"street":"HIGHWAY 80","longitude":-83.77888952,"id":"a69i0jgphpbu","state":"KY"},"type":"Feature","geometry":{"type":"Point","coordinates":[-83.77888952,37.12080362]}},{"properties":{"city":"SEXTONS CREEK","status":"Proposed to be Closed","image description":null,"latitude":37.32050105,"county":"Clay","zip code":"40983","hyperlink":null,"street":"4067 HIGHWAY 1350","longitude":-83.76806854,"id":"a69i0jt8fadd","state":"KY"},"type":"Feature","geometry":{"type":"Point","coordinates":[-83.76806854,37.32050105]}},{"properties":{"city":"ALPHA","status":"Proposed to be Closed","image description":null,"latitude":36.76181196,"county":"Clinton","zip code":"42603","hyperlink":null,"street":"234 OLD HAPPY TOP RD","longitude":-85.04714953,"id":"a69i0jkrqezs","state":"KY"},"type":"Feature","geometry":{"type":"Point","coordinates":[-85.04714953,36.76181196]}},{"properties":{"city":"ELIZAVILLE","status":"Proposed to be Closed","image description":null,"latitude":38.41941224,"county":"Fleming","zip code":"41037","hyperlink":null,"street":"5035 ELIZAVILLE RD","longitude":-83.82360951,"id":"a69i0jlsx4c0","state":"KY"},"type":"Feature","geometry":{"type":"Point","coordinates":[-83.82360951,38.41941224]}},{"properties":{"city":"PLUMMERS LANDING","status":"Proposed to be Closed","image description":null,"latitude":38.31982312,"county":"Fleming","zip code":"41081","hyperlink":null,"street":"591 PLUMMERS LANDING RD","longitude":-83.5559179,"id":"a69i0jjaeamf","state":"KY"},"type":"Feature","geometry":{"type":"Point","coordinates":[-83.5559179,38.31982312]}},{"properties":{"city":"MUSES MILLS","status":"Proposed to be Closed","image description":null,"latitude":38.35156129,"county":"Fleming","zip code":"41065","hyperlink":null,"street":"6 RYAN RD","longitude":-83.52812755,"id":"a69i0jqfkqzv","state":"KY"},"type":"Feature","geometry":{"type":"Point","coordinates":[-83.52812755,38.35156129]}},{"properties":{"city":"BEVINSVILLE","status":"Proposed to be Closed","image description":null,"latitude":37.36505153,"county":"Floyd","zip code":"41606","hyperlink":null,"street":"20311 KY ROUTE 122","longitude":-82.73191229,"id":"a69i0jkpzkne","state":"KY"},"type":"Feature","geometry":{"type":"Point","coordinates":[-82.73191229,37.36505153]}},{"properties":{"city":"BLUE RIVER","status":"Proposed to be Closed","image description":null,"latitude":37.61649466,"county":"Floyd","zip code":"41607","hyperlink":null,"street":"3563 KY ROUTE 404 STE 2","longitude":-82.84278507,"id":"a69i0jpyg2x8","state":"KY"},"type":"Feature","geometry":{"type":"Point","coordinates":[-82.84278507,37.61649466]}},{"properties":{"city":"DAVID","status":"Proposed to be Closed","image description":null,"latitude":37.59969561,"county":"Floyd","zip code":"41616","hyperlink":null,"street":"6693 KY ROUTE 404","longitude":-82.89135825,"id":"a69i0jrx3k0l","state":"KY"},"type":"Feature","geometry":{"type":"Point","coordinates":[-82.89135825,37.59969561]}},{"properties":{"city":"DWALE","status":"Proposed to be Closed","image description":null,"latitude":37.62409994,"county":"Floyd","zip code":"41621","hyperlink":null,"street":"310 BEAVER JUNCTION RD","longitude":-82.72640863,"id":"a69i0jml8er7","state":"KY"},"type":"Feature","geometry":{"type":"Point","coordinates":[-82.72640863,37.62409994]}},{"properties":{"city":"HUEYSVILLE","status":"Proposed to be Closed","image description":null,"latitude":37.49817016,"county":"Floyd","zip code":"41640","hyperlink":null,"street":"85 SALT LICK CRK","longitude":-82.83986565,"id":"a69i0jorqawl","state":"KY"},"type":"Feature","geometry":{"type":"Point","coordinates":[-82.83986565,37.49817016]}},{"properties":{"city":"LACKEY","status":"Proposed to be Closed","image description":null,"latitude":37.46351049,"county":"Floyd","zip code":"41643","hyperlink":null,"street":"235 KY ROUTE 7","longitude":-82.83497819,"id":"a69i0jjp1jmr","state":"KY"},"type":"Feature","geometry":{"type":"Point","coordinates":[-82.83497819,37.46351049]}},{"properties":{"city":"MINNIE","status":"Proposed to be Closed","image description":null,"latitude":37.47039318,"county":"Floyd","zip code":"41651","hyperlink":null,"street":"8586 KY ROUTE 122","longitude":-82.75433927,"id":"a69i0jjpro47","state":"KY"},"type":"Feature","geometry":{"type":"Point","coordinates":[-82.75433927,37.47039318]}},{"properties":{"city":"BIG LAUREL","status":"Proposed to be Closed","image description":null,"latitude":36.98788845,"county":"Harlan","zip code":"40808","hyperlink":null,"street":"12564 E HIGHWAY 221","longitude":-83.18456937,"id":"a69i0jr0nm3t","state":"KY"},"type":"Feature","geometry":{"type":"Point","coordinates":[-83.18456937,36.98788845]}},{"properties":{"city":"CLOSPLINT","status":"Proposed to be Closed","image description":null,"latitude":36.90610999,"county":"Harlan","zip code":"40927","hyperlink":null,"street":"17857 HIGHWAY 38","longitude":-83.07144243,"id":"a69i0jttbtq4","state":"KY"},"type":"Feature","geometry":{"type":"Point","coordinates":[-83.07144243,36.90610999]}},{"properties":{"city":"CRANKS","status":"Proposed to be Closed","image description":null,"latitude":36.76453276,"county":"Harlan","zip code":"40820","hyperlink":null,"street":"14869 S US HIGHWAY 421","longitude":-83.17019622,"id":"a69i0jrvlarw","state":"KY"},"type":"Feature","geometry":{"type":"Point","coordinates":[-83.17019622,36.76453276]}},{"properties":{"city":"DAYHOIT","status":"Proposed to be Closed","image description":null,"latitude":36.85687786,"county":"Harlan","zip code":"40824","hyperlink":null,"street":"39 SUTTON DR","longitude":-83.21783741,"id":"a69i0jqihex2","state":"KY"},"type":"Feature","geometry":{"type":"Point","coordinates":[-83.21783741,36.85687786]}},{"properties":{"city":"LEJUNIOR","status":"Proposed to be Closed","image description":null,"latitude":36.93151047,"county":"Harlan","zip code":"40849","hyperlink":null,"street":"13161 HIGHWAY 38","longitude":-83.14459762,"id":"a69i0jhospt5","state":"KY"},"type":"Feature","geometry":{"type":"Point","coordinates":[-83.14459762,36.93151047]}},{"properties":{"city":"PATHFORK","status":"Proposed to be Closed","image description":null,"latitude":36.75558598,"county":"Harlan","zip code":"40863","hyperlink":null,"street":"63 BUNCH ST","longitude":-83.46296989,"id":"a69i0jrzmg73","state":"KY"},"type":"Feature","geometry":{"type":"Point","coordinates":[-83.46296989,36.75558598]}},{"properties":{"city":"PUTNEY","status":"Proposed to be Closed","image description":null,"latitude":36.9002525,"county":"Harlan","zip code":"40865","hyperlink":null,"street":"4416 HIGHWAY 522","longitude":-83.24869159,"id":"a69i0jvcu9yb","state":"KY"},"type":"Feature","geometry":{"type":"Point","coordinates":[-83.24869159,36.9002525]}},{"properties":{"city":"TOTZ","status":"Proposed to be Closed","image description":null,"latitude":36.99725414,"county":"Harlan","zip code":"40870","hyperlink":null,"street":"11036 HIGHWAY 522","longitude":-83.15918855,"id":"a69i0jnai1e4","state":"KY"},"type":"Feature","geometry":{"type":"Point","coordinates":[-83.15918855,36.99725414]}},{"properties":{"city":"BOONS CAMP","status":"Proposed to be Closed","image description":"Post Office","latitude":37.82577198,"county":"Johnson","zip code":"41204","hyperlink":"<a href=\"https://appalachiancenter.as.uky.edu/sites/default/files/webform/DSC03550.JPG\">Boons Camp</a>","street":"10061 KY ROUTE 40","longitude":-82.69113613,"id":"a69i0jog78iu","state":"KY"},"type":"Feature","geometry":{"type":"Point","coordinates":[-82.69113613,37.82577198]}},{"properties":{"city":"OIL SPRINGS","status":"Proposed to be Closed","image description":"Post Office","latitude":37.8012718,"county":"Johnson","zip code":"41238","hyperlink":"<a href=\"https://appalachiancenter.as.uky.edu/sites/default/files/webform/DSC03557.JPG\">Boons Camp</a>","street":"8895 KY ROUTE 40","longitude":-82.9641092,"id":"a69i0jhw7ddg","state":"KY"},"type":"Feature","geometry":{"type":"Point","coordinates":[-82.9641092,37.8012718]}},{"properties":{"city":"SITKA","status":"Proposed to be Closed","image description":"Post Office","latitude":37.85283424,"county":"Johnson","zip code":"41255","hyperlink":"<a href=\"https://appalachiancenter.as.uky.edu/sites/default/files/webform/DSC03561.JPG\">Sitka</a>","street":"2474 KY ROUTE 201","longitude":-82.82906554,"id":"a69i0jwhevpx","state":"KY"},"type":"Feature","geometry":{"type":"Point","coordinates":[-82.82906554,37.85283424]}},{"properties":{"city":"WILLIAMSPORT","status":"Proposed to be Closed","image description":null,"latitude":37.80062058,"county":"Johnson","zip code":"41271","hyperlink":null,"street":"7540 KY ROUTE 40","longitude":-82.73079805,"id":"a69i0jqumob7","state":"KY"},"type":"Feature","geometry":{"type":"Point","coordinates":[-82.73079805,37.80062058]}},{"properties":{"city":"CARRIE","status":"Proposed to be Closed","image description":null,"latitude":37.3232517,"county":"Knott","zip code":"41725","hyperlink":null,"street":"4357 HIGHWAY 550","longitude":-83.03436983,"id":"a69i0jv76uj1","state":"KY"},"type":"Feature","geometry":{"type":"Point","coordinates":[-83.03436983,37.3232517]}},{"properties":{"city":"EMMALENA","status":"Proposed to be Closed","image description":null,"latitude":37.33170116,"county":"Knott","zip code":"41740","hyperlink":null,"street":"8334 HIGHWAY 550","longitude":-83.05876821,"id":"a69i0jqkywm3","state":"KY"},"type":"Feature","geometry":{"type":"Point","coordinates":[-83.05876821,37.33170116]}},{"properties":{"city":"FISTY","status":"Proposed to be Closed","image description":null,"latitude":37.33598316,"county":"Knott","zip code":"41743","hyperlink":null,"street":"10573 HIGHWAY 550","longitude":-83.06311712,"id":"a69i0jn0zdln","state":"KY"},"type":"Feature","geometry":{"type":"Point","coordinates":[-83.06311712,37.33598316]}},{"properties":{"city":"SASSAFRAS","status":"Proposed to be Closed","image description":null,"latitude":37.21835472,"county":"Knott","zip code":"41759","hyperlink":null,"street":"315 MAIN ST","longitude":-83.05151124,"id":"a69i0jipkrwp","state":"KY"},"type":"Feature","geometry":{"type":"Point","coordinates":[-83.05151124,37.21835472]}},{"properties":{"city":"VEST","status":"Proposed to be Closed","image description":null,"latitude":37.39980297,"county":"Knott","zip code":"41772","hyperlink":null,"street":"47 VEST TALCUM RD","longitude":-83.05160598,"id":"a69i0jtqh69t","state":"KY"},"type":"Feature","geometry":{"type":"Point","coordinates":[-83.05160598,37.39980297]}},{"properties":{"city":"BRYANTS STORE","status":"Proposed to be Closed","image description":null,"latitude":36.72031149,"county":"Knox","zip code":"40921","hyperlink":null,"street":"2001 KY 1809","longitude":-83.94438892,"id":"a69i0jsjh9v1","state":"KY"},"type":"Feature","geometry":{"type":"Point","coordinates":[-83.94438892,36.72031149]}},{"properties":{"city":"DEWITT","status":"Proposed to be Closed","image description":null,"latitude":36.87952194,"county":"Knox","zip code":"40930","hyperlink":null,"street":"2956 KY 223","longitude":-83.72736804,"id":"a69i0jokohxr","state":"KY"},"type":"Feature","geometry":{"type":"Point","coordinates":[-83.72736804,36.87952194]}},{"properties":{"city":"HINKLE","status":"Proposed to be Closed","image description":null,"latitude":36.91356362,"county":"Knox","zip code":"40953","hyperlink":null,"street":"85 PAYNES CREEK RD","longitude":-83.81840883,"id":"a69i0jk6lxc0","state":"KY"},"type":"Feature","geometry":{"type":"Point","coordinates":[-83.81840883,36.91356362]}},{"properties":{"city":"SCALF","status":"Proposed to be Closed","image description":null,"latitude":36.87715322,"county":"Knox","zip code":"40982","hyperlink":null,"street":"15581 KY 223","longitude":-83.73775999,"id":"a69i0jhn7d7q","state":"KY"},"type":"Feature","geometry":{"type":"Point","coordinates":[-83.73775999,36.87715322]}},{"properties":{"city":"TROSPER","status":"Proposed to be Closed","image description":null,"latitude":36.75281011,"county":"Knox","zip code":"40995","hyperlink":null,"street":"7814 KY 225","longitude":-83.83846734,"id":"a69i0jqry5bs","state":"KY"},"type":"Feature","geometry":{"type":"Point","coordinates":[-83.83846734,36.75281011]}},{"properties":{"city":"MARTHA","status":"Proposed to be Closed","image description":null,"latitude":37.99878362,"county":"Lawrence","zip code":"41159","hyperlink":null,"street":"247 HIGHWAY 469","longitude":-82.93962595,"id":"a69i0jmvh2v1","state":"KY"},"type":"Feature","geometry":{"type":"Point","coordinates":[-82.93962595,37.99878362]}},{"properties":{"city":"LONE","status":"Proposed to be Closed","image description":null,"latitude":37.52938309,"county":"Lee","zip code":"41347","hyperlink":null,"street":"2297 HIGHWAY 708","longitude":-83.60376745,"id":"a69i0jr81g3f","state":"KY"},"type":"Feature","geometry":{"type":"Point","coordinates":[-83.60376745,37.52938309]}},{"properties":{"city":"SAINT HELENS","status":"Proposed to be Closed","image description":null,"latitude":37.58427025,"county":"Lee","zip code":"41368","hyperlink":null,"street":"92 HIGHWAY 2016","longitude":-83.6474291,"id":"a69i0js2349q","state":"KY"},"type":"Feature","geometry":{"type":"Point","coordinates":[-83.6474291,37.58427025]}},{"properties":{"city":"ASHER","status":"Proposed to be Closed","image description":null,"latitude":37.06501174,"county":"Leslie","zip code":"40803","hyperlink":null,"street":"25 MIDDLEFORK RD","longitude":-83.40724776,"id":"a69i0jqtr04w","state":"KY"},"type":"Feature","geometry":{"type":"Point","coordinates":[-83.40724776,37.06501174]}},{"properties":{"city":"HOSKINSTON","status":"Proposed to be Closed","image description":null,"latitude":37.08913435,"county":"Leslie","zip code":"40844","hyperlink":null,"street":"13464 HIGHWAY 421","longitude":-83.39568882,"id":"a69i0jtkw6m3","state":"KY"},"type":"Feature","geometry":{"type":"Point","coordinates":[-83.39568882,37.08913435]}},{"properties":{"city":"ROARK","status":"Proposed to be Closed","image description":null,"latitude":37.01905213,"county":"Leslie","zip code":"40979","hyperlink":null,"street":"13060 HIGHWAY 406","longitude":-83.48800181,"id":"a69i0joau74q","state":"KY"},"type":"Feature","geometry":{"type":"Point","coordinates":[-83.48800181,37.01905213]}},{"properties":{"city":"WARBRANCH","status":"Proposed to be Closed","image description":null,"latitude":36.99613377,"county":"Leslie","zip code":"40874","hyperlink":null,"street":"6983 MIDDLE FORK RD","longitude":-83.44477199,"id":"a69i0jobcpr4","state":"KY"},"type":"Feature","geometry":{"type":"Point","coordinates":[-83.44477199,36.99613377]}},{"properties":{"city":"BURDINE","status":"Proposed to be Closed","image description":null,"latitude":37.18900343,"county":"Letcher","zip code":"41517","hyperlink":null,"street":"11872 HIGHWAY 805","longitude":-82.60249855,"id":"a69i0jit1qp7","state":"KY"},"type":"Feature","geometry":{"type":"Point","coordinates":[-82.60249855,37.18900343]}},{"properties":{"city":"DEANE","status":"Proposed to be Closed","image description":null,"latitude":37.25504291,"county":"Letcher","zip code":"41812","hyperlink":null,"street":"11125 HIGHWAY 7","longitude":-82.76366854,"id":"a69i0juwfdn4","state":"KY"},"type":"Feature","geometry":{"type":"Point","coordinates":[-82.76366854,37.25504291]}},{"properties":{"city":"EOLIA","status":"Proposed to be Closed","image description":null,"latitude":37.05203574,"county":"Letcher","zip code":"40826","hyperlink":null,"street":"1364 HIGHWAY 806","longitude":-82.79216333,"id":"a69i0jr4ktm4","state":"KY"},"type":"Feature","geometry":{"type":"Point","coordinates":[-82.79216333,37.05203574]}},{"properties":{"city":"HALLIE","status":"Proposed to be Closed","image description":null,"latitude":37.10438005,"county":"Letcher","zip code":"41821","hyperlink":null,"street":"3996 HIGHWAY 1103","longitude":-83.0202931,"id":"a69i0jpya3w2","state":"KY"},"type":"Feature","geometry":{"type":"Point","coordinates":[-83.0202931,37.10438005]}},{"properties":{"city":"JACKHORN","status":"Proposed to be Closed","image description":null,"latitude":37.17956072,"county":"Letcher","zip code":"41825","hyperlink":null,"street":"2636 HIGHWAY 317","longitude":-82.71446845,"id":"a69i0jtbvp4c","state":"KY"},"type":"Feature","geometry":{"type":"Point","coordinates":[-82.71446845,37.17956072]}},{"properties":{"city":"PARTRIDGE","status":"Proposed to be Closed","image description":null,"latitude":37.0010248,"county":"Letcher","zip code":"40862","hyperlink":null,"street":"469 HIGHWAY 3073","longitude":-82.91240302,"id":"a69i0jmpjv34","state":"KY"},"type":"Feature","geometry":{"type":"Point","coordinates":[-82.91240302,37.0010248]}},{"properties":{"city":"PREMIUM","status":"Proposed to be Closed","image description":null,"latitude":37.07310933,"county":"Letcher","zip code":"41845","hyperlink":null,"street":"3752 HIGHWAY 160","longitude":-82.92415138,"id":"a69i0jh7gw1p","state":"KY"},"type":"Feature","geometry":{"type":"Point","coordinates":[-82.92415138,37.07310933]}},{"properties":{"city":"ROXANA","status":"Proposed to be Closed","image description":null,"latitude":37.10912178,"county":"Letcher","zip code":"41848","hyperlink":null,"street":"4115 HIGHWAY 2036","longitude":-82.9498983,"id":"a69i0jp1h6ty","state":"KY"},"type":"Feature","geometry":{"type":"Point","coordinates":[-82.9498983,37.10912178]}},{"properties":{"city":"SECO","status":"Proposed to be Closed","image description":null,"latitude":37.17213951,"county":"Letcher","zip code":"41849","hyperlink":null,"street":"131 SECO DR","longitude":-82.73127558,"id":"a69i0jtr9c9y","state":"KY"},"type":"Feature","geometry":{"type":"Point","coordinates":[-82.73127558,37.17213951]}},{"properties":{"city":"QUINCY","status":"Proposed to be Closed","image description":null,"latitude":38.62412395,"county":"Lewis","zip code":"41166","hyperlink":null,"street":"11977 E KY 8","longitude":-83.13088962,"id":"a69i0jmstt7y","state":"KY"},"type":"Feature","geometry":{"type":"Point","coordinates":[-83.13088962,38.62412395]}},{"properties":{"city":"FALCON","status":"Proposed to be Closed","image description":"Post Office","latitude":37.78189248,"county":"Magoffin","zip code":"41426","hyperlink":"<a href=\"https://appalachiancenter.as.uky.edu/sites/default/files/webform/Falcon.JPG\">Falcon</a>","street":"4000 FALCON RD","longitude":-83.01385716,"id":"a69i0jrwj0c1","state":"KY"},"type":"Feature","geometry":{"type":"Point","coordinates":[-83.01385716,37.78189248]}},{"properties":{"city":"TOMAHAWK","status":"Proposed to be Closed","image description":null,"latitude":37.87581432,"county":"Martin","zip code":"41262","hyperlink":null,"street":"4001 TOMAHAWK RD","longitude":-82.58931801,"id":"a69i0jttpj1o","state":"KY"},"type":"Feature","geometry":{"type":"Point","coordinates":[-82.58931801,37.87581432]}},{"properties":{"city":"PILGRIM","status":"Proposed to be Closed","image description":null,"latitude":37.798484,"county":"Martin","zip code":"41250","hyperlink":null,"street":"75 EMILY CRK","longitude":-82.42067926,"id":"a69i0ji8o0jh","state":"KY"},"type":"Feature","geometry":{"type":"Point","coordinates":[-82.42067926,37.798484]}},{"properties":{"city":"DENNISTON","status":"Proposed to be Closed","image description":null,"latitude":37.90093094,"county":"Menifee","zip code":"40316","hyperlink":null,"street":"6969 US HIGHWAY 460","longitude":-83.48557681,"id":"a69i0js6xal0","state":"KY"},"type":"Feature","geometry":{"type":"Point","coordinates":[-83.48557681,37.90093094]}},{"properties":{"city":"KNOB LICK","status":"Proposed to be Closed","image description":null,"latitude":37.07895571,"county":"Metcalfe","zip code":"42154","hyperlink":null,"street":"5260 SULPHUR WELL KNOB LICK RD","longitude":-85.6949117,"id":"a69i0jsaikl4","state":"KY"},"type":"Feature","geometry":{"type":"Point","coordinates":[-85.6949117,37.07895571]}},{"properties":{"city":"MOUNT HERMON","status":"Proposed to be Closed","image description":null,"latitude":36.80739072,"county":"Monroe","zip code":"42157","hyperlink":null,"street":"11440 OLD GLASGOW RD","longitude":-85.82074431,"id":"a69i0jgsjzdw","state":"KY"},"type":"Feature","geometry":{"type":"Point","coordinates":[-85.82074431,36.80739072]}},{"properties":{"city":"CANNEL CITY","status":"Proposed to be Closed","image description":null,"latitude":37.76436183,"county":"Morgan","zip code":"41408","hyperlink":null,"street":"9519 HIGHWAY 191","longitude":-83.33351666,"id":"a69i0jvdiz1z","state":"KY"},"type":"Feature","geometry":{"type":"Point","coordinates":[-83.33351666,37.76436183]}},{"properties":{"city":"MALONE","status":"Proposed to be Closed","image description":null,"latitude":37.86514054,"county":"Morgan","zip code":"41451","hyperlink":null,"street":"2570 HIGHWAY 191","longitude":-83.25671716,"id":"a69i0ji6g1f2","state":"KY"},"type":"Feature","geometry":{"type":"Point","coordinates":[-83.25671716,37.86514054]}},{"properties":{"city":"MIZE","status":"Proposed to be Closed","image description":null,"latitude":37.85796373,"county":"Morgan","zip code":"41352","hyperlink":null,"street":"8447 HIGHWAY 460","longitude":-83.39036916,"id":"a69i0jnv4e95","state":"KY"},"type":"Feature","geometry":{"type":"Point","coordinates":[-83.39036916,37.85796373]}},{"properties":{"city":"VINCENT","status":"Proposed to be Closed","image description":null,"latitude":37.40401348,"county":"Owsley","zip code":"41386","hyperlink":null,"street":"STATE ROUTE 30","longitude":-83.8259291,"id":"a69i0jmh5y7y","state":"KY"},"type":"Feature","geometry":{"type":"Point","coordinates":[-83.8259291,37.40401348]}},{"properties":{"city":"ARY","status":"Proposed to be Closed","image description":null,"latitude":37.36750019,"county":"Perry","zip code":"41712","hyperlink":null,"street":"14065 KY HIGHWAY 476 STE 102","longitude":-83.15138627,"id":"a69i0jiuosr2","state":"KY"},"type":"Feature","geometry":{"type":"Point","coordinates":[-83.15138627,37.36750019]}},{"properties":{"city":"DELPHIA","status":"Proposed to be Closed","image description":null,"latitude":37.02934848,"county":"Perry","zip code":"41735","hyperlink":null,"street":"3946 KY HIGHWAY 463 STE 102","longitude":-83.08621305,"id":"a69i0jtu5fxs","state":"KY"},"type":"Feature","geometry":{"type":"Point","coordinates":[-83.08621305,37.02934848]}},{"properties":{"city":"DICE","status":"Proposed to be Closed","image description":null,"latitude":37.36599308,"county":"Perry","zip code":"41736","hyperlink":null,"street":"4188 SIXTEENMILE CREEK RD STE 102","longitude":-83.23027601,"id":"a69i0jj115um","state":"KY"},"type":"Feature","geometry":{"type":"Point","coordinates":[-83.23027601,37.36599308]}},{"properties":{"city":"DWARF","status":"Proposed to be Closed","image description":null,"latitude":37.33623295,"county":"Perry","zip code":"41739","hyperlink":null,"street":"9325 KY HIGHWAY 476","longitude":-83.12853809,"id":"a69i0jtukgmy","state":"KY"},"type":"Feature","geometry":{"type":"Point","coordinates":[-83.12853809,37.33623295]}},{"properties":{"city":"HAZARD","status":"Proposed to be Closed","image description":null,"latitude":37.25467457,"county":"Perry","zip code":"41701","hyperlink":null,"street":"201 BLACK GOLD BLVD","longitude":-83.19985801,"id":"a69i0jm8c3z2","state":"KY"},"type":"Feature","geometry":{"type":"Point","coordinates":[-83.19985801,37.25467457]}},{"properties":{"city":"KRYPTON","status":"Proposed to be Closed","image description":null,"latitude":37.3118158,"county":"Perry","zip code":"41754","hyperlink":null,"street":"239 KRYPTON NAPFOR RD","longitude":-83.33963007,"id":"a69i0judp8c5","state":"KY"},"type":"Feature","geometry":{"type":"Point","coordinates":[-83.33963007,37.3118158]}},{"properties":{"city":"SLEMP","status":"Proposed to be Closed","image description":null,"latitude":37.07977115,"county":"Perry","zip code":"41763","hyperlink":null,"street":"45 OWENS BRANCH RD","longitude":-83.11173006,"id":"a69i0jhby6tx","state":"KY"},"type":"Feature","geometry":{"type":"Point","coordinates":[-83.11173006,37.07977115]}},{"properties":{"city":"YERKES","status":"Proposed to be Closed","image description":null,"latitude":37.27845193,"county":"Perry","zip code":"41778","hyperlink":null,"street":"8550 KY HIGHWAY 451","longitude":-83.3006966,"id":"a69i0jntg2d3","state":"KY"},"type":"Feature","geometry":{"type":"Point","coordinates":[-83.3006966,37.27845193]}},{"properties":{"city":"FORDS BRANCH","status":"Proposed to be Closed","image description":null,"latitude":37.43476431,"county":"Pike","zip code":"41526","hyperlink":null,"street":"2730 KEWANEE RD","longitude":-82.51348862,"id":"a69i0jrgihnp","state":"KY"},"type":"Feature","geometry":{"type":"Point","coordinates":[-82.51348862,37.43476431]}},{"properties":{"city":"LICK CREEK","status":"Proposed to be Closed","image description":null,"latitude":37.40419753,"county":"Pike","zip code":"41540","hyperlink":null,"street":"1651 LICK CREEK RD","longitude":-82.31026862,"id":"a69i0jlktkfe","state":"KY"},"type":"Feature","geometry":{"type":"Point","coordinates":[-82.31026862,37.40419753]}},{"properties":{"city":"MYRA","status":"Proposed to be Closed","image description":null,"latitude":37.29597261,"county":"Pike","zip code":"41549","hyperlink":null,"street":"7282 HIGHWAY 610 W","longitude":-82.60624908,"id":"a69i0jlkpu9o","state":"KY"},"type":"Feature","geometry":{"type":"Point","coordinates":[-82.60624908,37.29597261]}},{"properties":{"city":"WILDIE","status":"Proposed to be Closed","image description":null,"latitude":37.42121368,"county":"Rockcastle","zip code":"40492","hyperlink":null,"street":"1419 WILDIE RD","longitude":-84.30139812,"id":"a69i0jp2a3dh","state":"KY"},"type":"Feature","geometry":{"type":"Point","coordinates":[-84.30139812,37.42121368]}},{"properties":{"city":"SILER","status":"Proposed to be Closed","image description":null,"latitude":36.7141352,"county":"Whitley","zip code":"40763","hyperlink":null,"street":"15654 E HIGHWAY 92","longitude":-83.96993989,"id":"a69i0jwpi91o","state":"KY"},"type":"Feature","geometry":{"type":"Point","coordinates":[-83.96993989,36.7141352]}},{"properties":{"city":"ROGERS","status":"Proposed to be Closed","image description":"Person","latitude":37.70627379,"county":"Wolfe","zip code":"41365","hyperlink":"<a href=\"http://appalachiancenter.as.uky.edu/sites/default/files/webform/Elishu%20Rogers%2C%20first%20postmaster.JPG\">Elishu Rogers</a>","street":"1660 KY 715","longitude":-83.67620621,"id":"a69i0jlal87v","state":"KY"},"type":"Feature","geometry":{"type":"Point","coordinates":[-83.67620621,37.70627379]}}],"is_temporal":false,"author":{"url":"","metadata":"","contact_name":"University of Kentucky Appalachian Center","contact_address":"","source":"","contact_phone":"(859) 257-4852"},"source":"","pagination":{"sort":null,"start":0,"total":83,"limit":1000000},"state":"complete","tags":"office,post,project","published":"2012-06-08T02:24:03Z","id":249662}