{"type":"FeatureCollection","data_type":"Dataset","url_type":null,"permissions":[{"permissions":{"download":true,"view":true},"group_id":"everyone"}],"classification":null,"title":"Existing Locations","count":260,"stream_id":249663,"contributor":{"url":"http://geocommons.com/users/44657","name":"UKAppCtr"},"data_attributes":null,"calculation_params":null,"icon_link":null,"link":"http://geocommons.com/overlays/249663.json","extent":[-86.4113,36.5878,-82.0948,38.7208],"geometry_types":["point"],"unique_name":null,"name":"Existing Locations","feature_count":260,"description":"Locations of post offices to remain open","next_feature":null,"is_raster":false,"short_classification":"Y","stats":{"ymax":{"max":38.30606,"variance":196.975605281944,"mean":6.3216725,"stdev":14.0347997948651,"min":0.0,"median":0.0},"latitude":{"max":38.72084683,"variance":0.22010596177308,"mean":37.4353142022693,"stdev":0.46915451801414,"min":36.58782366,"median":37.36028748},"longitude":{"max":-82.09482879,"variance":0.998852097673331,"mean":-83.5496492503846,"stdev":0.999425884032093,"min":-86.4112851,"median":-83.33351666}},"features":[{"properties":{"match_addr":"800 Burkesville St, Columbia, KY, 42728","city":"COLUMBIA","ymax":0.0,"status":"Existing Location","latitude":37.09371312,"county":"Adair","zip code":"42728","hyperlink":null,"street":"800 BURKESVILLE ST","longitude":-85.31676235,"id":"a69ikbmed5ly","image":null,"state":"KY"},"type":"Feature","geometry":{"type":"Point","coordinates":[-85.31676235,37.09371312]}},{"properties":{"match_addr":"5724 W Highway 36, Olympia, KY, 40358","city":"OLYMPIA","ymax":0.0,"status":"Existing Location","latitude":38.12524932,"county":"Bath","zip code":"40358","hyperlink":null,"street":"5724 E HIGHWAY 36","longitude":-83.74915264,"id":"a69ikbwi7y4n","image":null,"state":"KY"},"type":"Feature","geometry":{"type":"Point","coordinates":[-83.74915264,38.12524932]}},{"properties":{"match_addr":"Main St, Salt Lick, KY, 40371","city":"SALT LICK","ymax":0.0,"status":"Existing Location","latitude":38.11308186,"county":"Bath","zip code":"40371","hyperlink":null,"street":"91 MAIN ST","longitude":-83.62028593,"id":"a69ikby6vp2w","image":null,"state":"KY"},"type":"Feature","geometry":{"type":"Point","coordinates":[-83.62028593,38.11308186]}},{"properties":{"match_addr":"581 Main St, Sharpsburg, KY, 40374","city":"SHARPSBURG","ymax":0.0,"status":"Existing Location","latitude":38.19833843,"county":"Bath","zip code":"40374","hyperlink":null,"street":"581 MAIN ST","longitude":-83.93198091,"id":"a69ikbtyg7ld","image":null,"state":"KY"},"type":"Feature","geometry":{"type":"Point","coordinates":[-83.93198091,38.19833843]}},{"properties":{"match_addr":"KY 66, Beverly, KY, 40913","city":"BEVERLY","ymax":0.0,"status":"Existing Location","latitude":36.89726079,"county":"Bell","zip code":"40913","hyperlink":null,"street":"16464 HIGHWAY 66","longitude":-83.57765771,"id":"a69ikbq2rca9","image":null,"state":"KY"},"type":"Feature","geometry":{"type":"Point","coordinates":[-83.57765771,36.89726079]}},{"properties":{"match_addr":"Calvin, KY","city":"CALVIN","ymax":36.72531,"status":"Existing Location","latitude":36.70031398,"county":"Bell","zip code":"40813","hyperlink":null,"street":"5501 US HIGHWAY 119","longitude":-83.69326918,"id":"a69ikbm8jfi7","image":null,"state":"KY"},"type":"Feature","geometry":{"type":"Point","coordinates":[-83.69326918,36.70031398]}},{"properties":{"match_addr":"Fourmile, KY","city":"FOURMILE","ymax":36.81797,"status":"Existing Location","latitude":36.79297218,"county":"Bell","zip code":"40939","hyperlink":null,"street":"16073 US HIGHWAY 25","longitude":-83.74205678,"id":"a69ikbkydy9e","image":null,"state":"KY"},"type":"Feature","geometry":{"type":"Point","coordinates":[-83.74205678,36.79297218]}},{"properties":{"match_addr":"KY 190, Frakes, KY, 40940","city":"FRAKES","ymax":0.0,"status":"Existing Location","latitude":36.58782366,"county":"Bell","zip code":"40940","hyperlink":null,"street":"17170 HIGHWAY 190","longitude":-83.93068651,"id":"a69ikbjsnzgo","image":null,"state":"KY"},"type":"Feature","geometry":{"type":"Point","coordinates":[-83.93068651,36.58782366]}},{"properties":{"match_addr":"201 N 20th St, Middlesboro, KY, 40965","city":"MIDDLESBORO","ymax":0.0,"status":"Existing Location","latitude":36.60862322,"county":"Bell","zip code":"40965","hyperlink":null,"street":"201 N 20TH ST","longitude":-83.71450006,"id":"a69ikbqrnctb","image":null,"state":"KY"},"type":"Feature","geometry":{"type":"Point","coordinates":[-83.71450006,36.60862322]}},{"properties":{"match_addr":"111 S Walnut St, Pineville, KY, 40977","city":"PINEVILLE","ymax":0.0,"status":"Existing Location","latitude":36.76235562,"county":"Bell","zip code":"40977","hyperlink":"<a href=\"http://www.wpamurals.com/pinevill.htm\">Pineville</a>","street":"111 S WALNUT ST","longitude":-83.69588679,"id":"a69ikbkqg1kf","image":"Post Office","state":"KY"},"type":"Feature","geometry":{"type":"Point","coordinates":[-83.69588679,36.76235562]}},{"properties":{"match_addr":"1140 Carter Ave, Ashland, KY, 41101","city":"ASHLAND","ymax":0.0,"status":"Existing Location","latitude":38.4803855,"county":"Boyd","zip code":"41101","hyperlink":null,"street":"1140 CARTER AVE","longitude":-82.64570332,"id":"a69ikbuz2m48","image":null,"state":"KY"},"type":"Feature","geometry":{"type":"Point","coordinates":[-82.64570332,38.4803855]}},{"properties":{"match_addr":"3514 Court St, Catlettsburg, KY, 41129","city":"CATLETTSBURG","ymax":0.0,"status":"Existing Location","latitude":38.4040208,"county":"Boyd","zip code":"41129","hyperlink":null,"street":"3514 COURT ST","longitude":-82.60091583,"id":"a69ikbozwe6a","image":"Post Office","state":"KY"},"type":"Feature","geometry":{"type":"Point","coordinates":[-82.60091583,38.4040208]}},{"properties":{"match_addr":"Highway 476, Clayhole, KY, 41317","city":"CLAYHOLE","ymax":0.0,"status":"Existing Location","latitude":37.45043306,"county":"Breathitt","zip code":"41317","hyperlink":"<a href=\"https://appalachiancenter.as.uky.edu/sites/default/files/webform/DSC03550.JPG\">Clayhole</a>","street":"3757 HIGHWAY 476","longitude":-83.24071763,"id":"a69ikbrv3313","image":"Post Office","state":"KY"},"type":"Feature","geometry":{"type":"Point","coordinates":[-83.24071763,37.45043306]}},{"properties":{"match_addr":"790 Highway 15 S, Jackson, KY, 41339","city":"JACKSON","ymax":0.0,"status":"Existing Location","latitude":37.49838151,"county":"Breathitt","zip code":"41339","hyperlink":"<a href=\"http://appalachiancenter.as.uky.edu/sites/default/files/webform/Jackson.JPG\">Jackson</a>","street":"790 HIGHWAY 15","longitude":-83.35622906,"id":"a69ikbwybukm","image":"Post Office","state":"KY"},"type":"Feature","geometry":{"type":"Point","coordinates":[-83.35622906,37.49838151]}},{"properties":{"match_addr":"9950 Highway 15 S, Lost Creek, KY, 41348","city":"LOST CREEK","ymax":0.0,"status":"Existing Location","latitude":37.47613381,"county":"Breathitt","zip code":"41348","hyperlink":null,"street":"9950 HIGHWAY 15","longitude":-83.32175965,"id":"a69ikbjl6ecc","image":null,"state":"KY"},"type":"Feature","geometry":{"type":"Point","coordinates":[-83.32175965,37.47613381]}},{"properties":{"match_addr":"6857 Highway 15 N, Vancleve, KY, 41385","city":"VANCLEVE","ymax":0.0,"status":"Existing Location","latitude":37.63069935,"county":"Breathitt","zip code":"41385","hyperlink":null,"street":"6857 HIGHWAY 15","longitude":-83.42169471,"id":"a69ikbl9qrjt","image":null,"state":"KY"},"type":"Feature","geometry":{"type":"Point","coordinates":[-83.42169471,37.63069935]}},{"properties":{"match_addr":"390 S Carol Malone Blvd, Grayson, KY, 41143","city":"GRAYSON","ymax":0.0,"status":"Existing Location","latitude":38.32466109,"county":"Carter","zip code":"41143","hyperlink":null,"street":"390 S CAROL MALONE BLVD","longitude":-82.94808675,"id":"a69ikbly7upg","image":null,"state":"KY"},"type":"Feature","geometry":{"type":"Point","coordinates":[-82.94808675,38.32466109]}},{"properties":{"match_addr":"Hitchins, KY","city":"HITCHINS","ymax":38.30606,"status":"Existing Location","latitude":38.28106067,"county":"Carter","zip code":"41146","hyperlink":null,"street":"3625 S STATE HIGHWAY 1","longitude":-82.92059878,"id":"a69ikby5nb5r","image":null,"state":"KY"},"type":"Feature","geometry":{"type":"Point","coordinates":[-82.92059878,38.28106067]}},{"properties":{"match_addr":"215 W Tom T Hall Blvd, Olive Hill, KY, 41164","city":"OLIVE HILL","ymax":0.0,"status":"Existing Location","latitude":38.29625666,"county":"Carter","zip code":"41164","hyperlink":null,"street":"215 W TOM T HALL BLVD","longitude":-83.18042005,"id":"a69ikbm2rmyy","image":null,"state":"KY"},"type":"Feature","geometry":{"type":"Point","coordinates":[-83.18042005,38.29625666]}},{"properties":{"match_addr":"Willard, KY","city":"WILLARD","ymax":38.23673,"status":"Existing Location","latitude":38.21173373,"county":"Carter","zip code":"41181","hyperlink":null,"street":"8679 S STATE HIGHWAY 1","longitude":-82.89868571,"id":"a69ikbr7ep3r","image":null,"state":"KY"},"type":"Feature","geometry":{"type":"Point","coordinates":[-82.89868571,38.21173373]}},{"properties":{"match_addr":"10765 S Us 127, Dunnville, KY, 42528","city":"DUNNVILLE","ymax":0.0,"status":"Existing Location","latitude":37.19880866,"county":"Casey","zip code":"42528","hyperlink":null,"street":"10765 S US 127","longitude":-85.00885079,"id":"a69ikbwnjbz9","image":null,"state":"KY"},"type":"Feature","geometry":{"type":"Point","coordinates":[-85.00885079,37.19880866]}},{"properties":{"match_addr":"56 Hustonville St, Liberty, KY, 42539","city":"LIBERTY","ymax":0.0,"status":"Existing Location","latitude":37.32231353,"county":"Casey","zip code":"42539","hyperlink":null,"street":"56 HUSTONVILLE ST","longitude":-84.93508215,"id":"a69ikbipk1xb","image":null,"state":"KY"},"type":"Feature","geometry":{"type":"Point","coordinates":[-84.93508215,37.32231353]}},{"properties":{"match_addr":"77 S College St, Middleburg, KY, 42541","city":"MIDDLEBURG","ymax":0.0,"status":"Existing Location","latitude":37.35503166,"county":"Casey","zip code":"42541","hyperlink":null,"street":"77 S COLLEGE ST","longitude":-84.82013668,"id":"a69ikbtj3r41","image":null,"state":"KY"},"type":"Feature","geometry":{"type":"Point","coordinates":[-84.82013668,37.35503166]}},{"properties":{"match_addr":"KY 80, Windsor, KY, 42565","city":"WINDSOR","ymax":0.0,"status":"Existing Location","latitude":37.11799355,"county":"Casey","zip code":"42565","hyperlink":null,"street":"3593 KY 80","longitude":-84.94437923,"id":"a69ikbyf0glp","image":null,"state":"KY"},"type":"Feature","geometry":{"type":"Point","coordinates":[-84.94437923,37.11799355]}},{"properties":{"match_addr":"120 N Main St, Winchester, KY, 40391","city":"WINCHESTER","ymax":0.0,"status":"Existing Location","latitude":37.99568507,"county":"Clark","zip code":"40391","hyperlink":null,"street":"120 N MAIN ST","longitude":-84.17584959,"id":"a69ikblhpy1e","image":null,"state":"KY"},"type":"Feature","geometry":{"type":"Point","coordinates":[-84.17584959,37.99568507]}},{"properties":{"match_addr":"Big Creek, KY","city":"BIG CREEK","ymax":37.18789,"status":"Existing Location","latitude":37.16289369,"county":"Clay","zip code":"40914","hyperlink":null,"street":"17231 S HIGHWAY 421","longitude":-83.57421658,"id":"a69ikbv4dluk","image":null,"state":"KY"},"type":"Feature","geometry":{"type":"Point","coordinates":[-83.57421658,37.16289369]}},{"properties":{"match_addr":"Fall Rock, KY","city":"FALL ROCK","ymax":37.24356,"status":"Existing Location","latitude":37.2185633,"county":"Clay","zip code":"40932","hyperlink":null,"street":"4833 N HIGHWAY 421 UNIT 2","longitude":-83.78825695,"id":"a69ikbp0lu4e","image":null,"state":"KY"},"type":"Feature","geometry":{"type":"Point","coordinates":[-83.78825695,37.2185633]}},{"properties":{"match_addr":"Garrard, KY","city":"GARRARD","ymax":37.15045,"status":"Existing Location","latitude":37.12545163,"county":"Clay","zip code":"40941","hyperlink":null,"street":"2816 S HIGHWAY 421","longitude":-83.7472583,"id":"a69ikbxqw1ea","image":null,"state":"KY"},"type":"Feature","geometry":{"type":"Point","coordinates":[-83.7472583,37.12545163]}},{"properties":{"match_addr":"Goose Rock, KY","city":"GOOSE ROCK","ymax":37.11733,"status":"Existing Location","latitude":37.09233084,"county":"Clay","zip code":"40944","hyperlink":null,"street":"73 HIGHWAY 1524","longitude":-83.68471556,"id":"a69ikbtf3j3g","image":null,"state":"KY"},"type":"Feature","geometry":{"type":"Point","coordinates":[-83.68471556,37.09233084]}},{"properties":{"match_addr":"Manchester, KY","city":"MANCHESTER","ymax":37.16743,"status":"Existing Location","latitude":37.16064415,"county":"Clay","zip code":"40962","hyperlink":null,"street":"309 CLAY COUNTY SHOPPING CTR","longitude":-83.76622829,"id":"a69ikbxpiasi","image":null,"state":"KY"},"type":"Feature","geometry":{"type":"Point","coordinates":[-83.76622829,37.16064415]}},{"properties":{"match_addr":"Oneida, KY","city":"ONEIDA","ymax":37.29512,"status":"Existing Location","latitude":37.2701206,"county":"Clay","zip code":"40972","hyperlink":null,"street":"14963 N HIGHWAY 66","longitude":-83.6491585,"id":"a69ikbtvtygh","image":null,"state":"KY"},"type":"Feature","geometry":{"type":"Point","coordinates":[-83.6491585,37.2701206]}},{"properties":{"match_addr":"401 N Cross St, Albany, KY, 42602","city":"ALBANY","ymax":0.0,"status":"Existing Location","latitude":36.69297843,"county":"Clinton","zip code":"42602","hyperlink":null,"street":"401 N CROSS ST","longitude":-85.13565531,"id":"a69ikbmgb7qc","image":null,"state":"KY"},"type":"Feature","geometry":{"type":"Point","coordinates":[-85.13565531,36.69297843]}},{"properties":{"match_addr":"120 N Main St, Burkesville, KY, 42717","city":"BURKESVILLE","ymax":0.0,"status":"Existing Location","latitude":36.79097378,"county":"Cumberland","zip code":"42717","hyperlink":null,"street":"120 N MAIN ST","longitude":-85.36967002,"id":"a69ikbkumra4","image":null,"state":"KY"},"type":"Feature","geometry":{"type":"Point","coordinates":[-85.36967002,36.79097378]}},{"properties":{"match_addr":"Marrowbone, KY","city":"MARROWBONE","ymax":37.39097,"status":"Existing Location","latitude":37.36597086,"county":"Cumberland","zip code":"42759","hyperlink":null,"street":"9573 GLASGOW RD","longitude":-82.41449967,"id":"a69ikbv7ba4h","image":null,"state":"KY"},"type":"Feature","geometry":{"type":"Point","coordinates":[-82.41449967,37.36597086]}},{"properties":{"match_addr":"7535 KY 259 N, Bee Spring, KY, 42207","city":"BEE SPRING","ymax":0.0,"status":"Existing Location","latitude":37.28748552,"county":"Edmonson","zip code":"42207","hyperlink":null,"street":"7535 KY HIGHWAY 259","longitude":-86.27889757,"id":"a69ikbmktemg","image":null,"state":"KY"},"type":"Feature","geometry":{"type":"Point","coordinates":[-86.27889757,37.28748552]}},{"properties":{"match_addr":"535 S Main St, Brownsville, KY, 42210","city":"BROWNSVILLE","ymax":0.0,"status":"Existing Location","latitude":37.19095876,"county":"Edmonson","zip code":"42210","hyperlink":null,"street":"535 S MAIN ST","longitude":-86.26146827,"id":"a69ikbn5wcf2","image":null,"state":"KY"},"type":"Feature","geometry":{"type":"Point","coordinates":[-86.26146827,37.19095876]}},{"properties":{"match_addr":"2811 Entrance Rd, Mammoth Cave, KY, 42259","city":"MAMMOTH CAVE","ymax":0.0,"status":"Existing Location","latitude":37.18614798,"county":"Edmonson","zip code":"42259","hyperlink":null,"street":"2811 ENTRANCE RD","longitude":-86.09898116,"id":"a69ikbwnb2l7","image":null,"state":"KY"},"type":"Feature","geometry":{"type":"Point","coordinates":[-86.09898116,37.18614798]}},{"properties":{"match_addr":"Rocky Hill Rd, Rocky Hill, KY, 42163","city":"ROCKY HILL","ymax":0.0,"status":"Existing Location","latitude":37.0699816,"county":"Edmonson","zip code":"42163","hyperlink":null,"street":"1793 ROCKY HILL RD","longitude":-86.13819706,"id":"a69ikbq9112w","image":null,"state":"KY"},"type":"Feature","geometry":{"type":"Point","coordinates":[-86.13819706,37.0699816]}},{"properties":{"match_addr":"9645 Morgantown Rd, Roundhill, KY, 42275","city":"ROUNDHILL","ymax":0.0,"status":"Existing Location","latitude":37.23461358,"county":"Edmonson","zip code":"42275","hyperlink":null,"street":"9645 MORGANTOWN RD","longitude":-86.4112851,"id":"a69ikbqgcb4i","image":null,"state":"KY"},"type":"Feature","geometry":{"type":"Point","coordinates":[-86.4112851,37.23461358]}},{"properties":{"match_addr":"4960 KY 259 N, Sweeden, KY, 42285","city":"SWEEDEN","ymax":0.0,"status":"Existing Location","latitude":37.24796678,"county":"Edmonson","zip code":"42285","hyperlink":null,"street":"4960 KY HIGHWAY 259","longitude":-86.27969806,"id":"a69ikbs02i9p","image":null,"state":"KY"},"type":"Feature","geometry":{"type":"Point","coordinates":[-86.27969806,37.24796678]}},{"properties":{"match_addr":"Sandy Hook, KY","city":"SANDY HOOK","ymax":38.10838,"status":"Existing Location","latitude":38.08665271,"county":"Elliott","zip code":"41171","hyperlink":null,"street":"MAIN ST","longitude":-83.12558761,"id":"a69ikbx0hkcb","image":null,"state":"KY"},"type":"Feature","geometry":{"type":"Point","coordinates":[-83.12558761,38.08665271]}},{"properties":{"match_addr":"230 Main St, Irvine, KY, 40336","city":"IRVINE","ymax":0.0,"status":"Existing Location","latitude":37.70240165,"county":"Estill","zip code":"40336","hyperlink":null,"street":"230 MAIN ST","longitude":-83.975488,"id":"a69ikbqtbg3c","image":null,"state":"KY"},"type":"Feature","geometry":{"type":"Point","coordinates":[-83.975488,37.70240165]}},{"properties":{"match_addr":"1533 Ewing Rd, Ewing, KY, 41039","city":"EWING","ymax":0.0,"status":"Existing Location","latitude":38.42715889,"county":"Fleming","zip code":"41039","hyperlink":null,"street":"1533 EWING RD","longitude":-83.86424244,"id":"a69ikbq89zt8","image":null,"state":"KY"},"type":"Feature","geometry":{"type":"Point","coordinates":[-83.86424244,38.42715889]}},{"properties":{"match_addr":"131 E Water St, Flemingsburg, KY, 41041","city":"FLEMINGSBURG","ymax":0.0,"status":"Existing Location","latitude":38.42184373,"county":"Fleming","zip code":"41041","hyperlink":null,"street":"131 E WATER ST","longitude":-83.73328563,"id":"a69ikbj1le54","image":null,"state":"KY"},"type":"Feature","geometry":{"type":"Point","coordinates":[-83.73328563,38.42184373]}},{"properties":{"match_addr":"5 Souder Dr, Hillsboro, KY, 41049","city":"HILLSBORO","ymax":0.0,"status":"Existing Location","latitude":38.29382559,"county":"Fleming","zip code":"41049","hyperlink":null,"street":"5 SOUDER DR","longitude":-83.65968067,"id":"a69ikbwsz9ov","image":null,"state":"KY"},"type":"Feature","geometry":{"type":"Point","coordinates":[-83.65968067,38.29382559]}},{"properties":{"match_addr":"137 Court St, Allen, KY, 41601","city":"ALLEN","ymax":0.0,"status":"Existing Location","latitude":37.61435003,"county":"Floyd","zip code":"41601","hyperlink":null,"street":"137 COURT ST","longitude":-82.72087412,"id":"a69ikbkao0p8","image":null,"state":"KY"},"type":"Feature","geometry":{"type":"Point","coordinates":[-82.72087412,37.61435003]}},{"properties":{"match_addr":"11 W Market St, Auxier, KY, 41602","city":"AUXIER","ymax":0.0,"status":"Existing Location","latitude":37.73819872,"county":"Floyd","zip code":"41602","hyperlink":null,"street":"11 W MARKET ST","longitude":-82.7612945,"id":"a69ikbrae6zr","image":null,"state":"KY"},"type":"Feature","geometry":{"type":"Point","coordinates":[-82.7612945,37.73819872]}},{"properties":{"match_addr":"54 Hall Addition, Banner, KY, 41603","city":"BANNER","ymax":0.0,"status":"Existing Location","latitude":37.60412447,"county":"Floyd","zip code":"41603","hyperlink":null,"street":"54 HALL ADDITION","longitude":-82.70087272,"id":"a69ikblg5ams","image":null,"state":"KY"},"type":"Feature","geometry":{"type":"Point","coordinates":[-82.70087272,37.60412447]}},{"properties":{"match_addr":"13429 KY Route 979, Beaver, KY, 41604","city":"BEAVER","ymax":0.0,"status":"Existing Location","latitude":37.39541511,"county":"Floyd","zip code":"41604","hyperlink":null,"street":"13429 KY ROUTE 979","longitude":-82.6565926,"id":"a69ikbxtobcn","image":null,"state":"KY"},"type":"Feature","geometry":{"type":"Point","coordinates":[-82.6565926,37.39541511]}},{"properties":{"match_addr":"11105 Us Highway 23 S, Betsy Layne, KY, 41605","city":"BETSY LAYNE","ymax":0.0,"status":"Existing Location","latitude":37.5456841,"county":"Floyd","zip code":"41605","hyperlink":null,"street":"11105 US HIGHWAY 23 S STE 101","longitude":-82.63280946,"id":"a69ikbt8pa0x","image":null,"state":"KY"},"type":"Feature","geometry":{"type":"Point","coordinates":[-82.63280946,37.5456841]}},{"properties":{"match_addr":"356 KY Route 550, Eastern, KY, 41622","city":"EASTERN","ymax":0.0,"status":"Existing Location","latitude":37.51659565,"county":"Floyd","zip code":"41622","hyperlink":null,"street":"356 KY ROUTE 550","longitude":-82.80692302,"id":"a69ikbqclv7e","image":null,"state":"KY"},"type":"Feature","geometry":{"type":"Point","coordinates":[-82.80692302,37.51659565]}},{"properties":{"match_addr":"430 Front St, Garrett, KY, 41630","city":"GARRETT","ymax":0.0,"status":"Existing Location","latitude":37.4782351,"county":"Floyd","zip code":"41630","hyperlink":null,"street":"430 FRONT ST","longitude":-82.8340371,"id":"a69ikbpbpilh","image":null,"state":"KY"},"type":"Feature","geometry":{"type":"Point","coordinates":[-82.8340371,37.4782351]}},{"properties":{"match_addr":"6789 KY Route 979, Grethel, KY, 41631","city":"GRETHEL","ymax":0.0,"status":"Existing Location","latitude":37.47591844,"county":"Floyd","zip code":"41631","hyperlink":null,"street":"6789 KY ROUTE 979","longitude":-82.65645618,"id":"a69ikbumm8pk","image":null,"state":"KY"},"type":"Feature","geometry":{"type":"Point","coordinates":[-82.65645618,37.47591844]}},{"properties":{"match_addr":"107 Laynesville Rd, Harold, KY, 41635","city":"HAROLD","ymax":0.0,"status":"Existing Location","latitude":37.5298708,"county":"Floyd","zip code":"41635","hyperlink":null,"street":"107 LAYNESVILLE RD","longitude":-82.62730792,"id":"a69ikbirphi7","image":null,"state":"KY"},"type":"Feature","geometry":{"type":"Point","coordinates":[-82.62730792,37.5298708]}},{"properties":{"match_addr":"17460 KY Route 122, HI Hat, KY, 41636","city":"HI HAT","ymax":0.0,"status":"Existing Location","latitude":37.38901558,"county":"Floyd","zip code":"41636","hyperlink":null,"street":"17460 KY ROUTE 122","longitude":-82.73020973,"id":"a69ikbq062we","image":null,"state":"KY"},"type":"Feature","geometry":{"type":"Point","coordinates":[-82.73020973,37.38901558]}},{"properties":{"match_addr":"6367 Us Highway 23 S, Ivel, KY, 41642","city":"IVEL","ymax":0.0,"status":"Existing Location","latitude":37.58911352,"county":"Floyd","zip code":"41642","hyperlink":null,"street":"6367 US HIGHWAY 23 S STE 101","longitude":-82.66040269,"id":"a69ikbmgf7by","image":null,"state":"KY"},"type":"Feature","geometry":{"type":"Point","coordinates":[-82.66040269,37.58911352]}},{"properties":{"match_addr":"Main St, Martin, KY, 41649","city":"MARTIN","ymax":0.0,"status":"Existing Location","latitude":37.5612611,"county":"Floyd","zip code":"41649","hyperlink":null,"street":"11561 MAIN ST","longitude":-82.76193623,"id":"a69ikbooen2f","image":null,"state":"KY"},"type":"Feature","geometry":{"type":"Point","coordinates":[-82.76193623,37.5612611]}},{"properties":{"match_addr":"9571 KY Route 122, Mc Dowell, KY, 41647","city":"MC DOWELL","ymax":0.0,"status":"Existing Location","latitude":37.45803549,"county":"Floyd","zip code":"41647","hyperlink":null,"street":"9571 KY ROUTE 122","longitude":-82.74996039,"id":"a69ikbros63w","image":null,"state":"KY"},"type":"Feature","geometry":{"type":"Point","coordinates":[-82.74996039,37.45803549]}},{"properties":{"match_addr":"22944 KY Route 122, Melvin, KY, 41650","city":"MELVIN","ymax":0.0,"status":"Existing Location","latitude":37.35088816,"county":"Floyd","zip code":"41650","hyperlink":null,"street":"22944 KY ROUTE 122","longitude":-82.69515886,"id":"a69ikbqq932h","image":null,"state":"KY"},"type":"Feature","geometry":{"type":"Point","coordinates":[-82.69515886,37.35088816]}},{"properties":{"match_addr":"119 Franklin Cor, Prestonsburg, KY, 41653","city":"PRESTONSBURG","ymax":0.0,"status":"Existing Location","latitude":37.65941947,"county":"Floyd","zip code":"41653","hyperlink":null,"street":"119 FRANKLIN COR","longitude":-82.78487486,"id":"a69ikbuloiii","image":null,"state":"KY"},"type":"Feature","geometry":{"type":"Point","coordinates":[-82.78487486,37.65941947]}},{"properties":{"match_addr":"2928 KY Route 122, Printer, KY, 41655","city":"PRINTER","ymax":0.0,"status":"Existing Location","latitude":37.53115759,"county":"Floyd","zip code":"41655","hyperlink":null,"street":"2928 KY ROUTE 122 STE 2","longitude":-82.74607779,"id":"a69ikbskzuj2","image":null,"state":"KY"},"type":"Feature","geometry":{"type":"Point","coordinates":[-82.74607779,37.53115759]}},{"properties":{"match_addr":"185 E Main St, Stanville, KY, 41659","city":"STANVILLE","ymax":0.0,"status":"Existing Location","latitude":37.56525903,"county":"Floyd","zip code":"41659","hyperlink":null,"street":"185 E MAIN ST","longitude":-82.64269018,"id":"a69ikbjkv87i","image":null,"state":"KY"},"type":"Feature","geometry":{"type":"Point","coordinates":[-82.64269018,37.56525903]}},{"properties":{"match_addr":"11136 KY Route 979, Teaberry, KY, 41660","city":"TEABERRY","ymax":0.0,"status":"Existing Location","latitude":37.42532304,"county":"Floyd","zip code":"41660","hyperlink":null,"street":"11136 KY ROUTE 979","longitude":-82.64409148,"id":"a69ikbyg7kp6","image":null,"state":"KY"},"type":"Feature","geometry":{"type":"Point","coordinates":[-82.64409148,37.42532304]}},{"properties":{"match_addr":"6 Lona St, Tram, KY, 41663","city":"TRAM","ymax":0.0,"status":"Existing Location","latitude":37.57199369,"county":"Floyd","zip code":"41663","hyperlink":null,"street":"6 LONA ST","longitude":-82.64779713,"id":"a69ikbj9ohwv","image":null,"state":"KY"},"type":"Feature","geometry":{"type":"Point","coordinates":[-82.64779713,37.57199369]}},{"properties":{"match_addr":"2617 King Kelly Coleman Hwy, Wayland, KY, 41666","city":"WAYLAND","ymax":0.0,"status":"Existing Location","latitude":37.44610258,"county":"Floyd","zip code":"41666","hyperlink":null,"street":"2617 KING KELLY COLEMAN HWY","longitude":-82.80694327,"id":"a69ikbingsl0","image":null,"state":"KY"},"type":"Feature","geometry":{"type":"Point","coordinates":[-82.80694327,37.44610258]}},{"properties":{"match_addr":"80 Shop Fork St, Wheelwright, KY, 41606","city":"WHEELWRIGHT","ymax":0.0,"status":"Existing Location","latitude":37.33196989,"county":"Floyd","zip code":"41669","hyperlink":null,"street":"80 SHOP FORK ST","longitude":-82.71860063,"id":"a69ikblm9hcu","image":null,"state":"KY"},"type":"Feature","geometry":{"type":"Point","coordinates":[-82.71860063,37.33196989]}},{"properties":{"match_addr":"Bryantsville, KY","city":"BRYANTSVILLE","ymax":37.73964,"status":"Existing Location","latitude":37.71464171,"county":"Garrard","zip code":"40410","hyperlink":null,"street":"302 BRYANTSVILLE RD","longitude":-84.6495177,"id":"a69ikbt2k2ym","image":null,"state":"KY"},"type":"Feature","geometry":{"type":"Point","coordinates":[-84.6495177,37.71464171]}},{"properties":{"match_addr":"107 Danville St, Lancaster, KY, 40444","city":"LANCASTER","ymax":0.0,"status":"Existing Location","latitude":37.61948349,"county":"Garrard","zip code":"40444","hyperlink":null,"street":"107 DANVILLE ST","longitude":-84.58015279,"id":"a69ikbrsopwn","image":null,"state":"KY"},"type":"Feature","geometry":{"type":"Point","coordinates":[-84.58015279,37.61948349]}},{"properties":{"match_addr":"11642 Richmond Rd, Paint Lick, KY, 40461","city":"PAINT LICK","ymax":0.0,"status":"Existing Location","latitude":37.61746092,"county":"Garrard","zip code":"40461","hyperlink":null,"street":"11642 RICHMOND RD","longitude":-84.40799875,"id":"a69ikbnk6u98","image":null,"state":"KY"},"type":"Feature","geometry":{"type":"Point","coordinates":[-84.40799875,37.61746092]}},{"properties":{"match_addr":"201 S Main St, Greensburg, KY, 42743","city":"GREENSBURG","ymax":0.0,"status":"Existing Location","latitude":37.25914257,"county":"Green","zip code":"42743","hyperlink":null,"street":"201 S MAIN ST","longitude":-85.50263547,"id":"a69ikbmg3432","image":null,"state":"KY"},"type":"Feature","geometry":{"type":"Point","coordinates":[-85.50263547,37.25914257]}},{"properties":{"match_addr":"5160 Hodgenville Rd, Summersville, KY, 42782","city":"SUMMERSVILLE","ymax":0.0,"status":"Existing Location","latitude":37.37824066,"county":"Green","zip code":"42782","hyperlink":null,"street":"5160 HODGENVILLE RD","longitude":-85.5922398,"id":"a69ikbxtpanp","image":null,"state":"KY"},"type":"Feature","geometry":{"type":"Point","coordinates":[-85.5922398,37.37824066]}},{"properties":{"match_addr":"5470 State Route 1, Argillite, KY, 41121","city":"ARGILLITE","ymax":0.0,"status":"Existing Location","latitude":38.49581543,"county":"Greenup","zip code":"41121","hyperlink":null,"street":"5470 STATE ROUTE 1","longitude":-82.83131515,"id":"a69ikbxwe9f9","image":null,"state":"KY"},"type":"Feature","geometry":{"type":"Point","coordinates":[-82.83131515,38.49581543]}},{"properties":{"match_addr":"2125 Argillite Rd, Flatwoods, KY, 41139","city":"FLATWOODS","ymax":0.0,"status":"Existing Location","latitude":38.52019122,"county":"Greenup","zip code":"41139","hyperlink":null,"street":"2125 ARGILLITE RD","longitude":-82.72000081,"id":"a69ikbvhlmvn","image":null,"state":"KY"},"type":"Feature","geometry":{"type":"Point","coordinates":[-82.72000081,38.52019122]}},{"properties":{"match_addr":"1312 Ashland Rd, Greenup, KY, 41144","city":"GREENUP","ymax":0.0,"status":"Existing Location","latitude":38.56759527,"county":"Greenup","zip code":"41144","hyperlink":null,"street":"1312 ASHLAND RD","longitude":-82.82893277,"id":"a69ikbtdu6bt","image":null,"state":"KY"},"type":"Feature","geometry":{"type":"Point","coordinates":[-82.82893277,38.56759527]}},{"properties":{"match_addr":"517 Boyd St, Russell, KY, 41169","city":"RUSSELL","ymax":0.0,"status":"Existing Location","latitude":38.53198324,"county":"Greenup","zip code":"41169","hyperlink":null,"street":"517 BOYD ST","longitude":-82.6955879,"id":"a69ikbvjr27x","image":null,"state":"KY"},"type":"Feature","geometry":{"type":"Point","coordinates":[-82.6955879,38.53198324]}},{"properties":{"match_addr":"2246 State Route 8, South Portsmouth, KY, 41174","city":"SOUTH PORTSMOUTH","ymax":0.0,"status":"Existing Location","latitude":38.70833024,"county":"Greenup","zip code":"41174","hyperlink":null,"street":"2246 STATE ROUTE 8","longitude":-83.0282671,"id":"a69ikbu2p9n9","image":null,"state":"KY"},"type":"Feature","geometry":{"type":"Point","coordinates":[-83.0282671,38.70833024]}},{"properties":{"match_addr":"11 Narco Dr, South Shore, KY, 41175","city":"SOUTH SHORE","ymax":0.0,"status":"Existing Location","latitude":38.72084683,"county":"Greenup","zip code":"41175","hyperlink":null,"street":"11 NARCO DR","longitude":-82.95608504,"id":"a69ikbuemkop","image":null,"state":"KY"},"type":"Feature","geometry":{"type":"Point","coordinates":[-82.95608504,38.72084683]}},{"properties":{"match_addr":"605 Ferry Ave, Worthington, KY, 41183","city":"WORTHINGTON","ymax":0.0,"status":"Existing Location","latitude":38.54882381,"county":"Greenup","zip code":"41183","hyperlink":null,"street":"605 FERRY AVE","longitude":-82.72781027,"id":"a69ikbthd68y","image":null,"state":"KY"},"type":"Feature","geometry":{"type":"Point","coordinates":[-82.72781027,38.54882381]}},{"properties":{"match_addr":"40801","city":"AGES BROOKSIDE","ymax":0.0,"status":"Existing Location","latitude":36.85687786,"county":"Harlan","zip code":"40801","hyperlink":null,"street":"4893 KENTUCKY 38","longitude":-83.21783741,"id":"a69ikbxsuj2l","image":null,"state":"KY"},"type":"Feature","geometry":{"type":"Point","coordinates":[-83.21783741,36.85687786]}},{"properties":{"match_addr":"295 N Highway 413, Baxter, KY, 40806","city":"BAXTER","ymax":0.0,"status":"Existing Location","latitude":36.8531701,"county":"Harlan","zip code":"40806","hyperlink":null,"street":"295 S HIGHWAY 413","longitude":-83.34742915,"id":"a69ikbv009xp","image":null,"state":"KY"},"type":"Feature","geometry":{"type":"Point","coordinates":[-83.34742915,36.8531701]}},{"properties":{"match_addr":"Benham, KY","city":"BENHAM","ymax":36.97092,"status":"Existing Location","latitude":36.96417336,"county":"Harlan","zip code":"40807","hyperlink":null,"street":"229 MAIN ST STE 1","longitude":-82.95053643,"id":"a69ikbshmbq4","image":null,"state":"KY"},"type":"Feature","geometry":{"type":"Point","coordinates":[-82.95053643,36.96417336]}},{"properties":{"match_addr":"33 E Highway 221, Bledsoe, KY, 40810","city":"BLEDSOE","ymax":0.0,"status":"Existing Location","latitude":36.83969281,"county":"Harlan","zip code":"40810","hyperlink":null,"street":"33 W HIGHWAY 221","longitude":-83.50985616,"id":"a69ikbqqc6if","image":null,"state":"KY"},"type":"Feature","geometry":{"type":"Point","coordinates":[-83.50985616,36.83969281]}},{"properties":{"match_addr":"Cawood, KY","city":"CAWOOD","ymax":36.80683,"status":"Existing Location","latitude":36.78183115,"county":"Harlan","zip code":"40815","hyperlink":null,"street":"3679 S HIGHWAY 3001","longitude":-83.2274085,"id":"a69ikbpll4n2","image":null,"state":"KY"},"type":"Feature","geometry":{"type":"Point","coordinates":[-83.2274085,36.78183115]}},{"properties":{"match_addr":"329 Highway 2007, Coldiron, KY, 40819","city":"COLDIRON","ymax":0.0,"status":"Existing Location","latitude":36.82485969,"county":"Harlan","zip code":"40819","hyperlink":null,"street":"329 HIGHWAY 2007","longitude":-83.45161192,"id":"a69ikbl2052x","image":null,"state":"KY"},"type":"Feature","geometry":{"type":"Point","coordinates":[-83.45161192,36.82485969]}},{"properties":{"match_addr":"1312 E Main St, Cumberland, KY, 40823","city":"CUMBERLAND","ymax":0.0,"status":"Existing Location","latitude":36.97562329,"county":"Harlan","zip code":"40823","hyperlink":null,"street":"1312 E MAIN ST","longitude":-82.98382719,"id":"a69ikbj1qatk","image":null,"state":"KY"},"type":"Feature","geometry":{"type":"Point","coordinates":[-82.98382719,36.97562329]}},{"properties":{"match_addr":"138 S Main St, Evarts, KY, 40828","city":"EVARTS","ymax":0.0,"status":"Existing Location","latitude":36.86152868,"county":"Harlan","zip code":"40828","hyperlink":null,"street":"138 S MAIN ST","longitude":-83.18213863,"id":"a69ikbila0kd","image":null,"state":"KY"},"type":"Feature","geometry":{"type":"Point","coordinates":[-83.18213863,36.86152868]}},{"properties":{"match_addr":"Grays Knob, KY","city":"GRAYS KNOB","ymax":36.83159,"status":"Existing Location","latitude":36.80659395,"county":"Harlan","zip code":"40829","hyperlink":null,"street":"63 JUDY DR","longitude":-83.3027861,"id":"a69ikbr3d522","image":null,"state":"KY"},"type":"Feature","geometry":{"type":"Point","coordinates":[-83.3027861,36.80659395]}},{"properties":{"match_addr":"111 N 1st St, Harlan, KY, 40831","city":"HARLAN","ymax":0.0,"status":"Existing Location","latitude":36.8471272,"county":"Harlan","zip code":"40831","hyperlink":null,"street":"111 N 1ST ST","longitude":-83.32178206,"id":"a69ikbowawpm","image":null,"state":"KY"},"type":"Feature","geometry":{"type":"Point","coordinates":[-83.32178206,36.8471272]}},{"properties":{"match_addr":"139 Post Office Dr, Kenvir, KY, 40847","city":"KENVIR","ymax":0.0,"status":"Existing Location","latitude":36.85228002,"county":"Harlan","zip code":"40847","hyperlink":null,"street":"139 POST OFFICE DR","longitude":-83.15342981,"id":"a69ikbpcohbc","image":null,"state":"KY"},"type":"Feature","geometry":{"type":"Point","coordinates":[-83.15342981,36.85228002]}},{"properties":{"match_addr":"106 Bailey St, Loyall, KY, 40854","city":"LOYALL","ymax":0.0,"status":"Existing Location","latitude":36.85290636,"county":"Harlan","zip code":"40854","hyperlink":null,"street":"106 BAILEY ST","longitude":-83.35296603,"id":"a69ikbul0xix","image":null,"state":"KY"},"type":"Feature","geometry":{"type":"Point","coordinates":[-83.35296603,36.85290636]}},{"properties":{"match_addr":"10 E Main St, Lynch, KY, 40855","city":"LYNCH","ymax":0.0,"status":"Existing Location","latitude":36.96462565,"county":"Harlan","zip code":"40855","hyperlink":null,"street":"10 E MAIN ST","longitude":-82.91032149,"id":"a69ikbksz418","image":null,"state":"KY"},"type":"Feature","geometry":{"type":"Point","coordinates":[-82.91032149,36.96462565]}},{"properties":{"match_addr":"854 Highway 219, Wallins Creek, KY, 40873","city":"WALLINS CREEK","ymax":0.0,"status":"Existing Location","latitude":36.82791626,"county":"Harlan","zip code":"40873","hyperlink":null,"street":"854 HIGHWAY 219","longitude":-83.41453515,"id":"a69ikbiqxhhi","image":null,"state":"KY"},"type":"Feature","geometry":{"type":"Point","coordinates":[-83.41453515,36.82791626]}},{"properties":{"match_addr":"7692 N Dixie Hwy, Bonnieville, KY, 42713","city":"BONNIEVILLE","ymax":0.0,"status":"Existing Location","latitude":37.37843496,"county":"Hart","zip code":"42713","hyperlink":null,"street":"7692 N DIXIE HWY","longitude":-85.90291015,"id":"a69ikbuc8idr","image":null,"state":"KY"},"type":"Feature","geometry":{"type":"Point","coordinates":[-85.90291015,37.37843496]}},{"properties":{"match_addr":"12753 Cub Run Hwy, Cub Run, KY, 42729","city":"CUB RUN","ymax":0.0,"status":"Existing Location","latitude":37.30531985,"county":"Hart","zip code":"42729","hyperlink":null,"street":"12753 CUB RUN HWY","longitude":-86.05832867,"id":"a69ikbs0134b","image":null,"state":"KY"},"type":"Feature","geometry":{"type":"Point","coordinates":[-86.05832867,37.30531985]}},{"properties":{"match_addr":"62 N Jackson Hwy, Hardyville, KY, 42746","city":"HARDYVILLE","ymax":0.0,"status":"Existing Location","latitude":37.25434846,"county":"Hart","zip code":"42746","hyperlink":null,"street":"62 N JACKSON HWY","longitude":-85.78609443,"id":"a69ikbunhkxd","image":null,"state":"KY"},"type":"Feature","geometry":{"type":"Point","coordinates":[-85.78609443,37.25434846]}},{"properties":{"match_addr":"117 Water St, Horse Cave, KY, 42749","city":"HORSE CAVE","ymax":0.0,"status":"Existing Location","latitude":37.17966261,"county":"Hart","zip code":"42749","hyperlink":null,"street":"117 WATER ST","longitude":-85.90650815,"id":"a69ikbja8oj8","image":null,"state":"KY"},"type":"Feature","geometry":{"type":"Point","coordinates":[-85.90650815,37.17966261]}},{"properties":{"match_addr":"N Washington St, Munfordville, KY, 42765","city":"MUNFORDVILLE","ymax":0.0,"status":"Existing Location","latitude":37.26900105,"county":"Hart","zip code":"42765","hyperlink":null,"street":"215 S WASHINGTON ST","longitude":-85.88920754,"id":"a69ikbmwt0zk","image":null,"state":"KY"},"type":"Feature","geometry":{"type":"Point","coordinates":[-85.88920754,37.26900105]}},{"properties":{"match_addr":"Annville, KY","city":"ANNVILLE","ymax":37.33845,"status":"Existing Location","latitude":37.31934389,"county":"Jackson","zip code":"40402","hyperlink":null,"street":"3560 HIGHWAY 3630","longitude":-83.96349931,"id":"a69ikbteeqlc","image":null,"state":"KY"},"type":"Feature","geometry":{"type":"Point","coordinates":[-83.96349931,37.31934389]}},{"properties":{"match_addr":"Us 421, Gray Hawk, KY, 40434","city":"GRAY HAWK","ymax":0.0,"status":"Existing Location","latitude":37.392122,"county":"Jackson","zip code":"40434","hyperlink":null,"street":"811 US HIGHWAY 421","longitude":-83.93620851,"id":"a69ikbki4b5q","image":null,"state":"KY"},"type":"Feature","geometry":{"type":"Point","coordinates":[-83.93620851,37.392122]}},{"properties":{"match_addr":"Mckee, KY","city":"MCKEE","ymax":37.45515,"status":"Existing Location","latitude":37.43015407,"county":"Jackson","zip code":"40447","hyperlink":null,"street":"320 MAIN ST","longitude":-83.99815833,"id":"a69ikbobwcmx","image":null,"state":"KY"},"type":"Feature","geometry":{"type":"Point","coordinates":[-83.99815833,37.43015407]}},{"properties":{"match_addr":"955 Us 421, Sandgap, KY, 40481","city":"SANDGAP","ymax":0.0,"status":"Existing Location","latitude":37.48453557,"county":"Jackson","zip code":"40481","hyperlink":null,"street":"955 US HIGHWAY 421","longitude":-84.09399079,"id":"a69ikbrnf2wo","image":null,"state":"KY"},"type":"Feature","geometry":{"type":"Point","coordinates":[-84.09399079,37.48453557]}},{"properties":{"match_addr":"Us 421, Tyner, KY, 40486","city":"TYNER","ymax":0.0,"status":"Existing Location","latitude":37.30696367,"county":"Jackson","zip code":"40486","hyperlink":null,"street":"11535 US HIGHWAY 421","longitude":-83.87895903,"id":"a69ikbishwp8","image":null,"state":"KY"},"type":"Feature","geometry":{"type":"Point","coordinates":[-83.87895903,37.30696367]}},{"properties":{"match_addr":"KY 689, Flatgap, KY, 41219","city":"FLATGAP","ymax":0.0,"status":"Existing Location","latitude":37.91648443,"county":"Johnson","zip code":"41219","hyperlink":null,"street":"1145 KY ROUTE 689","longitude":-82.89276925,"id":"a69ikbri62qm","image":null,"state":"KY"},"type":"Feature","geometry":{"type":"Point","coordinates":[-82.89276925,37.91648443]}},{"properties":{"match_addr":"1344 KY 1428, Hagerhill, KY, 41222","city":"HAGERHILL","ymax":0.0,"status":"Existing Location","latitude":37.78559469,"county":"Johnson","zip code":"41222","hyperlink":null,"street":"1344 KY ROUTE 1428","longitude":-82.79422404,"id":"a69ikbw8a0fe","image":null,"state":"KY"},"type":"Feature","geometry":{"type":"Point","coordinates":[-82.79422404,37.78559469]}},{"properties":{"match_addr":"KY 40, Meally, KY, 41234","city":"MEALLY","ymax":0.0,"status":"Existing Location","latitude":37.79542419,"county":"Johnson","zip code":"41234","hyperlink":null,"street":"3699 KY ROUTE 40","longitude":-82.74373772,"id":"a69ikbmfjy2g","image":null,"state":"KY"},"type":"Feature","geometry":{"type":"Point","coordinates":[-82.74373772,37.79542419]}},{"properties":{"match_addr":"100 Federal Dr, Paintsville, KY, 41240","city":"PAINTSVILLE","ymax":0.0,"status":"Existing Location","latitude":37.81883528,"county":"Johnson","zip code":"41240","hyperlink":null,"street":"100 FEDERAL DR","longitude":-82.81653985,"id":"a69ikbs08gmw","image":null,"state":"KY"},"type":"Feature","geometry":{"type":"Point","coordinates":[-82.81653985,37.81883528]}},{"properties":{"match_addr":"KY 40, Staffordsville, KY, 41256","city":"STAFFORDSVILLE","ymax":0.0,"status":"Existing Location","latitude":37.83256164,"county":"Johnson","zip code":"41256","hyperlink":null,"street":"1100 KY ROUTE 40","longitude":-82.87464657,"id":"a69ikboskonh","image":null,"state":"KY"},"type":"Feature","geometry":{"type":"Point","coordinates":[-82.87464657,37.83256164]}},{"properties":{"match_addr":"5490 Main St, Thelma, KY, 41260","city":"THELMA","ymax":0.0,"status":"Existing Location","latitude":37.82978672,"county":"Johnson","zip code":"41260","hyperlink":null,"street":"5490 MAIN ST","longitude":-82.74946741,"id":"a69ikbsjx85q","image":null,"state":"KY"},"type":"Feature","geometry":{"type":"Point","coordinates":[-82.74946741,37.82978672]}},{"properties":{"match_addr":"Van Lear, KY","city":"VAN LEAR","ymax":37.78238,"status":"Existing Location","latitude":37.76984007,"county":"Johnson","zip code":"41265","hyperlink":null,"street":"55 MILLERS CRK","longitude":-82.75374999,"id":"a69ikbxgph7b","image":null,"state":"KY"},"type":"Feature","geometry":{"type":"Point","coordinates":[-82.75374999,37.76984007]}},{"properties":{"match_addr":"KY 302, West Van Lear, KY, 41268","city":"WEST VAN LEAR","ymax":0.0,"status":"Existing Location","latitude":37.78081185,"county":"Johnson","zip code":"41268","hyperlink":null,"street":"797 KY ROUTE 302","longitude":-82.78006784,"id":"a69ikbwe0zam","image":null,"state":"KY"},"type":"Feature","geometry":{"type":"Point","coordinates":[-82.78006784,37.78081185]}},{"properties":{"match_addr":"3027 N Us Highway 23, Wittensville, KY, 41274","city":"WITTENSVILLE","ymax":0.0,"status":"Existing Location","latitude":37.86174584,"county":"Johnson","zip code":"41274","hyperlink":null,"street":"3027 N US HIGHWAY 23","longitude":-82.80462241,"id":"a69ikbuzlg5h","image":null,"state":"KY"},"type":"Feature","geometry":{"type":"Point","coordinates":[-82.80462241,37.86174584]}},{"properties":{"match_addr":"E Main St, Hindman, KY, 41822","city":"HINDMAN","ymax":0.0,"status":"Existing Location","latitude":37.33791006,"county":"Knott","zip code":"41822","hyperlink":null,"street":"27 MAIN ST","longitude":-82.98085807,"id":"a69ikbpla2vj","image":null,"state":"KY"},"type":"Feature","geometry":{"type":"Point","coordinates":[-82.98085807,37.33791006]}},{"properties":{"match_addr":"Highway 7 S, Kite, KY, 41828","city":"KITE","ymax":0.0,"status":"Existing Location","latitude":37.26588321,"county":"Knott","zip code":"41828","hyperlink":null,"street":"9069 HIGHWAY 7","longitude":-82.75061569,"id":"a69ikbx5luvv","image":null,"state":"KY"},"type":"Feature","geometry":{"type":"Point","coordinates":[-82.75061569,37.26588321]}},{"properties":{"match_addr":"Leburn, KY","city":"LEBURN","ymax":37.43138,"status":"Existing Location","latitude":37.40638267,"county":"Knott","zip code":"41831","hyperlink":null,"street":"2028 HIGHWAY 550","longitude":-82.98746722,"id":"a69ikbxjsn39","image":null,"state":"KY"},"type":"Feature","geometry":{"type":"Point","coordinates":[-82.98746722,37.40638267]}},{"properties":{"match_addr":"7351 Highway 160 S, Littcarr, KY, 41834","city":"LITTCARR","ymax":0.0,"status":"Existing Location","latitude":37.26535081,"county":"Knott","zip code":"41834","hyperlink":null,"street":"7351 HIGHWAY 160","longitude":-82.94431077,"id":"a69ikbwpy30e","image":null,"state":"KY"},"type":"Feature","geometry":{"type":"Point","coordinates":[-82.94431077,37.26535081]}},{"properties":{"match_addr":"22 Branhams Creek Rd, Mallie, KY, 41836","city":"MALLIE","ymax":0.0,"status":"Existing Location","latitude":37.29986787,"county":"Knott","zip code":"41836","hyperlink":null,"street":"22 BRANHAMS CREEK RD","longitude":-82.91218049,"id":"a69ikbw6koqb","image":null,"state":"KY"},"type":"Feature","geometry":{"type":"Point","coordinates":[-82.91218049,37.29986787]}},{"properties":{"match_addr":"9479 Highway 550 E, Mousie, KY, 41839","city":"MOUSIE","ymax":0.0,"status":"Existing Location","latitude":37.40561532,"county":"Knott","zip code":"41839","hyperlink":null,"street":"9479 HIGHWAY 550","longitude":-82.8788635,"id":"a69ikbv0nwbt","image":null,"state":"KY"},"type":"Feature","geometry":{"type":"Point","coordinates":[-82.8788635,37.40561532]}},{"properties":{"match_addr":"3880 Highway 582, Pine Top, KY, 41843","city":"PINE TOP","ymax":0.0,"status":"Existing Location","latitude":37.3031377,"county":"Knott","zip code":"41843","hyperlink":null,"street":"3880 HIGHWAY 582","longitude":-82.81776668,"id":"a69ikbn5ogwq","image":null,"state":"KY"},"type":"Feature","geometry":{"type":"Point","coordinates":[-82.81776668,37.3031377]}},{"properties":{"match_addr":"4982 Highway 899, Pippa Passes, KY, 41844","city":"PIPPA PASSES","ymax":0.0,"status":"Existing Location","latitude":37.36005641,"county":"Knott","zip code":"41844","hyperlink":null,"street":"4982 HIGHWAY 899","longitude":-82.85392513,"id":"a69ikbxh7zu0","image":null,"state":"KY"},"type":"Feature","geometry":{"type":"Point","coordinates":[-82.85392513,37.36005641]}},{"properties":{"match_addr":"Redfox, KY","city":"REDFOX","ymax":37.23654,"status":"Existing Location","latitude":37.21154347,"county":"Knott","zip code":"41847","hyperlink":null,"street":"1915 REDFOX RD","longitude":-82.93417609,"id":"a69ikbjhcpnl","image":null,"state":"KY"},"type":"Feature","geometry":{"type":"Point","coordinates":[-82.93417609,37.21154347]}},{"properties":{"match_addr":"6100 Highway 7 S, Topmost, KY, 41862","city":"TOPMOST","ymax":0.0,"status":"Existing Location","latitude":37.36028748,"county":"Knott","zip code":"41862","hyperlink":null,"street":"6100 HIGHWAY 7","longitude":-82.79322009,"id":"a69ikbrdd6td","image":null,"state":"KY"},"type":"Feature","geometry":{"type":"Point","coordinates":[-82.79322009,37.36028748]}},{"properties":{"match_addr":"KY 225, Artemus, KY, 40903","city":"ARTEMUS","ymax":0.0,"status":"Existing Location","latitude":36.82794141,"county":"Knox","zip code":"40903","hyperlink":null,"street":"3214 KY 225","longitude":-83.83819971,"id":"a69ikbv3wdqk","image":null,"state":"KY"},"type":"Feature","geometry":{"type":"Point","coordinates":[-83.83819971,36.82794141]}},{"properties":{"match_addr":"122 N Allison Ave, Barbourville, KY, 40906","city":"BARBOURVILLE","ymax":0.0,"status":"Existing Location","latitude":36.86929475,"county":"Knox","zip code":"40906","hyperlink":null,"street":"122 N ALLISON AVE","longitude":-83.88315458,"id":"a69ikbk4b64u","image":null,"state":"KY"},"type":"Feature","geometry":{"type":"Point","coordinates":[-83.88315458,36.86929475]}},{"properties":{"match_addr":"KY 1304, Bimble, KY, 40915","city":"BIMBLE","ymax":0.0,"status":"Existing Location","latitude":36.87317006,"county":"Knox","zip code":"40915","hyperlink":null,"street":"187 KY 1304","longitude":-83.83034938,"id":"a69ikbpmcdbf","image":null,"state":"KY"},"type":"Feature","geometry":{"type":"Point","coordinates":[-83.83034938,36.87317006]}},{"properties":{"match_addr":"KY 11, Cannon, KY, 40923","city":"CANNON","ymax":0.0,"status":"Existing Location","latitude":36.91429067,"county":"Knox","zip code":"40923","hyperlink":null,"street":"3387 N KY 11","longitude":-83.85821808,"id":"a69ikbodutjf","image":null,"state":"KY"},"type":"Feature","geometry":{"type":"Point","coordinates":[-83.85821808,36.91429067]}},{"properties":{"match_addr":"KY 3085, Flat Lick, KY, 40935","city":"FLAT LICK","ymax":0.0,"status":"Existing Location","latitude":36.80515313,"county":"Knox","zip code":"40935","hyperlink":null,"street":"1131 KY 3085","longitude":-83.75470959,"id":"a69ikbo7hu8m","image":null,"state":"KY"},"type":"Feature","geometry":{"type":"Point","coordinates":[-83.75470959,36.80515313]}},{"properties":{"match_addr":"KY 11, Girdler, KY, 40943","city":"GIRDLER","ymax":0.0,"status":"Existing Location","latitude":36.93805132,"county":"Knox","zip code":"40943","hyperlink":null,"street":"5792 N KY 11","longitude":-83.84110791,"id":"a69ikbiy1koq","image":null,"state":"KY"},"type":"Feature","geometry":{"type":"Point","coordinates":[-83.84110791,36.93805132]}},{"properties":{"match_addr":"280 KY 233, Gray, KY, 40734","city":"GRAY","ymax":0.0,"status":"Existing Location","latitude":36.95481131,"county":"Knox","zip code":"40734","hyperlink":null,"street":"280 S KY 233","longitude":-84.00516156,"id":"a69ikbwd46fo","image":null,"state":"KY"},"type":"Feature","geometry":{"type":"Point","coordinates":[-84.00516156,36.95481131]}},{"properties":{"match_addr":"KY 11, Heidrick, KY, 40949","city":"HEIDRICK","ymax":0.0,"status":"Existing Location","latitude":36.88952196,"county":"Knox","zip code":"40949","hyperlink":null,"street":"215 N KY 11 STE A","longitude":-83.87734881,"id":"a69ikbwh79rz","image":null,"state":"KY"},"type":"Feature","geometry":{"type":"Point","coordinates":[-83.87734881,36.88952196]}},{"properties":{"match_addr":"1066 Highway 490, East Bernstadt, KY, 40729","city":"EAST BERNSTADT","ymax":0.0,"status":"Existing Location","latitude":37.19188841,"county":"Laurel","zip code":"40729","hyperlink":null,"street":"1066 HIGHWAY 490","longitude":-84.11743297,"id":"a69ikbkfo1e5","image":null,"state":"KY"},"type":"Feature","geometry":{"type":"Point","coordinates":[-84.11743297,37.19188841]}},{"properties":{"match_addr":"Keavy, KY","city":"KEAVY","ymax":37.0283,"status":"Existing Location","latitude":37.00330036,"county":"Laurel","zip code":"40737","hyperlink":null,"street":"356 W HIGHWAY 312","longitude":-84.16171727,"id":"a69ikbj9c8bl","image":null,"state":"KY"},"type":"Feature","geometry":{"type":"Point","coordinates":[-84.16171727,37.00330036]}},{"properties":{"match_addr":"E Highway 552, Lily, KY, 40740","city":"LILY","ymax":0.0,"status":"Existing Location","latitude":37.01989109,"county":"Laurel","zip code":"40740","hyperlink":null,"street":"4048 E HIGHWAY 552","longitude":-84.09093599,"id":"a69ikbsu2n1k","image":null,"state":"KY"},"type":"Feature","geometry":{"type":"Point","coordinates":[-84.09093599,37.01989109]}},{"properties":{"match_addr":"1760 Highway 192 W, London, KY, 40741","city":"LONDON","ymax":0.0,"status":"Existing Location","latitude":37.10986943,"county":"Laurel","zip code":"40741","hyperlink":null,"street":"1760 HIGHWAY 192","longitude":-84.09066606,"id":"a69ikbozociu","image":null,"state":"KY"},"type":"Feature","geometry":{"type":"Point","coordinates":[-84.09066606,37.10986943]}},{"properties":{"match_addr":"Pittsburg, KY","city":"PITTSBURG","ymax":37.1813,"status":"Existing Location","latitude":37.15630065,"county":"Laurel","zip code":"40755","hyperlink":null,"street":"741 N LAUREL RD","longitude":-84.10352692,"id":"a69ikbwp8uev","image":null,"state":"KY"},"type":"Feature","geometry":{"type":"Point","coordinates":[-84.10352692,37.15630065]}},{"properties":{"match_addr":"Blaine, KY","city":"BLAINE","ymax":38.04162,"status":"Existing Location","latitude":38.02826231,"county":"Lawrence","zip code":"41124","hyperlink":null,"street":"30 S HIGHWAY 201","longitude":-82.8406065,"id":"a69ikbjejzjt","image":null,"state":"KY"},"type":"Feature","geometry":{"type":"Point","coordinates":[-82.8406065,38.02826231]}},{"properties":{"match_addr":"108 E Madison St, Louisa, KY, 41230","city":"LOUISA","ymax":0.0,"status":"Existing Location","latitude":38.11421016,"county":"Lawrence","zip code":"41230","hyperlink":null,"street":"108 E MADISON ST","longitude":-82.60370825,"id":"a69ikbjols2j","image":null,"state":"KY"},"type":"Feature","geometry":{"type":"Point","coordinates":[-82.60370825,38.11421016]}},{"properties":{"match_addr":"Lowmansville, KY","city":"LOWMANSVILLE","ymax":37.94342,"status":"Existing Location","latitude":37.9184213,"county":"Lawrence","zip code":"41232","hyperlink":null,"street":"48 MAY LN","longitude":-82.72827587,"id":"a69ikbqsvz5m","image":null,"state":"KY"},"type":"Feature","geometry":{"type":"Point","coordinates":[-82.72827587,37.9184213]}},{"properties":{"match_addr":"301 Main St, Beattyville, KY, 41311","city":"BEATTYVILLE","ymax":0.0,"status":"Existing Location","latitude":37.57927693,"county":"Lee","zip code":"41311","hyperlink":null,"street":"301 MAIN ST","longitude":-83.72183517,"id":"a69ikbm18w29","image":null,"state":"KY"},"type":"Feature","geometry":{"type":"Point","coordinates":[-83.72183517,37.57927693]}},{"properties":{"match_addr":"Zoe Post Office Rd, Zoe, KY, 41397","city":"ZOE","ymax":0.0,"status":"Existing Location","latitude":37.6721828,"county":"Lee","zip code":"41397","hyperlink":null,"street":"73 ZOE POST OFFICE RD","longitude":-83.67905642,"id":"a69ikbqww8bw","image":null,"state":"KY"},"type":"Feature","geometry":{"type":"Point","coordinates":[-83.67905642,37.6721828]}},{"properties":{"match_addr":"Bear Branch, KY","city":"BEAR BRANCH","ymax":37.19086,"status":"Existing Location","latitude":37.16586345,"county":"Leslie","zip code":"41714","hyperlink":null,"street":"35137 HIGHWAY 421","longitude":-83.54511919,"id":"a69ikbr07hp1","image":null,"state":"KY"},"type":"Feature","geometry":{"type":"Point","coordinates":[-83.54511919,37.16586345]}},{"properties":{"match_addr":"5425 Highway 406, Essie, KY, 40827","city":"ESSIE","ymax":0.0,"status":"Existing Location","latitude":37.01978409,"county":"Leslie","zip code":"40827","hyperlink":null,"street":"5425 HIGHWAY 406","longitude":-83.51267458,"id":"a69ikbxg5977","image":null,"state":"KY"},"type":"Feature","geometry":{"type":"Point","coordinates":[-83.51267458,37.01978409]}},{"properties":{"match_addr":"140 Highway 80, Hyden, KY, 41749","city":"HYDEN","ymax":0.0,"status":"Existing Location","latitude":37.15547573,"county":"Leslie","zip code":"41749","hyperlink":null,"street":"140 HIGHWAY 80","longitude":-83.36888871,"id":"a69ikbn4y5u2","image":null,"state":"KY"},"type":"Feature","geometry":{"type":"Point","coordinates":[-83.36888871,37.15547573]}},{"properties":{"match_addr":"Smilax, KY","city":"SMILAX","ymax":37.15938,"status":"Existing Location","latitude":37.13438313,"county":"Leslie","zip code":"41764","hyperlink":null,"street":"3624 CUTSHIN RD","longitude":-83.28233567,"id":"a69ikbsfvtr3","image":null,"state":"KY"},"type":"Feature","geometry":{"type":"Point","coordinates":[-83.28233567,37.13438313]}},{"properties":{"match_addr":"KY 406, Stinnett, KY, 40868","city":"STINNETT","ymax":0.0,"status":"Existing Location","latitude":37.06580219,"county":"Leslie","zip code":"40868","hyperlink":null,"street":"25 HIGHWAY 406","longitude":-83.4535956,"id":"a69ikbm8pt8v","image":null,"state":"KY"},"type":"Feature","geometry":{"type":"Point","coordinates":[-83.4535956,37.06580219]}},{"properties":{"match_addr":"5275 Highway 80, Wooton, KY, 41776","city":"WOOTON","ymax":0.0,"status":"Existing Location","latitude":37.14182103,"county":"Leslie","zip code":"41776","hyperlink":null,"street":"5275 HIGHWAY 80","longitude":-83.3260419,"id":"a69ikbk8cxcj","image":null,"state":"KY"},"type":"Feature","geometry":{"type":"Point","coordinates":[-83.3260419,37.14182103]}},{"properties":{"match_addr":"Yeaddiss, KY","city":"YEADDISS","ymax":37.09474,"status":"Existing Location","latitude":37.06974201,"county":"Leslie","zip code":"41777","hyperlink":null,"street":"11545 CUTSHIN RD","longitude":-83.21862816,"id":"a69ikby83v67","image":null,"state":"KY"},"type":"Feature","geometry":{"type":"Point","coordinates":[-83.21862816,37.06974201]}},{"properties":{"match_addr":"Highway 7 S, Blackey, KY, 41804","city":"BLACKEY","ymax":0.0,"status":"Existing Location","latitude":37.13946155,"county":"Letcher","zip code":"41804","hyperlink":null,"street":"8271 HIGHWAY 7","longitude":-82.99259789,"id":"a69ikbnkifgw","image":null,"state":"KY"},"type":"Feature","geometry":{"type":"Point","coordinates":[-82.99259789,37.13946155]}},{"properties":{"match_addr":"Cromona, KY","city":"CROMONA","ymax":37.21187,"status":"Existing Location","latitude":37.18687404,"county":"Letcher","zip code":"41810","hyperlink":null,"street":"4761 HIGHWAY 805","longitude":-82.69707564,"id":"a69ikbuujrk3","image":null,"state":"KY"},"type":"Feature","geometry":{"type":"Point","coordinates":[-82.69707564,37.18687404]}},{"properties":{"match_addr":"9305 Highway 15, Isom, KY, 41824","city":"ISOM","ymax":0.0,"status":"Existing Location","latitude":37.18899751,"county":"Letcher","zip code":"41824","hyperlink":null,"street":"9305 HIGHWAY 15","longitude":-82.8960316,"id":"a69ikbjwr0jm","image":null,"state":"KY"},"type":"Feature","geometry":{"type":"Point","coordinates":[-82.8960316,37.18899751]}},{"properties":{"match_addr":"9382 Highway 805, Jenkins, KY, 41537","city":"JENKINS","ymax":0.0,"status":"Existing Location","latitude":37.17019171,"county":"Letcher","zip code":"41537","hyperlink":"<a href=\"http://www.wpamurals.com/Jenkins.htm\">Jenkins</a>","street":"9382 HIGHWAY 805 STE A","longitude":-82.63751465,"id":"a69ikblhp0o2","image":"Post Office","state":"KY"},"type":"Feature","geometry":{"type":"Point","coordinates":[-82.63751465,37.17019171]}},{"properties":{"match_addr":"Jeremiah, KY","city":"JEREMIAH","ymax":37.19422,"status":"Existing Location","latitude":37.16922443,"county":"Letcher","zip code":"41826","hyperlink":null,"street":"2563 HIGHWAY 7 S","longitude":-82.93090846,"id":"a69ikbpbrk8x","image":null,"state":"KY"},"type":"Feature","geometry":{"type":"Point","coordinates":[-82.93090846,37.16922443]}},{"properties":{"match_addr":"Us 119, Mayking, KY, 41837","city":"MAYKING","ymax":0.0,"status":"Existing Location","latitude":37.13837321,"county":"Letcher","zip code":"41837","hyperlink":null,"street":"3397 HIGHWAY 119","longitude":-82.76242688,"id":"a69ikbpuedct","image":null,"state":"KY"},"type":"Feature","geometry":{"type":"Point","coordinates":[-82.76242688,37.13837321]}},{"properties":{"match_addr":"2461 Highway 343, Mc Roberts, KY, 41835","city":"MC ROBERTS","ymax":0.0,"status":"Existing Location","latitude":37.20343172,"county":"Letcher","zip code":"41835","hyperlink":null,"street":"2461 HIGHWAY 343","longitude":-82.67917324,"id":"a69ikblzft9u","image":null,"state":"KY"},"type":"Feature","geometry":{"type":"Point","coordinates":[-82.67917324,37.20343172]}},{"properties":{"match_addr":"Highway 343, Neon, KY, 41840","city":"NEON","ymax":0.0,"status":"Existing Location","latitude":37.19119349,"county":"Letcher","zip code":"41840","hyperlink":null,"street":"71 HIGHWAY 343","longitude":-82.70674747,"id":"a69ikblw51h4","image":null,"state":"KY"},"type":"Feature","geometry":{"type":"Point","coordinates":[-82.70674747,37.19119349]}},{"properties":{"match_addr":"Us 119, Whitesburg, KY, 41858","city":"WHITESBURG","ymax":0.0,"status":"Existing Location","latitude":37.07001282,"county":"Letcher","zip code":"41858","hyperlink":null,"street":"71 HIGHWAY 119","longitude":-82.80785625,"id":"a69ikbyh19e0","image":null,"state":"KY"},"type":"Feature","geometry":{"type":"Point","coordinates":[-82.80785625,37.07001282]}},{"properties":{"match_addr":"9102 E KY 8, Garrison, KY, 41141","city":"GARRISON","ymax":0.0,"status":"Existing Location","latitude":38.60385361,"county":"Lewis","zip code":"41141","hyperlink":null,"street":"9102 E KY 8","longitude":-83.17544334,"id":"a69ikbo8yzpr","image":null,"state":"KY"},"type":"Feature","geometry":{"type":"Point","coordinates":[-83.17544334,38.60385361]}},{"properties":{"match_addr":"3900 W KY 10, Tollesboro, KY, 41189","city":"TOLLESBORO","ymax":0.0,"status":"Existing Location","latitude":38.5619573,"county":"Lewis","zip code":"41189","hyperlink":null,"street":"3900 W KY 10","longitude":-83.58245666,"id":"a69ikbph2kci","image":null,"state":"KY"},"type":"Feature","geometry":{"type":"Point","coordinates":[-83.58245666,38.5619573]}},{"properties":{"match_addr":"15 Third St, Vanceburg, KY, 41179","city":"VANCEBURG","ymax":0.0,"status":"Existing Location","latitude":38.60019841,"county":"Lewis","zip code":"41179","hyperlink":null,"street":"15 THIRD ST","longitude":-83.31708426,"id":"a69ikbsl4jbf","image":null,"state":"KY"},"type":"Feature","geometry":{"type":"Point","coordinates":[-83.31708426,38.60019841]}},{"properties":{"match_addr":"209 Main St, Crab Orchard, KY, 40419","city":"CRAB ORCHARD","ymax":0.0,"status":"Existing Location","latitude":37.46273391,"county":"Lincoln","zip code":"40419","hyperlink":null,"street":"209 MAIN ST","longitude":-84.50650802,"id":"a69ikbwa873n","image":null,"state":"KY"},"type":"Feature","geometry":{"type":"Point","coordinates":[-84.50650802,37.46273391]}},{"properties":{"match_addr":"7831 KY 2141, Hustonville, KY, 40437","city":"HUSTONVILLE","ymax":0.0,"status":"Existing Location","latitude":37.48667278,"county":"Lincoln","zip code":"40437","hyperlink":null,"street":"7831 KY HIGHWAY 2141","longitude":-84.81811633,"id":"a69ikbnx0u76","image":null,"state":"KY"},"type":"Feature","geometry":{"type":"Point","coordinates":[-84.81811633,37.48667278]}},{"properties":{"match_addr":"KY 501, Kings Mountain, KY, 40442","city":"KINGS MOUNTAIN","ymax":0.0,"status":"Existing Location","latitude":37.33449338,"county":"Lincoln","zip code":"40442","hyperlink":null,"street":"2705 KY HIGHWAY 501","longitude":-84.82379625,"id":"a69ikbkawoia","image":null,"state":"KY"},"type":"Feature","geometry":{"type":"Point","coordinates":[-84.82379625,37.33449338]}},{"properties":{"match_addr":"Mckinney, KY","city":"MCKINNEY","ymax":37.47746,"status":"Existing Location","latitude":37.45246281,"county":"Lincoln","zip code":"40448","hyperlink":null,"street":"70 BUSY BEE ST","longitude":-84.75874964,"id":"a69ikbnxl4th","image":null,"state":"KY"},"type":"Feature","geometry":{"type":"Point","coordinates":[-84.75874964,37.45246281]}},{"properties":{"match_addr":"113 Cane Run Rd, Stanford, KY, 40484","city":"STANFORD","ymax":0.0,"status":"Existing Location","latitude":37.54679896,"county":"Lincoln","zip code":"40484","hyperlink":null,"street":"113 CANE RUN RD","longitude":-84.67254985,"id":"a69ikboc536c","image":null,"state":"KY"},"type":"Feature","geometry":{"type":"Point","coordinates":[-84.67254985,37.54679896]}},{"properties":{"match_addr":"Waynesburg, KY","city":"WAYNESBURG","ymax":37.35773,"status":"Existing Location","latitude":37.33273002,"county":"Lincoln","zip code":"40489","hyperlink":null,"street":"10 MAIN ST","longitude":-84.67188868,"id":"a69ikbtlur57","image":null,"state":"KY"},"type":"Feature","geometry":{"type":"Point","coordinates":[-84.67188868,37.33273002]}},{"properties":{"match_addr":"222 Glades Rd, Berea, KY, 40403","city":"BEREA","ymax":0.0,"status":"Existing Location","latitude":37.58660411,"county":"Madison","zip code":"40403","hyperlink":null,"street":"222 GLADES RD","longitude":-84.29350702,"id":"a69ikbpr9435","image":null,"state":"KY"},"type":"Feature","geometry":{"type":"Point","coordinates":[-84.29350702,37.58660411]}},{"properties":{"match_addr":"Bighill, KY","city":"BIGHILL","ymax":37.57845,"status":"Existing Location","latitude":37.55345235,"county":"Madison","zip code":"40405","hyperlink":null,"street":"10050 BATTLEFIELD MEMORIAL HWY","longitude":-84.20842871,"id":"a69ikbtvi7ih","image":null,"state":"KY"},"type":"Feature","geometry":{"type":"Point","coordinates":[-84.20842871,37.55345235]}},{"properties":{"match_addr":"140 N Madison Ave, Richmond, KY, 40475","city":"RICHMOND","ymax":0.0,"status":"Existing Location","latitude":37.74720033,"county":"Madison","zip code":"40475","hyperlink":null,"street":"140 N MADISON AVE","longitude":-84.29283974,"id":"a69ikbsfcu84","image":null,"state":"KY"},"type":"Feature","geometry":{"type":"Point","coordinates":[-84.29283974,37.74720033]}},{"properties":{"match_addr":"120 E Water St, Richmond, KY, 40475","city":"RICHMOND","ymax":0.0,"status":"Existing Location","latitude":37.74635397,"county":"Madison","zip code":"40475","hyperlink":null,"street":"120 E WATER ST","longitude":-84.29447905,"id":"a69ikblmb4fh","image":null,"state":"KY"},"type":"Feature","geometry":{"type":"Point","coordinates":[-84.29447905,37.74635397]}},{"properties":{"match_addr":"New Irvine Rd, Waco, KY, 40385","city":"WACO","ymax":0.0,"status":"Existing Location","latitude":37.71844181,"county":"Madison","zip code":"40385","hyperlink":null,"street":"4045 NEW IRVINE RD","longitude":-84.10291668,"id":"a69ikbj7sjc7","image":null,"state":"KY"},"type":"Feature","geometry":{"type":"Point","coordinates":[-84.10291668,37.71844181]}},{"properties":{"match_addr":"330 E Maple St, Salyersville, KY, 41465","city":"SALYERSVILLE","ymax":0.0,"status":"Existing Location","latitude":37.75657235,"county":"Magoffin","zip code":"41465","hyperlink":"<a href=\"https://appalachiancenter.as.uky.edu/sites/default/files/webform/Salyersville.JPG\">Salyersville</a>","street":"330 E MAPLE ST","longitude":-83.05336209,"id":"a69ikbsx2xjq","image":"Post Office","state":"KY"},"type":"Feature","geometry":{"type":"Point","coordinates":[-83.05336209,37.75657235]}},{"properties":{"match_addr":"Beauty, KY","city":"BEAUTY","ymax":37.8647,"status":"Existing Location","latitude":37.8397005,"county":"Martin","zip code":"41203","hyperlink":null,"street":"7815 BEAUTY RD","longitude":-82.43744861,"id":"a69ikbv2piug","image":null,"state":"KY"},"type":"Feature","geometry":{"type":"Point","coordinates":[-82.43744861,37.8397005]}},{"properties":{"match_addr":"Inez, KY","city":"INEZ","ymax":37.87231,"status":"Existing Location","latitude":37.86655279,"county":"Martin","zip code":"41224","hyperlink":null,"street":"33 PARK PL","longitude":-82.53881603,"id":"a69ikbluu4xo","image":null,"state":"KY"},"type":"Feature","geometry":{"type":"Point","coordinates":[-82.53881603,37.86655279]}},{"properties":{"match_addr":"Riverfront Rd, Lovely, KY, 41231","city":"LOVELY","ymax":0.0,"status":"Existing Location","latitude":37.8248808,"county":"Martin","zip code":"41231","hyperlink":null,"street":"1423 RIVER FRONT RD STE 100","longitude":-82.40155666,"id":"a69ikbxcgu63","image":null,"state":"KY"},"type":"Feature","geometry":{"type":"Point","coordinates":[-82.40155666,37.8248808]}},{"properties":{"match_addr":"Firehouse Ln, Warfield, KY, 41267","city":"WARFIELD","ymax":0.0,"status":"Existing Location","latitude":37.84263326,"county":"Martin","zip code":"41267","hyperlink":null,"street":"82 FIREHOUSE LN","longitude":-82.41929575,"id":"a69ikbq6eqvh","image":null,"state":"KY"},"type":"Feature","geometry":{"type":"Point","coordinates":[-82.41929575,37.84263326]}},{"properties":{"match_addr":"835 Main St, Frenchburg, KY, 40322","city":"FRENCHBURG","ymax":0.0,"status":"Existing Location","latitude":37.95134209,"county":"Menifee","zip code":"40322","hyperlink":null,"street":"835 MAIN ST","longitude":-83.62577321,"id":"a69ikbucd3w2","image":null,"state":"KY"},"type":"Feature","geometry":{"type":"Point","coordinates":[-83.62577321,37.95134209]}},{"properties":{"match_addr":"Us 460, Means, KY, 40346","city":"MEANS","ymax":0.0,"status":"Existing Location","latitude":37.94865297,"county":"Menifee","zip code":"40346","hyperlink":null,"street":"8422 US HIGHWAY 460","longitude":-83.74447738,"id":"a69ikbylfqf7","image":null,"state":"KY"},"type":"Feature","geometry":{"type":"Point","coordinates":[-83.74447738,37.94865297]}},{"properties":{"match_addr":"Us 460, Wellington, KY, 40387","city":"WELLINGTON","ymax":0.0,"status":"Existing Location","latitude":37.91451292,"county":"Menifee","zip code":"40387","hyperlink":null,"street":"8483 US HIGHWAY 460","longitude":-83.51208954,"id":"a69ikbsdo4fq","image":null,"state":"KY"},"type":"Feature","geometry":{"type":"Point","coordinates":[-83.51208954,37.91451292]}},{"properties":{"match_addr":"102 Main St, Center, KY, 42214","city":"CENTER","ymax":0.0,"status":"Existing Location","latitude":37.14179598,"county":"Metcalfe","zip code":"42214","hyperlink":null,"street":"102 MAIN ST","longitude":-85.69403604,"id":"a69ikbv3zjgh","image":null,"state":"KY"},"type":"Feature","geometry":{"type":"Point","coordinates":[-85.69403604,37.14179598]}},{"properties":{"match_addr":"202 Hamilton St, Edmonton, KY, 42129","city":"EDMONTON","ymax":0.0,"status":"Existing Location","latitude":36.97880169,"county":"Metcalfe","zip code":"42129","hyperlink":null,"street":"202 HAMILTON ST","longitude":-85.61069786,"id":"a69ikbyrfv8g","image":null,"state":"KY"},"type":"Feature","geometry":{"type":"Point","coordinates":[-85.61069786,36.97880169]}},{"properties":{"match_addr":"2653 Summer Shade Rd, Summer Shade, KY, 42166","city":"SUMMER SHADE","ymax":0.0,"status":"Existing Location","latitude":36.88387636,"county":"Metcalfe","zip code":"42166","hyperlink":null,"street":"2653 SUMMER SHADE RD","longitude":-85.70041077,"id":"a69ikbopdpuk","image":null,"state":"KY"},"type":"Feature","geometry":{"type":"Point","coordinates":[-85.70041077,36.88387636]}},{"properties":{"match_addr":"200 Main St, Fountain Run, KY, 42133","city":"FOUNTAIN RUN","ymax":0.0,"status":"Existing Location","latitude":36.72248584,"county":"Monroe","zip code":"42133","hyperlink":null,"street":"200 MAIN ST","longitude":-85.96735666,"id":"a69ikblpxg3l","image":null,"state":"KY"},"type":"Feature","geometry":{"type":"Point","coordinates":[-85.96735666,36.72248584]}},{"properties":{"match_addr":"106 Fountain Run Rd, Gamaliel, KY, 42140","city":"GAMALIEL","ymax":0.0,"status":"Existing Location","latitude":36.64332013,"county":"Monroe","zip code":"42140","hyperlink":null,"street":"106 FOUNTAIN RUN RD","longitude":-85.79354121,"id":"a69ikbrxf2t8","image":null,"state":"KY"},"type":"Feature","geometry":{"type":"Point","coordinates":[-85.79354121,36.64332013]}},{"properties":{"match_addr":"203 W Paige St, Tompkinsville, KY, 42167","city":"TOMPKINSVILLE","ymax":0.0,"status":"Existing Location","latitude":36.7101535,"county":"Monroe","zip code":"42167","hyperlink":null,"street":"203 W PAIGE ST","longitude":-85.68901065,"id":"a69ikbkdd8nh","image":null,"state":"KY"},"type":"Feature","geometry":{"type":"Point","coordinates":[-85.68901065,36.7101535]}},{"properties":{"match_addr":"8000 Main St, Jeffersonville, KY, 40337","city":"JEFFERSONVILLE","ymax":0.0,"status":"Existing Location","latitude":37.95648644,"county":"Montgomery","zip code":"40337","hyperlink":null,"street":"8000 MAIN ST","longitude":-83.79200004,"id":"a69ikbrtgl8b","image":null,"state":"KY"},"type":"Feature","geometry":{"type":"Point","coordinates":[-83.79200004,37.95648644]}},{"properties":{"match_addr":"108 W Locust St, Mount Sterling, KY, 40353","city":"MOUNT STERLING","ymax":0.0,"status":"Existing Location","latitude":38.05485992,"county":"Montgomery","zip code":"40353","hyperlink":null,"street":"108 W LOCUST ST","longitude":-83.94301407,"id":"a69ikbonh8bw","image":null,"state":"KY"},"type":"Feature","geometry":{"type":"Point","coordinates":[-83.94301407,38.05485992]}},{"properties":{"match_addr":"Crockett, KY","city":"CROCKETT","ymax":38.01007,"status":"Existing Location","latitude":37.9850719,"county":"Morgan","zip code":"41413","hyperlink":null,"street":"18 HIGHWAY 706","longitude":-83.09275579,"id":"a69ikbvp8vcj","image":null,"state":"KY"},"type":"Feature","geometry":{"type":"Point","coordinates":[-83.09275579,37.9850719]}},{"properties":{"match_addr":"Us 460, Ezel, KY, 41425","city":"EZEL","ymax":0.0,"status":"Existing Location","latitude":37.85796373,"county":"Morgan","zip code":"41425","hyperlink":null,"street":"14269 HIGHWAY 460","longitude":-83.39036916,"id":"a69ikbj4l8h0","image":null,"state":"KY"},"type":"Feature","geometry":{"type":"Point","coordinates":[-83.39036916,37.85796373]}},{"properties":{"match_addr":"398 Glenn Ave, West Liberty, KY, 41472","city":"WEST LIBERTY","ymax":0.0,"status":"Existing Location","latitude":37.91990509,"county":"Morgan","zip code":"41472","hyperlink":null,"street":"398 GLENN AVE","longitude":-83.2573083,"id":"a69ikbjif30v","image":null,"state":"KY"},"type":"Feature","geometry":{"type":"Point","coordinates":[-83.2573083,37.91990509]}},{"properties":{"match_addr":"231 W Main St, Carlisle, KY, 40311","city":"CARLISLE","ymax":0.0,"status":"Existing Location","latitude":38.31275262,"county":"Nicholas","zip code":"40311","hyperlink":null,"street":"231 W MAIN ST","longitude":-84.03032014,"id":"a69ikbvxr56e","image":null,"state":"KY"},"type":"Feature","geometry":{"type":"Point","coordinates":[-84.03032014,38.31275262]}},{"properties":{"match_addr":"KY 11, Booneville, KY, 41314","city":"BOONEVILLE","ymax":0.0,"status":"Existing Location","latitude":37.43609281,"county":"Owsley","zip code":"41314","hyperlink":null,"street":"HIGHWAY 11","longitude":-83.67773613,"id":"a69ikbvgdubf","image":null,"state":"KY"},"type":"Feature","geometry":{"type":"Point","coordinates":[-83.67773613,37.43609281]}},{"properties":{"match_addr":"KY 80, Avawam, KY, 41713","city":"AVAWAM","ymax":0.0,"status":"Existing Location","latitude":37.23067266,"county":"Perry","zip code":"41713","hyperlink":null,"street":"7201 W KY HIGHWAY 80","longitude":-83.27009842,"id":"a69ikbkdhnzn","image":null,"state":"KY"},"type":"Feature","geometry":{"type":"Point","coordinates":[-83.27009842,37.23067266]}},{"properties":{"match_addr":"112 Bonnyman Cir, Bonnyman, KY, 41719","city":"BONNYMAN","ymax":0.0,"status":"Existing Location","latitude":37.29585318,"county":"Perry","zip code":"41719","hyperlink":null,"street":"112 BONNYMAN CIR","longitude":-83.24111153,"id":"a69ikbmy4kbd","image":null,"state":"KY"},"type":"Feature","geometry":{"type":"Point","coordinates":[-83.24111153,37.29585318]}},{"properties":{"match_addr":"18540 KY 28, Buckhorn, KY, 41721","city":"BUCKHORN","ymax":0.0,"status":"Existing Location","latitude":37.34680649,"county":"Perry","zip code":"41721","hyperlink":null,"street":"18540 KY HIGHWAY 28 STE 102","longitude":-83.47671937,"id":"a69ikbr2fy6f","image":null,"state":"KY"},"type":"Feature","geometry":{"type":"Point","coordinates":[-83.47671937,37.34680649]}},{"properties":{"match_addr":"4672 KY 476, Bulan, KY, 41722","city":"BULAN","ymax":0.0,"status":"Existing Location","latitude":37.28945481,"county":"Perry","zip code":"41722","hyperlink":null,"street":"4672 KY HIGHWAY 476","longitude":-83.17823695,"id":"a69ikbokqzrf","image":null,"state":"KY"},"type":"Feature","geometry":{"type":"Point","coordinates":[-83.17823695,37.28945481]}},{"properties":{"match_addr":"5876 KY 28, Chavies, KY, 41727","city":"CHAVIES","ymax":0.0,"status":"Existing Location","latitude":37.34657936,"county":"Perry","zip code":"41727","hyperlink":null,"street":"5876 KY HIGHWAY 28","longitude":-83.35431482,"id":"a69ikbylcfg7","image":null,"state":"KY"},"type":"Feature","geometry":{"type":"Point","coordinates":[-83.35431482,37.34657936]}},{"properties":{"match_addr":"526 W KY Highway 80, Combs, KY, 41729","city":"COMBS","ymax":0.0,"status":"Existing Location","latitude":37.2651227,"county":"Perry","zip code":"41729","hyperlink":null,"street":"526 W KY HIGHWAY 80 STE 102","longitude":-83.21264625,"id":"a69ikbx81bgf","image":null,"state":"KY"},"type":"Feature","geometry":{"type":"Point","coordinates":[-83.21264625,37.2651227]}},{"properties":{"match_addr":"11571 KY 7, Cornettsville, KY, 41731","city":"CORNETTSVILLE","ymax":0.0,"status":"Existing Location","latitude":37.13170391,"county":"Perry","zip code":"41731","hyperlink":null,"street":"11571 KY HIGHWAY 7","longitude":-83.07945584,"id":"a69ikbltqgcp","image":null,"state":"KY"},"type":"Feature","geometry":{"type":"Point","coordinates":[-83.07945584,37.13170391]}},{"properties":{"match_addr":"10028 S KY Highway 15, Happy, KY, 41746","city":"HAPPY","ymax":0.0,"status":"Existing Location","latitude":37.2047551,"county":"Perry","zip code":"41746","hyperlink":null,"street":"10028 S KY HIGHWAY 15","longitude":-83.09038627,"id":"a69ikbnzukwe","image":null,"state":"KY"},"type":"Feature","geometry":{"type":"Point","coordinates":[-83.09038627,37.2047551]}},{"properties":{"match_addr":"136 KY 7, Jeff, KY, 41751","city":"JEFF","ymax":0.0,"status":"Existing Location","latitude":37.20795168,"county":"Perry","zip code":"41751","hyperlink":null,"street":"136 KY HIGHWAY 7 STE 101","longitude":-83.13333571,"id":"a69ikbmf43di","image":null,"state":"KY"},"type":"Feature","geometry":{"type":"Point","coordinates":[-83.13333571,37.20795168]}},{"properties":{"match_addr":"301 Main St, Vicco, KY, 41773","city":"VICCO","ymax":0.0,"status":"Existing Location","latitude":37.2160542,"county":"Perry","zip code":"41773","hyperlink":null,"street":"301 MAIN ST","longitude":-83.06101913,"id":"a69ikbs33bux","image":null,"state":"KY"},"type":"Feature","geometry":{"type":"Point","coordinates":[-83.06101913,37.2160542]}},{"properties":{"match_addr":"Elkhorn Crk, Ashcamp, KY, 41512","city":"ASHCAMP","ymax":0.0,"status":"Existing Location","latitude":37.24621276,"county":"Pike","zip code":"41512","hyperlink":null,"street":"6804 ELKHORN CRK","longitude":-82.50042631,"id":"a69ikbnb3nv3","image":null,"state":"KY"},"type":"Feature","geometry":{"type":"Point","coordinates":[-82.50042631,37.24621276]}},{"properties":{"match_addr":"14857 Regina Belcher Hwy, Belcher, KY, 41513","city":"BELCHER","ymax":0.0,"status":"Existing Location","latitude":37.34201899,"county":"Pike","zip code":"41513","hyperlink":null,"street":"14857 REGINA BELCHER HWY","longitude":-82.37611904,"id":"a69ikbp8i3ud","image":null,"state":"KY"},"type":"Feature","geometry":{"type":"Point","coordinates":[-82.37611904,37.34201899]}},{"properties":{"match_addr":"25320 Us Highway 119 N, Belfry, KY, 41514","city":"BELFRY","ymax":0.0,"status":"Existing Location","latitude":37.62258357,"county":"Pike","zip code":"41514","hyperlink":null,"street":"25320 US HIGHWAY 119 N STE 100","longitude":-82.26786919,"id":"a69ikbxq8ce0","image":null,"state":"KY"},"type":"Feature","geometry":{"type":"Point","coordinates":[-82.26786919,37.62258357]}},{"properties":{"match_addr":"E Big Creek Rd, Canada, KY, 41519","city":"CANADA","ymax":0.0,"status":"Existing Location","latitude":37.60299278,"county":"Pike","zip code":"41519","hyperlink":null,"street":"19245 E BIG CREEK RD","longitude":-82.30810642,"id":"a69ikby88sww","image":null,"state":"KY"},"type":"Feature","geometry":{"type":"Point","coordinates":[-82.30810642,37.60299278]}},{"properties":{"match_addr":"Dorton, KY","city":"DORTON","ymax":37.30105,"status":"Existing Location","latitude":37.27605123,"county":"Pike","zip code":"41520","hyperlink":null,"street":"87 DORTON JENKINS HWY","longitude":-82.57852986,"id":"a69ikbtry3cg","image":null,"state":"KY"},"type":"Feature","geometry":{"type":"Point","coordinates":[-82.57852986,37.27605123]}},{"properties":{"match_addr":"145 W Russell St, Elkhorn City, KY, 41522","city":"ELKHORN CITY","ymax":0.0,"status":"Existing Location","latitude":37.30241136,"county":"Pike","zip code":"41522","hyperlink":null,"street":"145 W RUSSELL ST","longitude":-82.35233161,"id":"a69ikbq0hsj2","image":null,"state":"KY"},"type":"Feature","geometry":{"type":"Point","coordinates":[-82.35233161,37.30241136]}},{"properties":{"match_addr":"500 Fedscreek Rd, Fedscreek, KY, 41524","city":"FEDSCREEK","ymax":0.0,"status":"Existing Location","latitude":37.40126863,"county":"Pike","zip code":"41524","hyperlink":null,"street":"500 FEDSCREEK RD","longitude":-82.24145272,"id":"a69ikbj70o78","image":null,"state":"KY"},"type":"Feature","geometry":{"type":"Point","coordinates":[-82.24145272,37.40126863]}},{"properties":{"match_addr":"1320 Forest Hills Rd, Forest Hills, KY, 41527","city":"FOREST HILLS","ymax":0.0,"status":"Existing Location","latitude":37.64184753,"county":"Pike","zip code":"41527","hyperlink":null,"street":"1320 FOREST HILLS RD","longitude":-82.28247021,"id":"a69ikbraikqa","image":null,"state":"KY"},"type":"Feature","geometry":{"type":"Point","coordinates":[-82.28247021,37.64184753]}},{"properties":{"match_addr":"43903 KY 194, Freeburn, KY, 41528","city":"FREEBURN","ymax":0.0,"status":"Existing Location","latitude":37.56349123,"county":"Pike","zip code":"41528","hyperlink":null,"street":"43903 STATE HIGHWAY 194","longitude":-82.1373868,"id":"a69ikbvejpps","image":null,"state":"KY"},"type":"Feature","geometry":{"type":"Point","coordinates":[-82.1373868,37.56349123]}},{"properties":{"match_addr":"2240 KY 319, Hardy, KY, 41531","city":"HARDY","ymax":0.0,"status":"Existing Location","latitude":37.61639554,"county":"Pike","zip code":"41531","hyperlink":null,"street":"2240 STATE HIGHWAY 319","longitude":-82.24233169,"id":"a69ikbipfxcy","image":null,"state":"KY"},"type":"Feature","geometry":{"type":"Point","coordinates":[-82.24233169,37.61639554]}},{"properties":{"match_addr":"126 Allegheny Rd, Hellier, KY, 41534","city":"HELLIER","ymax":0.0,"status":"Existing Location","latitude":37.27116312,"county":"Pike","zip code":"41534","hyperlink":null,"street":"126 ALLEGHENY RD","longitude":-82.49354015,"id":"a69ikbpjsse6","image":null,"state":"KY"},"type":"Feature","geometry":{"type":"Point","coordinates":[-82.49354015,37.27116312]}},{"properties":{"match_addr":"KY 610, Jonancy, KY, 41538","city":"JONANCY","ymax":0.0,"status":"Existing Location","latitude":37.31481401,"county":"Pike","zip code":"41538","hyperlink":null,"street":"3440 KY HIGHWAY 610","longitude":-82.59307814,"id":"a69ikbt29ops","image":null,"state":"KY"},"type":"Feature","geometry":{"type":"Point","coordinates":[-82.59307814,37.31481401]}},{"properties":{"match_addr":"9414 KY 194, Kimper, KY, 41539","city":"KIMPER","ymax":0.0,"status":"Existing Location","latitude":37.50160572,"county":"Pike","zip code":"41539","hyperlink":null,"street":"9414 STATE HIGHWAY 194","longitude":-82.35703136,"id":"a69ikbiwigaj","image":null,"state":"KY"},"type":"Feature","geometry":{"type":"Point","coordinates":[-82.35703136,37.50160572]}},{"properties":{"match_addr":"48789 KY 194, Majestic, KY, 41547","city":"MAJESTIC","ymax":0.0,"status":"Existing Location","latitude":37.53311483,"county":"Pike","zip code":"41547","hyperlink":null,"street":"48789 STATE HIGHWAY 194","longitude":-82.09980107,"id":"a69ikbw20dzt","image":null,"state":"KY"},"type":"Feature","geometry":{"type":"Point","coordinates":[-82.09980107,37.53311483]}},{"properties":{"match_addr":"2330 Pond Creek Rd, Mc Andrews, KY, 41543","city":"MC ANDREWS","ymax":0.0,"status":"Existing Location","latitude":37.57093774,"county":"Pike","zip code":"41543","hyperlink":null,"street":"2330 POND CREEK RD STE 105","longitude":-82.26793576,"id":"a69ikbs1j7ge","image":null,"state":"KY"},"type":"Feature","geometry":{"type":"Point","coordinates":[-82.26793576,37.57093774]}},{"properties":{"match_addr":"6884 KY 319, Mc Carr, KY, 41544","city":"MC CARR","ymax":0.0,"status":"Existing Location","latitude":37.58015806,"county":"Pike","zip code":"41544","hyperlink":null,"street":"6884 STATE HIGHWAY 319","longitude":-82.17997119,"id":"a69ikbuhh4cb","image":null,"state":"KY"},"type":"Feature","geometry":{"type":"Point","coordinates":[-82.17997119,37.58015806]}},{"properties":{"match_addr":"23590 S Levisa Rd, Mouthcard, KY, 41548","city":"MOUTHCARD","ymax":0.0,"status":"Existing Location","latitude":37.37576702,"county":"Pike","zip code":"41548","hyperlink":null,"street":"23590 S LEVISA RD","longitude":-82.25151674,"id":"a69ikbtgzluh","image":null,"state":"KY"},"type":"Feature","geometry":{"type":"Point","coordinates":[-82.25151674,37.37576702]}},{"properties":{"match_addr":"37719 KY 194, Phelps, KY, 41553","city":"PHELPS","ymax":0.0,"status":"Existing Location","latitude":37.50868487,"county":"Pike","zip code":"41553","hyperlink":null,"street":"37719 STATE HIGHWAY 194","longitude":-82.14398704,"id":"a69ikbxyb2xu","image":null,"state":"KY"},"type":"Feature","geometry":{"type":"Point","coordinates":[-82.14398704,37.50868487]}},{"properties":{"match_addr":"16240 Grapevine Rd, Phyllis, KY, 41554","city":"PHYLLIS","ymax":0.0,"status":"Existing Location","latitude":37.44010168,"county":"Pike","zip code":"41554","hyperlink":null,"street":"16240 GRAPEVINE RD","longitude":-82.33953753,"id":"a69ikbluqmbi","image":null,"state":"KY"},"type":"Feature","geometry":{"type":"Point","coordinates":[-82.33953753,37.44010168]}},{"properties":{"match_addr":"305 Thompson Rd, Pikeville, KY, 41501","city":"PIKEVILLE","ymax":0.0,"status":"Existing Location","latitude":37.50002469,"county":"Pike","zip code":"41501","hyperlink":null,"street":"305 THOMPSON RD","longitude":-82.53590335,"id":"a69ikbt3uat3","image":null,"state":"KY"},"type":"Feature","geometry":{"type":"Point","coordinates":[-82.53590335,37.50002469]}},{"properties":{"match_addr":"3903 Pond Creek Rd, Pinsonfork, KY, 41555","city":"PINSONFORK","ymax":0.0,"status":"Existing Location","latitude":37.55351285,"county":"Pike","zip code":"41555","hyperlink":null,"street":"3903 POND CREEK RD","longitude":-82.26289823,"id":"a69ikbttps5v","image":null,"state":"KY"},"type":"Feature","geometry":{"type":"Point","coordinates":[-82.26289823,37.55351285]}},{"properties":{"match_addr":"68 Grassy Br, Raccoon, KY, 41557","city":"RACCOON","ymax":0.0,"status":"Existing Location","latitude":37.51759791,"county":"Pike","zip code":"41557","hyperlink":null,"street":"68 GRASSY BR","longitude":-82.43612298,"id":"a69ikbqjaqm7","image":null,"state":"KY"},"type":"Feature","geometry":{"type":"Point","coordinates":[-82.43612298,37.51759791]}},{"properties":{"match_addr":"10051 Regina Belcher Hwy, Regina, KY, 41559","city":"REGINA","ymax":0.0,"status":"Existing Location","latitude":37.36831474,"county":"Pike","zip code":"41559","hyperlink":null,"street":"10051 REGINA BELCHER HWY","longitude":-82.41362586,"id":"a69ikbiunh1d","image":null,"state":"KY"},"type":"Feature","geometry":{"type":"Point","coordinates":[-82.41362586,37.36831474]}},{"properties":{"match_addr":"6500 Robinson Creek Rd, Robinson Creek, KY, 41560","city":"ROBINSON CREEK","ymax":0.0,"status":"Existing Location","latitude":37.38986495,"county":"Pike","zip code":"41560","hyperlink":null,"street":"6500 ROBINSON CREEK RD","longitude":-82.55716408,"id":"a69ikbj4lb15","image":null,"state":"KY"},"type":"Feature","geometry":{"type":"Point","coordinates":[-82.55716408,37.38986495]}},{"properties":{"match_addr":"Rockhouse, KY","city":"ROCKHOUSE","ymax":37.35274,"status":"Existing Location","latitude":37.3277419,"county":"Pike","zip code":"41561","hyperlink":null,"street":"4535 MARROWBONE CREEK RD","longitude":-82.45429798,"id":"a69ikby7le3p","image":null,"state":"KY"},"type":"Feature","geometry":{"type":"Point","coordinates":[-82.45429798,37.3277419]}},{"properties":{"match_addr":"Shelbiana, KY","city":"SHELBIANA","ymax":37.41198,"status":"Existing Location","latitude":37.38698144,"county":"Pike","zip code":"41562","hyperlink":null,"street":"147 LONGVIEW DR","longitude":-82.47292565,"id":"a69ikbpc3sow","image":null,"state":"KY"},"type":"Feature","geometry":{"type":"Point","coordinates":[-82.47292565,37.38698144]}},{"properties":{"match_addr":"17340 E Big Creek Rd, Sidney, KY, 41564","city":"SIDNEY","ymax":0.0,"status":"Existing Location","latitude":37.61777165,"county":"Pike","zip code":"41564","hyperlink":null,"street":"17340 E BIG CREEK RD","longitude":-82.35113775,"id":"a69ikbxvfhlz","image":null,"state":"KY"},"type":"Feature","geometry":{"type":"Point","coordinates":[-82.35113775,37.61777165]}},{"properties":{"match_addr":"2308 Fedscreek Rd, Steele, KY, 41566","city":"STEELE","ymax":0.0,"status":"Existing Location","latitude":37.39168048,"county":"Pike","zip code":"41566","hyperlink":null,"street":"2308 FEDSCREEK RD","longitude":-82.21384798,"id":"a69ikbwy1s4d","image":null,"state":"KY"},"type":"Feature","geometry":{"type":"Point","coordinates":[-82.21384798,37.39168048]}},{"properties":{"match_addr":"50351 KY 194, Stopover, KY, 41568","city":"STOPOVER","ymax":0.0,"status":"Existing Location","latitude":37.51684343,"county":"Pike","zip code":"41568","hyperlink":null,"street":"50351 STATE HIGHWAY 194","longitude":-82.09482879,"id":"a69ikbjcgilx","image":null,"state":"KY"},"type":"Feature","geometry":{"type":"Point","coordinates":[-82.09482879,37.51684343]}},{"properties":{"match_addr":"KY 610, Virgie, KY, 41572","city":"VIRGIE","ymax":0.0,"status":"Existing Location","latitude":37.3278429,"county":"Pike","zip code":"41572","hyperlink":null,"street":"1070 KY HIGHWAY 610","longitude":-82.58760967,"id":"a69ikbko7ega","image":null,"state":"KY"},"type":"Feature","geometry":{"type":"Point","coordinates":[-82.58760967,37.3278429]}},{"properties":{"match_addr":"70 River St, Clay City, KY, 40312","city":"CLAY CITY","ymax":0.0,"status":"Existing Location","latitude":37.86411607,"county":"Powell","zip code":"40312","hyperlink":null,"street":"70 RIVER ST","longitude":-83.93421583,"id":"a69ikbxs6kdm","image":null,"state":"KY"},"type":"Feature","geometry":{"type":"Point","coordinates":[-83.93421583,37.86411607]}},{"properties":{"match_addr":"165 S Sipple St, Stanton, KY, 40380","city":"STANTON","ymax":0.0,"status":"Existing Location","latitude":37.84493948,"county":"Powell","zip code":"40380","hyperlink":null,"street":"165 S SIPPLE ST","longitude":-83.85961959,"id":"a69ikbnj0d66","image":null,"state":"KY"},"type":"Feature","geometry":{"type":"Point","coordinates":[-83.85961959,37.84493948]}},{"properties":{"match_addr":"1801 Highway 90, Bronston, KY, 42518","city":"BRONSTON","ymax":0.0,"status":"Existing Location","latitude":36.97638548,"county":"Pulaski","zip code":"42518","hyperlink":null,"street":"1801 HIGHWAY 90","longitude":-84.66821365,"id":"a69ikbspcfpe","image":null,"state":"KY"},"type":"Feature","geometry":{"type":"Point","coordinates":[-84.66821365,36.97638548]}},{"properties":{"match_addr":"8250 S Highway 27, Burnside, KY, 42519","city":"BURNSIDE","ymax":0.0,"status":"Existing Location","latitude":36.98782315,"county":"Pulaski","zip code":"42519","hyperlink":null,"street":"8250 S HIGHWAY 27","longitude":-84.59765552,"id":"a69ikbolqryj","image":null,"state":"KY"},"type":"Feature","geometry":{"type":"Point","coordinates":[-84.59765552,36.98782315]}},{"properties":{"match_addr":"15058 N Highway 1247, Eubank, KY, 42567","city":"EUBANK","ymax":0.0,"status":"Existing Location","latitude":37.26984707,"county":"Pulaski","zip code":"42567","hyperlink":null,"street":"15058 N HIGHWAY 1247","longitude":-84.65616208,"id":"a69ikbwz7zw7","image":null,"state":"KY"},"type":"Feature","geometry":{"type":"Point","coordinates":[-84.65616208,37.26984707]}},{"properties":{"match_addr":"522 Jacksboro St, Ferguson, KY, 42533","city":"FERGUSON","ymax":0.0,"status":"Existing Location","latitude":37.06802497,"county":"Pulaski","zip code":"42533","hyperlink":null,"street":"522 JACKSBORO ST","longitude":-84.60375638,"id":"a69ikbplaq3a","image":null,"state":"KY"},"type":"Feature","geometry":{"type":"Point","coordinates":[-84.60375638,37.06802497]}},{"properties":{"match_addr":"9150 W Highway 80, Nancy, KY, 42544","city":"NANCY","ymax":0.0,"status":"Existing Location","latitude":37.12899549,"county":"Pulaski","zip code":"42544","hyperlink":null,"street":"9150 W HIGHWAY 80","longitude":-84.8938512,"id":"a69ikbos57hm","image":null,"state":"KY"},"type":"Feature","geometry":{"type":"Point","coordinates":[-84.8938512,37.12899549]}},{"properties":{"match_addr":"735 Central Ave, Science Hill, KY, 42553","city":"SCIENCE HILL","ymax":0.0,"status":"Existing Location","latitude":37.17812914,"county":"Pulaski","zip code":"42553","hyperlink":null,"street":"735 CENTRAL AVE","longitude":-84.6346242,"id":"a69ikbqez3we","image":null,"state":"KY"},"type":"Feature","geometry":{"type":"Point","coordinates":[-84.6346242,37.17812914]}},{"properties":{"match_addr":"119 N Maple St, Somerset, KY, 42501","city":"SOMERSET","ymax":0.0,"status":"Existing Location","latitude":37.09410046,"county":"Pulaski","zip code":"42501","hyperlink":null,"street":"119 N MAPLE ST","longitude":-84.60414007,"id":"a69ikbnb1cvt","image":null,"state":"KY"},"type":"Feature","geometry":{"type":"Point","coordinates":[-84.60414007,37.09410046]}},{"properties":{"match_addr":"N Main St, Mount Olivet, KY, 41064","city":"MOUNT OLIVET","ymax":0.0,"status":"Existing Location","latitude":38.53493048,"county":"Robertson","zip code":"41064","hyperlink":null,"street":"7 N MAIN ST","longitude":-84.03212982,"id":"a69ikbyz3lkl","image":null,"state":"KY"},"type":"Feature","geometry":{"type":"Point","coordinates":[-84.03212982,38.53493048]}},{"properties":{"match_addr":"170 W Main St, Brodhead, KY, 40409","city":"BRODHEAD","ymax":0.0,"status":"Existing Location","latitude":37.40399554,"county":"Rockcastle","zip code":"40409","hyperlink":null,"street":"170 W MAIN ST","longitude":-84.41748487,"id":"a69ikbls1557","image":null,"state":"KY"},"type":"Feature","geometry":{"type":"Point","coordinates":[-84.41748487,37.40399554]}},{"properties":{"match_addr":"Main St, Livingston, KY, 40445","city":"LIVINGSTON","ymax":0.0,"status":"Existing Location","latitude":37.29398385,"county":"Rockcastle","zip code":"40445","hyperlink":null,"street":"9121 MAIN ST","longitude":-84.22053793,"id":"a69ikbqo5pe7","image":null,"state":"KY"},"type":"Feature","geometry":{"type":"Point","coordinates":[-84.22053793,37.29398385]}},{"properties":{"match_addr":"380 Richmond St, Mount Vernon, KY, 40456","city":"MOUNT VERNON","ymax":0.0,"status":"Existing Location","latitude":37.35799592,"county":"Rockcastle","zip code":"40456","hyperlink":null,"street":"380 RICHMOND ST","longitude":-84.33887638,"id":"a69ikbw9s8gy","image":null,"state":"KY"},"type":"Feature","geometry":{"type":"Point","coordinates":[-84.33887638,37.35799592]}},{"properties":{"match_addr":"519 KY Highway 519, Clearfield, KY, 40313","city":"CLEARFIELD","ymax":0.0,"status":"Existing Location","latitude":38.16146901,"county":"Rowan","zip code":"40313","hyperlink":null,"street":"519 KY HIGHWAY 519","longitude":-83.42853945,"id":"a69ikby9qcx6","image":null,"state":"KY"},"type":"Feature","geometry":{"type":"Point","coordinates":[-83.42853945,38.16146901]}},{"properties":{"match_addr":"8061 Christy Crk, Elliottville, KY, 40317","city":"ELLIOTTVILLE","ymax":0.0,"status":"Existing Location","latitude":38.18334155,"county":"Rowan","zip code":"40317","hyperlink":null,"street":"8061 CHRISTY CREEK RD","longitude":-83.27786242,"id":"a69ikbr972rc","image":null,"state":"KY"},"type":"Feature","geometry":{"type":"Point","coordinates":[-83.27786242,38.18334155]}},{"properties":{"match_addr":"Farmers, KY","city":"FARMERS","ymax":38.16717,"status":"Existing Location","latitude":38.14217117,"county":"Rowan","zip code":"40319","hyperlink":null,"street":"7355 US HIGHWAY 60","longitude":-83.54611948,"id":"a69ikbtsv0no","image":null,"state":"KY"},"type":"Feature","geometry":{"type":"Point","coordinates":[-83.54611948,38.14217117]}},{"properties":{"match_addr":"700 W 1st St, Morehead, KY, 40351","city":"MOREHEAD","ymax":0.0,"status":"Existing Location","latitude":38.17516471,"county":"Rowan","zip code":"40351","hyperlink":null,"street":"700 W 1ST ST","longitude":-83.43800332,"id":"a69ikbx8gg3s","image":null,"state":"KY"},"type":"Feature","geometry":{"type":"Point","coordinates":[-83.43800332,38.17516471]}},{"properties":{"match_addr":"66 Fair Oaks Dr, Jamestown, KY, 42629","city":"JAMESTOWN","ymax":0.0,"status":"Existing Location","latitude":36.99325359,"county":"Russell","zip code":"42629","hyperlink":null,"street":"66 FAIR OAKS DR","longitude":-85.06905154,"id":"a69ikbpmaq1a","image":null,"state":"KY"},"type":"Feature","geometry":{"type":"Point","coordinates":[-85.06905154,36.99325359]}},{"properties":{"match_addr":"414 Main St, Russell Springs, KY, 42642","city":"RUSSELL SPRINGS","ymax":0.0,"status":"Existing Location","latitude":37.04945887,"county":"Russell","zip code":"42642","hyperlink":null,"street":"414 MAIN ST","longitude":-85.09410237,"id":"a69ikbwo91hm","image":null,"state":"KY"},"type":"Feature","geometry":{"type":"Point","coordinates":[-85.09410237,37.04945887]}},{"properties":{"match_addr":"65 Barnes Dr, Monticello, KY, 42633","city":"MONTICELLO","ymax":0.0,"status":"Existing Location","latitude":36.8555257,"county":"Wayne","zip code":"42633","hyperlink":null,"street":"65 BARNES DR","longitude":-84.84593574,"id":"a69ikbz2dt8d","image":null,"state":"KY"},"type":"Feature","geometry":{"type":"Point","coordinates":[-84.84593574,36.8555257]}},{"properties":{"match_addr":"301 Roy Kidd Ave, Corbin, KY, 40701","city":"CORBIN","ymax":0.0,"status":"Existing Location","latitude":36.94973256,"county":"Whitley","zip code":"40701","hyperlink":null,"street":"301 ROY KIDD AVE","longitude":-84.09451413,"id":"a69ikbs9v4pe","image":null,"state":"KY"},"type":"Feature","geometry":{"type":"Point","coordinates":[-84.09451413,36.94973256]}},{"properties":{"match_addr":"Emlyn, KY","city":"EMLYN","ymax":36.72733,"status":"Existing Location","latitude":36.70233235,"county":"Whitley","zip code":"40730","hyperlink":null,"street":"3052 US HIGHWAY 25","longitude":-84.1448679,"id":"a69ikbvt7530","image":null,"state":"KY"},"type":"Feature","geometry":{"type":"Point","coordinates":[-84.1448679,36.70233235]}},{"properties":{"match_addr":"31 Tyes Ferry Ln, Rockholds, KY, 40759","city":"ROCKHOLDS","ymax":0.0,"status":"Existing Location","latitude":36.82861725,"county":"Whitley","zip code":"40759","hyperlink":null,"street":"31 TYES FERRY RD","longitude":-84.11066224,"id":"a69ikbmhljx2","image":null,"state":"KY"},"type":"Feature","geometry":{"type":"Point","coordinates":[-84.11066224,36.82861725]}},{"properties":{"match_addr":"1000 S Highway 25 W, Williamsburg, KY, 40769","city":"WILLIAMSBURG","ymax":0.0,"status":"Existing Location","latitude":36.73061556,"county":"Whitley","zip code":"40769","hyperlink":null,"street":"1000 N HIGHWAY 25","longitude":-84.15635585,"id":"a69ikbna4tb0","image":null,"state":"KY"},"type":"Feature","geometry":{"type":"Point","coordinates":[-84.15635585,36.73061556]}},{"properties":{"match_addr":"34 N Archer St, Woodbine, KY, 40771","city":"WOODBINE","ymax":0.0,"status":"Existing Location","latitude":36.90435166,"county":"Whitley","zip code":"40771","hyperlink":null,"street":"34 N ARCHER ST","longitude":-84.0880774,"id":"a69ikbw23p2b","image":null,"state":"KY"},"type":"Feature","geometry":{"type":"Point","coordinates":[-84.0880774,36.90435166]}},{"properties":{"match_addr":"Mountain Pky, Campton, KY, 41301","city":"CAMPTON","ymax":0.0,"status":"Existing Location","latitude":37.7323717,"county":"Wolfe","zip code":"41301","hyperlink":null,"street":"175 MOUNTAIN PARKWAY SPUR","longitude":-83.55066771,"id":"a69ikbu4nmz3","image":null,"state":"KY"},"type":"Feature","geometry":{"type":"Point","coordinates":[-83.55066771,37.7323717]}},{"properties":{"match_addr":"KY 191, Hazel Green, KY, 41332","city":"HAZEL GREEN","ymax":0.0,"status":"Existing Location","latitude":37.76436183,"county":"Wolfe","zip code":"41332","hyperlink":"<a href=\"https://appalachiancenter.as.uky.edu/post-office-work\">Hazel Green</a>","street":"10491 KY HIGHWAY 191","longitude":-83.33351666,"id":"a69ikbq1ddo4","image":"Post Office","state":"KY"},"type":"Feature","geometry":{"type":"Point","coordinates":[-83.33351666,37.76436183]}},{"properties":{"match_addr":"Strunk, KY","city":"STRUNK","ymax":36.65114,"status":"Existing Location","latitude":36.62614118,"county":"McCreary","zip code":"42649","hyperlink":null,"street":"271 STRUNK HWY","longitude":-84.43616642,"id":"a69ikbtxs4xn","image":null,"state":"KY"},"type":"Feature","geometry":{"type":"Point","coordinates":[-84.43616642,36.62614118]}},{"properties":{"match_addr":"Revelo, KY","city":"REVELO","ymax":36.70845,"status":"Existing Location","latitude":36.68345127,"county":"McCreary","zip code":"42638","hyperlink":null,"street":"3715 S HIGHWAY 1651","longitude":-84.4688382,"id":"a69ikbxt9799","image":null,"state":"KY"},"type":"Feature","geometry":{"type":"Point","coordinates":[-84.4688382,36.68345127]}},{"properties":{"match_addr":"Marshes Siding, KY","city":"MARSHES SIDING","ymax":36.76848,"status":"Existing Location","latitude":36.74348216,"county":"McCreary","zip code":"42631","hyperlink":null,"street":"23 ALUN RD","longitude":-84.48156636,"id":"a69ikbkbwhfn","image":null,"state":"KY"},"type":"Feature","geometry":{"type":"Point","coordinates":[-84.48156636,36.74348216]}}],"is_temporal":false,"author":{"url":"","metadata":null,"contact_name":null,"contact_address":null,"source":null,"contact_phone":null},"source":"","pagination":{"sort":null,"start":0,"total":260,"limit":1000000},"state":"complete","tags":"","published":"2014-08-15T03:56:12-04:00","id":249663}