{"type":"FeatureCollection","data_type":"Dataset","url_type":null,"permissions":[{"permissions":{"download":true,"view":true},"group_id":"everyone"}],"classification":null,"title":"existing locations","count":260,"stream_id":249664,"contributor":{"url":"http://geocommons.com/users/44657","name":"UKAppCtr"},"data_attributes":null,"calculation_params":null,"icon_link":null,"link":"http://geocommons.com/overlays/249664.json","extent":[-86.4113,36.5878,-82.0948,38.7208],"geometry_types":["point"],"unique_name":null,"name":"existing locations","feature_count":260,"description":"Locations of post offices which will remain open","next_feature":null,"is_raster":false,"short_classification":"Y","stats":{"latitude":{"max":38.72084683,"variance":0.22010596177308,"mean":37.4353142022693,"stdev":0.46915451801414,"min":36.58782366,"median":37.36028748},"longitude":{"max":-82.09482879,"variance":0.998852097673331,"mean":-83.5496492503846,"stdev":0.999425884032093,"min":-86.4112851,"median":-83.33351666}},"features":[{"properties":{"city":"COLUMBIA","status":"Existing Location","latitude":37.09371312,"county":"Adair","zip code":"42728","hyperlink":null,"street":"800 BURKESVILLE ST","longitude":-85.31676235,"id":"a69iq7ltoag6","image":null,"state":"KY"},"type":"Feature","geometry":{"type":"Point","coordinates":[-85.31676235,37.09371312]}},{"properties":{"city":"OLYMPIA","status":"Existing Location","latitude":38.12524932,"county":"Bath","zip code":"40358","hyperlink":null,"street":"5724 E HIGHWAY 36","longitude":-83.74915264,"id":"a69iq7p00z6p","image":null,"state":"KY"},"type":"Feature","geometry":{"type":"Point","coordinates":[-83.74915264,38.12524932]}},{"properties":{"city":"SALT LICK","status":"Existing Location","latitude":38.11308186,"county":"Bath","zip code":"40371","hyperlink":null,"street":"91 MAIN ST","longitude":-83.62028593,"id":"a69iq7fug3ih","image":null,"state":"KY"},"type":"Feature","geometry":{"type":"Point","coordinates":[-83.62028593,38.11308186]}},{"properties":{"city":"SHARPSBURG","status":"Existing Location","latitude":38.19833843,"county":"Bath","zip code":"40374","hyperlink":null,"street":"581 MAIN ST","longitude":-83.93198091,"id":"a69iq7jwf0g3","image":null,"state":"KY"},"type":"Feature","geometry":{"type":"Point","coordinates":[-83.93198091,38.19833843]}},{"properties":{"city":"BEVERLY","status":"Existing Location","latitude":36.89726079,"county":"Bell","zip code":"40913","hyperlink":null,"street":"16464 HIGHWAY 66","longitude":-83.57765771,"id":"a69iq7jzm3i1","image":null,"state":"KY"},"type":"Feature","geometry":{"type":"Point","coordinates":[-83.57765771,36.89726079]}},{"properties":{"city":"CALVIN","status":"Existing Location","latitude":36.70031398,"county":"Bell","zip code":"40813","hyperlink":null,"street":"5501 US HIGHWAY 119","longitude":-83.69326918,"id":"a69iq7f7k6b5","image":null,"state":"KY"},"type":"Feature","geometry":{"type":"Point","coordinates":[-83.69326918,36.70031398]}},{"properties":{"city":"FOURMILE","status":"Existing Location","latitude":36.79297218,"county":"Bell","zip code":"40939","hyperlink":null,"street":"16073 US HIGHWAY 25","longitude":-83.74205678,"id":"a69iq7k4bved","image":null,"state":"KY"},"type":"Feature","geometry":{"type":"Point","coordinates":[-83.74205678,36.79297218]}},{"properties":{"city":"FRAKES","status":"Existing Location","latitude":36.58782366,"county":"Bell","zip code":"40940","hyperlink":null,"street":"17170 HIGHWAY 190","longitude":-83.93068651,"id":"a69iq7c7xy4n","image":null,"state":"KY"},"type":"Feature","geometry":{"type":"Point","coordinates":[-83.93068651,36.58782366]}},{"properties":{"city":"MIDDLESBORO","status":"Existing Location","latitude":36.60862322,"county":"Bell","zip code":"40965","hyperlink":null,"street":"201 N 20TH ST","longitude":-83.71450006,"id":"a69iq7fx3rgu","image":null,"state":"KY"},"type":"Feature","geometry":{"type":"Point","coordinates":[-83.71450006,36.60862322]}},{"properties":{"city":"PINEVILLE","status":"Existing Location","latitude":36.76235562,"county":"Bell","zip code":"40977","hyperlink":"<a href=\"http://www.wpamurals.com/pinevill.htm\">Pineville</a>","street":"111 S WALNUT ST","longitude":-83.69588679,"id":"a69iq7ghmosu","image":"Post Office","state":"KY"},"type":"Feature","geometry":{"type":"Point","coordinates":[-83.69588679,36.76235562]}},{"properties":{"city":"ASHLAND","status":"Existing Location","latitude":38.4803855,"county":"Boyd","zip code":"41101","hyperlink":null,"street":"1140 CARTER AVE","longitude":-82.64570332,"id":"a69iq7kbqf3n","image":null,"state":"KY"},"type":"Feature","geometry":{"type":"Point","coordinates":[-82.64570332,38.4803855]}},{"properties":{"city":"CATLETTSBURG","status":"Existing Location","latitude":38.4040208,"county":"Boyd","zip code":"41129","hyperlink":null,"street":"3514 COURT ST","longitude":-82.60091583,"id":"a69iq7dxyq55","image":"Post Office","state":"KY"},"type":"Feature","geometry":{"type":"Point","coordinates":[-82.60091583,38.4040208]}},{"properties":{"city":"CLAYHOLE","status":"Existing Location","latitude":37.45043306,"county":"Breathitt","zip code":"41317","hyperlink":"<a href=\"https://appalachiancenter.as.uky.edu/sites/default/files/webform/DSC03550.JPG\">Clayhole</a>","street":"3757 HIGHWAY 476","longitude":-83.24071763,"id":"a69iq7egxm7x","image":"Post Office","state":"KY"},"type":"Feature","geometry":{"type":"Point","coordinates":[-83.24071763,37.45043306]}},{"properties":{"city":"JACKSON","status":"Existing Location","latitude":37.49838151,"county":"Breathitt","zip code":"41339","hyperlink":"<a href=\"http://appalachiancenter.as.uky.edu/sites/default/files/webform/Jackson.JPG\">Jackson</a>","street":"790 HIGHWAY 15","longitude":-83.35622906,"id":"a69iq7maynu1","image":"Post Office","state":"KY"},"type":"Feature","geometry":{"type":"Point","coordinates":[-83.35622906,37.49838151]}},{"properties":{"city":"LOST CREEK","status":"Existing Location","latitude":37.47613381,"county":"Breathitt","zip code":"41348","hyperlink":null,"street":"9950 HIGHWAY 15","longitude":-83.32175965,"id":"a69iq7bunmqr","image":null,"state":"KY"},"type":"Feature","geometry":{"type":"Point","coordinates":[-83.32175965,37.47613381]}},{"properties":{"city":"VANCLEVE","status":"Existing Location","latitude":37.63069935,"county":"Breathitt","zip code":"41385","hyperlink":null,"street":"6857 HIGHWAY 15","longitude":-83.42169471,"id":"a69iq7dqs2gz","image":null,"state":"KY"},"type":"Feature","geometry":{"type":"Point","coordinates":[-83.42169471,37.63069935]}},{"properties":{"city":"GRAYSON","status":"Existing Location","latitude":38.32466109,"county":"Carter","zip code":"41143","hyperlink":null,"street":"390 S CAROL MALONE BLVD","longitude":-82.94808675,"id":"a69iq7okdlrg","image":null,"state":"KY"},"type":"Feature","geometry":{"type":"Point","coordinates":[-82.94808675,38.32466109]}},{"properties":{"city":"HITCHINS","status":"Existing Location","latitude":38.28106067,"county":"Carter","zip code":"41146","hyperlink":null,"street":"3625 S STATE HIGHWAY 1","longitude":-82.92059878,"id":"a69iq7mo0fyf","image":null,"state":"KY"},"type":"Feature","geometry":{"type":"Point","coordinates":[-82.92059878,38.28106067]}},{"properties":{"city":"OLIVE HILL","status":"Existing Location","latitude":38.29625666,"county":"Carter","zip code":"41164","hyperlink":null,"street":"215 W TOM T HALL BLVD","longitude":-83.18042005,"id":"a69iq7r00533","image":null,"state":"KY"},"type":"Feature","geometry":{"type":"Point","coordinates":[-83.18042005,38.29625666]}},{"properties":{"city":"WILLARD","status":"Existing Location","latitude":38.21173373,"county":"Carter","zip code":"41181","hyperlink":null,"street":"8679 S STATE HIGHWAY 1","longitude":-82.89868571,"id":"a69iq7r0c2a9","image":null,"state":"KY"},"type":"Feature","geometry":{"type":"Point","coordinates":[-82.89868571,38.21173373]}},{"properties":{"city":"DUNNVILLE","status":"Existing Location","latitude":37.19880866,"county":"Casey","zip code":"42528","hyperlink":null,"street":"10765 S US 127","longitude":-85.00885079,"id":"a69iq7jueu3q","image":null,"state":"KY"},"type":"Feature","geometry":{"type":"Point","coordinates":[-85.00885079,37.19880866]}},{"properties":{"city":"LIBERTY","status":"Existing Location","latitude":37.32231353,"county":"Casey","zip code":"42539","hyperlink":null,"street":"56 HUSTONVILLE ST","longitude":-84.93508215,"id":"a69iq7o1ve68","image":null,"state":"KY"},"type":"Feature","geometry":{"type":"Point","coordinates":[-84.93508215,37.32231353]}},{"properties":{"city":"MIDDLEBURG","status":"Existing Location","latitude":37.35503166,"county":"Casey","zip code":"42541","hyperlink":null,"street":"77 S COLLEGE ST","longitude":-84.82013668,"id":"a69iq7fs3xwy","image":null,"state":"KY"},"type":"Feature","geometry":{"type":"Point","coordinates":[-84.82013668,37.35503166]}},{"properties":{"city":"WINDSOR","status":"Existing Location","latitude":37.11799355,"county":"Casey","zip code":"42565","hyperlink":null,"street":"3593 KY 80","longitude":-84.94437923,"id":"a69iq7nfdiyq","image":null,"state":"KY"},"type":"Feature","geometry":{"type":"Point","coordinates":[-84.94437923,37.11799355]}},{"properties":{"city":"WINCHESTER","status":"Existing Location","latitude":37.99568507,"county":"Clark","zip code":"40391","hyperlink":null,"street":"120 N MAIN ST","longitude":-84.17584959,"id":"a69iq7bws4fk","image":null,"state":"KY"},"type":"Feature","geometry":{"type":"Point","coordinates":[-84.17584959,37.99568507]}},{"properties":{"city":"BIG CREEK","status":"Existing Location","latitude":37.16289369,"county":"Clay","zip code":"40914","hyperlink":null,"street":"17231 S HIGHWAY 421","longitude":-83.57421658,"id":"a69iq7my8s4a","image":null,"state":"KY"},"type":"Feature","geometry":{"type":"Point","coordinates":[-83.57421658,37.16289369]}},{"properties":{"city":"FALL ROCK","status":"Existing Location","latitude":37.2185633,"county":"Clay","zip code":"40932","hyperlink":null,"street":"4833 N HIGHWAY 421 UNIT 2","longitude":-83.78825695,"id":"a69iq7avmyx2","image":null,"state":"KY"},"type":"Feature","geometry":{"type":"Point","coordinates":[-83.78825695,37.2185633]}},{"properties":{"city":"GARRARD","status":"Existing Location","latitude":37.12545163,"county":"Clay","zip code":"40941","hyperlink":null,"street":"2816 S HIGHWAY 421","longitude":-83.7472583,"id":"a69iq7howyy2","image":null,"state":"KY"},"type":"Feature","geometry":{"type":"Point","coordinates":[-83.7472583,37.12545163]}},{"properties":{"city":"GOOSE ROCK","status":"Existing Location","latitude":37.09233084,"county":"Clay","zip code":"40944","hyperlink":null,"street":"73 HIGHWAY 1524","longitude":-83.68471556,"id":"a69iq7ghy4kl","image":null,"state":"KY"},"type":"Feature","geometry":{"type":"Point","coordinates":[-83.68471556,37.09233084]}},{"properties":{"city":"MANCHESTER","status":"Existing Location","latitude":37.16064415,"county":"Clay","zip code":"40962","hyperlink":null,"street":"309 CLAY COUNTY SHOPPING CTR","longitude":-83.76622829,"id":"a69iq7fihs39","image":null,"state":"KY"},"type":"Feature","geometry":{"type":"Point","coordinates":[-83.76622829,37.16064415]}},{"properties":{"city":"ONEIDA","status":"Existing Location","latitude":37.2701206,"county":"Clay","zip code":"40972","hyperlink":null,"street":"14963 N HIGHWAY 66","longitude":-83.6491585,"id":"a69iq7loo1dy","image":null,"state":"KY"},"type":"Feature","geometry":{"type":"Point","coordinates":[-83.6491585,37.2701206]}},{"properties":{"city":"ALBANY","status":"Existing Location","latitude":36.69297843,"county":"Clinton","zip code":"42602","hyperlink":null,"street":"401 N CROSS ST","longitude":-85.13565531,"id":"a69iq7honfs8","image":null,"state":"KY"},"type":"Feature","geometry":{"type":"Point","coordinates":[-85.13565531,36.69297843]}},{"properties":{"city":"BURKESVILLE","status":"Existing Location","latitude":36.79097378,"county":"Cumberland","zip code":"42717","hyperlink":null,"street":"120 N MAIN ST","longitude":-85.36967002,"id":"a69iq7ocwthb","image":null,"state":"KY"},"type":"Feature","geometry":{"type":"Point","coordinates":[-85.36967002,36.79097378]}},{"properties":{"city":"MARROWBONE","status":"Existing Location","latitude":37.36597086,"county":"Cumberland","zip code":"42759","hyperlink":null,"street":"9573 GLASGOW RD","longitude":-82.41449967,"id":"a69iq7f0v3li","image":null,"state":"KY"},"type":"Feature","geometry":{"type":"Point","coordinates":[-82.41449967,37.36597086]}},{"properties":{"city":"BEE SPRING","status":"Existing Location","latitude":37.28748552,"county":"Edmonson","zip code":"42207","hyperlink":null,"street":"7535 KY HIGHWAY 259","longitude":-86.27889757,"id":"a69iq7puolfw","image":null,"state":"KY"},"type":"Feature","geometry":{"type":"Point","coordinates":[-86.27889757,37.28748552]}},{"properties":{"city":"BROWNSVILLE","status":"Existing Location","latitude":37.19095876,"county":"Edmonson","zip code":"42210","hyperlink":null,"street":"535 S MAIN ST","longitude":-86.26146827,"id":"a69iq7f7u0bx","image":null,"state":"KY"},"type":"Feature","geometry":{"type":"Point","coordinates":[-86.26146827,37.19095876]}},{"properties":{"city":"MAMMOTH CAVE","status":"Existing Location","latitude":37.18614798,"county":"Edmonson","zip code":"42259","hyperlink":null,"street":"2811 ENTRANCE RD","longitude":-86.09898116,"id":"a69iq7g80b1a","image":null,"state":"KY"},"type":"Feature","geometry":{"type":"Point","coordinates":[-86.09898116,37.18614798]}},{"properties":{"city":"ROCKY HILL","status":"Existing Location","latitude":37.0699816,"county":"Edmonson","zip code":"42163","hyperlink":null,"street":"1793 ROCKY HILL RD","longitude":-86.13819706,"id":"a69iq7k2b0tj","image":null,"state":"KY"},"type":"Feature","geometry":{"type":"Point","coordinates":[-86.13819706,37.0699816]}},{"properties":{"city":"ROUNDHILL","status":"Existing Location","latitude":37.23461358,"county":"Edmonson","zip code":"42275","hyperlink":null,"street":"9645 MORGANTOWN RD","longitude":-86.4112851,"id":"a69iq7kdhnnu","image":null,"state":"KY"},"type":"Feature","geometry":{"type":"Point","coordinates":[-86.4112851,37.23461358]}},{"properties":{"city":"SWEEDEN","status":"Existing Location","latitude":37.24796678,"county":"Edmonson","zip code":"42285","hyperlink":null,"street":"4960 KY HIGHWAY 259","longitude":-86.27969806,"id":"a69iq7b8c0ch","image":null,"state":"KY"},"type":"Feature","geometry":{"type":"Point","coordinates":[-86.27969806,37.24796678]}},{"properties":{"city":"SANDY HOOK","status":"Existing Location","latitude":38.08665271,"county":"Elliott","zip code":"41171","hyperlink":null,"street":"MAIN ST","longitude":-83.12558761,"id":"a69iq7gh9xo1","image":null,"state":"KY"},"type":"Feature","geometry":{"type":"Point","coordinates":[-83.12558761,38.08665271]}},{"properties":{"city":"IRVINE","status":"Existing Location","latitude":37.70240165,"county":"Estill","zip code":"40336","hyperlink":null,"street":"230 MAIN ST","longitude":-83.975488,"id":"a69iq7e9ndqc","image":null,"state":"KY"},"type":"Feature","geometry":{"type":"Point","coordinates":[-83.975488,37.70240165]}},{"properties":{"city":"EWING","status":"Existing Location","latitude":38.42715889,"county":"Fleming","zip code":"41039","hyperlink":null,"street":"1533 EWING RD","longitude":-83.86424244,"id":"a69iq7chxwqp","image":null,"state":"KY"},"type":"Feature","geometry":{"type":"Point","coordinates":[-83.86424244,38.42715889]}},{"properties":{"city":"FLEMINGSBURG","status":"Existing Location","latitude":38.42184373,"county":"Fleming","zip code":"41041","hyperlink":null,"street":"131 E WATER ST","longitude":-83.73328563,"id":"a69iq7ejxm9k","image":null,"state":"KY"},"type":"Feature","geometry":{"type":"Point","coordinates":[-83.73328563,38.42184373]}},{"properties":{"city":"HILLSBORO","status":"Existing Location","latitude":38.29382559,"county":"Fleming","zip code":"41049","hyperlink":null,"street":"5 SOUDER DR","longitude":-83.65968067,"id":"a69iq7kstd2i","image":null,"state":"KY"},"type":"Feature","geometry":{"type":"Point","coordinates":[-83.65968067,38.29382559]}},{"properties":{"city":"ALLEN","status":"Existing Location","latitude":37.61435003,"county":"Floyd","zip code":"41601","hyperlink":null,"street":"137 COURT ST","longitude":-82.72087412,"id":"a69iq7extbaw","image":null,"state":"KY"},"type":"Feature","geometry":{"type":"Point","coordinates":[-82.72087412,37.61435003]}},{"properties":{"city":"AUXIER","status":"Existing Location","latitude":37.73819872,"county":"Floyd","zip code":"41602","hyperlink":null,"street":"11 W MARKET ST","longitude":-82.7612945,"id":"a69iq7i5o02f","image":null,"state":"KY"},"type":"Feature","geometry":{"type":"Point","coordinates":[-82.7612945,37.73819872]}},{"properties":{"city":"BANNER","status":"Existing Location","latitude":37.60412447,"county":"Floyd","zip code":"41603","hyperlink":null,"street":"54 HALL ADDITION","longitude":-82.70087272,"id":"a69iq7gjolmj","image":null,"state":"KY"},"type":"Feature","geometry":{"type":"Point","coordinates":[-82.70087272,37.60412447]}},{"properties":{"city":"BEAVER","status":"Existing Location","latitude":37.39541511,"county":"Floyd","zip code":"41604","hyperlink":null,"street":"13429 KY ROUTE 979","longitude":-82.6565926,"id":"a69iq7fvtc9r","image":null,"state":"KY"},"type":"Feature","geometry":{"type":"Point","coordinates":[-82.6565926,37.39541511]}},{"properties":{"city":"BETSY LAYNE","status":"Existing Location","latitude":37.5456841,"county":"Floyd","zip code":"41605","hyperlink":null,"street":"11105 US HIGHWAY 23 S STE 101","longitude":-82.63280946,"id":"a69iq7hhz4dz","image":null,"state":"KY"},"type":"Feature","geometry":{"type":"Point","coordinates":[-82.63280946,37.5456841]}},{"properties":{"city":"EASTERN","status":"Existing Location","latitude":37.51659565,"county":"Floyd","zip code":"41622","hyperlink":null,"street":"356 KY ROUTE 550","longitude":-82.80692302,"id":"a69iq7bh6eqt","image":null,"state":"KY"},"type":"Feature","geometry":{"type":"Point","coordinates":[-82.80692302,37.51659565]}},{"properties":{"city":"GARRETT","status":"Existing Location","latitude":37.4782351,"county":"Floyd","zip code":"41630","hyperlink":null,"street":"430 FRONT ST","longitude":-82.8340371,"id":"a69iq7qvtpul","image":null,"state":"KY"},"type":"Feature","geometry":{"type":"Point","coordinates":[-82.8340371,37.4782351]}},{"properties":{"city":"GRETHEL","status":"Existing Location","latitude":37.47591844,"county":"Floyd","zip code":"41631","hyperlink":null,"street":"6789 KY ROUTE 979","longitude":-82.65645618,"id":"a69iq7hcu89q","image":null,"state":"KY"},"type":"Feature","geometry":{"type":"Point","coordinates":[-82.65645618,37.47591844]}},{"properties":{"city":"HAROLD","status":"Existing Location","latitude":37.5298708,"county":"Floyd","zip code":"41635","hyperlink":null,"street":"107 LAYNESVILLE RD","longitude":-82.62730792,"id":"a69iq7dt60qe","image":null,"state":"KY"},"type":"Feature","geometry":{"type":"Point","coordinates":[-82.62730792,37.5298708]}},{"properties":{"city":"HI HAT","status":"Existing Location","latitude":37.38901558,"county":"Floyd","zip code":"41636","hyperlink":null,"street":"17460 KY ROUTE 122","longitude":-82.73020973,"id":"a69iq7ki2uf5","image":null,"state":"KY"},"type":"Feature","geometry":{"type":"Point","coordinates":[-82.73020973,37.38901558]}},{"properties":{"city":"IVEL","status":"Existing Location","latitude":37.58911352,"county":"Floyd","zip code":"41642","hyperlink":null,"street":"6367 US HIGHWAY 23 S STE 101","longitude":-82.66040269,"id":"a69iq7jkbaaq","image":null,"state":"KY"},"type":"Feature","geometry":{"type":"Point","coordinates":[-82.66040269,37.58911352]}},{"properties":{"city":"MARTIN","status":"Existing Location","latitude":37.5612611,"county":"Floyd","zip code":"41649","hyperlink":null,"street":"11561 MAIN ST","longitude":-82.76193623,"id":"a69iq7nbvka6","image":null,"state":"KY"},"type":"Feature","geometry":{"type":"Point","coordinates":[-82.76193623,37.5612611]}},{"properties":{"city":"MC DOWELL","status":"Existing Location","latitude":37.45803549,"county":"Floyd","zip code":"41647","hyperlink":null,"street":"9571 KY ROUTE 122","longitude":-82.74996039,"id":"a69iq7cwqo2q","image":null,"state":"KY"},"type":"Feature","geometry":{"type":"Point","coordinates":[-82.74996039,37.45803549]}},{"properties":{"city":"MELVIN","status":"Existing Location","latitude":37.35088816,"county":"Floyd","zip code":"41650","hyperlink":null,"street":"22944 KY ROUTE 122","longitude":-82.69515886,"id":"a69iq7hvxg0x","image":null,"state":"KY"},"type":"Feature","geometry":{"type":"Point","coordinates":[-82.69515886,37.35088816]}},{"properties":{"city":"PRESTONSBURG","status":"Existing Location","latitude":37.65941947,"county":"Floyd","zip code":"41653","hyperlink":null,"street":"119 FRANKLIN COR","longitude":-82.78487486,"id":"a69iq7bknc8s","image":null,"state":"KY"},"type":"Feature","geometry":{"type":"Point","coordinates":[-82.78487486,37.65941947]}},{"properties":{"city":"PRINTER","status":"Existing Location","latitude":37.53115759,"county":"Floyd","zip code":"41655","hyperlink":null,"street":"2928 KY ROUTE 122 STE 2","longitude":-82.74607779,"id":"a69iq7co16zp","image":null,"state":"KY"},"type":"Feature","geometry":{"type":"Point","coordinates":[-82.74607779,37.53115759]}},{"properties":{"city":"STANVILLE","status":"Existing Location","latitude":37.56525903,"county":"Floyd","zip code":"41659","hyperlink":null,"street":"185 E MAIN ST","longitude":-82.64269018,"id":"a69iq7qhseza","image":null,"state":"KY"},"type":"Feature","geometry":{"type":"Point","coordinates":[-82.64269018,37.56525903]}},{"properties":{"city":"TEABERRY","status":"Existing Location","latitude":37.42532304,"county":"Floyd","zip code":"41660","hyperlink":null,"street":"11136 KY ROUTE 979","longitude":-82.64409148,"id":"a69iq7lfmet2","image":null,"state":"KY"},"type":"Feature","geometry":{"type":"Point","coordinates":[-82.64409148,37.42532304]}},{"properties":{"city":"TRAM","status":"Existing Location","latitude":37.57199369,"county":"Floyd","zip code":"41663","hyperlink":null,"street":"6 LONA ST","longitude":-82.64779713,"id":"a69iq7lvp1hj","image":null,"state":"KY"},"type":"Feature","geometry":{"type":"Point","coordinates":[-82.64779713,37.57199369]}},{"properties":{"city":"WAYLAND","status":"Existing Location","latitude":37.44610258,"county":"Floyd","zip code":"41666","hyperlink":null,"street":"2617 KING KELLY COLEMAN HWY","longitude":-82.80694327,"id":"a69iq7l7mk96","image":null,"state":"KY"},"type":"Feature","geometry":{"type":"Point","coordinates":[-82.80694327,37.44610258]}},{"properties":{"city":"WHEELWRIGHT","status":"Existing Location","latitude":37.33196989,"county":"Floyd","zip code":"41669","hyperlink":null,"street":"80 SHOP FORK ST","longitude":-82.71860063,"id":"a69iq7gqf4p8","image":null,"state":"KY"},"type":"Feature","geometry":{"type":"Point","coordinates":[-82.71860063,37.33196989]}},{"properties":{"city":"BRYANTSVILLE","status":"Existing Location","latitude":37.71464171,"county":"Garrard","zip code":"40410","hyperlink":null,"street":"302 BRYANTSVILLE RD","longitude":-84.6495177,"id":"a69iq7dtecfd","image":null,"state":"KY"},"type":"Feature","geometry":{"type":"Point","coordinates":[-84.6495177,37.71464171]}},{"properties":{"city":"LANCASTER","status":"Existing Location","latitude":37.61948349,"county":"Garrard","zip code":"40444","hyperlink":null,"street":"107 DANVILLE ST","longitude":-84.58015279,"id":"a69iq7m3a9ut","image":null,"state":"KY"},"type":"Feature","geometry":{"type":"Point","coordinates":[-84.58015279,37.61948349]}},{"properties":{"city":"PAINT LICK","status":"Existing Location","latitude":37.61746092,"county":"Garrard","zip code":"40461","hyperlink":null,"street":"11642 RICHMOND RD","longitude":-84.40799875,"id":"a69iq7djywp5","image":null,"state":"KY"},"type":"Feature","geometry":{"type":"Point","coordinates":[-84.40799875,37.61746092]}},{"properties":{"city":"GREENSBURG","status":"Existing Location","latitude":37.25914257,"county":"Green","zip code":"42743","hyperlink":null,"street":"201 S MAIN ST","longitude":-85.50263547,"id":"a69iq7cxftzk","image":null,"state":"KY"},"type":"Feature","geometry":{"type":"Point","coordinates":[-85.50263547,37.25914257]}},{"properties":{"city":"SUMMERSVILLE","status":"Existing Location","latitude":37.37824066,"county":"Green","zip code":"42782","hyperlink":null,"street":"5160 HODGENVILLE RD","longitude":-85.5922398,"id":"a69iq7o1ct3x","image":null,"state":"KY"},"type":"Feature","geometry":{"type":"Point","coordinates":[-85.5922398,37.37824066]}},{"properties":{"city":"ARGILLITE","status":"Existing Location","latitude":38.49581543,"county":"Greenup","zip code":"41121","hyperlink":null,"street":"5470 STATE ROUTE 1","longitude":-82.83131515,"id":"a69iq7jtzlmr","image":null,"state":"KY"},"type":"Feature","geometry":{"type":"Point","coordinates":[-82.83131515,38.49581543]}},{"properties":{"city":"FLATWOODS","status":"Existing Location","latitude":38.52019122,"county":"Greenup","zip code":"41139","hyperlink":null,"street":"2125 ARGILLITE RD","longitude":-82.72000081,"id":"a69iq7kcooyq","image":null,"state":"KY"},"type":"Feature","geometry":{"type":"Point","coordinates":[-82.72000081,38.52019122]}},{"properties":{"city":"GREENUP","status":"Existing Location","latitude":38.56759527,"county":"Greenup","zip code":"41144","hyperlink":null,"street":"1312 ASHLAND RD","longitude":-82.82893277,"id":"a69iq7hexqqt","image":null,"state":"KY"},"type":"Feature","geometry":{"type":"Point","coordinates":[-82.82893277,38.56759527]}},{"properties":{"city":"RUSSELL","status":"Existing Location","latitude":38.53198324,"county":"Greenup","zip code":"41169","hyperlink":null,"street":"517 BOYD ST","longitude":-82.6955879,"id":"a69iq7cya7pg","image":null,"state":"KY"},"type":"Feature","geometry":{"type":"Point","coordinates":[-82.6955879,38.53198324]}},{"properties":{"city":"SOUTH PORTSMOUTH","status":"Existing Location","latitude":38.70833024,"county":"Greenup","zip code":"41174","hyperlink":null,"street":"2246 STATE ROUTE 8","longitude":-83.0282671,"id":"a69iq7l7lkzw","image":null,"state":"KY"},"type":"Feature","geometry":{"type":"Point","coordinates":[-83.0282671,38.70833024]}},{"properties":{"city":"SOUTH SHORE","status":"Existing Location","latitude":38.72084683,"county":"Greenup","zip code":"41175","hyperlink":null,"street":"11 NARCO DR","longitude":-82.95608504,"id":"a69iq7dk5l3i","image":null,"state":"KY"},"type":"Feature","geometry":{"type":"Point","coordinates":[-82.95608504,38.72084683]}},{"properties":{"city":"WORTHINGTON","status":"Existing Location","latitude":38.54882381,"county":"Greenup","zip code":"41183","hyperlink":null,"street":"605 FERRY AVE","longitude":-82.72781027,"id":"a69iq7csg52z","image":null,"state":"KY"},"type":"Feature","geometry":{"type":"Point","coordinates":[-82.72781027,38.54882381]}},{"properties":{"city":"AGES BROOKSIDE","status":"Existing Location","latitude":36.85687786,"county":"Harlan","zip code":"40801","hyperlink":null,"street":"4893 KENTUCKY 38","longitude":-83.21783741,"id":"a69iq7gyep86","image":null,"state":"KY"},"type":"Feature","geometry":{"type":"Point","coordinates":[-83.21783741,36.85687786]}},{"properties":{"city":"BAXTER","status":"Existing Location","latitude":36.8531701,"county":"Harlan","zip code":"40806","hyperlink":null,"street":"295 S HIGHWAY 413","longitude":-83.34742915,"id":"a69iq7kvys7s","image":null,"state":"KY"},"type":"Feature","geometry":{"type":"Point","coordinates":[-83.34742915,36.8531701]}},{"properties":{"city":"BENHAM","status":"Existing Location","latitude":36.96417336,"county":"Harlan","zip code":"40807","hyperlink":null,"street":"229 MAIN ST STE 1","longitude":-82.95053643,"id":"a69iq7mkj64l","image":null,"state":"KY"},"type":"Feature","geometry":{"type":"Point","coordinates":[-82.95053643,36.96417336]}},{"properties":{"city":"BLEDSOE","status":"Existing Location","latitude":36.83969281,"county":"Harlan","zip code":"40810","hyperlink":null,"street":"33 W HIGHWAY 221","longitude":-83.50985616,"id":"a69iq7orsa4i","image":null,"state":"KY"},"type":"Feature","geometry":{"type":"Point","coordinates":[-83.50985616,36.83969281]}},{"properties":{"city":"CAWOOD","status":"Existing Location","latitude":36.78183115,"county":"Harlan","zip code":"40815","hyperlink":null,"street":"3679 S HIGHWAY 3001","longitude":-83.2274085,"id":"a69iq7m9wocd","image":null,"state":"KY"},"type":"Feature","geometry":{"type":"Point","coordinates":[-83.2274085,36.78183115]}},{"properties":{"city":"COLDIRON","status":"Existing Location","latitude":36.82485969,"county":"Harlan","zip code":"40819","hyperlink":null,"street":"329 HIGHWAY 2007","longitude":-83.45161192,"id":"a69iq7mhygps","image":null,"state":"KY"},"type":"Feature","geometry":{"type":"Point","coordinates":[-83.45161192,36.82485969]}},{"properties":{"city":"CUMBERLAND","status":"Existing Location","latitude":36.97562329,"county":"Harlan","zip code":"40823","hyperlink":null,"street":"1312 E MAIN ST","longitude":-82.98382719,"id":"a69iq7atf672","image":null,"state":"KY"},"type":"Feature","geometry":{"type":"Point","coordinates":[-82.98382719,36.97562329]}},{"properties":{"city":"EVARTS","status":"Existing Location","latitude":36.86152868,"county":"Harlan","zip code":"40828","hyperlink":null,"street":"138 S MAIN ST","longitude":-83.18213863,"id":"a69iq7h190q0","image":null,"state":"KY"},"type":"Feature","geometry":{"type":"Point","coordinates":[-83.18213863,36.86152868]}},{"properties":{"city":"GRAYS KNOB","status":"Existing Location","latitude":36.80659395,"county":"Harlan","zip code":"40829","hyperlink":null,"street":"63 JUDY DR","longitude":-83.3027861,"id":"a69iq7b0y10d","image":null,"state":"KY"},"type":"Feature","geometry":{"type":"Point","coordinates":[-83.3027861,36.80659395]}},{"properties":{"city":"HARLAN","status":"Existing Location","latitude":36.8471272,"county":"Harlan","zip code":"40831","hyperlink":null,"street":"111 N 1ST ST","longitude":-83.32178206,"id":"a69iq7fjz6e7","image":null,"state":"KY"},"type":"Feature","geometry":{"type":"Point","coordinates":[-83.32178206,36.8471272]}},{"properties":{"city":"KENVIR","status":"Existing Location","latitude":36.85228002,"county":"Harlan","zip code":"40847","hyperlink":null,"street":"139 POST OFFICE DR","longitude":-83.15342981,"id":"a69iq7illj81","image":null,"state":"KY"},"type":"Feature","geometry":{"type":"Point","coordinates":[-83.15342981,36.85228002]}},{"properties":{"city":"LOYALL","status":"Existing Location","latitude":36.85290636,"county":"Harlan","zip code":"40854","hyperlink":null,"street":"106 BAILEY ST","longitude":-83.35296603,"id":"a69iq7qh1zg7","image":null,"state":"KY"},"type":"Feature","geometry":{"type":"Point","coordinates":[-83.35296603,36.85290636]}},{"properties":{"city":"LYNCH","status":"Existing Location","latitude":36.96462565,"county":"Harlan","zip code":"40855","hyperlink":null,"street":"10 E MAIN ST","longitude":-82.91032149,"id":"a69iq7mqqcih","image":null,"state":"KY"},"type":"Feature","geometry":{"type":"Point","coordinates":[-82.91032149,36.96462565]}},{"properties":{"city":"WALLINS CREEK","status":"Existing Location","latitude":36.82791626,"county":"Harlan","zip code":"40873","hyperlink":null,"street":"854 HIGHWAY 219","longitude":-83.41453515,"id":"a69iq7bf615t","image":null,"state":"KY"},"type":"Feature","geometry":{"type":"Point","coordinates":[-83.41453515,36.82791626]}},{"properties":{"city":"BONNIEVILLE","status":"Existing Location","latitude":37.37843496,"county":"Hart","zip code":"42713","hyperlink":null,"street":"7692 N DIXIE HWY","longitude":-85.90291015,"id":"a69iq7m11eb3","image":null,"state":"KY"},"type":"Feature","geometry":{"type":"Point","coordinates":[-85.90291015,37.37843496]}},{"properties":{"city":"CUB RUN","status":"Existing Location","latitude":37.30531985,"county":"Hart","zip code":"42729","hyperlink":null,"street":"12753 CUB RUN HWY","longitude":-86.05832867,"id":"a69iq7qw5gj2","image":null,"state":"KY"},"type":"Feature","geometry":{"type":"Point","coordinates":[-86.05832867,37.30531985]}},{"properties":{"city":"HARDYVILLE","status":"Existing Location","latitude":37.25434846,"county":"Hart","zip code":"42746","hyperlink":null,"street":"62 N JACKSON HWY","longitude":-85.78609443,"id":"a69iq7llxnn8","image":null,"state":"KY"},"type":"Feature","geometry":{"type":"Point","coordinates":[-85.78609443,37.25434846]}},{"properties":{"city":"HORSE CAVE","status":"Existing Location","latitude":37.17966261,"county":"Hart","zip code":"42749","hyperlink":null,"street":"117 WATER ST","longitude":-85.90650815,"id":"a69iq7dh42uk","image":null,"state":"KY"},"type":"Feature","geometry":{"type":"Point","coordinates":[-85.90650815,37.17966261]}},{"properties":{"city":"MUNFORDVILLE","status":"Existing Location","latitude":37.26900105,"county":"Hart","zip code":"42765","hyperlink":null,"street":"215 S WASHINGTON ST","longitude":-85.88920754,"id":"a69iq7henom6","image":null,"state":"KY"},"type":"Feature","geometry":{"type":"Point","coordinates":[-85.88920754,37.26900105]}},{"properties":{"city":"ANNVILLE","status":"Existing Location","latitude":37.31934389,"county":"Jackson","zip code":"40402","hyperlink":null,"street":"3560 HIGHWAY 3630","longitude":-83.96349931,"id":"a69iq7lc7yk0","image":null,"state":"KY"},"type":"Feature","geometry":{"type":"Point","coordinates":[-83.96349931,37.31934389]}},{"properties":{"city":"GRAY HAWK","status":"Existing Location","latitude":37.392122,"county":"Jackson","zip code":"40434","hyperlink":null,"street":"811 US HIGHWAY 421","longitude":-83.93620851,"id":"a69iq7gf6tfy","image":null,"state":"KY"},"type":"Feature","geometry":{"type":"Point","coordinates":[-83.93620851,37.392122]}},{"properties":{"city":"MCKEE","status":"Existing Location","latitude":37.43015407,"county":"Jackson","zip code":"40447","hyperlink":null,"street":"320 MAIN ST","longitude":-83.99815833,"id":"a69iq7fpqlkq","image":null,"state":"KY"},"type":"Feature","geometry":{"type":"Point","coordinates":[-83.99815833,37.43015407]}},{"properties":{"city":"SANDGAP","status":"Existing Location","latitude":37.48453557,"county":"Jackson","zip code":"40481","hyperlink":null,"street":"955 US HIGHWAY 421","longitude":-84.09399079,"id":"a69iq7bzz7wx","image":null,"state":"KY"},"type":"Feature","geometry":{"type":"Point","coordinates":[-84.09399079,37.48453557]}},{"properties":{"city":"TYNER","status":"Existing Location","latitude":37.30696367,"county":"Jackson","zip code":"40486","hyperlink":null,"street":"11535 US HIGHWAY 421","longitude":-83.87895903,"id":"a69iq7gtd1xv","image":null,"state":"KY"},"type":"Feature","geometry":{"type":"Point","coordinates":[-83.87895903,37.30696367]}},{"properties":{"city":"FLATGAP","status":"Existing Location","latitude":37.91648443,"county":"Johnson","zip code":"41219","hyperlink":null,"street":"1145 KY ROUTE 689","longitude":-82.89276925,"id":"a69iq7kw76l4","image":null,"state":"KY"},"type":"Feature","geometry":{"type":"Point","coordinates":[-82.89276925,37.91648443]}},{"properties":{"city":"HAGERHILL","status":"Existing Location","latitude":37.78559469,"county":"Johnson","zip code":"41222","hyperlink":null,"street":"1344 KY ROUTE 1428","longitude":-82.79422404,"id":"a69iq7az2x5j","image":null,"state":"KY"},"type":"Feature","geometry":{"type":"Point","coordinates":[-82.79422404,37.78559469]}},{"properties":{"city":"MEALLY","status":"Existing Location","latitude":37.79542419,"county":"Johnson","zip code":"41234","hyperlink":null,"street":"3699 KY ROUTE 40","longitude":-82.74373772,"id":"a69iq7hp5mgy","image":null,"state":"KY"},"type":"Feature","geometry":{"type":"Point","coordinates":[-82.74373772,37.79542419]}},{"properties":{"city":"PAINTSVILLE","status":"Existing Location","latitude":37.81883528,"county":"Johnson","zip code":"41240","hyperlink":null,"street":"100 FEDERAL DR","longitude":-82.81653985,"id":"a69iq7hxsc2z","image":null,"state":"KY"},"type":"Feature","geometry":{"type":"Point","coordinates":[-82.81653985,37.81883528]}},{"properties":{"city":"STAFFORDSVILLE","status":"Existing Location","latitude":37.83256164,"county":"Johnson","zip code":"41256","hyperlink":null,"street":"1100 KY ROUTE 40","longitude":-82.87464657,"id":"a69iq7m5wexl","image":null,"state":"KY"},"type":"Feature","geometry":{"type":"Point","coordinates":[-82.87464657,37.83256164]}},{"properties":{"city":"THELMA","status":"Existing Location","latitude":37.82978672,"county":"Johnson","zip code":"41260","hyperlink":null,"street":"5490 MAIN ST","longitude":-82.74946741,"id":"a69iq7o26t3n","image":null,"state":"KY"},"type":"Feature","geometry":{"type":"Point","coordinates":[-82.74946741,37.82978672]}},{"properties":{"city":"VAN LEAR","status":"Existing Location","latitude":37.76984007,"county":"Johnson","zip code":"41265","hyperlink":null,"street":"55 MILLERS CRK","longitude":-82.75374999,"id":"a69iq7h2ff8c","image":null,"state":"KY"},"type":"Feature","geometry":{"type":"Point","coordinates":[-82.75374999,37.76984007]}},{"properties":{"city":"WEST VAN LEAR","status":"Existing Location","latitude":37.78081185,"county":"Johnson","zip code":"41268","hyperlink":null,"street":"797 KY ROUTE 302","longitude":-82.78006784,"id":"a69iq7c4vbpd","image":null,"state":"KY"},"type":"Feature","geometry":{"type":"Point","coordinates":[-82.78006784,37.78081185]}},{"properties":{"city":"WITTENSVILLE","status":"Existing Location","latitude":37.86174584,"county":"Johnson","zip code":"41274","hyperlink":null,"street":"3027 N US HIGHWAY 23","longitude":-82.80462241,"id":"a69iq7lr65uc","image":null,"state":"KY"},"type":"Feature","geometry":{"type":"Point","coordinates":[-82.80462241,37.86174584]}},{"properties":{"city":"HINDMAN","status":"Existing Location","latitude":37.33791006,"county":"Knott","zip code":"41822","hyperlink":null,"street":"27 MAIN ST","longitude":-82.98085807,"id":"a69iq7g938zl","image":null,"state":"KY"},"type":"Feature","geometry":{"type":"Point","coordinates":[-82.98085807,37.33791006]}},{"properties":{"city":"KITE","status":"Existing Location","latitude":37.26588321,"county":"Knott","zip code":"41828","hyperlink":null,"street":"9069 HIGHWAY 7","longitude":-82.75061569,"id":"a69iq7fwr9oi","image":null,"state":"KY"},"type":"Feature","geometry":{"type":"Point","coordinates":[-82.75061569,37.26588321]}},{"properties":{"city":"LEBURN","status":"Existing Location","latitude":37.40638267,"county":"Knott","zip code":"41831","hyperlink":null,"street":"2028 HIGHWAY 550","longitude":-82.98746722,"id":"a69iq7q5puq5","image":null,"state":"KY"},"type":"Feature","geometry":{"type":"Point","coordinates":[-82.98746722,37.40638267]}},{"properties":{"city":"LITTCARR","status":"Existing Location","latitude":37.26535081,"county":"Knott","zip code":"41834","hyperlink":null,"street":"7351 HIGHWAY 160","longitude":-82.94431077,"id":"a69iq7qxgd28","image":null,"state":"KY"},"type":"Feature","geometry":{"type":"Point","coordinates":[-82.94431077,37.26535081]}},{"properties":{"city":"MALLIE","status":"Existing Location","latitude":37.29986787,"county":"Knott","zip code":"41836","hyperlink":null,"street":"22 BRANHAMS CREEK RD","longitude":-82.91218049,"id":"a69iq7e16hl1","image":null,"state":"KY"},"type":"Feature","geometry":{"type":"Point","coordinates":[-82.91218049,37.29986787]}},{"properties":{"city":"MOUSIE","status":"Existing Location","latitude":37.40561532,"county":"Knott","zip code":"41839","hyperlink":null,"street":"9479 HIGHWAY 550","longitude":-82.8788635,"id":"a69iq7otnxua","image":null,"state":"KY"},"type":"Feature","geometry":{"type":"Point","coordinates":[-82.8788635,37.40561532]}},{"properties":{"city":"PINE TOP","status":"Existing Location","latitude":37.3031377,"county":"Knott","zip code":"41843","hyperlink":null,"street":"3880 HIGHWAY 582","longitude":-82.81776668,"id":"a69iq7cd83d6","image":null,"state":"KY"},"type":"Feature","geometry":{"type":"Point","coordinates":[-82.81776668,37.3031377]}},{"properties":{"city":"PIPPA PASSES","status":"Existing Location","latitude":37.36005641,"county":"Knott","zip code":"41844","hyperlink":null,"street":"4982 HIGHWAY 899","longitude":-82.85392513,"id":"a69iq7pbwcb8","image":null,"state":"KY"},"type":"Feature","geometry":{"type":"Point","coordinates":[-82.85392513,37.36005641]}},{"properties":{"city":"REDFOX","status":"Existing Location","latitude":37.21154347,"county":"Knott","zip code":"41847","hyperlink":null,"street":"1915 REDFOX RD","longitude":-82.93417609,"id":"a69iq7ar68td","image":null,"state":"KY"},"type":"Feature","geometry":{"type":"Point","coordinates":[-82.93417609,37.21154347]}},{"properties":{"city":"TOPMOST","status":"Existing Location","latitude":37.36028748,"county":"Knott","zip code":"41862","hyperlink":null,"street":"6100 HIGHWAY 7","longitude":-82.79322009,"id":"a69iq7bsh35o","image":null,"state":"KY"},"type":"Feature","geometry":{"type":"Point","coordinates":[-82.79322009,37.36028748]}},{"properties":{"city":"ARTEMUS","status":"Existing Location","latitude":36.82794141,"county":"Knox","zip code":"40903","hyperlink":null,"street":"3214 KY 225","longitude":-83.83819971,"id":"a69iq7i6rri6","image":null,"state":"KY"},"type":"Feature","geometry":{"type":"Point","coordinates":[-83.83819971,36.82794141]}},{"properties":{"city":"BARBOURVILLE","status":"Existing Location","latitude":36.86929475,"county":"Knox","zip code":"40906","hyperlink":null,"street":"122 N ALLISON AVE","longitude":-83.88315458,"id":"a69iq7djvyxh","image":null,"state":"KY"},"type":"Feature","geometry":{"type":"Point","coordinates":[-83.88315458,36.86929475]}},{"properties":{"city":"BIMBLE","status":"Existing Location","latitude":36.87317006,"county":"Knox","zip code":"40915","hyperlink":null,"street":"187 KY 1304","longitude":-83.83034938,"id":"a69iq7msvl77","image":null,"state":"KY"},"type":"Feature","geometry":{"type":"Point","coordinates":[-83.83034938,36.87317006]}},{"properties":{"city":"CANNON","status":"Existing Location","latitude":36.91429067,"county":"Knox","zip code":"40923","hyperlink":null,"street":"3387 N KY 11","longitude":-83.85821808,"id":"a69iq7kdwnk7","image":null,"state":"KY"},"type":"Feature","geometry":{"type":"Point","coordinates":[-83.85821808,36.91429067]}},{"properties":{"city":"FLAT LICK","status":"Existing Location","latitude":36.80515313,"county":"Knox","zip code":"40935","hyperlink":null,"street":"1131 KY 3085","longitude":-83.75470959,"id":"a69iq7pxlfdm","image":null,"state":"KY"},"type":"Feature","geometry":{"type":"Point","coordinates":[-83.75470959,36.80515313]}},{"properties":{"city":"GIRDLER","status":"Existing Location","latitude":36.93805132,"county":"Knox","zip code":"40943","hyperlink":null,"street":"5792 N KY 11","longitude":-83.84110791,"id":"a69iq7eyzi1i","image":null,"state":"KY"},"type":"Feature","geometry":{"type":"Point","coordinates":[-83.84110791,36.93805132]}},{"properties":{"city":"GRAY","status":"Existing Location","latitude":36.95481131,"county":"Knox","zip code":"40734","hyperlink":null,"street":"280 S KY 233","longitude":-84.00516156,"id":"a69iq7e3v9d8","image":null,"state":"KY"},"type":"Feature","geometry":{"type":"Point","coordinates":[-84.00516156,36.95481131]}},{"properties":{"city":"HEIDRICK","status":"Existing Location","latitude":36.88952196,"county":"Knox","zip code":"40949","hyperlink":null,"street":"215 N KY 11 STE A","longitude":-83.87734881,"id":"a69iq7d5wxb4","image":null,"state":"KY"},"type":"Feature","geometry":{"type":"Point","coordinates":[-83.87734881,36.88952196]}},{"properties":{"city":"EAST BERNSTADT","status":"Existing Location","latitude":37.19188841,"county":"Laurel","zip code":"40729","hyperlink":null,"street":"1066 HIGHWAY 490","longitude":-84.11743297,"id":"a69iq7ij3ioi","image":null,"state":"KY"},"type":"Feature","geometry":{"type":"Point","coordinates":[-84.11743297,37.19188841]}},{"properties":{"city":"KEAVY","status":"Existing Location","latitude":37.00330036,"county":"Laurel","zip code":"40737","hyperlink":null,"street":"356 W HIGHWAY 312","longitude":-84.16171727,"id":"a69iq7md23qu","image":null,"state":"KY"},"type":"Feature","geometry":{"type":"Point","coordinates":[-84.16171727,37.00330036]}},{"properties":{"city":"LILY","status":"Existing Location","latitude":37.01989109,"county":"Laurel","zip code":"40740","hyperlink":null,"street":"4048 E HIGHWAY 552","longitude":-84.09093599,"id":"a69iq7iwcxbi","image":null,"state":"KY"},"type":"Feature","geometry":{"type":"Point","coordinates":[-84.09093599,37.01989109]}},{"properties":{"city":"LONDON","status":"Existing Location","latitude":37.10986943,"county":"Laurel","zip code":"40741","hyperlink":null,"street":"1760 HIGHWAY 192","longitude":-84.09066606,"id":"a69iq7b7re5t","image":null,"state":"KY"},"type":"Feature","geometry":{"type":"Point","coordinates":[-84.09066606,37.10986943]}},{"properties":{"city":"PITTSBURG","status":"Existing Location","latitude":37.15630065,"county":"Laurel","zip code":"40755","hyperlink":null,"street":"741 N LAUREL RD","longitude":-84.10352692,"id":"a69iq7hoebgc","image":null,"state":"KY"},"type":"Feature","geometry":{"type":"Point","coordinates":[-84.10352692,37.15630065]}},{"properties":{"city":"BLAINE","status":"Existing Location","latitude":38.02826231,"county":"Lawrence","zip code":"41124","hyperlink":null,"street":"30 S HIGHWAY 201","longitude":-82.8406065,"id":"a69iq7g21ug2","image":null,"state":"KY"},"type":"Feature","geometry":{"type":"Point","coordinates":[-82.8406065,38.02826231]}},{"properties":{"city":"LOUISA","status":"Existing Location","latitude":38.11421016,"county":"Lawrence","zip code":"41230","hyperlink":null,"street":"108 E MADISON ST","longitude":-82.60370825,"id":"a69iq7ovopyy","image":null,"state":"KY"},"type":"Feature","geometry":{"type":"Point","coordinates":[-82.60370825,38.11421016]}},{"properties":{"city":"LOWMANSVILLE","status":"Existing Location","latitude":37.9184213,"county":"Lawrence","zip code":"41232","hyperlink":null,"street":"48 MAY LN","longitude":-82.72827587,"id":"a69iq7c6fkdk","image":null,"state":"KY"},"type":"Feature","geometry":{"type":"Point","coordinates":[-82.72827587,37.9184213]}},{"properties":{"city":"BEATTYVILLE","status":"Existing Location","latitude":37.57927693,"county":"Lee","zip code":"41311","hyperlink":null,"street":"301 MAIN ST","longitude":-83.72183517,"id":"a69iq7hqh6sd","image":null,"state":"KY"},"type":"Feature","geometry":{"type":"Point","coordinates":[-83.72183517,37.57927693]}},{"properties":{"city":"ZOE","status":"Existing Location","latitude":37.6721828,"county":"Lee","zip code":"41397","hyperlink":null,"street":"73 ZOE POST OFFICE RD","longitude":-83.67905642,"id":"a69iq7h3wt1j","image":null,"state":"KY"},"type":"Feature","geometry":{"type":"Point","coordinates":[-83.67905642,37.6721828]}},{"properties":{"city":"BEAR BRANCH","status":"Existing Location","latitude":37.16586345,"county":"Leslie","zip code":"41714","hyperlink":null,"street":"35137 HIGHWAY 421","longitude":-83.54511919,"id":"a69iq7gqfqyd","image":null,"state":"KY"},"type":"Feature","geometry":{"type":"Point","coordinates":[-83.54511919,37.16586345]}},{"properties":{"city":"ESSIE","status":"Existing Location","latitude":37.01978409,"county":"Leslie","zip code":"40827","hyperlink":null,"street":"5425 HIGHWAY 406","longitude":-83.51267458,"id":"a69iq7k8du3s","image":null,"state":"KY"},"type":"Feature","geometry":{"type":"Point","coordinates":[-83.51267458,37.01978409]}},{"properties":{"city":"HYDEN","status":"Existing Location","latitude":37.15547573,"county":"Leslie","zip code":"41749","hyperlink":null,"street":"140 HIGHWAY 80","longitude":-83.36888871,"id":"a69iq7pskeuv","image":null,"state":"KY"},"type":"Feature","geometry":{"type":"Point","coordinates":[-83.36888871,37.15547573]}},{"properties":{"city":"SMILAX","status":"Existing Location","latitude":37.13438313,"county":"Leslie","zip code":"41764","hyperlink":null,"street":"3624 CUTSHIN RD","longitude":-83.28233567,"id":"a69iq7mv41bs","image":null,"state":"KY"},"type":"Feature","geometry":{"type":"Point","coordinates":[-83.28233567,37.13438313]}},{"properties":{"city":"STINNETT","status":"Existing Location","latitude":37.06580219,"county":"Leslie","zip code":"40868","hyperlink":null,"street":"25 HIGHWAY 406","longitude":-83.4535956,"id":"a69iq7pqhi72","image":null,"state":"KY"},"type":"Feature","geometry":{"type":"Point","coordinates":[-83.4535956,37.06580219]}},{"properties":{"city":"WOOTON","status":"Existing Location","latitude":37.14182103,"county":"Leslie","zip code":"41776","hyperlink":null,"street":"5275 HIGHWAY 80","longitude":-83.3260419,"id":"a69iq7cqi5er","image":null,"state":"KY"},"type":"Feature","geometry":{"type":"Point","coordinates":[-83.3260419,37.14182103]}},{"properties":{"city":"YEADDISS","status":"Existing Location","latitude":37.06974201,"county":"Leslie","zip code":"41777","hyperlink":null,"street":"11545 CUTSHIN RD","longitude":-83.21862816,"id":"a69iq7awfovf","image":null,"state":"KY"},"type":"Feature","geometry":{"type":"Point","coordinates":[-83.21862816,37.06974201]}},{"properties":{"city":"BLACKEY","status":"Existing Location","latitude":37.13946155,"county":"Letcher","zip code":"41804","hyperlink":null,"street":"8271 HIGHWAY 7","longitude":-82.99259789,"id":"a69iq7eehn5m","image":null,"state":"KY"},"type":"Feature","geometry":{"type":"Point","coordinates":[-82.99259789,37.13946155]}},{"properties":{"city":"CROMONA","status":"Existing Location","latitude":37.18687404,"county":"Letcher","zip code":"41810","hyperlink":null,"street":"4761 HIGHWAY 805","longitude":-82.69707564,"id":"a69iq7cifrv8","image":null,"state":"KY"},"type":"Feature","geometry":{"type":"Point","coordinates":[-82.69707564,37.18687404]}},{"properties":{"city":"ISOM","status":"Existing Location","latitude":37.18899751,"county":"Letcher","zip code":"41824","hyperlink":null,"street":"9305 HIGHWAY 15","longitude":-82.8960316,"id":"a69iq7blhc6h","image":null,"state":"KY"},"type":"Feature","geometry":{"type":"Point","coordinates":[-82.8960316,37.18899751]}},{"properties":{"city":"JENKINS","status":"Existing Location","latitude":37.17019171,"county":"Letcher","zip code":"41537","hyperlink":"<a href=\"http://www.wpamurals.com/Jenkins.htm\">Jenkins</a>","street":"9382 HIGHWAY 805 STE A","longitude":-82.63751465,"id":"a69iq7qagfge","image":"Post Office","state":"KY"},"type":"Feature","geometry":{"type":"Point","coordinates":[-82.63751465,37.17019171]}},{"properties":{"city":"JEREMIAH","status":"Existing Location","latitude":37.16922443,"county":"Letcher","zip code":"41826","hyperlink":null,"street":"2563 HIGHWAY 7 S","longitude":-82.93090846,"id":"a69iq7kdtyn3","image":null,"state":"KY"},"type":"Feature","geometry":{"type":"Point","coordinates":[-82.93090846,37.16922443]}},{"properties":{"city":"MAYKING","status":"Existing Location","latitude":37.13837321,"county":"Letcher","zip code":"41837","hyperlink":null,"street":"3397 HIGHWAY 119","longitude":-82.76242688,"id":"a69iq7m9dfv4","image":null,"state":"KY"},"type":"Feature","geometry":{"type":"Point","coordinates":[-82.76242688,37.13837321]}},{"properties":{"city":"MC ROBERTS","status":"Existing Location","latitude":37.20343172,"county":"Letcher","zip code":"41835","hyperlink":null,"street":"2461 HIGHWAY 343","longitude":-82.67917324,"id":"a69iq7mgfsm4","image":null,"state":"KY"},"type":"Feature","geometry":{"type":"Point","coordinates":[-82.67917324,37.20343172]}},{"properties":{"city":"NEON","status":"Existing Location","latitude":37.19119349,"county":"Letcher","zip code":"41840","hyperlink":null,"street":"71 HIGHWAY 343","longitude":-82.70674747,"id":"a69iq7pn1omz","image":null,"state":"KY"},"type":"Feature","geometry":{"type":"Point","coordinates":[-82.70674747,37.19119349]}},{"properties":{"city":"WHITESBURG","status":"Existing Location","latitude":37.07001282,"county":"Letcher","zip code":"41858","hyperlink":null,"street":"71 HIGHWAY 119","longitude":-82.80785625,"id":"a69iq7bxw892","image":null,"state":"KY"},"type":"Feature","geometry":{"type":"Point","coordinates":[-82.80785625,37.07001282]}},{"properties":{"city":"GARRISON","status":"Existing Location","latitude":38.60385361,"county":"Lewis","zip code":"41141","hyperlink":null,"street":"9102 E KY 8","longitude":-83.17544334,"id":"a69iq7q33553","image":null,"state":"KY"},"type":"Feature","geometry":{"type":"Point","coordinates":[-83.17544334,38.60385361]}},{"properties":{"city":"TOLLESBORO","status":"Existing Location","latitude":38.5619573,"county":"Lewis","zip code":"41189","hyperlink":null,"street":"3900 W KY 10","longitude":-83.58245666,"id":"a69iq7kr8v67","image":null,"state":"KY"},"type":"Feature","geometry":{"type":"Point","coordinates":[-83.58245666,38.5619573]}},{"properties":{"city":"VANCEBURG","status":"Existing Location","latitude":38.60019841,"county":"Lewis","zip code":"41179","hyperlink":null,"street":"15 THIRD ST","longitude":-83.31708426,"id":"a69iq7g1chhk","image":null,"state":"KY"},"type":"Feature","geometry":{"type":"Point","coordinates":[-83.31708426,38.60019841]}},{"properties":{"city":"CRAB ORCHARD","status":"Existing Location","latitude":37.46273391,"county":"Lincoln","zip code":"40419","hyperlink":null,"street":"209 MAIN ST","longitude":-84.50650802,"id":"a69iq7jp7lxk","image":null,"state":"KY"},"type":"Feature","geometry":{"type":"Point","coordinates":[-84.50650802,37.46273391]}},{"properties":{"city":"HUSTONVILLE","status":"Existing Location","latitude":37.48667278,"county":"Lincoln","zip code":"40437","hyperlink":null,"street":"7831 KY HIGHWAY 2141","longitude":-84.81811633,"id":"a69iq7gfbrq3","image":null,"state":"KY"},"type":"Feature","geometry":{"type":"Point","coordinates":[-84.81811633,37.48667278]}},{"properties":{"city":"KINGS MOUNTAIN","status":"Existing Location","latitude":37.33449338,"county":"Lincoln","zip code":"40442","hyperlink":null,"street":"2705 KY HIGHWAY 501","longitude":-84.82379625,"id":"a69iq7ntnfhu","image":null,"state":"KY"},"type":"Feature","geometry":{"type":"Point","coordinates":[-84.82379625,37.33449338]}},{"properties":{"city":"MCKINNEY","status":"Existing Location","latitude":37.45246281,"county":"Lincoln","zip code":"40448","hyperlink":null,"street":"70 BUSY BEE ST","longitude":-84.75874964,"id":"a69iq7ei66hy","image":null,"state":"KY"},"type":"Feature","geometry":{"type":"Point","coordinates":[-84.75874964,37.45246281]}},{"properties":{"city":"STANFORD","status":"Existing Location","latitude":37.54679896,"county":"Lincoln","zip code":"40484","hyperlink":null,"street":"113 CANE RUN RD","longitude":-84.67254985,"id":"a69iq7c3t09c","image":null,"state":"KY"},"type":"Feature","geometry":{"type":"Point","coordinates":[-84.67254985,37.54679896]}},{"properties":{"city":"WAYNESBURG","status":"Existing Location","latitude":37.33273002,"county":"Lincoln","zip code":"40489","hyperlink":null,"street":"10 MAIN ST","longitude":-84.67188868,"id":"a69iq7l8m2q2","image":null,"state":"KY"},"type":"Feature","geometry":{"type":"Point","coordinates":[-84.67188868,37.33273002]}},{"properties":{"city":"BEREA","status":"Existing Location","latitude":37.58660411,"county":"Madison","zip code":"40403","hyperlink":null,"street":"222 GLADES RD","longitude":-84.29350702,"id":"a69iq7fr4skj","image":null,"state":"KY"},"type":"Feature","geometry":{"type":"Point","coordinates":[-84.29350702,37.58660411]}},{"properties":{"city":"BIGHILL","status":"Existing Location","latitude":37.55345235,"county":"Madison","zip code":"40405","hyperlink":null,"street":"10050 BATTLEFIELD MEMORIAL HWY","longitude":-84.20842871,"id":"a69iq7pcja9u","image":null,"state":"KY"},"type":"Feature","geometry":{"type":"Point","coordinates":[-84.20842871,37.55345235]}},{"properties":{"city":"RICHMOND","status":"Existing Location","latitude":37.74720033,"county":"Madison","zip code":"40475","hyperlink":null,"street":"140 N MADISON AVE","longitude":-84.29283974,"id":"a69iq7hn660e","image":null,"state":"KY"},"type":"Feature","geometry":{"type":"Point","coordinates":[-84.29283974,37.74720033]}},{"properties":{"city":"RICHMOND","status":"Existing Location","latitude":37.74635397,"county":"Madison","zip code":"40475","hyperlink":null,"street":"120 E WATER ST","longitude":-84.29447905,"id":"a69iq7fnwmrx","image":null,"state":"KY"},"type":"Feature","geometry":{"type":"Point","coordinates":[-84.29447905,37.74635397]}},{"properties":{"city":"WACO","status":"Existing Location","latitude":37.71844181,"county":"Madison","zip code":"40385","hyperlink":null,"street":"4045 NEW IRVINE RD","longitude":-84.10291668,"id":"a69iq7e1cbnw","image":null,"state":"KY"},"type":"Feature","geometry":{"type":"Point","coordinates":[-84.10291668,37.71844181]}},{"properties":{"city":"SALYERSVILLE","status":"Existing Location","latitude":37.75657235,"county":"Magoffin","zip code":"41465","hyperlink":"<a href=\"https://appalachiancenter.as.uky.edu/sites/default/files/webform/Salyersville.JPG\">Salyersville</a>","street":"330 E MAPLE ST","longitude":-83.05336209,"id":"a69iq7hpqfeh","image":"Post Office","state":"KY"},"type":"Feature","geometry":{"type":"Point","coordinates":[-83.05336209,37.75657235]}},{"properties":{"city":"BEAUTY","status":"Existing Location","latitude":37.8397005,"county":"Martin","zip code":"41203","hyperlink":null,"street":"7815 BEAUTY RD","longitude":-82.43744861,"id":"a69iq7oh8a79","image":null,"state":"KY"},"type":"Feature","geometry":{"type":"Point","coordinates":[-82.43744861,37.8397005]}},{"properties":{"city":"INEZ","status":"Existing Location","latitude":37.86655279,"county":"Martin","zip code":"41224","hyperlink":null,"street":"33 PARK PL","longitude":-82.53881603,"id":"a69iq7l2d8v5","image":null,"state":"KY"},"type":"Feature","geometry":{"type":"Point","coordinates":[-82.53881603,37.86655279]}},{"properties":{"city":"LOVELY","status":"Existing Location","latitude":37.8248808,"county":"Martin","zip code":"41231","hyperlink":null,"street":"1423 RIVER FRONT RD STE 100","longitude":-82.40155666,"id":"a69iq7bt5a7t","image":null,"state":"KY"},"type":"Feature","geometry":{"type":"Point","coordinates":[-82.40155666,37.8248808]}},{"properties":{"city":"WARFIELD","status":"Existing Location","latitude":37.84263326,"county":"Martin","zip code":"41267","hyperlink":null,"street":"82 FIREHOUSE LN","longitude":-82.41929575,"id":"a69iq7jue5ag","image":null,"state":"KY"},"type":"Feature","geometry":{"type":"Point","coordinates":[-82.41929575,37.84263326]}},{"properties":{"city":"FRENCHBURG","status":"Existing Location","latitude":37.95134209,"county":"Menifee","zip code":"40322","hyperlink":null,"street":"835 MAIN ST","longitude":-83.62577321,"id":"a69iq7qitvpa","image":null,"state":"KY"},"type":"Feature","geometry":{"type":"Point","coordinates":[-83.62577321,37.95134209]}},{"properties":{"city":"MEANS","status":"Existing Location","latitude":37.94865297,"county":"Menifee","zip code":"40346","hyperlink":null,"street":"8422 US HIGHWAY 460","longitude":-83.74447738,"id":"a69iq7eqfvdx","image":null,"state":"KY"},"type":"Feature","geometry":{"type":"Point","coordinates":[-83.74447738,37.94865297]}},{"properties":{"city":"WELLINGTON","status":"Existing Location","latitude":37.91451292,"county":"Menifee","zip code":"40387","hyperlink":null,"street":"8483 US HIGHWAY 460","longitude":-83.51208954,"id":"a69iq7byn4k6","image":null,"state":"KY"},"type":"Feature","geometry":{"type":"Point","coordinates":[-83.51208954,37.91451292]}},{"properties":{"city":"CENTER","status":"Existing Location","latitude":37.14179598,"county":"Metcalfe","zip code":"42214","hyperlink":null,"street":"102 MAIN ST","longitude":-85.69403604,"id":"a69iq7nmf4j2","image":null,"state":"KY"},"type":"Feature","geometry":{"type":"Point","coordinates":[-85.69403604,37.14179598]}},{"properties":{"city":"EDMONTON","status":"Existing Location","latitude":36.97880169,"county":"Metcalfe","zip code":"42129","hyperlink":null,"street":"202 HAMILTON ST","longitude":-85.61069786,"id":"a69iq7g0tfns","image":null,"state":"KY"},"type":"Feature","geometry":{"type":"Point","coordinates":[-85.61069786,36.97880169]}},{"properties":{"city":"SUMMER SHADE","status":"Existing Location","latitude":36.88387636,"county":"Metcalfe","zip code":"42166","hyperlink":null,"street":"2653 SUMMER SHADE RD","longitude":-85.70041077,"id":"a69iq7o4joby","image":null,"state":"KY"},"type":"Feature","geometry":{"type":"Point","coordinates":[-85.70041077,36.88387636]}},{"properties":{"city":"FOUNTAIN RUN","status":"Existing Location","latitude":36.72248584,"county":"Monroe","zip code":"42133","hyperlink":null,"street":"200 MAIN ST","longitude":-85.96735666,"id":"a69iq7b968mc","image":null,"state":"KY"},"type":"Feature","geometry":{"type":"Point","coordinates":[-85.96735666,36.72248584]}},{"properties":{"city":"GAMALIEL","status":"Existing Location","latitude":36.64332013,"county":"Monroe","zip code":"42140","hyperlink":null,"street":"106 FOUNTAIN RUN RD","longitude":-85.79354121,"id":"a69iq7dpx7oi","image":null,"state":"KY"},"type":"Feature","geometry":{"type":"Point","coordinates":[-85.79354121,36.64332013]}},{"properties":{"city":"TOMPKINSVILLE","status":"Existing Location","latitude":36.7101535,"county":"Monroe","zip code":"42167","hyperlink":null,"street":"203 W PAIGE ST","longitude":-85.68901065,"id":"a69iq7byy6gh","image":null,"state":"KY"},"type":"Feature","geometry":{"type":"Point","coordinates":[-85.68901065,36.7101535]}},{"properties":{"city":"JEFFERSONVILLE","status":"Existing Location","latitude":37.95648644,"county":"Montgomery","zip code":"40337","hyperlink":null,"street":"8000 MAIN ST","longitude":-83.79200004,"id":"a69iq7q76sq2","image":null,"state":"KY"},"type":"Feature","geometry":{"type":"Point","coordinates":[-83.79200004,37.95648644]}},{"properties":{"city":"MOUNT STERLING","status":"Existing Location","latitude":38.05485992,"county":"Montgomery","zip code":"40353","hyperlink":null,"street":"108 W LOCUST ST","longitude":-83.94301407,"id":"a69iq7lsz2mq","image":null,"state":"KY"},"type":"Feature","geometry":{"type":"Point","coordinates":[-83.94301407,38.05485992]}},{"properties":{"city":"CROCKETT","status":"Existing Location","latitude":37.9850719,"county":"Morgan","zip code":"41413","hyperlink":null,"street":"18 HIGHWAY 706","longitude":-83.09275579,"id":"a69iq7qjsy6b","image":null,"state":"KY"},"type":"Feature","geometry":{"type":"Point","coordinates":[-83.09275579,37.9850719]}},{"properties":{"city":"EZEL","status":"Existing Location","latitude":37.85796373,"county":"Morgan","zip code":"41425","hyperlink":null,"street":"14269 HIGHWAY 460","longitude":-83.39036916,"id":"a69iq7j4amfq","image":null,"state":"KY"},"type":"Feature","geometry":{"type":"Point","coordinates":[-83.39036916,37.85796373]}},{"properties":{"city":"WEST LIBERTY","status":"Existing Location","latitude":37.91990509,"county":"Morgan","zip code":"41472","hyperlink":null,"street":"398 GLENN AVE","longitude":-83.2573083,"id":"a69iq7aqdyix","image":null,"state":"KY"},"type":"Feature","geometry":{"type":"Point","coordinates":[-83.2573083,37.91990509]}},{"properties":{"city":"CARLISLE","status":"Existing Location","latitude":38.31275262,"county":"Nicholas","zip code":"40311","hyperlink":null,"street":"231 W MAIN ST","longitude":-84.03032014,"id":"a69iq7pqof38","image":null,"state":"KY"},"type":"Feature","geometry":{"type":"Point","coordinates":[-84.03032014,38.31275262]}},{"properties":{"city":"BOONEVILLE","status":"Existing Location","latitude":37.43609281,"county":"Owsley","zip code":"41314","hyperlink":null,"street":"HIGHWAY 11","longitude":-83.67773613,"id":"a69iq7j66sn5","image":null,"state":"KY"},"type":"Feature","geometry":{"type":"Point","coordinates":[-83.67773613,37.43609281]}},{"properties":{"city":"AVAWAM","status":"Existing Location","latitude":37.23067266,"county":"Perry","zip code":"41713","hyperlink":null,"street":"7201 W KY HIGHWAY 80","longitude":-83.27009842,"id":"a69iq7jbgmkc","image":null,"state":"KY"},"type":"Feature","geometry":{"type":"Point","coordinates":[-83.27009842,37.23067266]}},{"properties":{"city":"BONNYMAN","status":"Existing Location","latitude":37.29585318,"county":"Perry","zip code":"41719","hyperlink":null,"street":"112 BONNYMAN CIR","longitude":-83.24111153,"id":"a69iq7n9t2j2","image":null,"state":"KY"},"type":"Feature","geometry":{"type":"Point","coordinates":[-83.24111153,37.29585318]}},{"properties":{"city":"BUCKHORN","status":"Existing Location","latitude":37.34680649,"county":"Perry","zip code":"41721","hyperlink":null,"street":"18540 KY HIGHWAY 28 STE 102","longitude":-83.47671937,"id":"a69iq7i6pykm","image":null,"state":"KY"},"type":"Feature","geometry":{"type":"Point","coordinates":[-83.47671937,37.34680649]}},{"properties":{"city":"BULAN","status":"Existing Location","latitude":37.28945481,"county":"Perry","zip code":"41722","hyperlink":null,"street":"4672 KY HIGHWAY 476","longitude":-83.17823695,"id":"a69iq7gy75tz","image":null,"state":"KY"},"type":"Feature","geometry":{"type":"Point","coordinates":[-83.17823695,37.28945481]}},{"properties":{"city":"CHAVIES","status":"Existing Location","latitude":37.34657936,"county":"Perry","zip code":"41727","hyperlink":null,"street":"5876 KY HIGHWAY 28","longitude":-83.35431482,"id":"a69iq7bzmi1s","image":null,"state":"KY"},"type":"Feature","geometry":{"type":"Point","coordinates":[-83.35431482,37.34657936]}},{"properties":{"city":"COMBS","status":"Existing Location","latitude":37.2651227,"county":"Perry","zip code":"41729","hyperlink":null,"street":"526 W KY HIGHWAY 80 STE 102","longitude":-83.21264625,"id":"a69iq7ogpopz","image":null,"state":"KY"},"type":"Feature","geometry":{"type":"Point","coordinates":[-83.21264625,37.2651227]}},{"properties":{"city":"CORNETTSVILLE","status":"Existing Location","latitude":37.13170391,"county":"Perry","zip code":"41731","hyperlink":null,"street":"11571 KY HIGHWAY 7","longitude":-83.07945584,"id":"a69iq7liay3w","image":null,"state":"KY"},"type":"Feature","geometry":{"type":"Point","coordinates":[-83.07945584,37.13170391]}},{"properties":{"city":"HAPPY","status":"Existing Location","latitude":37.2047551,"county":"Perry","zip code":"41746","hyperlink":null,"street":"10028 S KY HIGHWAY 15","longitude":-83.09038627,"id":"a69iq7ek5w4b","image":null,"state":"KY"},"type":"Feature","geometry":{"type":"Point","coordinates":[-83.09038627,37.2047551]}},{"properties":{"city":"JEFF","status":"Existing Location","latitude":37.20795168,"county":"Perry","zip code":"41751","hyperlink":null,"street":"136 KY HIGHWAY 7 STE 101","longitude":-83.13333571,"id":"a69iq7cb4f31","image":null,"state":"KY"},"type":"Feature","geometry":{"type":"Point","coordinates":[-83.13333571,37.20795168]}},{"properties":{"city":"VICCO","status":"Existing Location","latitude":37.2160542,"county":"Perry","zip code":"41773","hyperlink":null,"street":"301 MAIN ST","longitude":-83.06101913,"id":"a69iq7gekgpk","image":null,"state":"KY"},"type":"Feature","geometry":{"type":"Point","coordinates":[-83.06101913,37.2160542]}},{"properties":{"city":"ASHCAMP","status":"Existing Location","latitude":37.24621276,"county":"Pike","zip code":"41512","hyperlink":null,"street":"6804 ELKHORN CRK","longitude":-82.50042631,"id":"a69iq7gix9ic","image":null,"state":"KY"},"type":"Feature","geometry":{"type":"Point","coordinates":[-82.50042631,37.24621276]}},{"properties":{"city":"BELCHER","status":"Existing Location","latitude":37.34201899,"county":"Pike","zip code":"41513","hyperlink":null,"street":"14857 REGINA BELCHER HWY","longitude":-82.37611904,"id":"a69iq7fd8p0g","image":null,"state":"KY"},"type":"Feature","geometry":{"type":"Point","coordinates":[-82.37611904,37.34201899]}},{"properties":{"city":"BELFRY","status":"Existing Location","latitude":37.62258357,"county":"Pike","zip code":"41514","hyperlink":null,"street":"25320 US HIGHWAY 119 N STE 100","longitude":-82.26786919,"id":"a69iq7gjcfyb","image":null,"state":"KY"},"type":"Feature","geometry":{"type":"Point","coordinates":[-82.26786919,37.62258357]}},{"properties":{"city":"CANADA","status":"Existing Location","latitude":37.60299278,"county":"Pike","zip code":"41519","hyperlink":null,"street":"19245 E BIG CREEK RD","longitude":-82.30810642,"id":"a69iq7fng5fw","image":null,"state":"KY"},"type":"Feature","geometry":{"type":"Point","coordinates":[-82.30810642,37.60299278]}},{"properties":{"city":"DORTON","status":"Existing Location","latitude":37.27605123,"county":"Pike","zip code":"41520","hyperlink":null,"street":"87 DORTON JENKINS HWY","longitude":-82.57852986,"id":"a69iq7q7krkc","image":null,"state":"KY"},"type":"Feature","geometry":{"type":"Point","coordinates":[-82.57852986,37.27605123]}},{"properties":{"city":"ELKHORN CITY","status":"Existing Location","latitude":37.30241136,"county":"Pike","zip code":"41522","hyperlink":null,"street":"145 W RUSSELL ST","longitude":-82.35233161,"id":"a69iq7fwsxkb","image":null,"state":"KY"},"type":"Feature","geometry":{"type":"Point","coordinates":[-82.35233161,37.30241136]}},{"properties":{"city":"FEDSCREEK","status":"Existing Location","latitude":37.40126863,"county":"Pike","zip code":"41524","hyperlink":null,"street":"500 FEDSCREEK RD","longitude":-82.24145272,"id":"a69iq7i9ez4y","image":null,"state":"KY"},"type":"Feature","geometry":{"type":"Point","coordinates":[-82.24145272,37.40126863]}},{"properties":{"city":"FOREST HILLS","status":"Existing Location","latitude":37.64184753,"county":"Pike","zip code":"41527","hyperlink":null,"street":"1320 FOREST HILLS RD","longitude":-82.28247021,"id":"a69iq7ywnbif","image":null,"state":"KY"},"type":"Feature","geometry":{"type":"Point","coordinates":[-82.28247021,37.64184753]}},{"properties":{"city":"FREEBURN","status":"Existing Location","latitude":37.56349123,"county":"Pike","zip code":"41528","hyperlink":null,"street":"43903 STATE HIGHWAY 194","longitude":-82.1373868,"id":"a69iq7xzh74d","image":null,"state":"KY"},"type":"Feature","geometry":{"type":"Point","coordinates":[-82.1373868,37.56349123]}},{"properties":{"city":"HARDY","status":"Existing Location","latitude":37.61639554,"county":"Pike","zip code":"41531","hyperlink":null,"street":"2240 STATE HIGHWAY 319","longitude":-82.24233169,"id":"a69iq81tx2v3","image":null,"state":"KY"},"type":"Feature","geometry":{"type":"Point","coordinates":[-82.24233169,37.61639554]}},{"properties":{"city":"HELLIER","status":"Existing Location","latitude":37.27116312,"county":"Pike","zip code":"41534","hyperlink":null,"street":"126 ALLEGHENY RD","longitude":-82.49354015,"id":"a69iq7vk311s","image":null,"state":"KY"},"type":"Feature","geometry":{"type":"Point","coordinates":[-82.49354015,37.27116312]}},{"properties":{"city":"JONANCY","status":"Existing Location","latitude":37.31481401,"county":"Pike","zip code":"41538","hyperlink":null,"street":"3440 KY HIGHWAY 610","longitude":-82.59307814,"id":"a69iq7z8aicf","image":null,"state":"KY"},"type":"Feature","geometry":{"type":"Point","coordinates":[-82.59307814,37.31481401]}},{"properties":{"city":"KIMPER","status":"Existing Location","latitude":37.50160572,"county":"Pike","zip code":"41539","hyperlink":null,"street":"9414 STATE HIGHWAY 194","longitude":-82.35703136,"id":"a69iq7yrhp4z","image":null,"state":"KY"},"type":"Feature","geometry":{"type":"Point","coordinates":[-82.35703136,37.50160572]}},{"properties":{"city":"MAJESTIC","status":"Existing Location","latitude":37.53311483,"county":"Pike","zip code":"41547","hyperlink":null,"street":"48789 STATE HIGHWAY 194","longitude":-82.09980107,"id":"a69iq7vfd3ij","image":null,"state":"KY"},"type":"Feature","geometry":{"type":"Point","coordinates":[-82.09980107,37.53311483]}},{"properties":{"city":"MC ANDREWS","status":"Existing Location","latitude":37.57093774,"county":"Pike","zip code":"41543","hyperlink":null,"street":"2330 POND CREEK RD STE 105","longitude":-82.26793576,"id":"a69iq7w3whyv","image":null,"state":"KY"},"type":"Feature","geometry":{"type":"Point","coordinates":[-82.26793576,37.57093774]}},{"properties":{"city":"MC CARR","status":"Existing Location","latitude":37.58015806,"county":"Pike","zip code":"41544","hyperlink":null,"street":"6884 STATE HIGHWAY 319","longitude":-82.17997119,"id":"a69iq7r7w5z4","image":null,"state":"KY"},"type":"Feature","geometry":{"type":"Point","coordinates":[-82.17997119,37.58015806]}},{"properties":{"city":"MOUTHCARD","status":"Existing Location","latitude":37.37576702,"county":"Pike","zip code":"41548","hyperlink":null,"street":"23590 S LEVISA RD","longitude":-82.25151674,"id":"a69iq85rkj4l","image":null,"state":"KY"},"type":"Feature","geometry":{"type":"Point","coordinates":[-82.25151674,37.37576702]}},{"properties":{"city":"PHELPS","status":"Existing Location","latitude":37.50868487,"county":"Pike","zip code":"41553","hyperlink":null,"street":"37719 STATE HIGHWAY 194","longitude":-82.14398704,"id":"a69iq80wxreu","image":null,"state":"KY"},"type":"Feature","geometry":{"type":"Point","coordinates":[-82.14398704,37.50868487]}},{"properties":{"city":"PHYLLIS","status":"Existing Location","latitude":37.44010168,"county":"Pike","zip code":"41554","hyperlink":null,"street":"16240 GRAPEVINE RD","longitude":-82.33953753,"id":"a69iq82fd2st","image":null,"state":"KY"},"type":"Feature","geometry":{"type":"Point","coordinates":[-82.33953753,37.44010168]}},{"properties":{"city":"PIKEVILLE","status":"Existing Location","latitude":37.50002469,"county":"Pike","zip code":"41501","hyperlink":null,"street":"305 THOMPSON RD","longitude":-82.53590335,"id":"a69iq83yszhu","image":null,"state":"KY"},"type":"Feature","geometry":{"type":"Point","coordinates":[-82.53590335,37.50002469]}},{"properties":{"city":"PINSONFORK","status":"Existing Location","latitude":37.55351285,"county":"Pike","zip code":"41555","hyperlink":null,"street":"3903 POND CREEK RD","longitude":-82.26289823,"id":"a69iq847mx93","image":null,"state":"KY"},"type":"Feature","geometry":{"type":"Point","coordinates":[-82.26289823,37.55351285]}},{"properties":{"city":"RACCOON","status":"Existing Location","latitude":37.51759791,"county":"Pike","zip code":"41557","hyperlink":null,"street":"68 GRASSY BR","longitude":-82.43612298,"id":"a69iq7v455cv","image":null,"state":"KY"},"type":"Feature","geometry":{"type":"Point","coordinates":[-82.43612298,37.51759791]}},{"properties":{"city":"REGINA","status":"Existing Location","latitude":37.36831474,"county":"Pike","zip code":"41559","hyperlink":null,"street":"10051 REGINA BELCHER HWY","longitude":-82.41362586,"id":"a69iq7v2also","image":null,"state":"KY"},"type":"Feature","geometry":{"type":"Point","coordinates":[-82.41362586,37.36831474]}},{"properties":{"city":"ROBINSON CREEK","status":"Existing Location","latitude":37.38986495,"county":"Pike","zip code":"41560","hyperlink":null,"street":"6500 ROBINSON CREEK RD","longitude":-82.55716408,"id":"a69iq807fudj","image":null,"state":"KY"},"type":"Feature","geometry":{"type":"Point","coordinates":[-82.55716408,37.38986495]}},{"properties":{"city":"ROCKHOUSE","status":"Existing Location","latitude":37.3277419,"county":"Pike","zip code":"41561","hyperlink":null,"street":"4535 MARROWBONE CREEK RD","longitude":-82.45429798,"id":"a69iq7y0wkuj","image":null,"state":"KY"},"type":"Feature","geometry":{"type":"Point","coordinates":[-82.45429798,37.3277419]}},{"properties":{"city":"SHELBIANA","status":"Existing Location","latitude":37.38698144,"county":"Pike","zip code":"41562","hyperlink":null,"street":"147 LONGVIEW DR","longitude":-82.47292565,"id":"a69iq82g7vrx","image":null,"state":"KY"},"type":"Feature","geometry":{"type":"Point","coordinates":[-82.47292565,37.38698144]}},{"properties":{"city":"SIDNEY","status":"Existing Location","latitude":37.61777165,"county":"Pike","zip code":"41564","hyperlink":null,"street":"17340 E BIG CREEK RD","longitude":-82.35113775,"id":"a69iq7sfezdb","image":null,"state":"KY"},"type":"Feature","geometry":{"type":"Point","coordinates":[-82.35113775,37.61777165]}},{"properties":{"city":"STEELE","status":"Existing Location","latitude":37.39168048,"county":"Pike","zip code":"41566","hyperlink":null,"street":"2308 FEDSCREEK RD","longitude":-82.21384798,"id":"a69iq7vml4y6","image":null,"state":"KY"},"type":"Feature","geometry":{"type":"Point","coordinates":[-82.21384798,37.39168048]}},{"properties":{"city":"STOPOVER","status":"Existing Location","latitude":37.51684343,"county":"Pike","zip code":"41568","hyperlink":null,"street":"50351 STATE HIGHWAY 194","longitude":-82.09482879,"id":"a69iq81gx9vy","image":null,"state":"KY"},"type":"Feature","geometry":{"type":"Point","coordinates":[-82.09482879,37.51684343]}},{"properties":{"city":"VIRGIE","status":"Existing Location","latitude":37.3278429,"county":"Pike","zip code":"41572","hyperlink":null,"street":"1070 KY HIGHWAY 610","longitude":-82.58760967,"id":"a69iq7w8nfvv","image":null,"state":"KY"},"type":"Feature","geometry":{"type":"Point","coordinates":[-82.58760967,37.3278429]}},{"properties":{"city":"CLAY CITY","status":"Existing Location","latitude":37.86411607,"county":"Powell","zip code":"40312","hyperlink":null,"street":"70 RIVER ST","longitude":-83.93421583,"id":"a69iq83wfvzl","image":null,"state":"KY"},"type":"Feature","geometry":{"type":"Point","coordinates":[-83.93421583,37.86411607]}},{"properties":{"city":"STANTON","status":"Existing Location","latitude":37.84493948,"county":"Powell","zip code":"40380","hyperlink":null,"street":"165 S SIPPLE ST","longitude":-83.85961959,"id":"a69iq7tt9z10","image":null,"state":"KY"},"type":"Feature","geometry":{"type":"Point","coordinates":[-83.85961959,37.84493948]}},{"properties":{"city":"BRONSTON","status":"Existing Location","latitude":36.97638548,"county":"Pulaski","zip code":"42518","hyperlink":null,"street":"1801 HIGHWAY 90","longitude":-84.66821365,"id":"a69iq84l0qfs","image":null,"state":"KY"},"type":"Feature","geometry":{"type":"Point","coordinates":[-84.66821365,36.97638548]}},{"properties":{"city":"BURNSIDE","status":"Existing Location","latitude":36.98782315,"county":"Pulaski","zip code":"42519","hyperlink":null,"street":"8250 S HIGHWAY 27","longitude":-84.59765552,"id":"a69iq87j5u3l","image":null,"state":"KY"},"type":"Feature","geometry":{"type":"Point","coordinates":[-84.59765552,36.98782315]}},{"properties":{"city":"EUBANK","status":"Existing Location","latitude":37.26984707,"county":"Pulaski","zip code":"42567","hyperlink":null,"street":"15058 N HIGHWAY 1247","longitude":-84.65616208,"id":"a69iq87np4hr","image":null,"state":"KY"},"type":"Feature","geometry":{"type":"Point","coordinates":[-84.65616208,37.26984707]}},{"properties":{"city":"FERGUSON","status":"Existing Location","latitude":37.06802497,"county":"Pulaski","zip code":"42533","hyperlink":null,"street":"522 JACKSBORO ST","longitude":-84.60375638,"id":"a69iq817kltt","image":null,"state":"KY"},"type":"Feature","geometry":{"type":"Point","coordinates":[-84.60375638,37.06802497]}},{"properties":{"city":"NANCY","status":"Existing Location","latitude":37.12899549,"county":"Pulaski","zip code":"42544","hyperlink":null,"street":"9150 W HIGHWAY 80","longitude":-84.8938512,"id":"a69iq870l6rn","image":null,"state":"KY"},"type":"Feature","geometry":{"type":"Point","coordinates":[-84.8938512,37.12899549]}},{"properties":{"city":"SCIENCE HILL","status":"Existing Location","latitude":37.17812914,"county":"Pulaski","zip code":"42553","hyperlink":null,"street":"735 CENTRAL AVE","longitude":-84.6346242,"id":"a69iq7xgapl7","image":null,"state":"KY"},"type":"Feature","geometry":{"type":"Point","coordinates":[-84.6346242,37.17812914]}},{"properties":{"city":"SOMERSET","status":"Existing Location","latitude":37.09410046,"county":"Pulaski","zip code":"42501","hyperlink":null,"street":"119 N MAPLE ST","longitude":-84.60414007,"id":"a69iq7xuijlu","image":null,"state":"KY"},"type":"Feature","geometry":{"type":"Point","coordinates":[-84.60414007,37.09410046]}},{"properties":{"city":"MOUNT OLIVET","status":"Existing Location","latitude":38.53493048,"county":"Robertson","zip code":"41064","hyperlink":null,"street":"7 N MAIN ST","longitude":-84.03212982,"id":"a69iq83p6lvt","image":null,"state":"KY"},"type":"Feature","geometry":{"type":"Point","coordinates":[-84.03212982,38.53493048]}},{"properties":{"city":"BRODHEAD","status":"Existing Location","latitude":37.40399554,"county":"Rockcastle","zip code":"40409","hyperlink":null,"street":"170 W MAIN ST","longitude":-84.41748487,"id":"a69iq86etbuk","image":null,"state":"KY"},"type":"Feature","geometry":{"type":"Point","coordinates":[-84.41748487,37.40399554]}},{"properties":{"city":"LIVINGSTON","status":"Existing Location","latitude":37.29398385,"county":"Rockcastle","zip code":"40445","hyperlink":null,"street":"9121 MAIN ST","longitude":-84.22053793,"id":"a69iq7y37pt7","image":null,"state":"KY"},"type":"Feature","geometry":{"type":"Point","coordinates":[-84.22053793,37.29398385]}},{"properties":{"city":"MOUNT VERNON","status":"Existing Location","latitude":37.35799592,"county":"Rockcastle","zip code":"40456","hyperlink":null,"street":"380 RICHMOND ST","longitude":-84.33887638,"id":"a69iq7zc3p9s","image":null,"state":"KY"},"type":"Feature","geometry":{"type":"Point","coordinates":[-84.33887638,37.35799592]}},{"properties":{"city":"CLEARFIELD","status":"Existing Location","latitude":38.16146901,"county":"Rowan","zip code":"40313","hyperlink":null,"street":"519 KY HIGHWAY 519","longitude":-83.42853945,"id":"a69iq80aa1p7","image":null,"state":"KY"},"type":"Feature","geometry":{"type":"Point","coordinates":[-83.42853945,38.16146901]}},{"properties":{"city":"ELLIOTTVILLE","status":"Existing Location","latitude":38.18334155,"county":"Rowan","zip code":"40317","hyperlink":null,"street":"8061 CHRISTY CREEK RD","longitude":-83.27786242,"id":"a69iq833aat9","image":null,"state":"KY"},"type":"Feature","geometry":{"type":"Point","coordinates":[-83.27786242,38.18334155]}},{"properties":{"city":"FARMERS","status":"Existing Location","latitude":38.14217117,"county":"Rowan","zip code":"40319","hyperlink":null,"street":"7355 US HIGHWAY 60","longitude":-83.54611948,"id":"a69iq84itftn","image":null,"state":"KY"},"type":"Feature","geometry":{"type":"Point","coordinates":[-83.54611948,38.14217117]}},{"properties":{"city":"MOREHEAD","status":"Existing Location","latitude":38.17516471,"county":"Rowan","zip code":"40351","hyperlink":null,"street":"700 W 1ST ST","longitude":-83.43800332,"id":"a69iq7sk3oux","image":null,"state":"KY"},"type":"Feature","geometry":{"type":"Point","coordinates":[-83.43800332,38.17516471]}},{"properties":{"city":"JAMESTOWN","status":"Existing Location","latitude":36.99325359,"county":"Russell","zip code":"42629","hyperlink":null,"street":"66 FAIR OAKS DR","longitude":-85.06905154,"id":"a69iq7smkpao","image":null,"state":"KY"},"type":"Feature","geometry":{"type":"Point","coordinates":[-85.06905154,36.99325359]}},{"properties":{"city":"RUSSELL SPRINGS","status":"Existing Location","latitude":37.04945887,"county":"Russell","zip code":"42642","hyperlink":null,"street":"414 MAIN ST","longitude":-85.09410237,"id":"a69iq7tu44sd","image":null,"state":"KY"},"type":"Feature","geometry":{"type":"Point","coordinates":[-85.09410237,37.04945887]}},{"properties":{"city":"MONTICELLO","status":"Existing Location","latitude":36.8555257,"county":"Wayne","zip code":"42633","hyperlink":null,"street":"65 BARNES DR","longitude":-84.84593574,"id":"a69iq80q82md","image":null,"state":"KY"},"type":"Feature","geometry":{"type":"Point","coordinates":[-84.84593574,36.8555257]}},{"properties":{"city":"CORBIN","status":"Existing Location","latitude":36.94973256,"county":"Whitley","zip code":"40701","hyperlink":null,"street":"301 ROY KIDD AVE","longitude":-84.09451413,"id":"a69iq7xdbksi","image":null,"state":"KY"},"type":"Feature","geometry":{"type":"Point","coordinates":[-84.09451413,36.94973256]}},{"properties":{"city":"EMLYN","status":"Existing Location","latitude":36.70233235,"county":"Whitley","zip code":"40730","hyperlink":null,"street":"3052 US HIGHWAY 25","longitude":-84.1448679,"id":"a69iq7us51gv","image":null,"state":"KY"},"type":"Feature","geometry":{"type":"Point","coordinates":[-84.1448679,36.70233235]}},{"properties":{"city":"ROCKHOLDS","status":"Existing Location","latitude":36.82861725,"county":"Whitley","zip code":"40759","hyperlink":null,"street":"31 TYES FERRY RD","longitude":-84.11066224,"id":"a69iq7yrbvvf","image":null,"state":"KY"},"type":"Feature","geometry":{"type":"Point","coordinates":[-84.11066224,36.82861725]}},{"properties":{"city":"WILLIAMSBURG","status":"Existing Location","latitude":36.73061556,"county":"Whitley","zip code":"40769","hyperlink":null,"street":"1000 N HIGHWAY 25","longitude":-84.15635585,"id":"a69iq86hp0w1","image":null,"state":"KY"},"type":"Feature","geometry":{"type":"Point","coordinates":[-84.15635585,36.73061556]}},{"properties":{"city":"WOODBINE","status":"Existing Location","latitude":36.90435166,"county":"Whitley","zip code":"40771","hyperlink":null,"street":"34 N ARCHER ST","longitude":-84.0880774,"id":"a69iq84rbbz0","image":null,"state":"KY"},"type":"Feature","geometry":{"type":"Point","coordinates":[-84.0880774,36.90435166]}},{"properties":{"city":"CAMPTON","status":"Existing Location","latitude":37.7323717,"county":"Wolfe","zip code":"41301","hyperlink":null,"street":"175 MOUNTAIN PARKWAY SPUR","longitude":-83.55066771,"id":"a69iq7sz2eab","image":null,"state":"KY"},"type":"Feature","geometry":{"type":"Point","coordinates":[-83.55066771,37.7323717]}},{"properties":{"city":"HAZEL GREEN","status":"Existing Location","latitude":37.76436183,"county":"Wolfe","zip code":"41332","hyperlink":"<a href=\"https://appalachiancenter.as.uky.edu/post-office-work\">Hazel Green</a>","street":"10491 KY HIGHWAY 191","longitude":-83.33351666,"id":"a69iq7w2b6pf","image":"Post Office","state":"KY"},"type":"Feature","geometry":{"type":"Point","coordinates":[-83.33351666,37.76436183]}},{"properties":{"city":"STRUNK","status":"Existing Location","latitude":36.62614118,"county":"McCreary","zip code":"42649","hyperlink":null,"street":"271 STRUNK HWY","longitude":-84.43616642,"id":"a69iq7vi535y","image":null,"state":"KY"},"type":"Feature","geometry":{"type":"Point","coordinates":[-84.43616642,36.62614118]}},{"properties":{"city":"REVELO","status":"Existing Location","latitude":36.68345127,"county":"McCreary","zip code":"42638","hyperlink":null,"street":"3715 S HIGHWAY 1651","longitude":-84.4688382,"id":"a69iq82oc6pz","image":null,"state":"KY"},"type":"Feature","geometry":{"type":"Point","coordinates":[-84.4688382,36.68345127]}},{"properties":{"city":"MARSHES SIDING","status":"Existing Location","latitude":36.74348216,"county":"McCreary","zip code":"42631","hyperlink":null,"street":"23 ALUN RD","longitude":-84.48156636,"id":"a69iq80c3b08","image":null,"state":"KY"},"type":"Feature","geometry":{"type":"Point","coordinates":[-84.48156636,36.74348216]}}],"is_temporal":false,"author":{"url":"http://www.usps.com","metadata":"","contact_name":"University of Kentucky Appalachian Center","contact_address":"","source":"USPS - The United States Postal Service","contact_phone":"(859) 257-4852"},"source":"http://www.usps.com","pagination":{"sort":null,"start":0,"total":260,"limit":1000000},"state":"complete","tags":"","published":"2012-06-08T02:07:17Z","id":249664}