{"type":"FeatureCollection","data_type":"Dataset","url_type":null,"permissions":[{"permissions":{"download":true,"view":true},"group_id":"everyone"}],"classification":null,"title":"REO_Dist_FNMA_MTD_JUNE_11","count":62,"stream_id":250721,"contributor":{"url":"http://geocommons.com/users/39447","name":"sam.felipe"},"data_attributes":null,"calculation_params":null,"icon_link":null,"link":"http://geocommons.com/overlays/250721.json","extent":[-122.245,32.6072,-91.698,42.9301],"geometry_types":["point"],"unique_name":null,"name":"REO_Dist_FNMA_MTD_JUNE_11","feature_count":62,"description":"","next_feature":null,"is_raster":false,"short_classification":"Y","stats":{"filenumber":{"max":470329,"variance":250314303.495769,"mean":454654.564516129,"stdev":15821.3243281266,"min":388654,"median":458845},"id":{"max":14537,"variance":12840699.454257,"mean":10466.3870967742,"stdev":3583.39217142877,"min":166,"median":11464}},"features":[{"properties":{"city":"Chula Vista","createddate":"11/17/2011 18:59","iscurativefile":"TRUE","zip":"91911","openeddate":"11/15/2011 0:00","referringcustomerfilenumber":"L111KGX","outofstatestatus":"Not Applicable","task completed date":"6/1/2012","region":"So. California","countyname":"San Diego","closeddate":"7/13/2012 0:00","isclosed":"FALSE","geo_score":0.902,"id":"a6cmdo7u4290","filenumber":424961,"filetransactiontype":"Title &amp; Escrow","escrowofficername":"Christine Waider","titleunit":"CA CPU Title-Kevin","referringcustomer":"FNMA","primarycurativetech":"Rebecca Kepple","contract in task":"Contract In Tasks","secondarycurativetech":"Anthony Martinez","branchoffice":"Mission Valley","isescalated":"FALSE","address":"251 East Rienstra Street","propertyaddressline2":null,"filenotes":null,"geo_precision":"range","state":"California"},"type":"Feature","geometry":{"type":"Point","coordinates":[-117.042492,32.607185]}},{"properties":{"city":"Sacramento","createddate":"11/19/2011 14:24","iscurativefile":"TRUE","zip":"95842","openeddate":"11/15/2011 0:00","referringcustomerfilenumber":"L111DMH","outofstatestatus":"Not Applicable","task completed date":"6/7/2012","region":"South Northern California","countyname":"Sacramento","closeddate":"11/19/2012 0:00","isclosed":"FALSE","geo_score":0.857,"id":"a6cmdo9z4liz","filenumber":423864,"filetransactiontype":"Title &amp; Escrow","escrowofficername":"Holly Weston","titleunit":"CA CPU Title-Kevin","referringcustomer":"FNMA","primarycurativetech":"Rose Digdigan","contract in task":"Contract In Tasks","secondarycurativetech":"Jenny Martinez","branchoffice":"Turlock","isescalated":"FALSE","address":"5154 Karm Way (Sacramento Area)","propertyaddressline2":null,"filenotes":null,"geo_precision":"street","state":"California"},"type":"Feature","geometry":{"type":"Point","coordinates":[-121.344596,38.691475]}},{"properties":{"city":"Chula Vista","createddate":"11/22/2011 10:42","iscurativefile":"TRUE","zip":"91910","openeddate":"6/3/2011 0:00","referringcustomerfilenumber":"L100QY8","outofstatestatus":"Not Applicable","task completed date":"6/1/2012","region":"So. California","countyname":"San Diego","closeddate":"7/6/2012 0:00","isclosed":"FALSE","geo_score":0.805,"id":"a6cmdoavt5me","filenumber":388654,"filetransactiontype":"Title &amp; Escrow","escrowofficername":"Irene Casey","titleunit":"CA CPU Title-Kevin","referringcustomer":"FNMA","primarycurativetech":"Rebecca Kepple","contract in task":"Contract In Tasks","secondarycurativetech":"Paula Finley","branchoffice":"Carlsbad","isescalated":"FALSE","address":"613  1ST AVENUE","propertyaddressline2":null,"filenotes":null,"geo_precision":"range","state":"California"},"type":"Feature","geometry":{"type":"Point","coordinates":[-117.067518,32.632712]}},{"properties":{"city":"Concord","createddate":"11/29/2011 17:54","iscurativefile":"TRUE","zip":"94518","openeddate":"10/4/2011 0:00","referringcustomerfilenumber":"L1117FN","outofstatestatus":"Not Applicable","task completed date":"6/7/2012","region":"North Northern California","countyname":"Contra Costa","closeddate":"7/20/2012 0:00","isclosed":"FALSE","geo_score":0.835,"id":"a6cmdo5ium61","filenumber":416968,"filetransactiontype":"Title &amp; Escrow","escrowofficername":"Rheanna Gieseking","titleunit":"CA CPU Title-Kevin","referringcustomer":"FNMA","primarycurativetech":"Paula Finley","contract in task":"Contract In Tasks","secondarycurativetech":"Jenny Martinez","branchoffice":"Danville","isescalated":"FALSE","address":"945 Bancroft Road 218","propertyaddressline2":null,"filenotes":null,"geo_precision":"range","state":"California"},"type":"Feature","geometry":{"type":"Point","coordinates":[-122.050691,37.938259]}},{"properties":{"city":"Citrus Heights","createddate":"12/14/2011 12:29","iscurativefile":"TRUE","zip":"95621","openeddate":"12/14/2011 0:00","referringcustomerfilenumber":"L1114CS","outofstatestatus":"Not Applicable","task completed date":"6/6/2012","region":"South Northern California","countyname":"Out of State","closeddate":"6/11/2012 0:00","isclosed":"FALSE","geo_score":0.902,"id":"a6cmdo96s2kv","filenumber":432347,"filetransactiontype":"Title &amp; Escrow","escrowofficername":"Denise Fall","titleunit":"CA CPU Title-Kevin","referringcustomer":"FNMA","primarycurativetech":"Kim Brown","contract in task":"Contract In Tasks","secondarycurativetech":"Jenny Martinez","branchoffice":"Modesto","isescalated":"FALSE","address":"6613 Melbourne Way","propertyaddressline2":null,"filenotes":null,"geo_precision":"range","state":"California"},"type":"Feature","geometry":{"type":"Point","coordinates":[-121.311655,38.686081]}},{"properties":{"city":"SACRAMENTO","createddate":"1/11/2012 11:00","iscurativefile":"FALSE","zip":"95825","openeddate":"6/30/2011 0:00","referringcustomerfilenumber":"L1105P6","outofstatestatus":"Not Applicable","task completed date":"6/1/2012","region":"South Northern California","countyname":"Sacramento","closeddate":"6/6/2012 0:00","isclosed":"FALSE","geo_score":0.844,"id":"a6cmdoc96qgn","filenumber":394525,"filetransactiontype":"Title &amp; Escrow","escrowofficername":"Denise Fall","titleunit":"CA CPU Title-Kevin","referringcustomer":"FNMA","primarycurativetech":"Sandra Robinson","contract in task":"Contract In Tasks","secondarycurativetech":"Rose Digdigan","branchoffice":"Modesto","isescalated":"FALSE","address":"3117 VALENCIA WAY","propertyaddressline2":null,"filenotes":null,"geo_precision":"range","state":"California"},"type":"Feature","geometry":{"type":"Point","coordinates":[-121.39192,38.608842]}},{"properties":{"city":"San Jose","createddate":"1/31/2012 11:21","iscurativefile":"TRUE","zip":"95135","openeddate":"1/31/2012 0:00","referringcustomerfilenumber":"L110YD1","outofstatestatus":"Not Applicable","task completed date":"6/7/2012","region":"South Northern California","countyname":"Santa Clara","closeddate":"6/25/2012 0:00","isclosed":"FALSE","geo_score":0.902,"id":"a6cmdocg4l5z","filenumber":442017,"filetransactiontype":"Title &amp; Escrow","escrowofficername":"Gina Gemma","titleunit":"CA CPU Title-Kevin","referringcustomer":"FNMA","primarycurativetech":"Kim Brown","contract in task":"Contract In Tasks","secondarycurativetech":"Jenny Martinez","branchoffice":"Los Gatos","isescalated":"FALSE","address":"8505 Grenache Court","propertyaddressline2":null,"filenotes":null,"geo_precision":"range","state":"California"},"type":"Feature","geometry":{"type":"Point","coordinates":[-121.752548,37.281854]}},{"properties":{"city":"Simi Valley","createddate":"2/1/2012 16:48","iscurativefile":"TRUE","zip":"93063","openeddate":"2/1/2012 0:00","referringcustomerfilenumber":"L1200HM","outofstatestatus":"Not Applicable","task completed date":"6/7/2012","region":"Los Angeles - Ventura California","countyname":"Ventura","closeddate":"7/13/2012 0:00","isclosed":"FALSE","geo_score":0.814,"id":"a6cmdo6l5ord","filenumber":442841,"filetransactiontype":"Title &amp; Escrow","escrowofficername":"Julie Mayorga","titleunit":"CA CPU Title-Kevin","referringcustomer":"FNMA","primarycurativetech":"Kim Brown","contract in task":"Contract In Tasks","secondarycurativetech":"Rebecca Kepple","branchoffice":"City of Industry","isescalated":"FALSE","address":"2177 Sequoia Avenue","propertyaddressline2":null,"filenotes":null,"geo_precision":"range","state":"California"},"type":"Feature","geometry":{"type":"Point","coordinates":[-118.730517,34.275728]}},{"properties":{"city":"Long Beach","createddate":"2/15/2012 13:01","iscurativefile":"TRUE","zip":"90810","openeddate":"2/15/2012 0:00","referringcustomerfilenumber":"L111Q1Y","outofstatestatus":"Not Applicable","task completed date":"6/8/2012","region":"Los Angeles - Ventura California","countyname":"Los Angeles","closeddate":"6/22/2012 0:00","isclosed":"FALSE","geo_score":0.833,"id":"a6cmdod3xamz","filenumber":446188,"filetransactiontype":"Title &amp; Escrow","escrowofficername":"Adriana Ponce","titleunit":"CA CPU Title-Kevin","referringcustomer":"FNMA","primarycurativetech":"Jenny Martinez","contract in task":"Contract In Tasks","secondarycurativetech":"Rebecca Kepple","branchoffice":"City of Industry","isescalated":"FALSE","address":"3605 Baltic Avenue","propertyaddressline2":null,"filenotes":null,"geo_precision":"range","state":"California"},"type":"Feature","geometry":{"type":"Point","coordinates":[-118.21357,33.821396]}},{"properties":{"city":"Rosemead","createddate":"2/23/2012 12:37","iscurativefile":"TRUE","zip":"91770","openeddate":"2/23/2012 0:00","referringcustomerfilenumber":"L110YXM","outofstatestatus":"Not Applicable","task completed date":"6/5/2012","region":"Los Angeles - Ventura California","countyname":"Los Angeles","closeddate":"7/6/2012 0:00","isclosed":"FALSE","geo_score":0.824,"id":"a6cmdodo4lfq","filenumber":447963,"filetransactiontype":"Title &amp; Escrow","escrowofficername":"Adriana Ponce","titleunit":"CA CPU Title-Kevin","referringcustomer":"FNMA","primarycurativetech":"Rebecca Kepple","contract in task":"Contract In Tasks","secondarycurativetech":"Rose Digdigan","branchoffice":"City of Industry","isescalated":"FALSE","address":"9319 Pitkin Street","propertyaddressline2":null,"filenotes":null,"geo_precision":"range","state":"California"},"type":"Feature","geometry":{"type":"Point","coordinates":[-118.064916,34.086971]}},{"properties":{"city":"Lodi","createddate":"2/28/2012 12:24","iscurativefile":"TRUE","zip":"95240","openeddate":"2/28/2012 0:00","referringcustomerfilenumber":"L1203W0","outofstatestatus":"Not Applicable","task completed date":"6/8/2012","region":"South Northern California","countyname":"San Joaquin","closeddate":"7/25/2012 0:00","isclosed":"FALSE","geo_score":0.542,"id":"a6cmdo23sei5","filenumber":449016,"filetransactiontype":"Title &amp; Escrow","escrowofficername":"Debra Greene","titleunit":"CA CPU Title-Kevin","referringcustomer":"FNMA","primarycurativetech":"Kim Brown","contract in task":"Contract In Tasks","secondarycurativetech":"Paula Finley","branchoffice":"Modesto","isescalated":"FALSE","address":"445 Almond Drive Apt. 65","propertyaddressline2":null,"filenotes":null,"geo_precision":"street","state":"California"},"type":"Feature","geometry":{"type":"Point","coordinates":[-121.269595,38.111042]}},{"properties":{"city":"Lancaster","createddate":"2/29/2012 11:55","iscurativefile":"TRUE","zip":"92536","openeddate":"2/29/2012 0:00","referringcustomerfilenumber":"L12030X","outofstatestatus":"Not Applicable","task completed date":"6/7/2012","region":"Los Angeles - Ventura California","countyname":"Los Angeles","closeddate":"7/18/2012 0:00","isclosed":"FALSE","geo_score":0.473,"id":"a6cmdob02x74","filenumber":449364,"filetransactiontype":"Title &amp; Escrow","escrowofficername":"Julie Mayorga","titleunit":"CA CPU Title-Kevin","referringcustomer":"FNMA","primarycurativetech":"Jenny Martinez","contract in task":"Contract In Tasks","secondarycurativetech":"Kim Brown","branchoffice":"City of Industry","isescalated":"FALSE","address":"6202 West Ave J5","propertyaddressline2":null,"filenotes":null,"geo_precision":"street","state":"California"},"type":"Feature","geometry":{"type":"Point","coordinates":[-117.306526,33.896633]}},{"properties":{"city":"Mira Loma","createddate":"3/5/2012 15:36","iscurativefile":"TRUE","zip":"91752","openeddate":"3/5/2012 0:00","referringcustomerfilenumber":"L1203B6","outofstatestatus":"Not Applicable","task completed date":"6/8/2012","region":"Inland Empire","countyname":"Riverside","closeddate":"7/16/2012 0:00","isclosed":"FALSE","geo_score":0.829,"id":"a6cmdo2d1ld6","filenumber":450518,"filetransactiontype":"Title &amp; Escrow","escrowofficername":"Nyna Ensign","titleunit":"CA CPU Title-Kevin","referringcustomer":"FNMA","primarycurativetech":"Sandra Robinson","contract in task":"Contract In Tasks","secondarycurativetech":"Jenny Martinez","branchoffice":"Riverside","isescalated":"FALSE","address":"11673 Del Sur Drive","propertyaddressline2":null,"filenotes":null,"geo_precision":"range","state":"California"},"type":"Feature","geometry":{"type":"Point","coordinates":[-117.537872,33.976235]}},{"properties":{"city":"Sacramento","createddate":"3/5/2012 15:45","iscurativefile":"TRUE","zip":"95821","openeddate":"3/5/2012 0:00","referringcustomerfilenumber":"L12034X","outofstatestatus":"Not Applicable","task completed date":"6/4/2012","region":"South Northern California","countyname":"Sacramento","closeddate":"6/25/2012 0:00","isclosed":"FALSE","geo_score":0.834,"id":"a6cmdo78et5c","filenumber":450522,"filetransactiontype":"Title &amp; Escrow","escrowofficername":"Karen Talbot","titleunit":"CA CPU Title-Kevin","referringcustomer":"FNMA","primarycurativetech":"Rebecca Kepple","contract in task":"Contract In Tasks","secondarycurativetech":"Sandra Robinson","branchoffice":"Santa Cruz","isescalated":"FALSE","address":"3718 Eastern Avenue","propertyaddressline2":null,"filenotes":null,"geo_precision":"range","state":"California"},"type":"Feature","geometry":{"type":"Point","coordinates":[-121.364578,38.632926]}},{"properties":{"city":"Hesperia","createddate":"3/5/2012 15:49","iscurativefile":"TRUE","zip":"92344","openeddate":"3/5/2012 0:00","referringcustomerfilenumber":"L1203PC","outofstatestatus":"Not Applicable","task completed date":"6/11/2012","region":"Inland Empire","countyname":"San Bernardino","closeddate":"7/18/2012 0:00","isclosed":"FALSE","geo_score":0.537,"id":"a6cmdo1hos6l","filenumber":450524,"filetransactiontype":"Title &amp; Escrow","escrowofficername":"Pamela San Millan","titleunit":"CA CPU Title-Kevin","referringcustomer":"FNMA","primarycurativetech":"Rose Digdigan","contract in task":"Contract In Tasks","secondarycurativetech":"Anthony Martinez","branchoffice":"Victorville","isescalated":"FALSE","address":"8530 Dove Creek Trail","propertyaddressline2":null,"filenotes":null,"geo_precision":"street","state":"California"},"type":"Feature","geometry":{"type":"Point","coordinates":[-91.697953,42.930129]}},{"properties":{"city":"Palmdale","createddate":"3/9/2012 12:51","iscurativefile":"TRUE","zip":"93550","openeddate":"3/9/2012 0:00","referringcustomerfilenumber":"L110SPJ","outofstatestatus":"Not Applicable","task completed date":"6/5/2012","region":"Los Angeles - Ventura California","countyname":"Los Angeles","closeddate":"7/6/2012 0:00","isclosed":"FALSE","geo_score":0.805,"id":"a6cmdo2l6g75","filenumber":451869,"filetransactiontype":"Title &amp; Escrow","escrowofficername":"Angela Hum","titleunit":"CA CPU Title-Kevin","referringcustomer":"FNMA","primarycurativetech":"Kim Brown","contract in task":"Contract In Tasks","secondarycurativetech":"Paula Finley","branchoffice":"Glendale","isescalated":"FALSE","address":"37751 Dixie Drive","propertyaddressline2":null,"filenotes":null,"geo_precision":"range","state":"California"},"type":"Feature","geometry":{"type":"Point","coordinates":[-118.126566,34.566006]}},{"properties":{"city":"Beaumont","createddate":"3/13/2012 12:01","iscurativefile":"TRUE","zip":"92223","openeddate":"3/13/2012 0:00","referringcustomerfilenumber":"L1201JC","outofstatestatus":"Not Applicable","task completed date":"6/4/2012","region":"Inland Empire","countyname":"Riverside","closeddate":"7/1/2012 0:00","isclosed":"FALSE","geo_score":0.709,"id":"a6cmdo6kx95t","filenumber":452521,"filetransactiontype":"Title &amp; Escrow","escrowofficername":"(Patti) Patricia Carver","titleunit":"CA CPU Title-Kevin","referringcustomer":"FNMA","primarycurativetech":"Rebecca Kepple","contract in task":"Contract In Tasks","secondarycurativetech":"Sandra Robinson","branchoffice":"Riverside","isescalated":"FALSE","address":"34 Helen Avenue","propertyaddressline2":null,"filenotes":null,"geo_precision":"street","state":"California"},"type":"Feature","geometry":{"type":"Point","coordinates":[-115.964186,33.269216]}},{"properties":{"city":"Riverside","createddate":"3/20/2012 13:14","iscurativefile":"FALSE","zip":"92509","openeddate":"3/20/2012 0:00","referringcustomerfilenumber":"L111JK6","outofstatestatus":"Not Applicable","task completed date":"6/11/2012","region":"Inland Empire","countyname":"Riverside","closeddate":"7/20/2012 0:00","isclosed":"FALSE","geo_score":0.824,"id":"a6cmdo3iv4ga","filenumber":454227,"filetransactiontype":"Title &amp; Escrow","escrowofficername":"(Patti) Patricia Carver","titleunit":"CA CPU Title-Kevin","referringcustomer":"FNMA","primarycurativetech":"Rebecca Kepple","contract in task":"Contract In Tasks","secondarycurativetech":"Paula Finley","branchoffice":"Murrieta","isescalated":"FALSE","address":"7861 Live Oak Drive","propertyaddressline2":null,"filenotes":null,"geo_precision":"range","state":"California"},"type":"Feature","geometry":{"type":"Point","coordinates":[-117.455361,33.989229]}},{"properties":{"city":"Saugus","createddate":"3/20/2012 13:36","iscurativefile":"TRUE","zip":"91350","openeddate":"3/20/2012 0:00","referringcustomerfilenumber":"L111Q32","outofstatestatus":"Not Applicable","task completed date":"6/6/2012","region":"Los Angeles - Ventura California","countyname":"Los Angeles","closeddate":"7/11/2012 0:00","isclosed":"FALSE","geo_score":0.82,"id":"a6cmdo18vl0f","filenumber":454230,"filetransactiontype":"Title &amp; Escrow","escrowofficername":"Angela Hum","titleunit":"CA CPU Title-Kevin","referringcustomer":"FNMA","primarycurativetech":"Kim Brown","contract in task":"Contract In Tasks","secondarycurativetech":"Rose Digdigan","branchoffice":"Glendale","isescalated":"FALSE","address":"27935 Pinebank Drive","propertyaddressline2":null,"filenotes":null,"geo_precision":"range","state":"California"},"type":"Feature","geometry":{"type":"Point","coordinates":[-118.501642,34.448978]}},{"properties":{"city":"Reseda","createddate":"3/20/2012 13:59","iscurativefile":"TRUE","zip":"91335","openeddate":"3/20/2012 0:00","referringcustomerfilenumber":"L111CMS","outofstatestatus":"Not Applicable","task completed date":"6/4/2012","region":"Los Angeles - Ventura California","countyname":"Los Angeles","closeddate":"6/30/2012 0:00","isclosed":"FALSE","geo_score":0.902,"id":"a6cmdo20nwoh","filenumber":454266,"filetransactiontype":"Title &amp; Escrow","escrowofficername":"Julie Mayorga","titleunit":"CA CPU Title-Kevin","referringcustomer":"FNMA","primarycurativetech":"Rose Digdigan","contract in task":"Contract In Tasks","secondarycurativetech":"Kim Brown","branchoffice":"City of Industry","isescalated":"FALSE","address":"7814 Wilbur Avenue","propertyaddressline2":null,"filenotes":null,"geo_precision":"range","state":"California"},"type":"Feature","geometry":{"type":"Point","coordinates":[-118.544799,34.212264]}},{"properties":{"city":"San Diego","createddate":"3/26/2012 12:58","iscurativefile":"TRUE","zip":"92110","openeddate":"3/26/2012 0:00","referringcustomerfilenumber":"L1202DK","outofstatestatus":"Not Applicable","task completed date":"6/8/2012","region":"So. California","countyname":"San Bernardino","closeddate":"7/24/2012 0:00","isclosed":"FALSE","geo_score":0.902,"id":"a6cmdo6txn7u","filenumber":455616,"filetransactiontype":"Title &amp; Escrow","escrowofficername":"Irene Casey","titleunit":"CA CPU Title-Kevin","referringcustomer":"FNMA","primarycurativetech":"Kim Brown","contract in task":"Contract In Tasks","secondarycurativetech":"Rose Digdigan","branchoffice":"Carlsbad","isescalated":"FALSE","address":"2330 Chicago Street","propertyaddressline2":null,"filenotes":null,"geo_precision":"range","state":"California"},"type":"Feature","geometry":{"type":"Point","coordinates":[-117.205203,32.786221]}},{"properties":{"city":"Lincoln","createddate":"3/27/2012 12:00","iscurativefile":"TRUE","zip":"95648","openeddate":"3/27/2012 0:00","referringcustomerfilenumber":"L1205XL","outofstatestatus":"Not Applicable","task completed date":"6/7/2012","region":"South Northern California","countyname":"Placer","closeddate":"7/9/2012 0:00","isclosed":"FALSE","geo_score":0.649,"id":"a6cmdod9j1jz","filenumber":455960,"filetransactiontype":"Title &amp; Escrow","escrowofficername":"Vicki Gardea","titleunit":"CA CPU Title-Kevin","referringcustomer":"FNMA","primarycurativetech":"Rose Digdigan","contract in task":"Contract In Tasks","secondarycurativetech":"Jenny Martinez","branchoffice":"Modesto","isescalated":"FALSE","address":"1703 Montrose Lane","propertyaddressline2":null,"filenotes":null,"geo_precision":"street","state":"California"},"type":"Feature","geometry":{"type":"Point","coordinates":[-121.160409,38.681717]}},{"properties":{"city":"Gilroy","createddate":"3/27/2012 12:20","iscurativefile":"TRUE","zip":"95020","openeddate":"3/27/2012 0:00","referringcustomerfilenumber":"L111RDQ","outofstatestatus":"Not Applicable","task completed date":"6/7/2012","region":"South Northern California","countyname":"Santa Clara","closeddate":"7/23/2012 0:00","isclosed":"FALSE","geo_score":0.805,"id":"a6cmdoa5i74i","filenumber":455967,"filetransactiontype":"Title &amp; Escrow","escrowofficername":"Kathleen Ross","titleunit":"CA CPU Title-Kevin","referringcustomer":"FNMA","primarycurativetech":"Rebecca Kepple","contract in task":"Contract In Tasks","secondarycurativetech":"Rose Digdigan","branchoffice":"Saratoga","isescalated":"FALSE","address":"549 Hadley Court","propertyaddressline2":null,"filenotes":null,"geo_precision":"range","state":"California"},"type":"Feature","geometry":{"type":"Point","coordinates":[-121.562942,37.009399]}},{"properties":{"city":"Tulare","createddate":"3/28/2012 11:42","iscurativefile":"TRUE","zip":"93274","openeddate":"3/28/2012 0:00","referringcustomerfilenumber":"L1204QY","outofstatestatus":"Not Applicable","task completed date":"6/5/2012","region":"Central California","countyname":"Tulare","closeddate":"7/16/2012 0:00","isclosed":"FALSE","geo_score":0.821,"id":"a6cmdo3r497x","filenumber":456322,"filetransactiontype":"Title &amp; Escrow","escrowofficername":"Karen Sigda","titleunit":"CA CPU Title-Kevin","referringcustomer":"FNMA","primarycurativetech":"Paula Finley","contract in task":"Contract In Tasks","secondarycurativetech":"Kim Brown","branchoffice":"Visalia","isescalated":"FALSE","address":"636 South Aronian Street","propertyaddressline2":null,"filenotes":null,"geo_precision":"range","state":"California"},"type":"Feature","geometry":{"type":"Point","coordinates":[-119.317631,36.203353]}},{"properties":{"city":"Farmersville","createddate":"3/29/2012 11:58","iscurativefile":"TRUE","zip":"93223","openeddate":"3/29/2012 0:00","referringcustomerfilenumber":"L11175W","outofstatestatus":"Not Applicable","task completed date":"6/5/2012","region":"Central California","countyname":"Tulare","closeddate":"6/29/2012 0:00","isclosed":"FALSE","geo_score":0.545,"id":"a6cmdo5ayurr","filenumber":456748,"filetransactiontype":"Title &amp; Escrow","escrowofficername":"Judy Loflin","titleunit":"CA CPU Title-Kevin","referringcustomer":"FNMA","primarycurativetech":"Kim Brown","contract in task":"Contract In Tasks","secondarycurativetech":"Paula Finley","branchoffice":"Porterville","isescalated":"FALSE","address":"793 West Anissa Street","propertyaddressline2":null,"filenotes":null,"geo_precision":"street","state":"California"},"type":"Feature","geometry":{"type":"Point","coordinates":[-119.048961,36.100978]}},{"properties":{"city":"Salida","createddate":"3/30/2012 12:02","iscurativefile":"TRUE","zip":"95368","openeddate":"3/30/2012 0:00","referringcustomerfilenumber":"L12035J","outofstatestatus":"Not Applicable","task completed date":"6/6/2012","region":"South Northern California","countyname":"Stanislaus","closeddate":"7/6/2012 0:00","isclosed":"FALSE","geo_score":0.878,"id":"a6cmdoex5t4r","filenumber":457021,"filetransactiontype":"Title &amp; Escrow","escrowofficername":"Vicki Gardea","titleunit":"CA CPU Title-Kevin","referringcustomer":"FNMA","primarycurativetech":"Rose Digdigan","contract in task":"Contract In Tasks","secondarycurativetech":"Kim Brown","branchoffice":"Modesto","isescalated":"FALSE","address":"4013 Mont Royal Drive","propertyaddressline2":null,"filenotes":null,"geo_precision":"range","state":"California"},"type":"Feature","geometry":{"type":"Point","coordinates":[-121.094212,37.696877]}},{"properties":{"city":"Tracy","createddate":"4/4/2012 13:16","iscurativefile":"TRUE","zip":"95376","openeddate":"4/4/2012 0:00","referringcustomerfilenumber":"L1205Z9","outofstatestatus":"Not Applicable","task completed date":"6/5/2012","region":"South Northern California","countyname":"San Joaquin","closeddate":"7/16/2012 0:00","isclosed":"FALSE","geo_score":0.61,"id":"a6cmdoh37697","filenumber":457931,"filetransactiontype":"Title &amp; Escrow","escrowofficername":"Patti Atkinson-Utz","titleunit":"CA CPU Title-Kevin","referringcustomer":"FNMA","primarycurativetech":"Rebecca Kepple","contract in task":"Contract In Tasks","secondarycurativetech":"Rose Digdigan","branchoffice":"Turlock","isescalated":"FALSE","address":"1141 Andreas Lane","propertyaddressline2":null,"filenotes":null,"geo_precision":"street","state":"California"},"type":"Feature","geometry":{"type":"Point","coordinates":[-120.827979,37.494566]}},{"properties":{"city":"South Gate","createddate":"4/4/2012 13:48","iscurativefile":"TRUE","zip":"90280","openeddate":"4/4/2012 0:00","referringcustomerfilenumber":"L111DMC","outofstatestatus":"Not Applicable","task completed date":"6/1/2012","region":"Los Angeles - Ventura California","countyname":"Los Angeles","closeddate":"7/12/2012 0:00","isclosed":"FALSE","geo_score":0.827,"id":"a6cmdoei45ob","filenumber":457942,"filetransactiontype":"Title &amp; Escrow","escrowofficername":"Martha Gonzales","titleunit":"CA CPU Title-Kevin","referringcustomer":"FNMA","primarycurativetech":"Paula Finley","contract in task":"Contract In Tasks","secondarycurativetech":"Jenny Martinez","branchoffice":"Glendale","isescalated":"FALSE","address":"9613-9615 Truba Avenue","propertyaddressline2":null,"filenotes":null,"geo_precision":"range","state":"California"},"type":"Feature","geometry":{"type":"Point","coordinates":[-118.224823,33.949359]}},{"properties":{"city":"Temecula","createddate":"4/5/2012 11:44","iscurativefile":"TRUE","zip":"92591","openeddate":"4/5/2012 0:00","referringcustomerfilenumber":"L1205M7","outofstatestatus":"Not Applicable","task completed date":"6/11/2012","region":"Inland Empire","countyname":"Riverside","closeddate":"7/20/2012 0:00","isclosed":"FALSE","geo_score":0.902,"id":"a6cmdociz1du","filenumber":458298,"filetransactiontype":"Title &amp; Escrow","escrowofficername":"Nicoloa Ames","titleunit":"CA CPU Title-Kevin","referringcustomer":"FNMA","primarycurativetech":"Anthony Martinez","contract in task":"Contract In Tasks","secondarycurativetech":"Rose Digdigan","branchoffice":"Riverside","isescalated":"FALSE","address":"42135 Calabria Drive","propertyaddressline2":null,"filenotes":null,"geo_precision":"range","state":"California"},"type":"Feature","geometry":{"type":"Point","coordinates":[-117.135787,33.511528]}},{"properties":{"city":"Madera","createddate":"4/5/2012 12:03","iscurativefile":"TRUE","zip":"93637","openeddate":"4/5/2012 0:00","referringcustomerfilenumber":"L1205X6","outofstatestatus":"Not Applicable","task completed date":"6/7/2012","region":"Central California","countyname":"Madera","closeddate":"7/13/2012 0:00","isclosed":"FALSE","geo_score":0.707,"id":"a6cmdo2smwf6","filenumber":458301,"filetransactiontype":"Title &amp; Escrow","escrowofficername":"Irene Lehman","titleunit":"CA CPU Title-Kevin","referringcustomer":"FNMA","primarycurativetech":"Rose Digdigan","contract in task":"Contract In Tasks","secondarycurativetech":"Anthony Martinez","branchoffice":"Fresno","isescalated":"FALSE","address":"1608 West 4th Street","propertyaddressline2":null,"filenotes":null,"geo_precision":"range","state":"California"},"type":"Feature","geometry":{"type":"Point","coordinates":[-120.076644,36.954854]}},{"properties":{"city":"Fresno","createddate":"4/5/2012 12:27","iscurativefile":"TRUE","zip":"93711","openeddate":"4/5/2012 0:00","referringcustomerfilenumber":"L12055W","outofstatestatus":"Not Applicable","task completed date":"6/6/2012","region":"Central California","countyname":"Fresno","closeddate":"7/15/2012 0:00","isclosed":"FALSE","geo_score":0.902,"id":"a6cmdogmj0l3","filenumber":458311,"filetransactiontype":"Title &amp; Escrow","escrowofficername":"Claudia Froelich","titleunit":"CA CPU Title-Kevin","referringcustomer":"FNMA","primarycurativetech":"Kim Brown","contract in task":"Contract In Tasks","secondarycurativetech":"Sandra Robinson","branchoffice":"Fresno","isescalated":"FALSE","address":"7178 North Fruit Avenue","propertyaddressline2":null,"filenotes":null,"geo_precision":"range","state":"California"},"type":"Feature","geometry":{"type":"Point","coordinates":[-119.817786,36.840645]}},{"properties":{"city":"San Jose","createddate":"4/9/2012 9:58","iscurativefile":"TRUE","zip":"95112","openeddate":"4/9/2012 0:00","referringcustomerfilenumber":"L1204Z9","outofstatestatus":"Not Applicable","task completed date":"6/6/2012","region":"South Northern California","countyname":"Santa Clara","closeddate":"7/20/2012 0:00","isclosed":"FALSE","geo_score":0.805,"id":"a6cmdo6uew94","filenumber":458845,"filetransactiontype":"Title &amp; Escrow","escrowofficername":"Vickie Stermer","titleunit":"CA CPU Title-Kevin","referringcustomer":"FNMA","primarycurativetech":"Kim Brown","contract in task":"Contract In Tasks","secondarycurativetech":"Rose Digdigan","branchoffice":"Los Gatos","isescalated":"FALSE","address":"530 North 7th Street","propertyaddressline2":null,"filenotes":null,"geo_precision":"range","state":"California"},"type":"Feature","geometry":{"type":"Point","coordinates":[-121.891083,37.34849]}},{"properties":{"city":"Orange","createddate":"4/10/2012 9:46","iscurativefile":"TRUE","zip":"92869","openeddate":"4/10/2012 0:00","referringcustomerfilenumber":"L1204T2","outofstatestatus":"Not Applicable","task completed date":"6/5/2012","region":"So. California","countyname":"Orange","closeddate":"6/21/2012 0:00","isclosed":"FALSE","geo_score":0.902,"id":"a6cmdo7xt4so","filenumber":459368,"filetransactiontype":"Title &amp; Escrow","escrowofficername":"Michelle Huynh","titleunit":"CA CPU Title-Kevin","referringcustomer":"FNMA","primarycurativetech":"Paula Finley","contract in task":"Contract In Tasks","secondarycurativetech":"Kim Brown","branchoffice":"Irvine","isescalated":"FALSE","address":"165 South Waterwheel Way","propertyaddressline2":null,"filenotes":null,"geo_precision":"range","state":"California"},"type":"Feature","geometry":{"type":"Point","coordinates":[-117.788795,33.787453]}},{"properties":{"city":"El Cajon","createddate":"4/16/2012 9:55","iscurativefile":"TRUE","zip":"92020","openeddate":"4/16/2012 0:00","referringcustomerfilenumber":"L1203ZP","outofstatestatus":"Not Applicable","task completed date":"6/5/2012","region":"Inland Empire","countyname":"San Diego","closeddate":"7/2/2012 0:00","isclosed":"FALSE","geo_score":0.561,"id":"a6cmdof4tjpi","filenumber":460758,"filetransactiontype":"Title &amp; Escrow","escrowofficername":"Vicki Petersen","titleunit":"CA CPU Title-Kevin","referringcustomer":"FNMA","primarycurativetech":"Anthony Martinez","contract in task":"Contract In Tasks","secondarycurativetech":"Sandra Robinson","branchoffice":"Murrieta","isescalated":"FALSE","address":"428 La Sombra Drive","propertyaddressline2":null,"filenotes":null,"geo_precision":"street","state":"California"},"type":"Feature","geometry":{"type":"Point","coordinates":[-117.317491,33.173291]}},{"properties":{"city":"Palmdale","createddate":"4/18/2012 9:02","iscurativefile":"TRUE","zip":"93551","openeddate":"4/18/2012 0:00","referringcustomerfilenumber":"L1206C6","outofstatestatus":"Not Applicable","task completed date":"6/8/2012","region":"Los Angeles - Ventura California","countyname":"Los Angeles","closeddate":"8/9/2012 0:00","isclosed":"FALSE","geo_score":0.474,"id":"a6cmdockcwoj","filenumber":461380,"filetransactiontype":"Title &amp; Escrow","escrowofficername":"Mary Schenuk","titleunit":"CA CPU Title-Kevin","referringcustomer":"FNMA","primarycurativetech":"Kim Brown","contract in task":"Contract In Tasks","secondarycurativetech":"Rose Digdigan","branchoffice":"Glendale","isescalated":"FALSE","address":"38589 Lion Way","propertyaddressline2":null,"filenotes":null,"geo_precision":"street","state":"California"},"type":"Feature","geometry":{"type":"Point","coordinates":[-118.319189,34.616039]}},{"properties":{"city":"Los Angeles","createddate":"4/18/2012 10:01","iscurativefile":"TRUE","zip":"90044","openeddate":"4/18/2012 0:00","referringcustomerfilenumber":"L1201SS","outofstatestatus":"Not Applicable","task completed date":"6/1/2012","region":"Los Angeles - Ventura California","countyname":"Los Angeles","closeddate":"7/20/2012 0:00","isclosed":"FALSE","geo_score":0.815,"id":"a6cmdo6l2pvj","filenumber":461392,"filetransactiontype":"Title &amp; Escrow","escrowofficername":"Angela Hum","titleunit":"CA CPU Title-Kevin","referringcustomer":"FNMA","primarycurativetech":"Anthony Martinez","contract in task":"Contract In Tasks","secondarycurativetech":"Jenny Martinez","branchoffice":"Glendale","isescalated":"FALSE","address":"1052 West 104th Street","propertyaddressline2":null,"filenotes":null,"geo_precision":"range","state":"California"},"type":"Feature","geometry":{"type":"Point","coordinates":[-118.292866,33.942306]}},{"properties":{"city":"South lake Tahoe","createddate":"4/18/2012 11:16","iscurativefile":"TRUE","zip":"96150","openeddate":"4/18/2012 0:00","referringcustomerfilenumber":"L1207SB","outofstatestatus":"Not Applicable","task completed date":"6/8/2012","region":"South Northern California","countyname":"El Dorado","closeddate":"7/15/2012 0:00","isclosed":"FALSE","geo_score":0.902,"id":"a6cmdoc60tqg","filenumber":461411,"filetransactiontype":"Title &amp; Escrow","escrowofficername":"Vicki Gardea","titleunit":"CA CPU Title-Kevin","referringcustomer":"FNMA","primarycurativetech":"Anthony Martinez","contract in task":"Contract In Tasks","secondarycurativetech":"Jenny Martinez","branchoffice":"Modesto","isescalated":"FALSE","address":"2617 Blitzen Road","propertyaddressline2":null,"filenotes":null,"geo_precision":"range","state":"California"},"type":"Feature","geometry":{"type":"Point","coordinates":[-120.018174,38.834593]}},{"properties":{"city":"Fresno","createddate":"4/20/2012 11:21","iscurativefile":"TRUE","zip":"93702","openeddate":"4/20/2012 0:00","referringcustomerfilenumber":"L1201KX","outofstatestatus":"Not Applicable","task completed date":"6/7/2012","region":"Central California","countyname":"Fresno","closeddate":"6/22/2012 0:00","isclosed":"FALSE","geo_score":0.816,"id":"a6cmdo15lrco","filenumber":461994,"filetransactiontype":"Title &amp; Escrow","escrowofficername":"Irene Lehman","titleunit":"CA CPU Title-Kevin","referringcustomer":"FNMA","primarycurativetech":"Paula Finley","contract in task":"Contract In Tasks","secondarycurativetech":"Sandra Robinson","branchoffice":"Fresno","isescalated":"FALSE","address":"3421 East Alta Avenue","propertyaddressline2":null,"filenotes":null,"geo_precision":"range","state":"California"},"type":"Feature","geometry":{"type":"Point","coordinates":[-119.767278,36.732765]}},{"properties":{"city":"LA PUENTE,","createddate":"4/20/2012 12:53","iscurativefile":"TRUE","zip":"91744","openeddate":"4/20/2012 0:00","referringcustomerfilenumber":"L111DVT","outofstatestatus":"Not Applicable","task completed date":"6/8/2012","region":"Los Angeles - Ventura California","countyname":"Los Angeles","closeddate":"6/28/2012 0:00","isclosed":"FALSE","geo_score":0.841,"id":"a6cmdo5qn1g2","filenumber":461720,"filetransactiontype":"Title &amp; Escrow","escrowofficername":"Angela Hum","titleunit":"CA CPU Title-Kevin","referringcustomer":"FNMA","primarycurativetech":"Jenny Martinez","contract in task":"Contract In Tasks","secondarycurativetech":"Paula Finley","branchoffice":"Glendale","isescalated":"FALSE","address":"16142 ABBEY ST","propertyaddressline2":null,"filenotes":null,"geo_precision":"range","state":"California"},"type":"Feature","geometry":{"type":"Point","coordinates":[-117.948975,34.016822]}},{"properties":{"city":"PHELAN","createddate":"4/20/2012 12:56","iscurativefile":"TRUE","zip":"92371","openeddate":"4/20/2012 0:00","referringcustomerfilenumber":"L1207S0","outofstatestatus":"Not Applicable","task completed date":"6/1/2012","region":"Inland Empire","countyname":"San Bernardino","closeddate":"7/16/2012 0:00","isclosed":"FALSE","geo_score":0.902,"id":"a6cmdoe7et2v","filenumber":461722,"filetransactiontype":"Title &amp; Escrow","escrowofficername":"Joyce Strohm","titleunit":"CA CPU Title-Kevin","referringcustomer":"FNMA","primarycurativetech":"Kim Brown","contract in task":"Contract In Tasks","secondarycurativetech":"Jenny Martinez","branchoffice":"Redlands","isescalated":"FALSE","address":"7324 WHITE FOX TRAIL","propertyaddressline2":null,"filenotes":null,"geo_precision":"range","state":"California"},"type":"Feature","geometry":{"type":"Point","coordinates":[-117.503086,34.430302]}},{"properties":{"city":"OROVILLE","createddate":"4/20/2012 13:02","iscurativefile":"TRUE","zip":"95966","openeddate":"4/20/2012 0:00","referringcustomerfilenumber":"L1205B6","outofstatestatus":"Not Applicable","task completed date":"6/7/2012","region":"#N/A","countyname":"Butte","closeddate":"6/21/2012 0:00","isclosed":"FALSE","geo_score":0.78,"id":"a6cmdo48nuld","filenumber":461725,"filetransactiontype":"Title &amp; Escrow","escrowofficername":"Non-Stewart","titleunit":"CA CPU Title-Kevin","referringcustomer":"FNMA","primarycurativetech":"Rose Digdigan","contract in task":"Contract In Tasks","secondarycurativetech":"Sandra Robinson","branchoffice":"Non_Stewart","isescalated":"FALSE","address":"2240 WYANDOTTE AVENUE","propertyaddressline2":null,"filenotes":"outside escrow","geo_precision":"range","state":"California"},"type":"Feature","geometry":{"type":"Point","coordinates":[-121.546733,39.500391]}},{"properties":{"city":"Cathedtral City","createddate":"4/23/2012 10:57","iscurativefile":"TRUE","zip":"92234","openeddate":"4/23/2012 0:00","referringcustomerfilenumber":"L1205X4","outofstatestatus":"Not Applicable","task completed date":"6/7/2012","region":"Inland Empire","countyname":"Riverside","closeddate":"7/16/2012 0:00","isclosed":"FALSE","geo_score":0.895,"id":"a6cmdoea6ytt","filenumber":462367,"filetransactiontype":"Title &amp; Escrow","escrowofficername":"Cindy (Cynthia) Solomon (Goodgion)","titleunit":"CA CPU Title-Kevin","referringcustomer":"FNMA","primarycurativetech":"Sandra Robinson","contract in task":"Contract In Tasks","secondarycurativetech":"Anthony Martinez","branchoffice":"Palm Desert","isescalated":"FALSE","address":"28944 Desert Princess Drive","propertyaddressline2":null,"filenotes":null,"geo_precision":"range","state":"California"},"type":"Feature","geometry":{"type":"Point","coordinates":[-116.478263,33.836008]}},{"properties":{"city":"Rosemead","createddate":"4/23/2012 10:59","iscurativefile":"TRUE","zip":"91770","openeddate":"4/23/2012 0:00","referringcustomerfilenumber":"L120829","outofstatestatus":"Not Applicable","task completed date":"6/4/2012","region":"Los Angeles - Ventura California","countyname":"Los Angeles","closeddate":"7/27/2012 0:00","isclosed":"FALSE","geo_score":0.824,"id":"a6cmdoe45pge","filenumber":462368,"filetransactiontype":"Title &amp; Escrow","escrowofficername":"Mary Schenuk","titleunit":"CA CPU Title-Kevin","referringcustomer":"FNMA","primarycurativetech":"Jenny Martinez","contract in task":"Contract In Tasks","secondarycurativetech":"Anthony Martinez","branchoffice":"Glendale","isescalated":"FALSE","address":"4547 Muscatel Avenue","propertyaddressline2":null,"filenotes":null,"geo_precision":"range","state":"California"},"type":"Feature","geometry":{"type":"Point","coordinates":[-118.077753,34.086764]}},{"properties":{"city":"Vallejo","createddate":"4/26/2012 12:50","iscurativefile":"TRUE","zip":"94590","openeddate":"4/26/2012 0:00","referringcustomerfilenumber":"L1205X2","outofstatestatus":"Not Applicable","task completed date":"6/1/2012","region":"#N/A","countyname":"Solano","closeddate":"7/5/2012 0:00","isclosed":"FALSE","geo_score":0.821,"id":"a6cmdo5k0n17","filenumber":463295,"filetransactiontype":"Title &amp; Escrow","escrowofficername":"Not Applicable","titleunit":"CA CPU Title-Kevin","referringcustomer":"FNMA","primarycurativetech":"Sandra Robinson","contract in task":"Contract In Tasks","secondarycurativetech":"Paula Finley","branchoffice":"Not Applicable","isescalated":"FALSE","address":"1107-1109 Georgia Street","propertyaddressline2":null,"filenotes":null,"geo_precision":"range","state":"California"},"type":"Feature","geometry":{"type":"Point","coordinates":[-122.244862,38.100949]}},{"properties":{"city":"Lancaster","createddate":"4/27/2012 9:47","iscurativefile":"TRUE","zip":"93536","openeddate":"4/27/2012 0:00","referringcustomerfilenumber":"L1205YC","outofstatestatus":"Not Applicable","task completed date":"6/6/2012","region":"Los Angeles - Ventura California","countyname":"Los Angeles","closeddate":"7/6/2012 0:00","isclosed":"FALSE","geo_score":0.827,"id":"a6cmdo2nmu76","filenumber":463614,"filetransactiontype":"Title &amp; Escrow","escrowofficername":"Angela Hum","titleunit":"CA CPU Title-Kevin","referringcustomer":"FNMA","primarycurativetech":"Rose Digdigan","contract in task":"Contract In Tasks","secondarycurativetech":"Jenny Martinez","branchoffice":"Glendale","isescalated":"FALSE","address":"3023 Glad Way","propertyaddressline2":null,"filenotes":null,"geo_precision":"range","state":"California"},"type":"Feature","geometry":{"type":"Point","coordinates":[-118.184925,34.688852]}},{"properties":{"city":"Stockton","createddate":"4/27/2012 10:37","iscurativefile":"TRUE","zip":"95215","openeddate":"4/27/2012 0:00","referringcustomerfilenumber":"L111LDF","outofstatestatus":"Not Applicable","task completed date":"6/4/2012","region":"South Northern California","countyname":"San Joaquin","closeddate":"7/13/2012 0:00","isclosed":"FALSE","geo_score":0.684,"id":"a6cmdoh8pjhd","filenumber":463623,"filetransactiontype":"Title &amp; Escrow","escrowofficername":"Holly Weston","titleunit":"CA CPU Title-Kevin","referringcustomer":"FNMA","primarycurativetech":"Anthony Martinez","contract in task":"Contract In Tasks","secondarycurativetech":"Sandra Robinson","branchoffice":"Turlock","isescalated":"FALSE","address":"1263 South Anteros Avenue","propertyaddressline2":null,"filenotes":null,"geo_precision":"street","state":"California"},"type":"Feature","geometry":{"type":"Point","coordinates":[-121.236611,37.951561]}},{"properties":{"city":"Long Beach","createddate":"4/27/2012 10:42","iscurativefile":"TRUE","zip":"90802","openeddate":"4/27/2012 0:00","referringcustomerfilenumber":"L1200Z7","outofstatestatus":"Not Applicable","task completed date":"6/5/2012","region":"Los Angeles - Ventura California","countyname":"Los Angeles","closeddate":"6/15/2012 0:00","isclosed":"FALSE","geo_score":0.902,"id":"a6cmdo5arpge","filenumber":463625,"filetransactiontype":"Title &amp; Escrow","escrowofficername":"Angela Hum","titleunit":"CA CPU Title-Kevin","referringcustomer":"FNMA","primarycurativetech":"Sandra Robinson","contract in task":"Contract In Tasks","secondarycurativetech":"Jenny Martinez","branchoffice":"Glendale","isescalated":"FALSE","address":"100 Atlantic Avenue","propertyaddressline2":null,"filenotes":null,"geo_precision":"range","state":"California"},"type":"Feature","geometry":{"type":"Point","coordinates":[-118.185025,33.768088]}},{"properties":{"city":"Bakersfield","createddate":"4/30/2012 13:24","iscurativefile":"TRUE","zip":"93304","openeddate":"4/30/2012 0:00","referringcustomerfilenumber":"L1208JF","outofstatestatus":"Not Applicable","task completed date":"6/7/2012","region":"Central California","countyname":"Kern","closeddate":"6/15/2012 0:00","isclosed":"FALSE","geo_score":0.902,"id":"a6cmdo2o9uqv","filenumber":463977,"filetransactiontype":"Title &amp; Escrow","escrowofficername":"Mary Curry","titleunit":"CA CPU Title-Kevin","referringcustomer":"FNMA","primarycurativetech":"Anthony Martinez","contract in task":"Contract In Tasks","secondarycurativetech":"Rose Digdigan","branchoffice":"Bakersfield","isescalated":"FALSE","address":"807 Caylor Street","propertyaddressline2":null,"filenotes":null,"geo_precision":"range","state":"California"},"type":"Feature","geometry":{"type":"Point","coordinates":[-119.024514,35.347549]}},{"properties":{"city":"San Ramon","createddate":"4/30/2012 13:34","iscurativefile":"TRUE","zip":"94583","openeddate":"4/30/2012 0:00","referringcustomerfilenumber":"L1207VL","outofstatestatus":"Not Applicable","task completed date":"6/6/2012","region":"North Northern California","countyname":"Contra Costa","closeddate":"7/2/2012 0:00","isclosed":"FALSE","geo_score":0.789,"id":"a6cmdoej5msa","filenumber":463982,"filetransactiontype":"Title &amp; Escrow","escrowofficername":"Rheanna Gieseking","titleunit":"CA CPU Title-Kevin","referringcustomer":"FNMA","primarycurativetech":"Rebecca Kepple","contract in task":"Contract In Tasks","secondarycurativetech":"Rose Digdigan","branchoffice":"Danville","isescalated":"FALSE","address":"9085 Alcosta Boulevard Unit 302","propertyaddressline2":null,"filenotes":null,"geo_precision":"range","state":"California"},"type":"Feature","geometry":{"type":"Point","coordinates":[-121.934653,37.727117]}},{"properties":{"city":"San Bernardino","createddate":"4/30/2012 13:37","iscurativefile":"TRUE","zip":"92404","openeddate":"4/30/2012 0:00","referringcustomerfilenumber":"L1200ZW","outofstatestatus":"Not Applicable","task completed date":"6/4/2012","region":"Inland Empire","countyname":"San Bernardino","closeddate":"6/15/2012 0:00","isclosed":"FALSE","geo_score":0.82,"id":"a6cmdoawkstv","filenumber":463983,"filetransactiontype":"Title &amp; Escrow","escrowofficername":"Pamela San Millan","titleunit":"CA CPU Title-Kevin","referringcustomer":"FNMA","primarycurativetech":"Sandra Robinson","contract in task":"Contract In Tasks","secondarycurativetech":"Jenny Martinez","branchoffice":"Victorville","isescalated":"FALSE","address":"1800 Daley Canyon Road","propertyaddressline2":null,"filenotes":null,"geo_precision":"range","state":"California"},"type":"Feature","geometry":{"type":"Point","coordinates":[-117.243762,34.165065]}},{"properties":{"city":"Modesto","createddate":"5/1/2012 12:24","iscurativefile":"TRUE","zip":"95358","openeddate":"5/1/2012 0:00","referringcustomerfilenumber":"L1208XC","outofstatestatus":"Not Applicable","task completed date":"6/8/2012","region":"South Northern California","countyname":"Stanislaus","closeddate":"6/25/2012 0:00","isclosed":"FALSE","geo_score":0.902,"id":"a6cmdo7wnopm","filenumber":464370,"filetransactiontype":"Title &amp; Escrow","escrowofficername":"Heather Walker","titleunit":"CA CPU Title-Kevin","referringcustomer":"FNMA","primarycurativetech":"Kim Brown","contract in task":"Contract In Tasks","secondarycurativetech":"Paula Finley","branchoffice":"Turlock","isescalated":"FALSE","address":"212 Butte Avenue","propertyaddressline2":null,"filenotes":null,"geo_precision":"range","state":"California"},"type":"Feature","geometry":{"type":"Point","coordinates":[-120.995419,37.605704]}},{"properties":{"city":"Sacramento","createddate":"5/1/2012 12:26","iscurativefile":"TRUE","zip":"95815","openeddate":"5/1/2012 0:00","referringcustomerfilenumber":"L12091F","outofstatestatus":"Not Applicable","task completed date":"6/8/2012","region":"North Northern California","countyname":"Sacramento","closeddate":"7/25/2012 0:00","isclosed":"FALSE","geo_score":0.87,"id":"a6cmdoe96xj1","filenumber":464372,"filetransactiontype":"Title &amp; Escrow","escrowofficername":"Dawn Vincent","titleunit":"CA CPU Title-Kevin","referringcustomer":"FNMA","primarycurativetech":"Paula Finley","contract in task":"Contract In Tasks","secondarycurativetech":"Sandra Robinson","branchoffice":"AMSAC-Fair Oaks","isescalated":"FALSE","address":"3151 Clay Street","propertyaddressline2":null,"filenotes":null,"geo_precision":"range","state":"California"},"type":"Feature","geometry":{"type":"Point","coordinates":[-121.43921,38.62518]}},{"properties":{"city":"Bakersfileld","createddate":"5/2/2012 12:25","iscurativefile":"TRUE","zip":"93306","openeddate":"5/2/2012 0:00","referringcustomerfilenumber":"L1208WL","outofstatestatus":"Not Applicable","task completed date":"6/11/2012","region":"Central California","countyname":"Kern","closeddate":"6/27/2012 0:00","isclosed":"FALSE","geo_score":0.829,"id":"a6cmdofx9pba","filenumber":464779,"filetransactiontype":"Title &amp; Escrow","escrowofficername":"Jennifer Navarro","titleunit":"CA CPU Title-Kevin","referringcustomer":"FNMA","primarycurativetech":"Rose Digdigan","contract in task":"Contract In Tasks","secondarycurativetech":"Paula Finley","branchoffice":"Bakersfield","isescalated":"FALSE","address":"1022 Normandy  Drive","propertyaddressline2":null,"filenotes":null,"geo_precision":"range","state":"California"},"type":"Feature","geometry":{"type":"Point","coordinates":[-118.939728,35.37472]}},{"properties":{"city":"Perris","createddate":"5/3/2012 13:43","iscurativefile":"TRUE","zip":"92571","openeddate":"5/3/2012 0:00","referringcustomerfilenumber":"L1208V5","outofstatestatus":"Not Applicable","task completed date":"6/8/2012","region":"Inland Empire","countyname":"Riverside","closeddate":"6/21/2012 0:00","isclosed":"FALSE","geo_score":0.585,"id":"a6cmdo8dho9y","filenumber":465097,"filetransactiontype":"Title &amp; Escrow","escrowofficername":"(Loreen) Dorothy Hope","titleunit":"CA CPU Title-Kevin","referringcustomer":"FNMA","primarycurativetech":"Rebecca Kepple","contract in task":"Contract In Tasks","secondarycurativetech":"Sandra Robinson","branchoffice":"Murrieta","isescalated":"FALSE","address":"1236 Friedman Street","propertyaddressline2":null,"filenotes":null,"geo_precision":"zip","state":"California"},"type":"Feature","geometry":{"type":"Point","coordinates":[-116.055617,33.752886]}},{"properties":{"city":"Watsonville","createddate":"5/8/2012 13:30","iscurativefile":"TRUE","zip":"95076","openeddate":"5/8/2012 0:00","referringcustomerfilenumber":"L1201PY","outofstatestatus":"Not Applicable","task completed date":"6/5/2012","region":"South Northern California","countyname":"Santa Cruz","closeddate":"6/29/2012 0:00","isclosed":"FALSE","geo_score":0.814,"id":"a6cmdo3kfuul","filenumber":466020,"filetransactiontype":"Title &amp; Escrow","escrowofficername":"Karen Talbot","titleunit":"CA CPU Title-Kevin","referringcustomer":"FNMA","primarycurativetech":"Sandra Robinson","contract in task":"Contract In Tasks","secondarycurativetech":"Anthony Martinez","branchoffice":"Santa Cruz","isescalated":"FALSE","address":"219 manfre Road","propertyaddressline2":null,"filenotes":null,"geo_precision":"range","state":"California"},"type":"Feature","geometry":{"type":"Point","coordinates":[-121.798548,36.934617]}},{"properties":{"city":"San Jose","createddate":"5/14/2012 8:54","iscurativefile":"TRUE","zip":"95136","openeddate":"5/14/2012 0:00","referringcustomerfilenumber":"L1207RG","outofstatestatus":"Not Applicable","task completed date":"6/11/2012","region":"South Northern California","countyname":"Santa Clara","closeddate":"8/15/2012 0:00","isclosed":"FALSE","geo_score":0.857,"id":"a6cmdo4zugem","filenumber":465376,"filetransactiontype":"Title &amp; Escrow","escrowofficername":"Brandy Kelly","titleunit":"CA CPU Title-Kevin","referringcustomer":"FNMA","primarycurativetech":"Rose Digdigan","contract in task":"Contract In Tasks","secondarycurativetech":"Anthony Martinez","branchoffice":"Saratoga","isescalated":"FALSE","address":"4723 Little River Ct","propertyaddressline2":null,"filenotes":null,"geo_precision":"range","state":"California"},"type":"Feature","geometry":{"type":"Point","coordinates":[-121.860214,37.263128]}},{"properties":{"city":"Riverside","createddate":"5/14/2012 11:55","iscurativefile":"TRUE","zip":"92507","openeddate":"5/14/2012 0:00","referringcustomerfilenumber":"L1209LQ","outofstatestatus":"Not Applicable","task completed date":"6/8/2012","region":"Inland Empire","countyname":"Riverside","closeddate":"6/21/2012 0:00","isclosed":"FALSE","geo_score":0.717,"id":"a6cmdoc5cd27","filenumber":467381,"filetransactiontype":"Title &amp; Escrow","escrowofficername":"Mary Hudson","titleunit":"CA CPU Title-Kevin","referringcustomer":"FNMA","primarycurativetech":"Rose Digdigan","contract in task":"Contract In Tasks","secondarycurativetech":"Jenny Martinez","branchoffice":"Riverside","isescalated":"FALSE","address":"375 Central Avenue Unit 23","propertyaddressline2":null,"filenotes":null,"geo_precision":"range","state":"California"},"type":"Feature","geometry":{"type":"Point","coordinates":[-117.313036,33.957825]}},{"properties":{"city":"Templeton","createddate":"5/14/2012 11:58","iscurativefile":"TRUE","zip":"93465","openeddate":"5/14/2012 0:00","referringcustomerfilenumber":"L111PWJ","outofstatestatus":"Not Applicable","task completed date":"6/4/2012","region":"Central California","countyname":"San Luis Obispo","closeddate":"6/15/2012 0:00","isclosed":"FALSE","geo_score":0.902,"id":"a6cmdo4byzh9","filenumber":467382,"filetransactiontype":"Title &amp; Escrow","escrowofficername":"Connie Porter","titleunit":"CA CPU Title-Kevin","referringcustomer":"FNMA","primarycurativetech":"Sandra Robinson","contract in task":"Contract In Tasks","secondarycurativetech":"Jenny Martinez","branchoffice":"Bakersfield","isescalated":"FALSE","address":"710 Salinas Avenue","propertyaddressline2":null,"filenotes":null,"geo_precision":"range","state":"California"},"type":"Feature","geometry":{"type":"Point","coordinates":[-120.710448,35.55125]}},{"properties":{"city":"Perris","createddate":"5/16/2012 12:06","iscurativefile":"TRUE","zip":"92570","openeddate":"5/16/2012 0:00","referringcustomerfilenumber":"L1203Z6","outofstatestatus":"Not Applicable","task completed date":"6/5/2012","region":"Inland Empire","countyname":"Riverside","closeddate":"6/18/2012 0:00","isclosed":"FALSE","geo_score":0.902,"id":"a6cmdo9h3up4","filenumber":468053,"filetransactiontype":"Title &amp; Escrow","escrowofficername":"Mary Hudson","titleunit":"CA CPU Title-Kevin","referringcustomer":"FNMA","primarycurativetech":"Sandra Robinson","contract in task":"Contract In Tasks","secondarycurativetech":"Jenny Martinez","branchoffice":"Riverside","isescalated":"FALSE","address":"20785 Hunter Street","propertyaddressline2":null,"filenotes":null,"geo_precision":"range","state":"California"},"type":"Feature","geometry":{"type":"Point","coordinates":[-117.299558,33.834688]}},{"properties":{"city":"Ceres","createddate":"5/21/2012 10:11","iscurativefile":"TRUE","zip":"95307","openeddate":"5/21/2012 0:00","referringcustomerfilenumber":"L120B1C","outofstatestatus":"Not Applicable","task completed date":"6/6/2012","region":"South Northern California","countyname":"Siskiyou","closeddate":"6/21/2012 0:00","isclosed":"FALSE","geo_score":0.84,"id":"a6cmdocexru7","filenumber":469236,"filetransactiontype":"Title &amp; Escrow","escrowofficername":"Heather Walker","titleunit":"CA CPU Title-Kevin","referringcustomer":"FNMA","primarycurativetech":"Anthony Martinez","contract in task":"Contract In Tasks","secondarycurativetech":"Jenny Martinez","branchoffice":"Turlock","isescalated":"FALSE","address":"6918 Crows Landing Road","propertyaddressline2":null,"filenotes":null,"geo_precision":"range","state":"California"},"type":"Feature","geometry":{"type":"Point","coordinates":[-120.993603,37.538186]}},{"properties":{"city":"Modesto","createddate":"5/21/2012 10:14","iscurativefile":"TRUE","zip":"95356","openeddate":"5/21/2012 0:00","referringcustomerfilenumber":"L120BCN","outofstatestatus":"Not Applicable","task completed date":"6/6/2012","region":"South Northern California","countyname":"Stanislaus","closeddate":"7/10/2012 0:00","isclosed":"FALSE","geo_score":0.902,"id":"a6cmdo7a76d6","filenumber":469237,"filetransactiontype":"Title &amp; Escrow","escrowofficername":"Vicki Gardea","titleunit":"CA CPU Title-Kevin","referringcustomer":"FNMA","primarycurativetech":"Kim Brown","contract in task":"Contract In Tasks","secondarycurativetech":"Rebecca Kepple","branchoffice":"Modesto","isescalated":"FALSE","address":"3501 Sagewood Court","propertyaddressline2":null,"filenotes":null,"geo_precision":"range","state":"California"},"type":"Feature","geometry":{"type":"Point","coordinates":[-120.988524,37.68955]}},{"properties":{"city":"Patterson","createddate":"5/24/2012 10:50","iscurativefile":"TRUE","zip":"95363","openeddate":"5/24/2012 0:00","referringcustomerfilenumber":"L1209JD","outofstatestatus":"Not Applicable","task completed date":"6/7/2012","region":"South Northern California","countyname":"Stanislaus","closeddate":"7/24/2012 0:00","isclosed":"FALSE","geo_score":0.837,"id":"a6cmdog49yul","filenumber":470329,"filetransactiontype":"Title &amp; Escrow","escrowofficername":"Heather Walker","titleunit":"CA CPU Title-Kevin","referringcustomer":"FNMA","primarycurativetech":"Anthony Martinez","contract in task":"Contract In Tasks","secondarycurativetech":"Rebecca Kepple","branchoffice":"Turlock","isescalated":"FALSE","address":"613 Spooner Court","propertyaddressline2":null,"filenotes":null,"geo_precision":"range","state":"California"},"type":"Feature","geometry":{"type":"Point","coordinates":[-121.122969,37.477815]}}],"is_temporal":false,"author":{"url":"","metadata":null,"contact_name":null,"contact_address":null,"source":null,"contact_phone":null},"source":"","pagination":{"sort":null,"start":0,"total":62,"limit":1000000},"state":"complete","tags":"","published":"2014-08-14T15:50:42-04:00","id":250721}