{"type":"FeatureCollection","data_type":"Dataset","url_type":null,"permissions":[{"permissions":{"download":true,"view":true},"group_id":"everyone"}],"classification":null,"title":"ESH Sites","count":12,"stream_id":251442,"contributor":{"url":"http://geocommons.com/users/45913","name":"jnathan3"},"data_attributes":null,"calculation_params":null,"icon_link":null,"link":"http://geocommons.com/overlays/251442.json","extent":[-77.6487,43.1469,-77.591,43.1648],"geometry_types":["point"],"unique_name":null,"name":"ESH Sites","feature_count":12,"description":"Monroe County emergency shelter sites","next_feature":null,"is_raster":false,"short_classification":"Y","stats":{},"features":[{"properties":{"city":"Rochester","zip":"14611","geo_score":0.84,"esh site location":"WOMEN'S PLACE","id":"a6dpl3taj724","address":"146 Hobart Street","geo_precision":"range"},"type":"Feature","geometry":{"type":"Point","coordinates":[-77.648651,43.146882]}},{"properties":{"city":"Rochester","zip":"14611","geo_score":0.84,"esh site location":"SALVATION ARMY GENESIS HOUSE","id":"a6dpl3vgl8k4","address":"35 Ardmore Street","geo_precision":"range"},"type":"Feature","geometry":{"type":"Point","coordinates":[-77.638184,43.148959]}},{"properties":{"city":"Rochester","zip":"14605","geo_score":0.902,"esh site location":"VOA FAMILY SHELTER","id":"a6dpl43lmpan","address":"175 Ward Street","geo_precision":"range"},"type":"Feature","geometry":{"type":"Point","coordinates":[-77.609007,43.164804]}},{"properties":{"city":"ROCHESTER","zip":"14603","geo_score":0.659,"esh site location":"ST. JOSEPH'S HOUSE OF HOSPITALITY-ESH","id":"a6dpl43qh6jb","address":"402 South Avenue","geo_precision":"range"},"type":"Feature","geometry":{"type":"Point","coordinates":[-77.60594,43.147656]}},{"properties":{"city":"Rochester","zip":"14604","geo_score":0.902,"esh site location":"SALVATION ARMY BOOTH HAVEN","id":"a6dpl3vza82y","address":"60a Liberty Pole Way","geo_precision":"range"},"type":"Feature","geometry":{"type":"Point","coordinates":[-77.604479,43.158641]}},{"properties":{"city":"Rochester","zip":"14604","geo_score":0.679,"esh site location":"SALVATION ARMY-HOPE HOUSE","id":"a6dpl41u7d6r","address":"100 West Avenue","geo_precision":"range"},"type":"Feature","geometry":{"type":"Point","coordinates":[-77.640371,43.149986]}},{"properties":{"city":"Rochester","zip":"14604","geo_score":0.849,"esh site location":"YWCA WOMEN'S RESIDENCE","id":"a6dpl3wpm53a","address":"175 North Clinton Avenue","geo_precision":"range"},"type":"Feature","geometry":{"type":"Point","coordinates":[-77.608136,43.16136]}},{"properties":{"city":"ROCHESTER","zip":"14621","geo_score":0.585,"esh site location":"BETHANY HOUSE - ESH","id":"a6dpl3qfk598","address":"1111 Jospeh Avenue","geo_precision":"zip"},"type":"Feature","geometry":{"type":"Point","coordinates":[-77.631124,43.149013]}},{"properties":{"city":"Rochester","zip":"14607","geo_score":0.902,"esh site location":"RAIHN - Rochester Area Interfaith Housing Hospitality Network","id":"a6dpl43227tm","address":"34 Meigs Street","geo_precision":"range"},"type":"Feature","geometry":{"type":"Point","coordinates":[-77.590991,43.153473]}},{"properties":{"city":"Rochester","zip":"14607","geo_score":0.902,"esh site location":"DIMITRI HOUSE EMERGENCY","id":"a6dpl44d6vt3","address":"102 North Union Street","geo_precision":"range"},"type":"Feature","geometry":{"type":"Point","coordinates":[-77.594658,43.159371]}},{"properties":{"city":"Rochester","zip":"14604","geo_score":0.849,"esh site location":"ALTERNATIVES FOR BATTERED WOMEN","id":"a6dpl40v25uf","address":"39 North Clinton Avenue","geo_precision":"range"},"type":"Feature","geometry":{"type":"Point","coordinates":[-77.606725,43.15803]}},{"properties":{"city":"Rochester","zip":"14608","geo_score":0.819,"esh site location":"OPEN DOOR MISSION MEN'S EMERGENCY SHELTER","id":"a6dpl3vbt8xq","address":"210 West Main Street","geo_precision":"range"},"type":"Feature","geometry":{"type":"Point","coordinates":[-77.61847,43.154345]}}],"is_temporal":false,"author":{"url":"","metadata":"","contact_name":"","contact_address":"","source":"","contact_phone":""},"source":"","pagination":{"sort":null,"start":0,"total":12,"limit":1000000},"state":"complete","tags":"shelter","published":"2014-08-14T16:52:07-04:00","id":251442}