{"type":"FeatureCollection","data_type":"Dataset","url_type":null,"permissions":[{"permissions":{"download":true,"view":true},"group_id":"everyone"}],"classification":null,"title":"Tree_Map_Data_-_Strawberry_Tree","count":113,"stream_id":251974,"contributor":{"url":"http://geocommons.com/users/22745","name":"missionlocal"},"data_attributes":null,"calculation_params":null,"icon_link":null,"link":"http://geocommons.com/overlays/251974.json","extent":[-122.425,37.7492,-122.405,37.7697],"geometry_types":["point"],"unique_name":null,"name":"Tree_Map_Data_-_Strawberry_Tree","feature_count":113,"description":"","next_feature":null,"is_raster":false,"short_classification":"Y","stats":{"latitude":{"max":37.769689728346,"variance":3.25605012207502e-05,"mean":37.7599822279361,"stdev":0.00570618096635133,"min":37.7492276863324,"median":37.7590090093162},"longitude":{"max":-122.405168719245,"variance":2.77368212706831e-05,"mean":-122.418137670688,"stdev":0.00526657585824823,"min":-122.425316706814,"median":-122.4191852}},"features":[{"properties":{"latitude":37.7684184428572,"longitude":-122.419439232178,"id":"a6ejuv0xyjqf","address":"250 14th St","species":"Arbutus Marina"},"type":"Feature","geometry":{"type":"Point","coordinates":[-122.419439232178,37.7684184428572]}},{"properties":{"latitude":37.7645990532438,"longitude":-122.41315418739,"id":"a6ejuv9e8s37","address":"2030 Harrison St","species":"Arbutus Marina"},"type":"Feature","geometry":{"type":"Point","coordinates":[-122.41315418739,37.7645990532438]}},{"properties":{"latitude":37.7537414,"longitude":-122.4204646,"id":"a6ejuvedx04u","address":"3380 23rd St","species":"Arbutus Marina"},"type":"Feature","geometry":{"type":"Point","coordinates":[-122.4204646,37.7537414]}},{"properties":{"latitude":37.751591220236,"longitude":-122.411680554208,"id":"a6ejuv67393l","address":"2869 Harrison St","species":"Arbutus Marina"},"type":"Feature","geometry":{"type":"Point","coordinates":[-122.411680554208,37.751591220236]}},{"properties":{"latitude":37.7537414,"longitude":-122.4204646,"id":"a6ejuvbkpblr","address":"3384 23rd St","species":"Arbutus Marina"},"type":"Feature","geometry":{"type":"Point","coordinates":[-122.4204646,37.7537414]}},{"properties":{"latitude":37.7590774443896,"longitude":-122.419944241808,"id":"a6ejuv5k4126","address":"268-270 San Carlos St","species":"Arbutus Marina"},"type":"Feature","geometry":{"type":"Point","coordinates":[-122.419944241808,37.7590774443896]}},{"properties":{"latitude":37.7645657199104,"longitude":-122.413154225568,"id":"a6ejuv2rx5ta","address":"2030 Harrison St","species":"Arbutus Marina"},"type":"Feature","geometry":{"type":"Point","coordinates":[-122.413154225568,37.7645657199104]}},{"properties":{"latitude":37.7645899623347,"longitude":-122.413154197802,"id":"a6ejuvgsq8xf","address":"2030 Harrison St","species":"Arbutus Marina"},"type":"Feature","geometry":{"type":"Point","coordinates":[-122.413154197802,37.7645899623347]}},{"properties":{"latitude":37.7519379334218,"longitude":-122.422050196613,"id":"a6ejuvbczrw7","address":"3515 24th St","species":"Arbutus Marina"},"type":"Feature","geometry":{"type":"Point","coordinates":[-122.422050196613,37.7519379334218]}},{"properties":{"latitude":37.7644100667625,"longitude":-122.422724002016,"id":"a6ejuvbt72bu","address":"123 Albion St","species":"Arbutus Marina"},"type":"Feature","geometry":{"type":"Point","coordinates":[-122.422724002016,37.7644100667625]}},{"properties":{"latitude":37.7585735,"longitude":-122.4197772,"id":"a6ejuvgr2cf6","address":"3527 20th St","species":"Arbutus Marina"},"type":"Feature","geometry":{"type":"Point","coordinates":[-122.4197772,37.7585735]}},{"properties":{"latitude":37.7645051138498,"longitude":-122.413154294982,"id":"a6ejuv3l0ya0","address":"2030 Harrison St","species":"Arbutus Marina"},"type":"Feature","geometry":{"type":"Point","coordinates":[-122.413154294982,37.7645051138498]}},{"properties":{"latitude":37.7599503,"longitude":-122.4242021,"id":"a6ejuve5cpw3","address":"3628 19th St","species":"Arbutus Marina"},"type":"Feature","geometry":{"type":"Point","coordinates":[-122.4242021,37.7599503]}},{"properties":{"latitude":37.7550696666667,"longitude":-122.423053757726,"id":"a6ejuvg61f5b","address":"1001 Guerrero St","species":"Arbutus Marina"},"type":"Feature","geometry":{"type":"Point","coordinates":[-122.423053757726,37.7550696666667]}},{"properties":{"latitude":37.7563396680509,"longitude":-122.410323360775,"id":"a6ejuvcv538i","address":"981 Florida St","species":"Arbutus Marina"},"type":"Feature","geometry":{"type":"Point","coordinates":[-122.410323360775,37.7563396680509]}},{"properties":{"latitude":37.760222290256,"longitude":-122.408142821055,"id":"a6ejuvfdne22","address":"722 Hampshire St","species":"Arbutus Marina"},"type":"Feature","geometry":{"type":"Point","coordinates":[-122.408142821055,37.760222290256]}},{"properties":{"latitude":37.755155311263,"longitude":-122.4231741,"id":"a6ejuvf1byt4","address":"3415 22nd St","species":"Arbutus Marina"},"type":"Feature","geometry":{"type":"Point","coordinates":[-122.4231741,37.755155311263]}},{"properties":{"latitude":37.7559976384845,"longitude":-122.421555530786,"id":"a6ejuvfp3npc","address":"15 Hill St","species":"Arbutus Marina"},"type":"Feature","geometry":{"type":"Point","coordinates":[-122.421555530786,37.7559976384845]}},{"properties":{"latitude":37.7549847860743,"longitude":-122.42504250492,"id":"a6ejuv7qmaim","address":"3483 22nd St","species":"Arbutus Marina"},"type":"Feature","geometry":{"type":"Point","coordinates":[-122.42504250492,37.7549847860743]}},{"properties":{"latitude":37.7519934534832,"longitude":-122.423631853661,"id":"a6ejuvdi6iud","address":"3632 24th St","species":"Arbutus Marina"},"type":"Feature","geometry":{"type":"Point","coordinates":[-122.423631853661,37.7519934534832]}},{"properties":{"latitude":37.7526012275986,"longitude":-122.405168719245,"id":"a6ejuvc1rr2a","address":"1307 Utah St","species":"Arbutus Marina"},"type":"Feature","geometry":{"type":"Point","coordinates":[-122.405168719245,37.7526012275986]}},{"properties":{"latitude":37.7577479125621,"longitude":-122.40825385253,"id":"a6ejuve67yrs","address":"2666 21st St","species":"Arbutus Marina"},"type":"Feature","geometry":{"type":"Point","coordinates":[-122.40825385253,37.7577479125621]}},{"properties":{"latitude":37.7550763333333,"longitude":-122.423044878863,"id":"a6ejuv3nuglf","address":"1001 Guerrero St","species":"Arbutus Marina"},"type":"Feature","geometry":{"type":"Point","coordinates":[-122.423044878863,37.7550763333333]}},{"properties":{"latitude":37.76262,"longitude":-122.421175,"id":"a6ejuv7b8tuy","address":"84 Sycamore St","species":"Arbutus Marina"},"type":"Feature","geometry":{"type":"Point","coordinates":[-122.421175,37.76262]}},{"properties":{"latitude":37.7599696379131,"longitude":-122.422388155867,"id":"a6ejuvctbamh","address":"3543 19th St","species":"Arbutus Marina"},"type":"Feature","geometry":{"type":"Point","coordinates":[-122.422388155867,37.7599696379131]}},{"properties":{"latitude":37.7645020835468,"longitude":-122.413154298453,"id":"a6ejuv4qpj5o","address":"2030 Harrison St","species":"Arbutus Marina"},"type":"Feature","geometry":{"type":"Point","coordinates":[-122.413154298453,37.7645020835468]}},{"properties":{"latitude":37.753717,"longitude":-122.421963,"id":"a6ejuva2f2te","address":"3516 23rd St","species":"Arbutus Marina"},"type":"Feature","geometry":{"type":"Point","coordinates":[-122.421963,37.753717]}},{"properties":{"latitude":37.7548336284942,"longitude":-122.411258495201,"id":"a6ejuvasmojg","address":"1018 Alabama St","species":"Arbutus Marina"},"type":"Feature","geometry":{"type":"Point","coordinates":[-122.411258495201,37.7548336284942]}},{"properties":{"latitude":37.7559976384845,"longitude":-122.421555530786,"id":"a6ejuv8vynsd","address":"15 Hill St","species":"Arbutus Marina"},"type":"Feature","geometry":{"type":"Point","coordinates":[-122.421555530786,37.7559976384845]}},{"properties":{"latitude":37.755063,"longitude":-122.42306263659,"id":"a6ejuvgzo02t","address":"1001 Guerrero St","species":"Arbutus Marina"},"type":"Feature","geometry":{"type":"Point","coordinates":[-122.42306263659,37.755063]}},{"properties":{"latitude":37.7644990532438,"longitude":-122.413154301924,"id":"a6ejuv2vljyo","address":"2030 Harrison St","species":"Arbutus Marina"},"type":"Feature","geometry":{"type":"Point","coordinates":[-122.413154301924,37.7644990532438]}},{"properties":{"latitude":37.7560887985125,"longitude":-122.422478044741,"id":"a6ejuv0yzk9q","address":"30 Hill St","species":"Arbutus Marina"},"type":"Feature","geometry":{"type":"Point","coordinates":[-122.422478044741,37.7560887985125]}},{"properties":{"latitude":37.7585769,"longitude":-122.4197227,"id":"a6ejuvahfhe6","address":"3525 20th St","species":"Arbutus Marina"},"type":"Feature","geometry":{"type":"Point","coordinates":[-122.4197227,37.7585769]}},{"properties":{"latitude":37.7550181828615,"longitude":-122.424489041793,"id":"a6ejuvax482y","address":"3451 22nd St","species":"Arbutus Marina"},"type":"Feature","geometry":{"type":"Point","coordinates":[-122.424489041793,37.7550181828615]}},{"properties":{"latitude":37.7551555037543,"longitude":-122.4231941,"id":"a6ejuv6p57h7","address":"3415 22nd St","species":"Arbutus Marina"},"type":"Feature","geometry":{"type":"Point","coordinates":[-122.4231941,37.7551555037543]}},{"properties":{"latitude":37.7550179903398,"longitude":-122.424469041793,"id":"a6ejuv3rrt6v","address":"3451 22nd St","species":"Arbutus Marina"},"type":"Feature","geometry":{"type":"Point","coordinates":[-122.424469041793,37.7550179903398]}},{"properties":{"latitude":37.7550180866007,"longitude":-122.424479041793,"id":"a6ejuvdfzeea","address":"3451 22nd St","species":"Arbutus Marina"},"type":"Feature","geometry":{"type":"Point","coordinates":[-122.424479041793,37.7550180866007]}},{"properties":{"latitude":37.7590090093162,"longitude":-122.419937879414,"id":"a6ejuvbtzjp5","address":"276 San Carlos St","species":"Arbutus Marina"},"type":"Feature","geometry":{"type":"Point","coordinates":[-122.419937879414,37.7590090093162]}},{"properties":{"latitude":37.7645960229407,"longitude":-122.413154190861,"id":"a6ejuv5yx6xm","address":"2030 Harrison St","species":"Arbutus Marina"},"type":"Feature","geometry":{"type":"Point","coordinates":[-122.413154190861,37.7645960229407]}},{"properties":{"latitude":37.7645808714256,"longitude":-122.413154208214,"id":"a6ejuv72kupz","address":"2030 Harrison St","species":"Arbutus Marina"},"type":"Feature","geometry":{"type":"Point","coordinates":[-122.413154208214,37.7645808714256]}},{"properties":{"latitude":37.7590090093162,"longitude":-122.419937879414,"id":"a6ejuvaauxu3","address":"276 San Carlos St","species":"Arbutus Marina"},"type":"Feature","geometry":{"type":"Point","coordinates":[-122.419937879414,37.7590090093162]}},{"properties":{"latitude":37.7560887985125,"longitude":-122.422478044741,"id":"a6ejuvacgh1s","address":"30 Hill St","species":"Arbutus Marina"},"type":"Feature","geometry":{"type":"Point","coordinates":[-122.422478044741,37.7560887985125]}},{"properties":{"latitude":37.7590774443896,"longitude":-122.419944241808,"id":"a6ejuv7mbewm","address":"268 San Carlos St","species":"Arbutus Marina"},"type":"Feature","geometry":{"type":"Point","coordinates":[-122.419944241808,37.7590774443896]}},{"properties":{"latitude":37.764526325971,"longitude":-122.413154270687,"id":"a6ejuv9d8hvs","address":"2030 Harrison St","species":"Arbutus Marina"},"type":"Feature","geometry":{"type":"Point","coordinates":[-122.413154270687,37.764526325971]}},{"properties":{"latitude":37.7564758340711,"longitude":-122.413448884619,"id":"a6ejuv5yxf25","address":"852 Treat Ave","species":"Arbutus Marina"},"type":"Feature","geometry":{"type":"Point","coordinates":[-122.413448884619,37.7564758340711]}},{"properties":{"latitude":37.7585735,"longitude":-122.4197772,"id":"a6ejuv7zqu34","address":"3527 20th St","species":"Arbutus Marina"},"type":"Feature","geometry":{"type":"Point","coordinates":[-122.4197772,37.7585735]}},{"properties":{"latitude":37.7497914,"longitude":-122.4238025,"id":"a6ejuv3jh14w","address":"426 Fair Oaks St","species":"Arbutus Marina"},"type":"Feature","geometry":{"type":"Point","coordinates":[-122.4238025,37.7497914]}},{"properties":{"latitude":37.755454,"longitude":-122.419726,"id":"a6ejuvft7bty","address":"3224 22nd St","species":"Arbutus Marina"},"type":"Feature","geometry":{"type":"Point","coordinates":[-122.419726,37.755454]}},{"properties":{"latitude":37.757607252708,"longitude":-122.408151633963,"id":"a6ejuvbcc2oa","address":"2663 21st St","species":"Arbutus Marina"},"type":"Feature","geometry":{"type":"Point","coordinates":[-122.408151633963,37.757607252708]}},{"properties":{"latitude":37.755083,"longitude":-122.423036,"id":"a6ejuva6xg4c","address":"1001 Guerrero St","species":"Arbutus Marina"},"type":"Feature","geometry":{"type":"Point","coordinates":[-122.423036,37.755083]}},{"properties":{"latitude":37.7599696379131,"longitude":-122.422388155867,"id":"a6ejuvacgkce","address":"3543 19th St","species":"Arbutus Marina"},"type":"Feature","geometry":{"type":"Point","coordinates":[-122.422388155867,37.7599696379131]}},{"properties":{"latitude":37.7518228774443,"longitude":-122.407097688917,"id":"a6ejuv88v2i3","address":"1269 Hampshire St","species":"Arbutus Marina"},"type":"Feature","geometry":{"type":"Point","coordinates":[-122.407097688917,37.7518228774443]}},{"properties":{"latitude":37.7645354168801,"longitude":-122.413154260275,"id":"a6ejuv52wb1b","address":"2030 Harrison St","species":"Arbutus Marina"},"type":"Feature","geometry":{"type":"Point","coordinates":[-122.413154260275,37.7645354168801]}},{"properties":{"latitude":37.7591106478664,"longitude":-122.420502894293,"id":"a6ejuv2vfzyo","address":"265 Lexington St","species":"Arbutus Marina"},"type":"Feature","geometry":{"type":"Point","coordinates":[-122.420502894293,37.7591106478664]}},{"properties":{"latitude":37.762201276319,"longitude":-122.423984377467,"id":"a6ejuvb9yrd5","address":"558 Guerrero St","species":"Arbutus Marina"},"type":"Feature","geometry":{"type":"Point","coordinates":[-122.423984377467,37.762201276319]}},{"properties":{"latitude":37.7645717805165,"longitude":-122.413154218626,"id":"a6ejuv4ttg64","address":"2030 Harrison St","species":"Arbutus Marina"},"type":"Feature","geometry":{"type":"Point","coordinates":[-122.413154218626,37.7645717805165]}},{"properties":{"latitude":37.7635877258362,"longitude":-122.422818368986,"id":"a6ejuv1hikj3","address":"170 Albion St","species":"Arbutus Marina"},"type":"Feature","geometry":{"type":"Point","coordinates":[-122.422818368986,37.7635877258362]}},{"properties":{"latitude":37.7556042677848,"longitude":-122.41719162049,"id":"a6ejuveuh6kj","address":"3126 22nd St","species":"Arbutus Marina"},"type":"Feature","geometry":{"type":"Point","coordinates":[-122.41719162049,37.7556042677848]}},{"properties":{"latitude":37.7657659117503,"longitude":-122.417982724938,"id":"a6ejuv7lp9wn","address":"20 Adair St","species":"Arbutus Marina"},"type":"Feature","geometry":{"type":"Point","coordinates":[-122.417982724938,37.7657659117503]}},{"properties":{"latitude":37.7657422188274,"longitude":-122.418555413343,"id":"a6ejuvet2gi6","address":"36-98 Adair St","species":"Arbutus Marina"},"type":"Feature","geometry":{"type":"Point","coordinates":[-122.418555413343,37.7657422188274]}},{"properties":{"latitude":37.7683613503264,"longitude":-122.4189758,"id":"a6ejuvboib5f","address":"250 14th St","species":"Arbutus Marina"},"type":"Feature","geometry":{"type":"Point","coordinates":[-122.4189758,37.7683613503264]}},{"properties":{"latitude":37.7683495,"longitude":-122.4191852,"id":"a6ejuv5ullco","address":"260 14th St","species":"Arbutus Marina"},"type":"Feature","geometry":{"type":"Point","coordinates":[-122.4191852,37.7683495]}},{"properties":{"latitude":37.7683613754896,"longitude":-122.4189808,"id":"a6ejuvgyg14w","address":"250 14th St","species":"Arbutus Marina"},"type":"Feature","geometry":{"type":"Point","coordinates":[-122.4189808,37.7683613754896]}},{"properties":{"latitude":37.766542178392,"longitude":-122.420784322541,"id":"a6ejuvh9oyj4","address":"1649 15th St","species":"Arbutus Marina"},"type":"Feature","geometry":{"type":"Point","coordinates":[-122.420784322541,37.766542178392]}},{"properties":{"latitude":37.7683613,"longitude":-122.4189658,"id":"a6ejuvb7m0qd","address":"250 14th St","species":"Arbutus Marina"},"type":"Feature","geometry":{"type":"Point","coordinates":[-122.4189658,37.7683613]}},{"properties":{"latitude":37.766809096528,"longitude":-122.425316706814,"id":"a6ejuv2q0cg0","address":"76 Ramona St","species":"Arbutus Marina"},"type":"Feature","geometry":{"type":"Point","coordinates":[-122.425316706814,37.766809096528]}},{"properties":{"latitude":37.7679472381562,"longitude":-122.418567045616,"id":"a6ejuv1ksgo2","address":"1322 Natoma St","species":"Arbutus Marina"},"type":"Feature","geometry":{"type":"Point","coordinates":[-122.418567045616,37.7679472381562]}},{"properties":{"latitude":37.7657638854941,"longitude":-122.418555259104,"id":"a6ejuv8r2gr7","address":"65 Capp St","species":"Arbutus Marina"},"type":"Feature","geometry":{"type":"Point","coordinates":[-122.418555259104,37.7657638854941]}},{"properties":{"latitude":37.7683495,"longitude":-122.4191852,"id":"a6ejuv1ukn3r","address":"260 14th St","species":"Arbutus Marina"},"type":"Feature","geometry":{"type":"Point","coordinates":[-122.4191852,37.7683495]}},{"properties":{"latitude":37.7665195265294,"longitude":-122.416605809084,"id":"a6ejuvemfq67","address":"112 Shotwell St","species":"Arbutus Marina"},"type":"Feature","geometry":{"type":"Point","coordinates":[-122.416605809084,37.7665195265294]}},{"properties":{"latitude":37.7695753972898,"longitude":-122.424692955271,"id":"a6ejuv2aqkg7","address":"102 Guerrero St","species":"Arbutus Marina"},"type":"Feature","geometry":{"type":"Point","coordinates":[-122.424692955271,37.7695753972898]}},{"properties":{"latitude":37.7683614006528,"longitude":-122.4189858,"id":"a6ejuvh6vuh5","address":"250 14th St","species":"Arbutus Marina"},"type":"Feature","geometry":{"type":"Point","coordinates":[-122.4189858,37.7683614006528]}},{"properties":{"latitude":37.7645748108195,"longitude":-122.413154215156,"id":"a6ejuv8bh1rd","address":"2030 Harrison St","species":"Arbutus Marina"},"type":"Feature","geometry":{"type":"Point","coordinates":[-122.413154215156,37.7645748108195]}},{"properties":{"latitude":37.762201276319,"longitude":-122.423984377467,"id":"a6ejuvfe5q9x","address":"558 Guerrero St","species":"Arbutus Marina"},"type":"Feature","geometry":{"type":"Point","coordinates":[-122.423984377467,37.762201276319]}},{"properties":{"latitude":37.7551238095202,"longitude":-122.42272876801,"id":"a6ejuve8go3n","address":"3381 22nd St","species":"Arbutus Marina"},"type":"Feature","geometry":{"type":"Point","coordinates":[-122.42272876801,37.7551238095202]}},{"properties":{"latitude":37.7590656,"longitude":-122.424945,"id":"a6ejuv6odqx2","address":"69 Cumberland St","species":"Arbutus Marina"},"type":"Feature","geometry":{"type":"Point","coordinates":[-122.424945,37.7590656]}},{"properties":{"latitude":37.7645293562741,"longitude":-122.413154267217,"id":"a6ejuv1jnt2z","address":"2030 Harrison St","species":"Arbutus Marina"},"type":"Feature","geometry":{"type":"Point","coordinates":[-122.413154267217,37.7645293562741]}},{"properties":{"latitude":37.7551554075087,"longitude":-122.4231841,"id":"a6ejuv63qxkq","address":"3415 22nd St","species":"Arbutus Marina"},"type":"Feature","geometry":{"type":"Point","coordinates":[-122.4231841,37.7551554075087]}},{"properties":{"latitude":37.7554542137638,"longitude":-122.419746,"id":"a6ejuvcfpu7o","address":"3242 22nd St","species":"Arbutus Marina"},"type":"Feature","geometry":{"type":"Point","coordinates":[-122.419746,37.7554542137638]}},{"properties":{"latitude":37.7645596593044,"longitude":-122.413154232509,"id":"a6ejuv26kxyh","address":"2030 Harrison St","species":"Arbutus Marina"},"type":"Feature","geometry":{"type":"Point","coordinates":[-122.413154232509,37.7645596593044]}},{"properties":{"latitude":37.7554541068819,"longitude":-122.419736,"id":"a6ejuv20iqph","address":"3224 22nd St","species":"Arbutus Marina"},"type":"Feature","geometry":{"type":"Point","coordinates":[-122.419736,37.7554541068819]}},{"properties":{"latitude":37.764520265365,"longitude":-122.413154277629,"id":"a6ejuv2ycw9o","address":"2030 Harrison St","species":"Arbutus Marina"},"type":"Feature","geometry":{"type":"Point","coordinates":[-122.413154277629,37.764520265365]}},{"properties":{"latitude":37.7551556,"longitude":-122.4232041,"id":"a6ejuv6d0rz1","address":"3415 22nd St","species":"Arbutus Marina"},"type":"Feature","geometry":{"type":"Point","coordinates":[-122.4232041,37.7551556]}},{"properties":{"latitude":37.7550562,"longitude":-122.4248718,"id":"a6ejuvbiag2a","address":"3473-3483 22nd St","species":"Arbutus Marina"},"type":"Feature","geometry":{"type":"Point","coordinates":[-122.4248718,37.7550562]}},{"properties":{"latitude":37.7683613251632,"longitude":-122.4189708,"id":"a6ejuv99zwc6","address":"250 14th St","species":"Arbutus Marina"},"type":"Feature","geometry":{"type":"Point","coordinates":[-122.4189708,37.7683613251632]}},{"properties":{"latitude":37.768361425816,"longitude":-122.4189908,"id":"a6ejuvecz5ga","address":"250 14th St","species":"Arbutus Marina"},"type":"Feature","geometry":{"type":"Point","coordinates":[-122.4189908,37.768361425816]}},{"properties":{"latitude":37.7554543206456,"longitude":-122.419756,"id":"a6ejuv8kh1z9","address":"3224 22nd St","species":"Arbutus Marina"},"type":"Feature","geometry":{"type":"Point","coordinates":[-122.419756,37.7554543206456]}},{"properties":{"latitude":37.751765038509,"longitude":-122.424064172989,"id":"a6ejuve54ybw","address":"306 Fair Oaks St","species":"Arbutus Marina"},"type":"Feature","geometry":{"type":"Point","coordinates":[-122.424064172989,37.751765038509]}},{"properties":{"latitude":37.7569920201962,"longitude":-122.418985942948,"id":"a6ejuv96452k","address":"2500 Mission St","species":"Arbutus Marina"},"type":"Feature","geometry":{"type":"Point","coordinates":[-122.418985942948,37.7569920201962]}},{"properties":{"latitude":37.7492276863324,"longitude":-122.416222972062,"id":"a6ejuv6fddmw","address":"3312 26th St","species":"Arbutus Marina"},"type":"Feature","geometry":{"type":"Point","coordinates":[-122.416222972062,37.7492276863324]}},{"properties":{"latitude":37.7570120201962,"longitude":-122.418985622944,"id":"a6ejuvge5j9m","address":"2500 Mission St","species":"Arbutus Marina"},"type":"Feature","geometry":{"type":"Point","coordinates":[-122.418985622944,37.7570120201962]}},{"properties":{"latitude":37.751765038509,"longitude":-122.424064172989,"id":"a6ejuv2tsobj","address":"306 Fair Oaks St","species":"Arbutus Marina"},"type":"Feature","geometry":{"type":"Point","coordinates":[-122.424064172989,37.751765038509]}},{"properties":{"latitude":37.7543960232785,"longitude":-122.41215302769,"id":"a6ejuvd6f024","address":"2690 Harrison St","species":"Arbutus Marina"},"type":"Feature","geometry":{"type":"Point","coordinates":[-122.41215302769,37.7543960232785]}},{"properties":{"latitude":37.7570020201962,"longitude":-122.418985782946,"id":"a6ejuvamkym2","address":"2500 Mission St","species":"Arbutus Marina"},"type":"Feature","geometry":{"type":"Point","coordinates":[-122.418985782946,37.7570020201962]}},{"properties":{"latitude":37.7683614509792,"longitude":-122.4189958,"id":"a6ejuv6p3ivo","address":"250 14th St","species":"Arbutus Marina"},"type":"Feature","geometry":{"type":"Point","coordinates":[-122.4189958,37.7683614509792]}},{"properties":{"latitude":37.7655108089274,"longitude":-122.413586451307,"id":"a6ejuv7bdq20","address":"2730 16th St","species":"Arbutus Marina"},"type":"Feature","geometry":{"type":"Point","coordinates":[-122.413586451307,37.7655108089274]}},{"properties":{"latitude":37.7655107963971,"longitude":-122.413579392483,"id":"a6ejuv6f92pc","address":"2730 16th St","species":"Arbutus Marina"},"type":"Feature","geometry":{"type":"Point","coordinates":[-122.413579392483,37.7655107963971]}},{"properties":{"latitude":37.7655248414364,"longitude":-122.406612708485,"id":"a6ejuv57iweg","address":"322 Utah St","species":"Arbutus Marina"},"type":"Feature","geometry":{"type":"Point","coordinates":[-122.406612708485,37.7655248414364]}},{"properties":{"latitude":37.7578046098451,"longitude":-122.413579250318,"id":"a6ejuvauusu8","address":"772 Treat Ave","species":"Arbutus Marina"},"type":"Feature","geometry":{"type":"Point","coordinates":[-122.413579250318,37.7578046098451]}},{"properties":{"latitude":37.7492276863324,"longitude":-122.416222972062,"id":"a6ejuvg33u8g","address":"3312 26th St","species":"Arbutus Marina"},"type":"Feature","geometry":{"type":"Point","coordinates":[-122.416222972062,37.7492276863324]}},{"properties":{"latitude":37.7569820201962,"longitude":-122.418986102951,"id":"a6ejuvh4m92w","address":"2500 Mission St","species":"Arbutus Marina"},"type":"Feature","geometry":{"type":"Point","coordinates":[-122.418986102951,37.7569820201962]}},{"properties":{"latitude":37.7636087163046,"longitude":-122.417783560886,"id":"a6ejuv4lpy8u","address":"3214 17th St","species":"Arbutus Marina"},"type":"Feature","geometry":{"type":"Point","coordinates":[-122.417783560886,37.7636087163046]}},{"properties":{"latitude":37.7578611,"longitude":-122.4096359,"id":"a6ejuvc6glsj","address":"2288 Bryant St","species":"Arbutus Marina"},"type":"Feature","geometry":{"type":"Point","coordinates":[-122.4096359,37.7578611]}},{"properties":{"latitude":37.75797,"longitude":-122.409755,"id":"a6ejuv1fgvmq","address":"2284 Bryant St","species":"Arbutus Marina"},"type":"Feature","geometry":{"type":"Point","coordinates":[-122.409755,37.75797]}},{"properties":{"latitude":37.7577801185067,"longitude":-122.41449613068,"id":"a6ejuv9sbl2c","address":"2471 Folsom St","species":"Arbutus Marina"},"type":"Feature","geometry":{"type":"Point","coordinates":[-122.41449613068,37.7577801185067]}},{"properties":{"latitude":37.7495268579102,"longitude":-122.422770075415,"id":"a6ejuv2rzb7f","address":"1350 Guerrero St","species":"Arbutus Marina"},"type":"Feature","geometry":{"type":"Point","coordinates":[-122.422770075415,37.7495268579102]}},{"properties":{"latitude":37.751591220236,"longitude":-122.411680554208,"id":"a6ejuvddcrpj","address":"2869 Harrison St","species":"Arbutus Marina"},"type":"Feature","geometry":{"type":"Point","coordinates":[-122.411680554208,37.751591220236]}},{"properties":{"latitude":37.769689513384,"longitude":-122.4250586,"id":"a6ejuv7e3l13","address":"223 Duboce Ave","species":"Arbutus Marina"},"type":"Feature","geometry":{"type":"Point","coordinates":[-122.4250586,37.769689513384]}},{"properties":{"latitude":37.769689656692,"longitude":-122.4250736,"id":"a6ejuv8s4i5b","address":"223 Duboce Ave","species":"Arbutus Marina"},"type":"Feature","geometry":{"type":"Point","coordinates":[-122.4250736,37.769689656692]}},{"properties":{"latitude":37.769689728346,"longitude":-122.4250811,"id":"a6ejuvfvg1sh","address":"223 Duboce Ave","species":"Arbutus Marina"},"type":"Feature","geometry":{"type":"Point","coordinates":[-122.4250811,37.769689728346]}},{"properties":{"latitude":37.7644742530073,"longitude":-122.4079588,"id":"a6ejuvf0yi7m","address":"2450 17th St","species":"Arbutus Marina"},"type":"Feature","geometry":{"type":"Point","coordinates":[-122.4079588,37.7644742530073]}},{"properties":{"latitude":37.7644740265036,"longitude":-122.4079438,"id":"a6ejuv77055k","address":"2450 17th St","species":"Arbutus Marina"},"type":"Feature","geometry":{"type":"Point","coordinates":[-122.4079438,37.7644740265036]}},{"properties":{"latitude":37.7644738,"longitude":-122.4079288,"id":"a6ejuvef9jb4","address":"2400-2498 17th St","species":"Arbutus Marina"},"type":"Feature","geometry":{"type":"Point","coordinates":[-122.4079288,37.7644738]}}],"is_temporal":false,"author":{"url":"","metadata":null,"contact_name":null,"contact_address":null,"source":null,"contact_phone":null},"source":"","pagination":{"sort":null,"start":0,"total":113,"limit":1000000},"state":"complete","tags":"","published":"2014-08-14T17:29:35-04:00","id":251974}