{"type":"FeatureCollection","data_type":"Dataset","url_type":null,"permissions":[{"permissions":{"download":true,"view":true},"group_id":"everyone"}],"classification":null,"title":"Zealous Good Charity Locations","count":96,"stream_id":252584,"contributor":{"url":"http://geocommons.com/users/47108","name":"jessemavi"},"data_attributes":null,"calculation_params":null,"icon_link":null,"link":"http://geocommons.com/overlays/252584.json","extent":[-89.396,38.3431,-87.5935,42.3562],"geometry_types":["point"],"unique_name":null,"name":"Zealous Good Charity Locations","feature_count":96,"description":"","next_feature":null,"is_raster":false,"short_classification":"Y","stats":{},"features":[{"properties":{"city":"Chicago","name":"A Safe Haven Foundation","zip":"60608","geo_score":1.0,"id":"a6g5zc0cgorq","geo_precision":"range","address":"2750 West Roosevelt Road","state":"IL"},"type":"Feature","geometry":{"type":"Point","coordinates":[-87.694987,41.86652]}},{"properties":{"city":"Chicago","name":"Affinity Community Services","zip":"60615","geo_score":0.633,"id":"a6g5zc0gvj8y","geo_precision":"street","address":"1424-28 E. 53rd Street, Suite 306","state":"IL"},"type":"Feature","geometry":{"type":"Point","coordinates":[-87.624179,41.798144]}},{"properties":{"city":"Chicago","name":"Anixter Center","zip":"60614","geo_score":0.607,"id":"a6g5zbp8j95o","geo_precision":"street","address":"2001 N. Clybourn","state":"IL"},"type":"Feature","geometry":{"type":"Point","coordinates":[-87.650736,41.911787]}},{"properties":{"city":"Chicago","name":"Apna Ghar (Our Home)","zip":"60640","geo_score":0.571,"id":"a6g5zc1yec7s","geo_precision":"street","address":"4753 North Broadway, Suite 632","state":"IL"},"type":"Feature","geometry":{"type":"Point","coordinates":[-87.655716,41.962652]}},{"properties":{"city":"Chicago","name":"ArtReach at Lillstreet","zip":"60640","geo_score":0.602,"id":"a6g5zbzp3jom","geo_precision":"street","address":"4401 N. Ravenswood","state":"IL"},"type":"Feature","geometry":{"type":"Point","coordinates":[-87.674521,41.961518]}},{"properties":{"city":"Chicago","name":"Barry Elementary School","zip":"60641","geo_score":0.607,"id":"a6g5zbzz5t6e","geo_precision":"street","address":"2828 N. Kilbourn","state":"IL"},"type":"Feature","geometry":{"type":"Point","coordinates":[-87.739263,41.932024]}},{"properties":{"city":"Chicago","name":"Bottomless Closet Inc","zip":"60654","geo_score":0.329,"id":"a6g5zbt8u5oz","geo_precision":"street","address":"435 N. LaSalle Street","state":"IL"},"type":"Feature","geometry":{"type":"Point","coordinates":[-87.632465,41.886278]}},{"properties":{"city":"Chicago","name":"Bridge to Success","zip":"60607","geo_score":0.614,"id":"a6g5zbtlxx9n","geo_precision":"street","address":"1236 S. Halsted St.","state":"IL"},"type":"Feature","geometry":{"type":"Point","coordinates":[-87.647185,41.876104]}},{"properties":{"city":"Chicago","name":"Bright Promise Fund for Urban Christian Education","zip":"60605","geo_score":0.625,"id":"a6g5zbs3wdrk","geo_precision":"street","address":"1550 S. State Street","state":"IL"},"type":"Feature","geometry":{"type":"Point","coordinates":[-87.627805,41.882042]}},{"properties":{"city":"Chicago","name":"Cabrini Connections","zip":"60642","geo_score":0.339,"id":"a6g5zbvk9gm5","geo_precision":"street","address":"800 W. Huron","state":"IL"},"type":"Feature","geometry":{"type":"Point","coordinates":[-87.632598,41.894812]}},{"properties":{"city":"Chicago","name":"Caring Connections for Seniors","zip":"60626","geo_score":1.0,"id":"a6g5zbw3rcui","geo_precision":"range","address":"1545 West Morse Ave.","state":"IL"},"type":"Feature","geometry":{"type":"Point","coordinates":[-87.668705,42.007859]}},{"properties":{"city":"Chicago","name":"Catapult Chicago","zip":"60654","geo_score":0.339,"id":"a6g5zc0vguzz","geo_precision":"street","address":"321 N. Clark","state":"IL"},"type":"Feature","geometry":{"type":"Point","coordinates":[-87.631106,41.890823]}},{"properties":{"city":"Chicago","name":"Causes for Change International","zip":"60660","geo_score":1.0,"id":"a6g5zc1bp567","geo_precision":"range","address":"6033 North Sheridan Road","state":"IL"},"type":"Feature","geometry":{"type":"Point","coordinates":[-87.65544,41.991827]}},{"properties":{"city":"Chicago","name":"Changing Worlds","zip":"60616","geo_score":0.633,"id":"a6g5zbvr3oms","geo_precision":"street","address":"329 W. 18th St.","state":"IL"},"type":"Feature","geometry":{"type":"Point","coordinates":[-87.627997,41.857805]}},{"properties":{"city":"Chicago","name":"Chicago Adventure Therapy","zip":"60613","geo_score":0.329,"id":"a6g5zbotr7bc","geo_precision":"street","address":"PO Box 13062","state":"IL"},"type":"Feature","geometry":{"type":"Point","coordinates":[-87.669533,41.907581]}},{"properties":{"city":"Chicago","name":"Chicago Gateway Green","zip":"60601","geo_score":0.947,"id":"a6g5zc05bpm9","geo_precision":"range","address":"200 E Randolph","state":"IL"},"type":"Feature","geometry":{"type":"Point","coordinates":[-87.622974,41.884291]}},{"properties":{"city":"Chicago","name":"Chicago House &amp; Social Service Agency","zip":"60614","geo_score":1.0,"id":"a6g5zbtl8b61","geo_precision":"range","address":"1925 North Clybourn Avenue","state":"IL"},"type":"Feature","geometry":{"type":"Point","coordinates":[-87.65666,41.916148]}},{"properties":{"city":"Chicago","name":"Chicago Human Rhythm Project","zip":"60657","geo_score":0.604,"id":"a6g5zbnegbyz","geo_precision":"street","address":"2936 N. Southport Ave","state":"IL"},"type":"Feature","geometry":{"type":"Point","coordinates":[-87.663583,41.932931]}},{"properties":{"city":"Chicago","name":"Chicago International Social Change Film Festival","zip":"60616","geo_score":0.854,"id":"a6g5zbqvqinw","geo_precision":"range","address":"23 East 26th Street Unit 2","state":"IL"},"type":"Feature","geometry":{"type":"Point","coordinates":[-87.626132,41.8456]}},{"properties":{"city":"Chicago","name":"Chicago Lights","zip":"60611","geo_score":0.61,"id":"a6g5zbo0z73e","geo_precision":"street","address":"126 E. Chestnut","state":"IL"},"type":"Feature","geometry":{"type":"Point","coordinates":[-87.628244,41.898316]}},{"properties":{"city":"Chicago","name":"Chicago Photography Center","zip":"60657","geo_score":0.61,"id":"a6g5zbofmlj5","geo_precision":"street","address":"3301 N. Lincoln Ave","state":"IL"},"type":"Feature","geometry":{"type":"Point","coordinates":[-87.65871,41.932556]}},{"properties":{"city":"Chicago","name":"Child's Play Touring Theatre","zip":"60647","geo_score":0.607,"id":"a6g5zbw1s8qo","geo_precision":"street","address":"2518 W. Armitage Avenue","state":"IL"},"type":"Feature","geometry":{"type":"Point","coordinates":[-87.677622,41.917757]}},{"properties":{"city":"Wood Dale","name":"Child's Voice","zip":"60191","geo_score":1.0,"id":"a6g5zc3hxv3d","geo_precision":"range","address":"180 Hansen Court","state":"IL"},"type":"Feature","geometry":{"type":"Point","coordinates":[-87.984403,41.981217]}},{"properties":{"city":"Chicago","name":"ChildServ","zip":"60631","geo_score":1.0,"id":"a6g5zbs3layo","geo_precision":"zip","address":"8765 W. Higgins Road","state":"IL"},"type":"Feature","geometry":{"type":"Point","coordinates":[-87.808611,42.00583]}},{"properties":{"city":"Chicago","name":"CircEsteem","zip":"60640","geo_score":0.61,"id":"a6g5zbyerp9m","geo_precision":"street","address":"4730 N. Sheridan","state":"IL"},"type":"Feature","geometry":{"type":"Point","coordinates":[-87.654748,41.961778]}},{"properties":{"city":"Chicago","name":"Climate Cycle","zip":"60647","geo_score":0.607,"id":"a6g5zbzctja1","geo_precision":"street","address":"2545 W. Diversey","state":"IL"},"type":"Feature","geometry":{"type":"Point","coordinates":[-87.678135,41.932285]}},{"properties":{"city":"Bolingbrook","name":"Common Roots Initiative (CRI)","zip":"60440","geo_score":0.61,"id":"a6g5zc1mgqac","geo_precision":"street","address":"161 N. Robinhood Way","state":"IL"},"type":"Feature","geometry":{"type":"Point","coordinates":[-88.071723,41.70612]}},{"properties":{"city":"Chicago","name":"Common Threads","zip":"60654","geo_score":0.752,"id":"a6g5zc0ivvbi","geo_precision":"range","address":"500 North Dearborn","state":"IL"},"type":"Feature","geometry":{"type":"Point","coordinates":[-87.629628,41.890833]}},{"properties":{"city":null,"name":"Cool Classics","zip":null,"geo_score":0.0,"id":"a6g5zbyt1qkw","geo_precision":"","address":null,"state":null},"type":"Feature","geometry":null},{"properties":{"city":"Chicago","name":"Community TV Network","zip":"60647","geo_score":0.598,"id":"a6g5zbnho9ye","geo_precision":"street","address":"2418 W. Bloomingdale","state":"IL"},"type":"Feature","geometry":{"type":"Point","coordinates":[-87.683155,41.914058]}},{"properties":{"city":"Chicago","name":"Cornerstone Counseling Center of Chicago","zip":"60610","geo_score":0.625,"id":"a6g5zc2db4rt","geo_precision":"street","address":"1111 N. Wells Street","state":"IL"},"type":"Feature","geometry":{"type":"Point","coordinates":[-87.633823,41.881945]}},{"properties":{"city":"Chicago","name":"Deborah's Place","zip":"60612","geo_score":0.607,"id":"a6g5zbze1gzv","geo_precision":"street","address":"2822 W. Jackson Blvd","state":"IL"},"type":"Feature","geometry":{"type":"Point","coordinates":[-87.667654,41.877608]}},{"properties":{"city":"Lisle","name":"Dorothy's Family","zip":"60532","geo_score":0.619,"id":"a6g5zbrsdyxa","geo_precision":"street","address":"PO Box 4203","state":"IL"},"type":"Feature","geometry":{"type":"Point","coordinates":[-88.067247,41.804238]}},{"properties":{"city":"Chicago","name":"Erie Neighborhood House Adult Programs","zip":"60622","geo_score":0.61,"id":"a6g5zc23yaa2","geo_precision":"street","address":"1701 W. Superior St.","state":"IL"},"type":"Feature","geometry":{"type":"Point","coordinates":[-87.648157,41.895654]}},{"properties":{"city":"Chicago","name":"Facing Forward to End Homelessness","zip":"60612","geo_score":0.912,"id":"a6g5zbs49efq","geo_precision":"range","address":"642 N Kedzie","state":"IL"},"type":"Feature","geometry":{"type":"Point","coordinates":[-87.706465,41.892679]}},{"properties":{"city":"Waukegan","name":"Family First Center of Lake County","zip":"60085","geo_score":0.927,"id":"a6g5zbzux50o","geo_precision":"range","address":"202 South Genesee Street","state":"IL"},"type":"Feature","geometry":{"type":"Point","coordinates":[-87.831407,42.35617]}},{"properties":{"city":"Chicago","name":"Family Focus","zip":"60607","geo_score":0.619,"id":"a6g5zc0gvqj0","geo_precision":"street","address":"310 S. Peoria Ave.","state":"IL"},"type":"Feature","geometry":{"type":"Point","coordinates":[-87.649698,41.881775]}},{"properties":{"city":"Chicago","name":"Franciscan Outreach Association","zip":"60622","geo_score":0.614,"id":"a6g5zbzkj6fo","geo_precision":"street","address":"1645 W. Le Moyne St.","state":"IL"},"type":"Feature","geometry":{"type":"Point","coordinates":[-87.659229,41.909069]}},{"properties":{"city":"Chicago","name":"Friends of the Bessemer Bears","zip":"60619","geo_score":0.912,"id":"a6g5zbp2j7cf","geo_precision":"range","address":"8266 s vernon","state":"IL"},"type":"Feature","geometry":{"type":"Point","coordinates":[-87.613533,41.744433]}},{"properties":{"city":"Chicago","name":"Girls in the Game","zip":"60607","geo_score":0.61,"id":"a6g5zbuzxgwp","geo_precision":"street","address":"1501 W. Randolph St","state":"IL"},"type":"Feature","geometry":{"type":"Point","coordinates":[-87.647436,41.884406]}},{"properties":{"city":"Chicago","name":"Girls Rock! Chicago","zip":"60622","geo_score":0.619,"id":"a6g5zby0nze9","geo_precision":"street","address":"1644 N. Honore","state":"IL"},"type":"Feature","geometry":{"type":"Point","coordinates":[-87.67344,41.897787]}},{"properties":{"city":"Chicago","name":"Global Explorers Kids","zip":"60625","geo_score":0.932,"id":"a6g5zbqjgp4j","geo_precision":"range","address":"4437 N Maplewood","state":"IL"},"type":"Feature","geometry":{"type":"Point","coordinates":[-87.692371,41.961967]}},{"properties":{"city":"Chicago","name":"Greenhouse Theater Center","zip":"60614","geo_score":1.0,"id":"a6g5zby4bvsa","geo_precision":"range","address":"2257 N Lincoln Ave","state":"IL"},"type":"Feature","geometry":{"type":"Point","coordinates":[-87.645041,41.922889]}},{"properties":{"city":"Chicago","name":"Growing Home, Inc.","zip":"60614","geo_score":0.625,"id":"a6g5zc1sj2en","geo_precision":"street","address":"2732 N. Clark Street, Suite 310","state":"IL"},"type":"Feature","geometry":{"type":"Point","coordinates":[-87.632854,41.913174]}},{"properties":{"city":"Chicago","name":"Guided Hands Foundation","zip":"60607","geo_score":0.743,"id":"a6g5zbqtcp1n","geo_precision":"street","address":"1137 West Taylor, #238","state":"IL"},"type":"Feature","geometry":{"type":"Point","coordinates":[-87.635752,41.869831]}},{"properties":{"city":"Chicago","name":"H.O.Y.C.E. Youth Center (Helping Our Youth Change Everyday)","zip":"60615","geo_score":0.633,"id":"a6g5zbn0rwzo","geo_precision":"street","address":"220 E. 51st St.","state":"IL"},"type":"Feature","geometry":{"type":"Point","coordinates":[-87.623453,41.801987]}},{"properties":{"city":"Chicago","name":"Housing Opportunities and Maintenance for the Elderly (H.O.M.E.)","zip":"60607","geo_score":0.61,"id":"a6g5zbpavty6","geo_precision":"street","address":"1419 W. Carroll Avenue","state":"IL"},"type":"Feature","geometry":{"type":"Point","coordinates":[-87.648698,41.887837]}},{"properties":{"city":"Chicago","name":"Hyde Park Neighborhood Club","zip":"60615","geo_score":0.902,"id":"a6g5zbyezaf3","geo_precision":"range","address":"5480 S KENWOOD AVE","state":"IL"},"type":"Feature","geometry":{"type":"Point","coordinates":[-87.593476,41.795584]}},{"properties":{"city":"Chicago","name":"i.c.stars |*","zip":"60654","geo_score":0.805,"id":"a6g5zboeo2do","geo_precision":"range","address":"212 West Superior Street","state":"IL"},"type":"Feature","geometry":{"type":"Point","coordinates":[-87.634318,41.895592]}},{"properties":{"city":"Chicago","name":"Illinois Maternal &amp; Child Health Coalition","zip":"60642","geo_score":0.325,"id":"a6g5zbz5vy1x","geo_precision":"street","address":"1256 W. Chicago Ave.","state":"IL"},"type":"Feature","geometry":{"type":"Point","coordinates":[-87.630704,41.896643]}},{"properties":{"city":"Fairview Heights","name":"Illinois Voices for Reform, Inc.","zip":"62208","geo_score":0.429,"id":"a6g5zbxdurlw","geo_precision":"street","address":"PO Box 4016","state":"IL"},"type":"Feature","geometry":{"type":"Point","coordinates":[-89.39603,38.343146]}},{"properties":{"city":"Chicago","name":"Imagine Englewood If...","zip":"60636","geo_score":0.554,"id":"a6g5zbn83sel","geo_precision":"street","address":"730 W. 69 ST","state":"IL"},"type":"Feature","geometry":{"type":"Point","coordinates":[-87.65421,41.768693]}},{"properties":{"city":"Chicago","name":"IMPACT Chicago","zip":"60607","geo_score":0.325,"id":"a6g5zc3i4n3l","geo_precision":"street","address":"4770 Lincoln Ave, Suite 6","state":"IL"},"type":"Feature","geometry":{"type":"Point","coordinates":[-87.635503,41.916565]}},{"properties":{"city":"Chicago","name":"Jane Addams Resource Corporation (Not Hull House)","zip":"60640","geo_score":0.937,"id":"a6g5zc39dvf3","geo_precision":"range","address":"4432 North Ravenswood","state":"IL"},"type":"Feature","geometry":{"type":"Point","coordinates":[-87.674536,41.962113]}},{"properties":{"city":"Chicago","name":"Jump Rhythm Jazz Project","zip":"60618","geo_score":1.0,"id":"a6g5zc2nhfee","geo_precision":"range","address":"4109 North Kedzie Avenue","state":"IL"},"type":"Feature","geometry":{"type":"Point","coordinates":[-87.708072,41.955889]}},{"properties":{"city":"Chicago","name":"La Casa Norte","zip":"60647","geo_score":0.619,"id":"a6g5zbq1nhfo","geo_precision":"street","address":"3533 W. North Avenue","state":"IL"},"type":"Feature","geometry":{"type":"Point","coordinates":[-87.678175,41.910472]}},{"properties":{"city":"Chicago","name":"Lakeside Community Committee","zip":"60619","geo_score":0.598,"id":"a6g5zbxwx19v","geo_precision":"street","address":"7418 S. Cottage Grove Avenue","state":"IL"},"type":"Feature","geometry":{"type":"Point","coordinates":[-87.603725,41.765812]}},{"properties":{"city":"Chicago","name":"Leap Learning Systems","zip":"60603","geo_score":0.607,"id":"a6g5zboaywtp","geo_precision":"street","address":"8 S. Michigan Ave","state":"IL"},"type":"Feature","geometry":{"type":"Point","coordinates":[-87.624296,41.882118]}},{"properties":{"city":"Des Plaines","name":"Lutheran Social Services of Illinois","zip":"60018","geo_score":0.922,"id":"a6g5zc0ebwoy","geo_precision":"range","address":"1001 East Touhy Avenue","state":"IL"},"type":"Feature","geometry":{"type":"Point","coordinates":[-87.89902,42.009216]}},{"properties":{"city":"Chicago","name":"Marillac Social Center","zip":"60612","geo_score":0.604,"id":"a6g5zbzg5ciq","geo_precision":"street","address":"212 S. Francisco Avenue","state":"IL"},"type":"Feature","geometry":{"type":"Point","coordinates":[-87.698709,41.880402]}},{"properties":{"city":"Chicago","name":"Matthew House, Inc.","zip":"60653","geo_score":1.0,"id":"a6g5zc1k5nbu","geo_precision":"range","address":"3722-28 South Indiana Avenue","state":"IL"},"type":"Feature","geometry":{"type":"Point","coordinates":[-87.621666,41.826712]}},{"properties":{"city":"Chicago","name":"Minds Matter of Chicago","zip":"60654","geo_score":0.357,"id":"a6g5zbuzgha3","geo_precision":"street","address":"P.O. Box 3149","state":"IL"},"type":"Feature","geometry":{"type":"Point","coordinates":[-87.654314,41.915461]}},{"properties":{"city":"Chicago","name":"Neumann Family Services","zip":"60640","geo_score":0.602,"id":"a6g5zbyyrat5","geo_precision":"street","address":"5547 N. Ravenswood","state":"IL"},"type":"Feature","geometry":{"type":"Point","coordinates":[-87.674521,41.961518]}},{"properties":{"city":"Chicago","name":"New Moms, Inc.","zip":"60647","geo_score":0.614,"id":"a6g5zbuiq67s","geo_precision":"street","address":"2845 W. McLean","state":"IL"},"type":"Feature","geometry":{"type":"Point","coordinates":[-87.677647,41.918521]}},{"properties":{"city":"Northbrook","name":"North Suburban YMCA","zip":"60062","geo_score":1.0,"id":"a6g5zbp8h9jy","geo_precision":"range","address":"2705 Techny Road","state":"IL"},"type":"Feature","geometry":{"type":"Point","coordinates":[-87.84673,42.116582]}},{"properties":{"city":"Chicago","name":"PACTT Learning Center","zip":"60626","geo_score":0.604,"id":"a6g5zbrwhgum","geo_precision":"street","address":"7101 N. Greenview Ave","state":"IL"},"type":"Feature","geometry":{"type":"Point","coordinates":[-87.667971,41.99856]}},{"properties":{"city":"Chicago","name":"Pediatric AIDS Chicago Prevention Initiative","zip":"60606","geo_score":0.607,"id":"a6g5zbqce1r1","geo_precision":"street","address":"200 W. Jackson Blvd.","state":"IL"},"type":"Feature","geometry":{"type":"Point","coordinates":[-87.633729,41.878119]}},{"properties":{"city":"Chicago","name":"Poder Learning Center","zip":"60608","geo_score":0.941,"id":"a6g5zbwlhdgs","geo_precision":"range","address":"1637 S Allport","state":"IL"},"type":"Feature","geometry":{"type":"Point","coordinates":[-87.657697,41.859417]}},{"properties":{"city":"Buffalo Grove","name":"Praying Single Mothers","zip":"60089","geo_score":1.0,"id":"a6g5zbpbscwz","geo_precision":"zip","address":null,"state":"IL"},"type":"Feature","geometry":{"type":"Point","coordinates":[-87.960771,42.180411]}},{"properties":{"city":"Chicago","name":"Profiles Theatre","zip":"60613","geo_score":0.61,"id":"a6g5zc0j139f","geo_precision":"street","address":"4147 N. Broadway","state":"IL"},"type":"Feature","geometry":{"type":"Point","coordinates":[-87.647275,41.947354]}},{"properties":{"city":"Chicago","name":"Project Education Plus","zip":"60610","geo_score":0.604,"id":"a6g5zbzpih75","geo_precision":"street","address":"857 N. Cleveland","state":"IL"},"type":"Feature","geometry":{"type":"Point","coordinates":[-87.640577,41.897083]}},{"properties":{"city":"Chicago","name":"Project SYNCERE","zip":"60637","geo_score":0.619,"id":"a6g5zc0wtvzn","geo_precision":"street","address":"6650 S. Ellis Avenue","state":"IL"},"type":"Feature","geometry":{"type":"Point","coordinates":[-87.601343,41.793212]}},{"properties":{"city":"Chicago","name":"Rainbow House","zip":"60623","geo_score":0.916,"id":"a6g5zc2mafy4","geo_precision":"range","address":"4149 W 26th Street","state":"IL"},"type":"Feature","geometry":{"type":"Point","coordinates":[-87.728498,41.844199]}},{"properties":{"city":"Mundelein","name":"Rashied Davis Charities - Saturday Place","zip":"60060","geo_score":0.453,"id":"a6g5zbq5129z","geo_precision":"street","address":"781 S. Midlothian Road #329","state":"IL"},"type":"Feature","geometry":{"type":"Point","coordinates":[-88.018772,42.25776]}},{"properties":{"city":"Chicago","name":"Ravenswood Community Child Care Center","zip":"60625","geo_score":0.619,"id":"a6g5zc1vtlqr","geo_precision":"street","address":"4908 N. Damen Avenue","state":"IL"},"type":"Feature","geometry":{"type":"Point","coordinates":[-87.678958,41.961458]}},{"properties":{"city":"Chicago","name":"ReBuilding Exchange","zip":"60614","geo_score":0.61,"id":"a6g5zc2beqxz","geo_precision":"street","address":"2160 N. Ashland","state":"IL"},"type":"Feature","geometry":{"type":"Point","coordinates":[-87.668093,41.918547]}},{"properties":{"city":"Arlington Heights","name":"Relay For Life of Schaumburg/Hoffman Estates","zip":"60004","geo_score":0.595,"id":"a6g5zbs9l1p3","geo_precision":"street","address":"1114 N. Arlington Heights Rd.","state":"IL"},"type":"Feature","geometry":{"type":"Point","coordinates":[-87.984994,42.153625]}},{"properties":{"city":"Chicago","name":"RML Specialty Hospital","zip":"60624","geo_score":0.947,"id":"a6g5zbyrlzjq","geo_precision":"range","address":"3435 West Van Buren","state":"IL"},"type":"Feature","geometry":{"type":"Point","coordinates":[-87.711972,41.875439]}},{"properties":{"city":"Chicago","name":"Share Our Spare","zip":"60613","geo_score":0.61,"id":"a6g5zbto9gij","geo_precision":"street","address":"3864 N. Lincoln Ave","state":"IL"},"type":"Feature","geometry":{"type":"Point","coordinates":[-87.674095,41.947452]}},{"properties":{"city":"Inverness","name":"Society for the Preservation of Human Dignity, PHD","zip":"60067","geo_score":1.0,"id":"a6g5zc376jhw","geo_precision":"range","address":"1610 Colonial Parkway","state":"IL"},"type":"Feature","geometry":{"type":"Point","coordinates":[-88.078538,42.08494]}},{"properties":{"city":"Chicago","name":"Society of St. Vincent de Paul Chicago","zip":"60661","geo_score":0.633,"id":"a6g5zburfe8m","geo_precision":"street","address":"651 W. Lake St.","state":"IL"},"type":"Feature","geometry":{"type":"Point","coordinates":[-87.629498,41.885745]}},{"properties":{"city":"Chicago","name":"St. Leonard's Ministries","zip":"60612","geo_score":0.61,"id":"a6g5zbtef3bq","geo_precision":"street","address":"2100 W. Warren Blvd.","state":"IL"},"type":"Feature","geometry":{"type":"Point","coordinates":[-87.665195,41.882379]}},{"properties":{"city":"Chicago","name":"St. Vincent de Paul Center","zip":"60614","geo_score":0.614,"id":"a6g5zbu9i1ac","geo_precision":"street","address":"2145 N. Halsted","state":"IL"},"type":"Feature","geometry":{"type":"Point","coordinates":[-87.647988,41.90152]}},{"properties":{"city":"Chicago","name":"Street-Level Youth Media","zip":"60622","geo_score":1.0,"id":"a6g5zbzhoa4s","geo_precision":"range","address":"1637 North Ashland Avenue","state":"IL"},"type":"Feature","geometry":{"type":"Point","coordinates":[-87.667708,41.911306]}},{"properties":{"city":"Chicago","name":"StreetWise","zip":"60640","geo_score":0.947,"id":"a6g5zc22hn8h","geo_precision":"range","address":"4554 N Broadway","state":"IL"},"type":"Feature","geometry":{"type":"Point","coordinates":[-87.657474,41.965399]}},{"properties":{"city":"Evanston","name":"Supplies for Dreams","zip":null,"geo_score":0.857,"id":"a6g5zc0lnf2f","geo_precision":"city","address":null,"state":"IL"},"type":"Feature","geometry":{"type":"Point","coordinates":[-87.702155,42.049148]}},{"properties":{"city":"Chicago","name":"Teen Living Programs","zip":"60654","geo_score":0.329,"id":"a6g5zbn5wfxc","geo_precision":"street","address":"162 W. Hubbard, Suite 400","state":"IL"},"type":"Feature","geometry":{"type":"Point","coordinates":[-87.631081,41.890021]}},{"properties":{"city":"Chicago","name":"The 21st Century Youth Project","zip":"60616","geo_score":0.916,"id":"a6g5zbw7srnn","geo_precision":"range","address":"23 East 26th Street","state":"IL"},"type":"Feature","geometry":{"type":"Point","coordinates":[-87.626132,41.8456]}},{"properties":{"city":"Chicago","name":"The Big Hearts Fund","zip":"60613","geo_score":0.61,"id":"a6g5zbz6ycej","geo_precision":"street","address":"1802 W. Berteau Ave","state":"IL"},"type":"Feature","geometry":{"type":"Point","coordinates":[-87.664504,41.958028]}},{"properties":{"city":"Chicago","name":"The Golden Apple Foundation Associates Board","zip":"60603","geo_score":1.0,"id":"a6g5zbw7njtp","geo_precision":"range","address":"8 South Michigan Ave","state":"IL"},"type":"Feature","geometry":{"type":"Point","coordinates":[-87.624294,41.88195]}},{"properties":{"city":"Mundelein","name":"University of Saint Mary of the Lake/Mundelein Seminary","zip":"60060","geo_score":0.912,"id":"a6g5zbvojxnq","geo_precision":"range","address":"1000 E Maple Ave","state":"IL"},"type":"Feature","geometry":{"type":"Point","coordinates":[-87.988631,42.273874]}},{"properties":{"city":"Chicago","name":"Urban Art Retreat Center","zip":"60623","geo_score":0.604,"id":"a6g5zc1x5fn1","geo_precision":"street","address":"1957-59 S. Spaulding Ave.","state":"IL"},"type":"Feature","geometry":{"type":"Point","coordinates":[-87.708087,41.865894]}},{"properties":{"city":"Chicago","name":"Urban Gateways","zip":"60606","geo_score":0.61,"id":"a6g5zby2tbue","geo_precision":"street","address":"205 W. Randolph St. Suite 1700","state":"IL"},"type":"Feature","geometry":{"type":"Point","coordinates":[-87.629457,41.884482]}},{"properties":{"city":"Chicago","name":"Woman Made Gallery","zip":"60642","geo_score":0.319,"id":"a6g5zbzarpv0","geo_precision":"street","address":"685 N. Milwaukee Ave.","state":"IL"},"type":"Feature","geometry":{"type":"Point","coordinates":[-87.64302,41.88804]}},{"properties":{"city":"Chicago","name":"Year Up- Chicago","zip":"60601","geo_score":0.902,"id":"a6g5zbxe35nx","geo_precision":"range","address":"203 N Lasalle St.","state":"IL"},"type":"Feature","geometry":{"type":"Point","coordinates":[-87.632449,41.885814]}},{"properties":{"city":"Chicago","name":"Young Chicago Authors","zip":"60642","geo_score":0.319,"id":"a6g5zc2ncfx4","geo_precision":"street","address":"1180 N. Milwaukee Ave.","state":"IL"},"type":"Feature","geometry":{"type":"Point","coordinates":[-87.64302,41.88804]}}],"is_temporal":false,"author":{"url":"","metadata":"","contact_name":"","contact_address":"","source":"","contact_phone":""},"source":"","pagination":{"sort":null,"start":0,"total":96,"limit":1000000},"state":"complete","tags":"","published":"2014-08-14T18:20:40-04:00","id":252584}