{"type":"FeatureCollection","data_type":"Dataset","url_type":null,"permissions":[{"permissions":{"download":true,"view":true},"group_id":"everyone"}],"classification":null,"title":"contractors","count":42,"stream_id":253257,"contributor":{"url":"http://geocommons.com/users/6273","name":"lucascioffi"},"data_attributes":null,"calculation_params":null,"icon_link":null,"link":"http://geocommons.com/overlays/253257.json","extent":[-76.9474,38.7546,-76.5757,39.1143],"geometry_types":["point"],"unique_name":null,"name":"contractors","feature_count":42,"description":"","next_feature":null,"is_raster":false,"short_classification":"Y","stats":{},"features":[{"properties":{"city":"Beltsville","company name":"A Z Elctrc Svc Inc","zipcode":"20705","geo_score":1.0,"street":"11222 Old Baltimore Pike","id":"a6jdeb8uy9n3","geo_precision":"range","state":"MD"},"type":"Feature","geometry":{"type":"Point","coordinates":[-76.905061,39.036419]}},{"properties":{"city":"Beltsville","company name":"Bryant Berry Inc","zipcode":"20705","geo_score":1.0,"street":"12104 Conway Rd","id":"a6jdeb59h0yn","geo_precision":"range","state":"MD"},"type":"Feature","geometry":{"type":"Point","coordinates":[-76.883458,39.057903]}},{"properties":{"city":"Beltsville","company name":"Cabling Systems Inc","zipcode":"20705","geo_score":1.0,"street":"10386 Southard Dr","id":"a6jdebedgd48","geo_precision":"range","state":"MD"},"type":"Feature","geometry":{"type":"Point","coordinates":[-76.90965,39.030928]}},{"properties":{"city":"Beltsville","company name":"Cornerstone Electrical Svcs Inc","zipcode":"20705","geo_score":1.0,"street":"3607 Dunnington Rd","id":"a6jdebead75e","geo_precision":"range","state":"MD"},"type":"Feature","geometry":{"type":"Point","coordinates":[-76.930982,39.059949]}},{"properties":{"city":"Beltsville","company name":"G H E Electric Services","zipcode":"20705","geo_score":1.0,"street":"11222 Old Baltimore Pike","id":"a6jdeba2opma","geo_precision":"range","state":"MD"},"type":"Feature","geometry":{"type":"Point","coordinates":[-76.905061,39.036419]}},{"properties":{"city":"Beltsville","company name":"Graphic Electric Inc","zipcode":"20705","geo_score":1.0,"street":"6824 Distribution Dr","id":"a6jdebiqanls","geo_precision":"range","state":"MD"},"type":"Feature","geometry":{"type":"Point","coordinates":[-76.888547,39.055896]}},{"properties":{"city":"Beltsville","company name":"Hawkins Electric Svc Inc","zipcode":"20705","geo_score":1.0,"street":"12126 Conway Rd","id":"a6jdeb7orsls","geo_precision":"range","state":"MD"},"type":"Feature","geometry":{"type":"Point","coordinates":[-76.883131,39.05786]}},{"properties":{"city":"Beltsville","company name":"J E Richards Inc","zipcode":"20705","geo_score":0.415,"street":"10401 Tucker St","id":"a6jdebkmew0w","geo_precision":"street","state":"MD"},"type":"Feature","geometry":{"type":"Point","coordinates":[-76.575668,38.754595]}},{"properties":{"city":"Beltsville","company name":"Rkny Electric &amp; Construction LLC","zipcode":"20705","geo_score":1.0,"street":"6802 Industrial Dr","id":"a6jdeb8qeh87","geo_precision":"range","state":"MD"},"type":"Feature","geometry":{"type":"Point","coordinates":[-76.889763,39.052731]}},{"properties":{"city":"Beltsville","company name":"Satellite Electric Co Inc","zipcode":"20705","geo_score":1.0,"street":"11205 Old Baltimore Pike","id":"a6jdebcq1cov","geo_precision":"range","state":"MD"},"type":"Feature","geometry":{"type":"Point","coordinates":[-76.905545,39.036012]}},{"properties":{"city":"Beltsville","company name":"Telco P &amp; C LLC","zipcode":"20705","geo_score":0.908,"street":"11900 Baltimore Ave Ste H","id":"a6jdebija89d","geo_precision":"range","state":"MD"},"type":"Feature","geometry":{"type":"Point","coordinates":[-76.895125,39.052879]}},{"properties":{"city":"Beltsville","company name":"Thomco Electric Inc","zipcode":"20705","geo_score":1.0,"street":"11205 Old Baltimore Pike","id":"a6jdebe6igvg","geo_precision":"range","state":"MD"},"type":"Feature","geometry":{"type":"Point","coordinates":[-76.905545,39.036012]}},{"properties":{"city":"Burtonsville","company name":"Dalton Electric Svc","zipcode":"20866","geo_score":1.0,"street":"14712 Old Columbia Pike","id":"a6jdeba2jpi1","geo_precision":"range","state":"MD"},"type":"Feature","geometry":{"type":"Point","coordinates":[-76.945095,39.097007]}},{"properties":{"city":"Burtonsville","company name":"Dalton Electric Svc Inc","zipcode":"20866","geo_score":1.0,"street":"3024 Miles Rd","id":"a6jdebid1a2q","geo_precision":"range","state":"MD"},"type":"Feature","geometry":{"type":"Point","coordinates":[-76.947427,39.09185]}},{"properties":{"city":"Burtonsville","company name":"Pel-Bern Electric Corp","zipcode":"20866","geo_score":1.0,"street":"14121 Old Columbia Pike","id":"a6jdebkmn24s","geo_precision":"range","state":"MD"},"type":"Feature","geometry":{"type":"Point","coordinates":[-76.94725,39.0909]}},{"properties":{"city":"College Park","company name":"Advanced Electrical Svcs","zipcode":"20740","geo_score":0.927,"street":"9527 51st Ave","id":"a6jdebjqvo7l","geo_precision":"range","state":"MD"},"type":"Feature","geometry":{"type":"Point","coordinates":[-76.919277,39.009491]}},{"properties":{"city":"College Park","company name":"Amber Enterprises Inc","zipcode":"20740","geo_score":0.585,"street":"5125 Lackawanna St","id":"a6jdebiljznw","geo_precision":"zip","state":"MD"},"type":"Feature","geometry":{"type":"Point","coordinates":[-76.932197,39.016499]}},{"properties":{"city":"College Park","company name":"Bolt Electric Co Inc","zipcode":"20740","geo_score":1.0,"street":"5614 Berwyn Rd","id":"a6jdebl23g1f","geo_precision":"range","state":"MD"},"type":"Feature","geometry":{"type":"Point","coordinates":[-76.917562,38.99245]}},{"properties":{"city":"College Park","company name":"D F R Solutions","zipcode":"20740","geo_score":0.87,"street":"5110 Roanoke Pl Ste 101","id":"a6jdebffppe8","geo_precision":"range","state":"MD"},"type":"Feature","geometry":{"type":"Point","coordinates":[-76.922272,38.994557]}},{"properties":{"city":"College Park","company name":"Hawkins Electric Co Inc","zipcode":"20740","geo_score":0.862,"street":"5411 Berwyn Rd Ste 205","id":"a6jdebeiliqy","geo_precision":"range","state":"MD"},"type":"Feature","geometry":{"type":"Point","coordinates":[-76.920255,38.99349]}},{"properties":{"city":"College Park","company name":"Mona Energy &amp; Technology","zipcode":"20740","geo_score":0.659,"street":"5830 University Research Ct","id":"a6jdeb5nhrzz","geo_precision":"street","state":"MD"},"type":"Feature","geometry":{"type":"Point","coordinates":[-76.933478,39.00146]}},{"properties":{"city":"College Park","company name":"Pirro Electric Inc","zipcode":"20740","geo_score":1.0,"street":"9803 Rhode Island Ave","id":"a6jdeba2g17b","geo_precision":"range","state":"MD"},"type":"Feature","geometry":{"type":"Point","coordinates":[-76.920771,39.015974]}},{"properties":{"city":"College Park","company name":"R L Jones Electrical","zipcode":"20740","geo_score":0.916,"street":"9100 51st Pl","id":"a6jdebjig4r4","geo_precision":"range","state":"MD"},"type":"Feature","geometry":{"type":"Point","coordinates":[-76.920436,39.000036]}},{"properties":{"city":"Laurel","company name":"Aggadan Electric","zipcode":"20707","geo_score":0.679,"street":"410 Main St # A6","id":"a6jdebf8tzlx","geo_precision":"street","state":"MD"},"type":"Feature","geometry":{"type":"Point","coordinates":[-76.843874,39.10474]}},{"properties":{"city":"Laurel","company name":"Bray Electric Inc","zipcode":"20707","geo_score":1.0,"street":"309 Carroll Ave","id":"a6jdebh5ba53","geo_precision":"range","state":"MD"},"type":"Feature","geometry":{"type":"Point","coordinates":[-76.849549,39.101541]}},{"properties":{"city":"Laurel","company name":"Bulls Eye Electrical Sales","zipcode":"20707","geo_score":0.883,"street":"300 Thomas Dr Ste F3","id":"a6jdebj6tv5k","geo_precision":"range","state":"MD"},"type":"Feature","geometry":{"type":"Point","coordinates":[-76.852184,39.098455]}},{"properties":{"city":"Laurel","company name":"Cherry Lane Electrical Svc","zipcode":"20707","geo_score":0.883,"street":"8750 Cherry Ln Ste 3","id":"a6jdeb983y4h","geo_precision":"range","state":"MD"},"type":"Feature","geometry":{"type":"Point","coordinates":[-76.853837,39.088083]}},{"properties":{"city":"Laurel","company name":"C &amp; J Contractors","zipcode":"20707","geo_score":1.0,"street":"15706 Riding Stable Rd","id":"a6jdeb8eto2w","geo_precision":"range","state":"MD"},"type":"Feature","geometry":{"type":"Point","coordinates":[-76.904228,39.114278]}},{"properties":{"city":"Laurel","company name":"Constellation Energy","zipcode":"20707","geo_score":1.0,"street":"14880 Sweitzer Ln","id":"a6jdeb64ma25","geo_precision":"range","state":"MD"},"type":"Feature","geometry":{"type":"Point","coordinates":[-76.899055,39.094113]}},{"properties":{"city":"Laurel","company name":"Dahan Electric Inc","zipcode":"20707","geo_score":0.679,"street":"612 Lafayette Ave # B","id":"a6jdebk2n7tm","geo_precision":"street","state":"MD"},"type":"Feature","geometry":{"type":"Point","coordinates":[-76.844541,39.105035]}},{"properties":{"city":"Laurel","company name":"Dynalectric","zipcode":"20707","geo_score":0.898,"street":"8101 Sandy Spring Rd Ste 260","id":"a6jdebd602dp","geo_precision":"range","state":"MD"},"type":"Feature","geometry":{"type":"Point","coordinates":[-76.866554,39.104833]}},{"properties":{"city":"Laurel","company name":"Eastern Regional Electric Inc","zipcode":"20707","geo_score":1.0,"street":"307 Compton Ave","id":"a6jdeb88ba62","geo_precision":"range","state":"MD"},"type":"Feature","geometry":{"type":"Point","coordinates":[-76.850583,39.099875]}},{"properties":{"city":"Laurel","company name":"Galaxy Electric Ltd","zipcode":"20707","geo_score":0.902,"street":"300 Carroll Ave","id":"a6jdeb70h2re","geo_precision":"street","state":"MD"},"type":"Feature","geometry":{"type":"Point","coordinates":[-76.848145,39.100636]}},{"properties":{"city":"Laurel","company name":"R L Thompson Inc","zipcode":"20707","geo_score":1.0,"street":"106 Lafayette Ave","id":"a6jdebktyqb1","geo_precision":"range","state":"MD"},"type":"Feature","geometry":{"type":"Point","coordinates":[-76.842898,39.101143]}},{"properties":{"city":"Laurel","company name":"T &amp; J Electric Corp","zipcode":"20707","geo_score":1.0,"street":"8740 Cherry Ln","id":"a6jdeb69k8q9","geo_precision":"range","state":"MD"},"type":"Feature","geometry":{"type":"Point","coordinates":[-76.853606,39.08789]}},{"properties":{"city":"Laurel","company name":"Your Maryland Electrician","zipcode":"20707","geo_score":1.0,"street":"15662 Millbrook Ln","id":"a6jdebaf5iah","geo_precision":"range","state":"MD"},"type":"Feature","geometry":{"type":"Point","coordinates":[-76.874654,39.106087]}},{"properties":{"city":"Laurel","company name":"Aes Electrical Inc","zipcode":"20708","geo_score":0.878,"street":"13335 Mid Atlantic Blvd","id":"a6jdebe84uz0","geo_precision":"range","state":"MD"},"type":"Feature","geometry":{"type":"Point","coordinates":[-76.863742,39.074105]}},{"properties":{"city":"Laurel","company name":"Alexs Electrical Service Inc","zipcode":"20708","geo_score":1.0,"street":"12804 Golden Oak Dr","id":"a6jdebey7m1g","geo_precision":"range","state":"MD"},"type":"Feature","geometry":{"type":"Point","coordinates":[-76.864209,39.070641]}},{"properties":{"city":"Laurel","company name":"Best Electric Co","zipcode":"20708","geo_score":1.0,"street":"8514 Portsmouth Dr","id":"a6jdebbov5io","geo_precision":"range","state":"MD"},"type":"Feature","geometry":{"type":"Point","coordinates":[-76.858011,39.071919]}},{"properties":{"city":"Laurel","company name":"Best Way Electric LLC","zipcode":"20708","geo_score":0.862,"street":"14615 Philip Ct Apt 202","id":"a6jdeb7gx5xf","geo_precision":"range","state":"MD"},"type":"Feature","geometry":{"type":"Point","coordinates":[-76.848215,39.093253]}},{"properties":{"city":"Laurel","company name":"Freestate Electrical Constr","zipcode":"20708","geo_score":0.878,"street":"13335 Mid Atlantic Blvd","id":"a6jdeb9as5a8","geo_precision":"range","state":"MD"},"type":"Feature","geometry":{"type":"Point","coordinates":[-76.863742,39.074105]}},{"properties":{"city":"Laurel","company name":"Maurice Electrical SP C Inc","zipcode":"20708","geo_score":0.883,"street":"14504 Greenview Dr Ste 103","id":"a6jdeb9zizsy","geo_precision":"range","state":"MD"},"type":"Feature","geometry":{"type":"Point","coordinates":[-76.84216,39.08407]}}],"is_temporal":false,"author":{"url":"","metadata":null,"contact_name":null,"contact_address":null,"source":null,"contact_phone":null},"source":"","pagination":{"sort":null,"start":0,"total":42,"limit":1000000},"state":"complete","tags":"","published":"2014-08-14T19:07:30-04:00","id":253257}