{"type":"FeatureCollection","data_type":"Dataset","url_type":null,"permissions":[{"permissions":{"download":true,"view":true},"group_id":"everyone"}],"classification":null,"title":"Margin Geocommons","count":7,"stream_id":253343,"contributor":{"url":"http://geocommons.com/users/19917","name":"diethrick@gmail.com"},"data_attributes":null,"calculation_params":null,"icon_link":null,"link":"http://geocommons.com/overlays/253343.json","extent":[-81.5078,35.7084,-75.288,41.7726],"geometry_types":["point"],"unique_name":null,"name":"Margin Geocommons","feature_count":7,"description":"","next_feature":null,"is_raster":false,"short_classification":"Y","stats":{"# stores":{"max":10,"variance":10.952380952381,"mean":2.57142857142857,"stdev":3.30943816264649,"min":1,"median":1}},"features":[{"properties":{"city":"Akron","# stores":2,"geo_score":0.714,"id":"a6jgkhhj7jxh","geo_precision":"city","state":"OH"},"type":"Feature","geometry":{"type":"Point","coordinates":[-81.507831,41.012239]}},{"properties":{"city":"Alliance","# stores":1,"geo_score":0.714,"id":"a6jgkhrrtlu4","geo_precision":"city","state":"OH"},"type":"Feature","geometry":{"type":"Point","coordinates":[-81.335275,40.820292]}},{"properties":{"city":"Altoona","# stores":10,"geo_score":0.714,"id":"a6jgkhh0hf6u","geo_precision":"city","state":"PA"},"type":"Feature","geometry":{"type":"Point","coordinates":[-75.287963,39.921501]}},{"properties":{"city":"Archdale","# stores":1,"geo_score":0.714,"id":"a6jgkhfl26ll","geo_precision":"city","state":"NC"},"type":"Feature","geometry":{"type":"Point","coordinates":[-79.971983,35.914581]}},{"properties":{"city":"Asheboro","# stores":1,"geo_score":0.714,"id":"a6jgkhk1jtl1","geo_precision":"city","state":"NC"},"type":"Feature","geometry":{"type":"Point","coordinates":[-79.85213,35.708376]}},{"properties":{"city":"Ashland","# stores":2,"geo_score":0.714,"id":"a6jgkhh7oiij","geo_precision":"city","state":"VA"},"type":"Feature","geometry":{"type":"Point","coordinates":[-77.480128,37.754912]}},{"properties":{"city":"Ashtabula","# stores":1,"geo_score":0.714,"id":"a6jgkhfcwqh0","geo_precision":"city","state":"OH"},"type":"Feature","geometry":{"type":"Point","coordinates":[-80.74349,41.772583]}}],"is_temporal":false,"author":{"url":"","metadata":"","contact_name":"","contact_address":"","source":"","contact_phone":""},"source":"","pagination":{"sort":null,"start":0,"total":7,"limit":1000000},"state":"complete","tags":"","published":"2014-08-14T19:15:59-04:00","id":253343}