{"type":"FeatureCollection","data_type":"Dataset","url_type":null,"permissions":[{"permissions":{"download":true,"view":true},"group_id":"everyone"}],"classification":null,"title":"all court sites 06-20-2012","count":434,"stream_id":253415,"contributor":{"url":"http://geocommons.com/users/33693","name":"pg8767"},"data_attributes":null,"calculation_params":null,"icon_link":null,"link":"http://geocommons.com/overlays/253415.json","extent":[-149.487,29.05,-68.8789,61.2876],"geometry_types":["point"],"unique_name":null,"name":"all court sites 06-20-2012","feature_count":434,"description":"","next_feature":null,"is_raster":false,"short_classification":"Y","stats":{"latitude":{"max":61.287624,"variance":27.6169218157514,"mean":38.0810673870968,"stdev":5.25518047413706,"min":29.049969,"median":38.28974},"longitude":{"max":-68.878893,"variance":195.727897701392,"mean":-91.7594169331797,"stdev":13.9902786856228,"min":-149.486981,"median":-88.514694},"geocode score":{"max":0.857,"variance":0.00112523376720128,"mean":0.721668202764976,"stdev":0.0335445042771731,"min":0.571,"median":0.714},"active":{"max":1,"variance":0.156447887953513,"mean":0.193548387096774,"stdev":0.395534938979495,"min":0,"median":0}},"features":[{"properties":{"city":"Anchorage","latitude":61.287624,"longitude":-149.486981,"id":"a6ji4m97s5sn","geocode score":0.714,"state":"AK","active":0,"geocode precision":"city"},"type":"Feature","geometry":{"type":"Point","coordinates":[-149.486981,61.287624]}},{"properties":{"city":"Anchorage","latitude":61.287624,"longitude":-149.486981,"id":"a6ji4mj8dqiv","geocode score":0.714,"state":"AK","active":0,"geocode precision":"city"},"type":"Feature","geometry":{"type":"Point","coordinates":[-149.486981,61.287624]}},{"properties":{"city":"Anchorage","latitude":61.287624,"longitude":-149.486981,"id":"a6ji4mi1wqp4","geocode score":0.714,"state":"AK","active":0,"geocode precision":"city"},"type":"Feature","geometry":{"type":"Point","coordinates":[-149.486981,61.287624]}},{"properties":{"city":"Anchorage","latitude":61.287624,"longitude":-149.486981,"id":"a6ji4mew9a28","geocode score":0.714,"state":"AK","active":0,"geocode precision":"city"},"type":"Feature","geometry":{"type":"Point","coordinates":[-149.486981,61.287624]}},{"properties":{"city":"Tuscaloosa","latitude":33.241899,"longitude":-87.597599,"id":"a6ji4majaouv","geocode score":0.714,"state":"AL","active":0,"geocode precision":"city"},"type":"Feature","geometry":{"type":"Point","coordinates":[-87.597599,33.241899]}},{"properties":{"city":"Tuscaloosa","latitude":33.241899,"longitude":-87.597599,"id":"a6ji4md70uhm","geocode score":0.714,"state":"AL","active":0,"geocode precision":"city"},"type":"Feature","geometry":{"type":"Point","coordinates":[-87.597599,33.241899]}},{"properties":{"city":"Tuscaloosa","latitude":33.241899,"longitude":-87.597599,"id":"a6ji4mcfdtc8","geocode score":0.714,"state":"AL","active":0,"geocode precision":"city"},"type":"Feature","geometry":{"type":"Point","coordinates":[-87.597599,33.241899]}},{"properties":{"city":"Tuscaloosa","latitude":33.241899,"longitude":-87.597599,"id":"a6ji4m9i6tpu","geocode score":0.714,"state":"AL","active":0,"geocode precision":"city"},"type":"Feature","geometry":{"type":"Point","coordinates":[-87.597599,33.241899]}},{"properties":{"city":"El Dorado","latitude":35.612581,"longitude":-93.161286,"id":"a6ji4mmlz1iz","geocode score":0.714,"state":"AR","active":0,"geocode precision":"city"},"type":"Feature","geometry":{"type":"Point","coordinates":[-93.161286,35.612581]}},{"properties":{"city":"El Dorado","latitude":35.612581,"longitude":-93.161286,"id":"a6ji4mn5fqhu","geocode score":0.714,"state":"AR","active":0,"geocode precision":"city"},"type":"Feature","geometry":{"type":"Point","coordinates":[-93.161286,35.612581]}},{"properties":{"city":"Fayetteville","latitude":35.974602,"longitude":-94.190997,"id":"a6ji4mf43d3z","geocode score":0.714,"state":"AR","active":0,"geocode precision":"city"},"type":"Feature","geometry":{"type":"Point","coordinates":[-94.190997,35.974602]}},{"properties":{"city":"Fayetteville","latitude":35.974602,"longitude":-94.190997,"id":"a6ji4mf71xea","geocode score":0.714,"state":"AR","active":0,"geocode precision":"city"},"type":"Feature","geometry":{"type":"Point","coordinates":[-94.190997,35.974602]}},{"properties":{"city":"Fort Smith","latitude":35.231245,"longitude":-94.339412,"id":"a6ji4mc4wck8","geocode score":0.714,"state":"AR","active":0,"geocode precision":"city"},"type":"Feature","geometry":{"type":"Point","coordinates":[-94.339412,35.231245]}},{"properties":{"city":"Fort Smith","latitude":35.231245,"longitude":-94.339412,"id":"a6ji4mlmy1sd","geocode score":0.714,"state":"AR","active":0,"geocode precision":"city"},"type":"Feature","geometry":{"type":"Point","coordinates":[-94.339412,35.231245]}},{"properties":{"city":"Harrison","latitude":36.295086,"longitude":-93.092861,"id":"a6ji4meqrsp0","geocode score":0.714,"state":"AR","active":0,"geocode precision":"city"},"type":"Feature","geometry":{"type":"Point","coordinates":[-93.092861,36.295086]}},{"properties":{"city":"Harrison","latitude":36.295086,"longitude":-93.092861,"id":"a6ji4mfh5fym","geocode score":0.714,"state":"AR","active":0,"geocode precision":"city"},"type":"Feature","geometry":{"type":"Point","coordinates":[-93.092861,36.295086]}},{"properties":{"city":"Hot Springs","latitude":35.188694,"longitude":-92.392377,"id":"a6ji4maa0hm9","geocode score":0.714,"state":"AR","active":0,"geocode precision":"city"},"type":"Feature","geometry":{"type":"Point","coordinates":[-92.392377,35.188694]}},{"properties":{"city":"Hot Springs","latitude":35.188694,"longitude":-92.392377,"id":"a6ji4ml7ymxg","geocode score":0.714,"state":"AR","active":0,"geocode precision":"city"},"type":"Feature","geometry":{"type":"Point","coordinates":[-92.392377,35.188694]}},{"properties":{"city":"Texarkana","latitude":33.431043,"longitude":-93.876485,"id":"a6ji4me135ww","geocode score":0.857,"state":"AR","active":0,"geocode precision":"city"},"type":"Feature","geometry":{"type":"Point","coordinates":[-93.876485,33.431043]}},{"properties":{"city":"Texarkana","latitude":33.431043,"longitude":-93.876485,"id":"a6ji4mch8y6u","geocode score":0.857,"state":"AR","active":0,"geocode precision":"city"},"type":"Feature","geometry":{"type":"Point","coordinates":[-93.876485,33.431043]}},{"properties":{"city":"Flagstaff","latitude":35.932116,"longitude":-111.597853,"id":"a6ji4mg3cifj","geocode score":0.714,"state":"AZ","active":1,"geocode precision":"city"},"type":"Feature","geometry":{"type":"Point","coordinates":[-111.597853,35.932116]}},{"properties":{"city":"Flagstaff","latitude":35.932116,"longitude":-111.597853,"id":"a6ji4me6u2bw","geocode score":0.714,"state":"AZ","active":1,"geocode precision":"city"},"type":"Feature","geometry":{"type":"Point","coordinates":[-111.597853,35.932116]}},{"properties":{"city":"Phoenix","latitude":33.448377,"longitude":-112.074037,"id":"a6ji4mjtb17a","geocode score":0.857,"state":"AZ","active":0,"geocode precision":"city"},"type":"Feature","geometry":{"type":"Point","coordinates":[-112.074037,33.448377]}},{"properties":{"city":"Phoenix","latitude":33.448377,"longitude":-112.074037,"id":"a6ji4mk1zpdq","geocode score":0.857,"state":"AZ","active":1,"geocode precision":"city"},"type":"Feature","geometry":{"type":"Point","coordinates":[-112.074037,33.448377]}},{"properties":{"city":"Prescott","latitude":34.668291,"longitude":-112.307777,"id":"a6ji4maync0k","geocode score":0.714,"state":"AZ","active":1,"geocode precision":"city"},"type":"Feature","geometry":{"type":"Point","coordinates":[-112.307777,34.668291]}},{"properties":{"city":"Prescott","latitude":34.668291,"longitude":-112.307777,"id":"a6ji4mis0sn2","geocode score":0.714,"state":"AZ","active":1,"geocode precision":"city"},"type":"Feature","geometry":{"type":"Point","coordinates":[-112.307777,34.668291]}},{"properties":{"city":"Sierra Vista","latitude":31.810649,"longitude":-109.997623,"id":"a6ji4mh7kdrk","geocode score":0.714,"state":"AZ","active":0,"geocode precision":"city"},"type":"Feature","geometry":{"type":"Point","coordinates":[-109.997623,31.810649]}},{"properties":{"city":"Tucson","latitude":32.217975,"longitude":-110.970869,"id":"a6ji4mj0xiyd","geocode score":0.714,"state":"AZ","active":0,"geocode precision":"city"},"type":"Feature","geometry":{"type":"Point","coordinates":[-110.970869,32.217975]}},{"properties":{"city":"Tucson","latitude":32.217975,"longitude":-110.970869,"id":"a6ji4mbyu35r","geocode score":0.714,"state":"AZ","active":0,"geocode precision":"city"},"type":"Feature","geometry":{"type":"Point","coordinates":[-110.970869,32.217975]}},{"properties":{"city":"Tucson","latitude":32.217975,"longitude":-110.970869,"id":"a6ji4m9m3efq","geocode score":0.714,"state":"AZ","active":0,"geocode precision":"city"},"type":"Feature","geometry":{"type":"Point","coordinates":[-110.970869,32.217975]}},{"properties":{"city":"Chula Vista","latitude":33.016928,"longitude":-116.846046,"id":"a6ji4mayeoyb","geocode score":0.714,"state":"CA","active":1,"geocode precision":"city"},"type":"Feature","geometry":{"type":"Point","coordinates":[-116.846046,33.016928]}},{"properties":{"city":"El Centro","latitude":32.900509,"longitude":-115.503842,"id":"a6ji4men7qsf","geocode score":0.714,"state":"CA","active":0,"geocode precision":"city"},"type":"Feature","geometry":{"type":"Point","coordinates":[-115.503842,32.900509]}},{"properties":{"city":"El Centro","latitude":32.900509,"longitude":-115.503842,"id":"a6ji4mflbfnd","geocode score":0.714,"state":"CA","active":0,"geocode precision":"city"},"type":"Feature","geometry":{"type":"Point","coordinates":[-115.503842,32.900509]}},{"properties":{"city":"El Centro","latitude":32.900509,"longitude":-115.503842,"id":"a6ji4mfulk9n","geocode score":0.714,"state":"CA","active":0,"geocode precision":"city"},"type":"Feature","geometry":{"type":"Point","coordinates":[-115.503842,32.900509]}},{"properties":{"city":"San Diego","latitude":32.7211,"longitude":-117.174366,"id":"a6ji4mgm202o","geocode score":0.714,"state":"CA","active":0,"geocode precision":"city"},"type":"Feature","geometry":{"type":"Point","coordinates":[-117.174366,32.7211]}},{"properties":{"city":"San Diego","latitude":32.7211,"longitude":-117.174366,"id":"a6ji4mggtzef","geocode score":0.714,"state":"CA","active":1,"geocode precision":"city"},"type":"Feature","geometry":{"type":"Point","coordinates":[-117.174366,32.7211]}},{"properties":{"city":"Vista","latitude":33.016928,"longitude":-116.846046,"id":"a6ji4mbfdfeo","geocode score":0.714,"state":"CA","active":1,"geocode precision":"city"},"type":"Feature","geometry":{"type":"Point","coordinates":[-116.846046,33.016928]}},{"properties":{"city":"Woodland Hills","latitude":39.08337,"longitude":-121.397892,"id":"a6ji4mfvgnp0","geocode score":0.714,"state":"CA","active":0,"geocode precision":"city"},"type":"Feature","geometry":{"type":"Point","coordinates":[-121.397892,39.08337]}},{"properties":{"city":"San Diego","latitude":34.20594,"longitude":-88.886169,"id":"a6ji4m89jwmi","geocode score":0.571,"state":"CA","active":1,"geocode precision":"city"},"type":"Feature","geometry":{"type":"Point","coordinates":[-88.886169,34.20594]}},{"properties":{"city":"Denver","latitude":39.726303,"longitude":-104.856808,"id":"a6ji4m8caf3a","geocode score":0.714,"state":"CO","active":0,"geocode precision":"city"},"type":"Feature","geometry":{"type":"Point","coordinates":[-104.856808,39.726303]}},{"properties":{"city":"Denver","latitude":39.726303,"longitude":-104.856808,"id":"a6ji4mhggbu2","geocode score":0.714,"state":"CO","active":0,"geocode precision":"city"},"type":"Feature","geometry":{"type":"Point","coordinates":[-104.856808,39.726303]}},{"properties":{"city":"Denver","latitude":39.726303,"longitude":-104.856808,"id":"a6ji4mlfolar","geocode score":0.714,"state":"CO","active":0,"geocode precision":"city"},"type":"Feature","geometry":{"type":"Point","coordinates":[-104.856808,39.726303]}},{"properties":{"city":"Denver","latitude":39.726303,"longitude":-104.856808,"id":"a6ji4m9b8acz","geocode score":0.714,"state":"CO","active":0,"geocode precision":"city"},"type":"Feature","geometry":{"type":"Point","coordinates":[-104.856808,39.726303]}},{"properties":{"city":"Denver","latitude":39.726303,"longitude":-104.856808,"id":"a6ji4mijuic7","geocode score":0.714,"state":"CO","active":0,"geocode precision":"city"},"type":"Feature","geometry":{"type":"Point","coordinates":[-104.856808,39.726303]}},{"properties":{"city":"Denver","latitude":39.726303,"longitude":-104.856808,"id":"a6ji4ma9a5zi","geocode score":0.714,"state":"CO","active":0,"geocode precision":"city"},"type":"Feature","geometry":{"type":"Point","coordinates":[-104.856808,39.726303]}},{"properties":{"city":"Denver","latitude":39.726303,"longitude":-104.856808,"id":"a6ji4m7qakjr","geocode score":0.714,"state":"CO","active":1,"geocode precision":"city"},"type":"Feature","geometry":{"type":"Point","coordinates":[-104.856808,39.726303]}},{"properties":{"city":"Bridgeport","latitude":41.308873,"longitude":-73.363661,"id":"a6ji4mc9ajuh","geocode score":0.714,"state":"CT","active":1,"geocode precision":"city"},"type":"Feature","geometry":{"type":"Point","coordinates":[-73.363661,41.308873]}},{"properties":{"city":"Bridgeport","latitude":41.308873,"longitude":-73.363661,"id":"a6ji4mfbw1k5","geocode score":0.714,"state":"CT","active":1,"geocode precision":"city"},"type":"Feature","geometry":{"type":"Point","coordinates":[-73.363661,41.308873]}},{"properties":{"city":"Hartford","latitude":41.78007,"longitude":-72.677099,"id":"a6ji4mmm8mmx","geocode score":0.714,"state":"CT","active":0,"geocode precision":"city"},"type":"Feature","geometry":{"type":"Point","coordinates":[-72.677099,41.78007]}},{"properties":{"city":"Hartford","latitude":41.78007,"longitude":-72.677099,"id":"a6ji4mdt9d4k","geocode score":0.714,"state":"CT","active":0,"geocode precision":"city"},"type":"Feature","geometry":{"type":"Point","coordinates":[-72.677099,41.78007]}},{"properties":{"city":"New Haven","latitude":41.365709,"longitude":-72.927507,"id":"a6ji4mmyvx89","geocode score":0.714,"state":"CT","active":0,"geocode precision":"city"},"type":"Feature","geometry":{"type":"Point","coordinates":[-72.927507,41.365709]}},{"properties":{"city":"New Haven","latitude":41.365709,"longitude":-72.927507,"id":"a6ji4mbhgivp","geocode score":0.714,"state":"CT","active":0,"geocode precision":"city"},"type":"Feature","geometry":{"type":"Point","coordinates":[-72.927507,41.365709]}},{"properties":{"city":"New Haven","latitude":41.365709,"longitude":-72.927507,"id":"a6ji4mlowjyn","geocode score":0.714,"state":"CT","active":0,"geocode precision":"city"},"type":"Feature","geometry":{"type":"Point","coordinates":[-72.927507,41.365709]}},{"properties":{"city":"Dover","latitude":39.156376,"longitude":-75.49549,"id":"a6ji4mnkn486","geocode score":0.714,"state":"DE","active":1,"geocode precision":"city"},"type":"Feature","geometry":{"type":"Point","coordinates":[-75.49549,39.156376]}},{"properties":{"city":"Wilmington","latitude":39.68678,"longitude":-75.58437,"id":"a6ji4mahtxnn","geocode score":0.714,"state":"DE","active":1,"geocode precision":"city"},"type":"Feature","geometry":{"type":"Point","coordinates":[-75.58437,39.68678]}},{"properties":{"city":"Wilmington","latitude":39.68678,"longitude":-75.58437,"id":"a6ji4m9op20l","geocode score":0.714,"state":"DE","active":1,"geocode precision":"city"},"type":"Feature","geometry":{"type":"Point","coordinates":[-75.58437,39.68678]}},{"properties":{"city":"Gainesville","latitude":29.68041,"longitude":-82.345739,"id":"a6ji4mig7tsg","geocode score":0.714,"state":"FL","active":0,"geocode precision":"city"},"type":"Feature","geometry":{"type":"Point","coordinates":[-82.345739,29.68041]}},{"properties":{"city":"Gainesville","latitude":29.68041,"longitude":-82.345739,"id":"a6ji4mlidazf","geocode score":0.714,"state":"FL","active":0,"geocode precision":"city"},"type":"Feature","geometry":{"type":"Point","coordinates":[-82.345739,29.68041]}},{"properties":{"city":"Panama City","latitude":30.200682,"longitude":-85.813624,"id":"a6ji4mm09n14","geocode score":0.714,"state":"FL","active":0,"geocode precision":"city"},"type":"Feature","geometry":{"type":"Point","coordinates":[-85.813624,30.200682]}},{"properties":{"city":"Panama City","latitude":30.200682,"longitude":-85.813624,"id":"a6ji4mbi341n","geocode score":0.714,"state":"FL","active":0,"geocode precision":"city"},"type":"Feature","geometry":{"type":"Point","coordinates":[-85.813624,30.200682]}},{"properties":{"city":"Pensacola","latitude":30.424838,"longitude":-87.256471,"id":"a6ji4mj6b0yl","geocode score":0.714,"state":"FL","active":0,"geocode precision":"city"},"type":"Feature","geometry":{"type":"Point","coordinates":[-87.256471,30.424838]}},{"properties":{"city":"Pensacola","latitude":30.424838,"longitude":-87.256471,"id":"a6ji4m7v8hyk","geocode score":0.714,"state":"FL","active":0,"geocode precision":"city"},"type":"Feature","geometry":{"type":"Point","coordinates":[-87.256471,30.424838]}},{"properties":{"city":"Pensacola","latitude":30.424838,"longitude":-87.256471,"id":"a6ji4m831kwl","geocode score":0.714,"state":"FL","active":0,"geocode precision":"city"},"type":"Feature","geometry":{"type":"Point","coordinates":[-87.256471,30.424838]}},{"properties":{"city":"Pensacola","latitude":30.424838,"longitude":-87.256471,"id":"a6ji4m7yf7zk","geocode score":0.714,"state":"FL","active":0,"geocode precision":"city"},"type":"Feature","geometry":{"type":"Point","coordinates":[-87.256471,30.424838]}},{"properties":{"city":"Pensacola","latitude":30.424838,"longitude":-87.256471,"id":"a6ji4mc2jvzf","geocode score":0.714,"state":"FL","active":0,"geocode precision":"city"},"type":"Feature","geometry":{"type":"Point","coordinates":[-87.256471,30.424838]}},{"properties":{"city":"Pensacola","latitude":30.424838,"longitude":-87.256471,"id":"a6ji4mbqi1sh","geocode score":0.714,"state":"FL","active":0,"geocode precision":"city"},"type":"Feature","geometry":{"type":"Point","coordinates":[-87.256471,30.424838]}},{"properties":{"city":"Tallahassee","latitude":30.418514,"longitude":-84.203379,"id":"a6ji4md6pqrf","geocode score":0.714,"state":"FL","active":0,"geocode precision":"city"},"type":"Feature","geometry":{"type":"Point","coordinates":[-84.203379,30.418514]}},{"properties":{"city":"Tallahassee","latitude":30.418514,"longitude":-84.203379,"id":"a6ji4mk8wcxs","geocode score":0.714,"state":"FL","active":0,"geocode precision":"city"},"type":"Feature","geometry":{"type":"Point","coordinates":[-84.203379,30.418514]}},{"properties":{"city":"Tallahassee","latitude":30.418514,"longitude":-84.203379,"id":"a6ji4mbo64mx","geocode score":0.714,"state":"FL","active":0,"geocode precision":"city"},"type":"Feature","geometry":{"type":"Point","coordinates":[-84.203379,30.418514]}},{"properties":{"city":"Albany","latitude":31.560674,"longitude":-84.176751,"id":"a6ji4mewxo0a","geocode score":0.714,"state":"GA","active":0,"geocode precision":"city"},"type":"Feature","geometry":{"type":"Point","coordinates":[-84.176751,31.560674]}},{"properties":{"city":"Albany","latitude":31.560674,"longitude":-84.176751,"id":"a6ji4mm6njy4","geocode score":0.714,"state":"GA","active":0,"geocode precision":"city"},"type":"Feature","geometry":{"type":"Point","coordinates":[-84.176751,31.560674]}},{"properties":{"city":"Albany","latitude":31.560674,"longitude":-84.176751,"id":"a6ji4m7z1era","geocode score":0.714,"state":"GA","active":0,"geocode precision":"city"},"type":"Feature","geometry":{"type":"Point","coordinates":[-84.176751,31.560674]}},{"properties":{"city":"Athens","latitude":33.992902,"longitude":-83.353697,"id":"a6ji4mkopijg","geocode score":0.714,"state":"GA","active":0,"geocode precision":"city"},"type":"Feature","geometry":{"type":"Point","coordinates":[-83.353697,33.992902]}},{"properties":{"city":"Athens","latitude":33.992902,"longitude":-83.353697,"id":"a6ji4mjq5qsf","geocode score":0.714,"state":"GA","active":0,"geocode precision":"city"},"type":"Feature","geometry":{"type":"Point","coordinates":[-83.353697,33.992902]}},{"properties":{"city":"Atlanta","latitude":33.844371,"longitude":-84.47405,"id":"a6ji4mgkf9j6","geocode score":0.714,"state":"GA","active":0,"geocode precision":"city"},"type":"Feature","geometry":{"type":"Point","coordinates":[-84.47405,33.844371]}},{"properties":{"city":"Atlanta","latitude":33.844371,"longitude":-84.47405,"id":"a6ji4mbroept","geocode score":0.714,"state":"GA","active":0,"geocode precision":"city"},"type":"Feature","geometry":{"type":"Point","coordinates":[-84.47405,33.844371]}},{"properties":{"city":"Atlanta","latitude":33.844371,"longitude":-84.47405,"id":"a6ji4m7a2q37","geocode score":0.714,"state":"GA","active":0,"geocode precision":"city"},"type":"Feature","geometry":{"type":"Point","coordinates":[-84.47405,33.844371]}},{"properties":{"city":"Atlanta","latitude":33.844371,"longitude":-84.47405,"id":"a6ji4mj2m3sn","geocode score":0.714,"state":"GA","active":0,"geocode precision":"city"},"type":"Feature","geometry":{"type":"Point","coordinates":[-84.47405,33.844371]}},{"properties":{"city":"Atlanta","latitude":33.844371,"longitude":-84.47405,"id":"a6ji4me2ckil","geocode score":0.714,"state":"GA","active":0,"geocode precision":"city"},"type":"Feature","geometry":{"type":"Point","coordinates":[-84.47405,33.844371]}},{"properties":{"city":"Augusta","latitude":33.456687,"longitude":-81.969184,"id":"a6ji4m7qtno8","geocode score":0.714,"state":"GA","active":0,"geocode precision":"city"},"type":"Feature","geometry":{"type":"Point","coordinates":[-81.969184,33.456687]}},{"properties":{"city":"Augusta","latitude":33.456687,"longitude":-81.969184,"id":"a6ji4mip9sds","geocode score":0.714,"state":"GA","active":0,"geocode precision":"city"},"type":"Feature","geometry":{"type":"Point","coordinates":[-81.969184,33.456687]}},{"properties":{"city":"Augusta","latitude":33.456687,"longitude":-81.969184,"id":"a6ji4mbkohtr","geocode score":0.714,"state":"GA","active":0,"geocode precision":"city"},"type":"Feature","geometry":{"type":"Point","coordinates":[-81.969184,33.456687]}},{"properties":{"city":"Brunswick","latitude":31.230428,"longitude":-81.492883,"id":"a6ji4mmslint","geocode score":0.714,"state":"GA","active":0,"geocode precision":"city"},"type":"Feature","geometry":{"type":"Point","coordinates":[-81.492883,31.230428]}},{"properties":{"city":"Brunswick","latitude":31.230428,"longitude":-81.492883,"id":"a6ji4m7t2d53","geocode score":0.714,"state":"GA","active":0,"geocode precision":"city"},"type":"Feature","geometry":{"type":"Point","coordinates":[-81.492883,31.230428]}},{"properties":{"city":"Brunswick","latitude":31.230428,"longitude":-81.492883,"id":"a6ji4mbdazvp","geocode score":0.714,"state":"GA","active":0,"geocode precision":"city"},"type":"Feature","geometry":{"type":"Point","coordinates":[-81.492883,31.230428]}},{"properties":{"city":"Columbus","latitude":32.472864,"longitude":-84.97823,"id":"a6ji4mbq0zgo","geocode score":0.714,"state":"GA","active":0,"geocode precision":"city"},"type":"Feature","geometry":{"type":"Point","coordinates":[-84.97823,32.472864]}},{"properties":{"city":"Columbus","latitude":32.472864,"longitude":-84.97823,"id":"a6ji4mna1m62","geocode score":0.714,"state":"GA","active":0,"geocode precision":"city"},"type":"Feature","geometry":{"type":"Point","coordinates":[-84.97823,32.472864]}},{"properties":{"city":"Dublin","latitude":32.459291,"longitude":-82.938121,"id":"a6ji4ml094m8","geocode score":0.714,"state":"GA","active":0,"geocode precision":"city"},"type":"Feature","geometry":{"type":"Point","coordinates":[-82.938121,32.459291]}},{"properties":{"city":"Dublin","latitude":32.459291,"longitude":-82.938121,"id":"a6ji4miz0yhk","geocode score":0.714,"state":"GA","active":0,"geocode precision":"city"},"type":"Feature","geometry":{"type":"Point","coordinates":[-82.938121,32.459291]}},{"properties":{"city":"Dublin","latitude":32.459291,"longitude":-82.938121,"id":"a6ji4mmlddiz","geocode score":0.714,"state":"GA","active":0,"geocode precision":"city"},"type":"Feature","geometry":{"type":"Point","coordinates":[-82.938121,32.459291]}},{"properties":{"city":"Gainsville","latitude":34.334398,"longitude":-83.837912,"id":"a6ji4mcw05sx","geocode score":0.714,"state":"GA","active":0,"geocode precision":"city"},"type":"Feature","geometry":{"type":"Point","coordinates":[-83.837912,34.334398]}},{"properties":{"city":"Gainsville","latitude":34.334398,"longitude":-83.837912,"id":"a6ji4mgxippi","geocode score":0.714,"state":"GA","active":0,"geocode precision":"city"},"type":"Feature","geometry":{"type":"Point","coordinates":[-83.837912,34.334398]}},{"properties":{"city":"Gainsville","latitude":34.334398,"longitude":-83.837912,"id":"a6ji4ma25dlr","geocode score":0.714,"state":"GA","active":0,"geocode precision":"city"},"type":"Feature","geometry":{"type":"Point","coordinates":[-83.837912,34.334398]}},{"properties":{"city":"Macon","latitude":32.827949,"longitude":-83.595066,"id":"a6ji4ma2nqc2","geocode score":0.714,"state":"GA","active":0,"geocode precision":"city"},"type":"Feature","geometry":{"type":"Point","coordinates":[-83.595066,32.827949]}},{"properties":{"city":"Macon","latitude":32.827949,"longitude":-83.595066,"id":"a6ji4mn7pfqd","geocode score":0.714,"state":"GA","active":0,"geocode precision":"city"},"type":"Feature","geometry":{"type":"Point","coordinates":[-83.595066,32.827949]}},{"properties":{"city":"Marietta","latitude":33.912473,"longitude":-84.557181,"id":"a6ji4ml1d692","geocode score":0.714,"state":"GA","active":0,"geocode precision":"city"},"type":"Feature","geometry":{"type":"Point","coordinates":[-84.557181,33.912473]}},{"properties":{"city":"Newnan","latitude":33.369595,"longitude":-84.819397,"id":"a6ji4mbjgcei","geocode score":0.714,"state":"GA","active":0,"geocode precision":"city"},"type":"Feature","geometry":{"type":"Point","coordinates":[-84.819397,33.369595]}},{"properties":{"city":"Newnan","latitude":33.369595,"longitude":-84.819397,"id":"a6ji4mf8qtui","geocode score":0.714,"state":"GA","active":0,"geocode precision":"city"},"type":"Feature","geometry":{"type":"Point","coordinates":[-84.819397,33.369595]}},{"properties":{"city":"Newnan","latitude":33.369595,"longitude":-84.819397,"id":"a6ji4mbk8znp","geocode score":0.714,"state":"GA","active":0,"geocode precision":"city"},"type":"Feature","geometry":{"type":"Point","coordinates":[-84.819397,33.369595]}},{"properties":{"city":"Rome","latitude":34.262335,"longitude":-85.22089,"id":"a6ji4mb7d9ld","geocode score":0.714,"state":"GA","active":0,"geocode precision":"city"},"type":"Feature","geometry":{"type":"Point","coordinates":[-85.22089,34.262335]}},{"properties":{"city":"Rome","latitude":34.262335,"longitude":-85.22089,"id":"a6ji4mjqo75x","geocode score":0.714,"state":"GA","active":0,"geocode precision":"city"},"type":"Feature","geometry":{"type":"Point","coordinates":[-85.22089,34.262335]}},{"properties":{"city":"Rome","latitude":34.262335,"longitude":-85.22089,"id":"a6ji4mbhucb3","geocode score":0.714,"state":"GA","active":0,"geocode precision":"city"},"type":"Feature","geometry":{"type":"Point","coordinates":[-85.22089,34.262335]}},{"properties":{"city":"Savannah","latitude":32.072257,"longitude":-81.135618,"id":"a6ji4mkub5sr","geocode score":0.714,"state":"GA","active":0,"geocode precision":"city"},"type":"Feature","geometry":{"type":"Point","coordinates":[-81.135618,32.072257]}},{"properties":{"city":"Savannah","latitude":32.072257,"longitude":-81.135618,"id":"a6ji4maid2t0","geocode score":0.714,"state":"GA","active":0,"geocode precision":"city"},"type":"Feature","geometry":{"type":"Point","coordinates":[-81.135618,32.072257]}},{"properties":{"city":"Savannah","latitude":32.072257,"longitude":-81.135618,"id":"a6ji4mg3xudg","geocode score":0.714,"state":"GA","active":0,"geocode precision":"city"},"type":"Feature","geometry":{"type":"Point","coordinates":[-81.135618,32.072257]}},{"properties":{"city":"Statesboro","latitude":32.425,"longitude":-81.784956,"id":"a6ji4mj6iitz","geocode score":0.714,"state":"GA","active":0,"geocode precision":"city"},"type":"Feature","geometry":{"type":"Point","coordinates":[-81.784956,32.425]}},{"properties":{"city":"Statesboro","latitude":32.425,"longitude":-81.784956,"id":"a6ji4me2xd5d","geocode score":0.714,"state":"GA","active":0,"geocode precision":"city"},"type":"Feature","geometry":{"type":"Point","coordinates":[-81.784956,32.425]}},{"properties":{"city":"Statesboro","latitude":32.425,"longitude":-81.784956,"id":"a6ji4mhrimls","geocode score":0.714,"state":"GA","active":0,"geocode precision":"city"},"type":"Feature","geometry":{"type":"Point","coordinates":[-81.784956,32.425]}},{"properties":{"city":"Tucker","latitude":33.853945,"longitude":-84.215369,"id":"a6ji4makdbkd","geocode score":0.857,"state":"GA","active":0,"geocode precision":"city"},"type":"Feature","geometry":{"type":"Point","coordinates":[-84.215369,33.853945]}},{"properties":{"city":"Valdosta","latitude":30.753904,"longitude":-83.332068,"id":"a6ji4meodtd3","geocode score":0.714,"state":"GA","active":0,"geocode precision":"city"},"type":"Feature","geometry":{"type":"Point","coordinates":[-83.332068,30.753904]}},{"properties":{"city":"Valdosta","latitude":30.753904,"longitude":-83.332068,"id":"a6ji4mck38kp","geocode score":0.714,"state":"GA","active":0,"geocode precision":"city"},"type":"Feature","geometry":{"type":"Point","coordinates":[-83.332068,30.753904]}},{"properties":{"city":"Waycross","latitude":31.224262,"longitude":-82.359628,"id":"a6ji4m87htg4","geocode score":0.714,"state":"GA","active":0,"geocode precision":"city"},"type":"Feature","geometry":{"type":"Point","coordinates":[-82.359628,31.224262]}},{"properties":{"city":"Waycross","latitude":31.224262,"longitude":-82.359628,"id":"a6ji4m7nimix","geocode score":0.714,"state":"GA","active":0,"geocode precision":"city"},"type":"Feature","geometry":{"type":"Point","coordinates":[-82.359628,31.224262]}},{"properties":{"city":"Waycross","latitude":31.224262,"longitude":-82.359628,"id":"a6ji4mjt2mzf","geocode score":0.714,"state":"GA","active":0,"geocode precision":"city"},"type":"Feature","geometry":{"type":"Point","coordinates":[-82.359628,31.224262]}},{"properties":{"city":"Cedar Rapids","latitude":41.976612,"longitude":-91.657578,"id":"a6ji4mn72vkc","geocode score":0.714,"state":"IA","active":0,"geocode precision":"city"},"type":"Feature","geometry":{"type":"Point","coordinates":[-91.657578,41.976612]}},{"properties":{"city":"Cedar Rapids","latitude":41.976612,"longitude":-91.657578,"id":"a6ji4mmenjkl","geocode score":0.714,"state":"IA","active":0,"geocode precision":"city"},"type":"Feature","geometry":{"type":"Point","coordinates":[-91.657578,41.976612]}},{"properties":{"city":"Cedar Rapids","latitude":41.976612,"longitude":-91.657578,"id":"a6ji4mkxtbko","geocode score":0.714,"state":"IA","active":0,"geocode precision":"city"},"type":"Feature","geometry":{"type":"Point","coordinates":[-91.657578,41.976612]}},{"properties":{"city":"Cedar Rapids","latitude":41.976612,"longitude":-91.657578,"id":"a6ji4m7jtwtz","geocode score":0.714,"state":"IA","active":0,"geocode precision":"city"},"type":"Feature","geometry":{"type":"Point","coordinates":[-91.657578,41.976612]}},{"properties":{"city":"Cedar Rapids","latitude":41.976612,"longitude":-91.657578,"id":"a6ji4mkqmvci","geocode score":0.714,"state":"IA","active":0,"geocode precision":"city"},"type":"Feature","geometry":{"type":"Point","coordinates":[-91.657578,41.976612]}},{"properties":{"city":"Boise","latitude":43.603768,"longitude":-116.272921,"id":"a6ji4mb49a91","geocode score":0.714,"state":"ID","active":0,"geocode precision":"city"},"type":"Feature","geometry":{"type":"Point","coordinates":[-116.272921,43.603768]}},{"properties":{"city":"Boise","latitude":43.603768,"longitude":-116.272921,"id":"a6ji4menym8u","geocode score":0.714,"state":"ID","active":0,"geocode precision":"city"},"type":"Feature","geometry":{"type":"Point","coordinates":[-116.272921,43.603768]}},{"properties":{"city":"Boise","latitude":43.603768,"longitude":-116.272921,"id":"a6ji4meu4p2q","geocode score":0.714,"state":"ID","active":0,"geocode precision":"city"},"type":"Feature","geometry":{"type":"Point","coordinates":[-116.272921,43.603768]}},{"properties":{"city":"Boise","latitude":43.603768,"longitude":-116.272921,"id":"a6ji4mkusnux","geocode score":0.714,"state":"ID","active":0,"geocode precision":"city"},"type":"Feature","geometry":{"type":"Point","coordinates":[-116.272921,43.603768]}},{"properties":{"city":"Boise","latitude":43.603768,"longitude":-116.272921,"id":"a6ji4mhloz6w","geocode score":0.714,"state":"ID","active":0,"geocode precision":"city"},"type":"Feature","geometry":{"type":"Point","coordinates":[-116.272921,43.603768]}},{"properties":{"city":"Coeur D'Alene","latitude":43.049919,"longitude":-111.379111,"id":"a6ji4mk2lk8g","geocode score":0.714,"state":"ID","active":0,"geocode precision":"city"},"type":"Feature","geometry":{"type":"Point","coordinates":[-111.379111,43.049919]}},{"properties":{"city":"Coeur D'Alene","latitude":43.049919,"longitude":-111.379111,"id":"a6ji4m8qn391","geocode score":0.714,"state":"ID","active":0,"geocode precision":"city"},"type":"Feature","geometry":{"type":"Point","coordinates":[-111.379111,43.049919]}},{"properties":{"city":"Coeur D'Alene","latitude":43.049919,"longitude":-111.379111,"id":"a6ji4mmgoje0","geocode score":0.714,"state":"ID","active":0,"geocode precision":"city"},"type":"Feature","geometry":{"type":"Point","coordinates":[-111.379111,43.049919]}},{"properties":{"city":"Moscow","latitude":46.735334,"longitude":-116.870147,"id":"a6ji4mmxb6vz","geocode score":0.714,"state":"ID","active":0,"geocode precision":"city"},"type":"Feature","geometry":{"type":"Point","coordinates":[-116.870147,46.735334]}},{"properties":{"city":"Moscow","latitude":46.735334,"longitude":-116.870147,"id":"a6ji4minj2m3","geocode score":0.714,"state":"ID","active":0,"geocode precision":"city"},"type":"Feature","geometry":{"type":"Point","coordinates":[-116.870147,46.735334]}},{"properties":{"city":"Moscow","latitude":46.735334,"longitude":-116.870147,"id":"a6ji4mgknw1o","geocode score":0.714,"state":"ID","active":0,"geocode precision":"city"},"type":"Feature","geometry":{"type":"Point","coordinates":[-116.870147,46.735334]}},{"properties":{"city":"Pocatello","latitude":42.770177,"longitude":-112.259807,"id":"a6ji4mcr21j1","geocode score":0.714,"state":"ID","active":0,"geocode precision":"city"},"type":"Feature","geometry":{"type":"Point","coordinates":[-112.259807,42.770177]}},{"properties":{"city":"Pocatello","latitude":42.770177,"longitude":-112.259807,"id":"a6ji4mi1n9pf","geocode score":0.714,"state":"ID","active":0,"geocode precision":"city"},"type":"Feature","geometry":{"type":"Point","coordinates":[-112.259807,42.770177]}},{"properties":{"city":"Pocatello","latitude":42.770177,"longitude":-112.259807,"id":"a6ji4ma6qrx3","geocode score":0.714,"state":"ID","active":0,"geocode precision":"city"},"type":"Feature","geometry":{"type":"Point","coordinates":[-112.259807,42.770177]}},{"properties":{"city":"Pocatello","latitude":42.770177,"longitude":-112.259807,"id":"a6ji4mhtnjkn","geocode score":0.714,"state":"ID","active":0,"geocode precision":"city"},"type":"Feature","geometry":{"type":"Point","coordinates":[-112.259807,42.770177]}},{"properties":{"city":"Twin Falls","latitude":42.443224,"longitude":-114.629497,"id":"a6ji4m9dfuxx","geocode score":0.714,"state":"ID","active":0,"geocode precision":"city"},"type":"Feature","geometry":{"type":"Point","coordinates":[-114.629497,42.443224]}},{"properties":{"city":"Chicago","latitude":41.811929,"longitude":-87.68732,"id":"a6ji4mgt4pw4","geocode score":0.714,"state":"IL","active":0,"geocode precision":"city"},"type":"Feature","geometry":{"type":"Point","coordinates":[-87.68732,41.811929]}},{"properties":{"city":"Danville","latitude":40.10398,"longitude":-87.757792,"id":"a6ji4ma53pc7","geocode score":0.714,"state":"IL","active":0,"geocode precision":"city"},"type":"Feature","geometry":{"type":"Point","coordinates":[-87.757792,40.10398]}},{"properties":{"city":"Lisle","latitude":41.365092,"longitude":-89.0866,"id":"a6ji4mncdkfz","geocode score":0.714,"state":"IL","active":1,"geocode precision":"city"},"type":"Feature","geometry":{"type":"Point","coordinates":[-89.0866,41.365092]}},{"properties":{"city":"Peoria","latitude":40.693137,"longitude":-89.589847,"id":"a6ji4mjqlr72","geocode score":0.714,"state":"IL","active":0,"geocode precision":"city"},"type":"Feature","geometry":{"type":"Point","coordinates":[-89.589847,40.693137]}},{"properties":{"city":"Peoria","latitude":40.693137,"longitude":-89.589847,"id":"a6ji4miaovhy","geocode score":0.714,"state":"IL","active":0,"geocode precision":"city"},"type":"Feature","geometry":{"type":"Point","coordinates":[-89.589847,40.693137]}},{"properties":{"city":"Peoria","latitude":40.693137,"longitude":-89.589847,"id":"a6ji4mgi8xh3","geocode score":0.714,"state":"IL","active":0,"geocode precision":"city"},"type":"Feature","geometry":{"type":"Point","coordinates":[-89.589847,40.693137]}},{"properties":{"city":"Rock Island","latitude":42.27179,"longitude":-88.188464,"id":"a6ji4mhhoq2o","geocode score":0.714,"state":"IL","active":0,"geocode precision":"city"},"type":"Feature","geometry":{"type":"Point","coordinates":[-88.188464,42.27179]}},{"properties":{"city":"Rock Island","latitude":42.27179,"longitude":-88.188464,"id":"a6ji4mbahrv4","geocode score":0.714,"state":"IL","active":0,"geocode precision":"city"},"type":"Feature","geometry":{"type":"Point","coordinates":[-88.188464,42.27179]}},{"properties":{"city":"Rock Island","latitude":42.27179,"longitude":-88.188464,"id":"a6ji4mm8gqy7","geocode score":0.714,"state":"IL","active":0,"geocode precision":"city"},"type":"Feature","geometry":{"type":"Point","coordinates":[-88.188464,42.27179]}},{"properties":{"city":"Springfield","latitude":42.367273,"longitude":-88.252639,"id":"a6ji4maljk0c","geocode score":0.714,"state":"IL","active":0,"geocode precision":"city"},"type":"Feature","geometry":{"type":"Point","coordinates":[-88.252639,42.367273]}},{"properties":{"city":"Springfield","latitude":42.367273,"longitude":-88.252639,"id":"a6ji4mm2zya9","geocode score":0.714,"state":"IL","active":0,"geocode precision":"city"},"type":"Feature","geometry":{"type":"Point","coordinates":[-88.252639,42.367273]}},{"properties":{"city":"Springfield","latitude":42.367273,"longitude":-88.252639,"id":"a6ji4mbmaclg","geocode score":0.714,"state":"IL","active":0,"geocode precision":"city"},"type":"Feature","geometry":{"type":"Point","coordinates":[-88.252639,42.367273]}},{"properties":{"city":"Urbana","latitude":37.974495,"longitude":-89.04063,"id":"a6ji4mke07vn","geocode score":0.714,"state":"IL","active":0,"geocode precision":"city"},"type":"Feature","geometry":{"type":"Point","coordinates":[-89.04063,37.974495]}},{"properties":{"city":"Urbana","latitude":37.974495,"longitude":-89.04063,"id":"a6ji4me0ahq8","geocode score":0.714,"state":"IL","active":0,"geocode precision":"city"},"type":"Feature","geometry":{"type":"Point","coordinates":[-89.04063,37.974495]}},{"properties":{"city":"Fort Wayne","latitude":41.130604,"longitude":-85.12886,"id":"a6ji4maznjtf","geocode score":0.714,"state":"IN","active":0,"geocode precision":"city"},"type":"Feature","geometry":{"type":"Point","coordinates":[-85.12886,41.130604]}},{"properties":{"city":"Fort Wayne","latitude":41.130604,"longitude":-85.12886,"id":"a6ji4mngh43j","geocode score":0.714,"state":"IN","active":0,"geocode precision":"city"},"type":"Feature","geometry":{"type":"Point","coordinates":[-85.12886,41.130604]}},{"properties":{"city":"Fort Wayne","latitude":41.130604,"longitude":-85.12886,"id":"a6ji4mn8bwms","geocode score":0.714,"state":"IN","active":0,"geocode precision":"city"},"type":"Feature","geometry":{"type":"Point","coordinates":[-85.12886,41.130604]}},{"properties":{"city":"Hammond","latitude":41.444246,"longitude":-87.487242,"id":"a6ji4md62zsm","geocode score":0.714,"state":"IN","active":0,"geocode precision":"city"},"type":"Feature","geometry":{"type":"Point","coordinates":[-87.487242,41.444246]}},{"properties":{"city":"Hammond","latitude":41.444246,"longitude":-87.487242,"id":"a6ji4mk0xzjw","geocode score":0.714,"state":"IN","active":0,"geocode precision":"city"},"type":"Feature","geometry":{"type":"Point","coordinates":[-87.487242,41.444246]}},{"properties":{"city":"Hammond","latitude":41.444246,"longitude":-87.487242,"id":"a6ji4merspnj","geocode score":0.714,"state":"IN","active":0,"geocode precision":"city"},"type":"Feature","geometry":{"type":"Point","coordinates":[-87.487242,41.444246]}},{"properties":{"city":"Lafayette","latitude":40.39905,"longitude":-86.830286,"id":"a6ji4mn4ndnx","geocode score":0.714,"state":"IN","active":0,"geocode precision":"city"},"type":"Feature","geometry":{"type":"Point","coordinates":[-86.830286,40.39905]}},{"properties":{"city":"Lafayette","latitude":40.39905,"longitude":-86.830286,"id":"a6ji4mkzhp41","geocode score":0.714,"state":"IN","active":0,"geocode precision":"city"},"type":"Feature","geometry":{"type":"Point","coordinates":[-86.830286,40.39905]}},{"properties":{"city":"Lafayette","latitude":40.39905,"longitude":-86.830286,"id":"a6ji4mkjftjf","geocode score":0.714,"state":"IN","active":0,"geocode precision":"city"},"type":"Feature","geometry":{"type":"Point","coordinates":[-86.830286,40.39905]}},{"properties":{"city":"South Bend","latitude":39.523937,"longitude":-86.250268,"id":"a6ji4mk3y085","geocode score":0.714,"state":"IN","active":0,"geocode precision":"city"},"type":"Feature","geometry":{"type":"Point","coordinates":[-86.250268,39.523937]}},{"properties":{"city":"South Bend","latitude":39.523937,"longitude":-86.250268,"id":"a6ji4mc4kenc","geocode score":0.714,"state":"IN","active":0,"geocode precision":"city"},"type":"Feature","geometry":{"type":"Point","coordinates":[-86.250268,39.523937]}},{"properties":{"city":"South Bend","latitude":39.523937,"longitude":-86.250268,"id":"a6ji4miwfple","geocode score":0.714,"state":"IN","active":0,"geocode precision":"city"},"type":"Feature","geometry":{"type":"Point","coordinates":[-86.250268,39.523937]}},{"properties":{"city":"South Bend","latitude":39.523937,"longitude":-86.250268,"id":"a6ji4medx2sr","geocode score":0.714,"state":"IN","active":0,"geocode precision":"city"},"type":"Feature","geometry":{"type":"Point","coordinates":[-86.250268,39.523937]}},{"properties":{"city":"South Bend","latitude":39.523937,"longitude":-86.250268,"id":"a6ji4mjrpd0q","geocode score":0.714,"state":"IN","active":0,"geocode precision":"city"},"type":"Feature","geometry":{"type":"Point","coordinates":[-86.250268,39.523937]}},{"properties":{"city":"Bowling Green","latitude":38.28974,"longitude":-83.081077,"id":"a6ji4me9nlkk","geocode score":0.714,"state":"KY","active":0,"geocode precision":"city"},"type":"Feature","geometry":{"type":"Point","coordinates":[-83.081077,38.28974]}},{"properties":{"city":"Bowling Green","latitude":38.28974,"longitude":-83.081077,"id":"a6ji4mkst7ye","geocode score":0.714,"state":"KY","active":0,"geocode precision":"city"},"type":"Feature","geometry":{"type":"Point","coordinates":[-83.081077,38.28974]}},{"properties":{"city":"Bowling Green","latitude":38.28974,"longitude":-83.081077,"id":"a6ji4mm8a6qi","geocode score":0.714,"state":"KY","active":0,"geocode precision":"city"},"type":"Feature","geometry":{"type":"Point","coordinates":[-83.081077,38.28974]}},{"properties":{"city":"Hopkinsville","latitude":36.876568,"longitude":-87.471106,"id":"a6ji4mdcqbog","geocode score":0.714,"state":"KY","active":0,"geocode precision":"city"},"type":"Feature","geometry":{"type":"Point","coordinates":[-87.471106,36.876568]}},{"properties":{"city":"Lexington","latitude":37.988689,"longitude":-84.477715,"id":"a6ji4mcyhvey","geocode score":0.857,"state":"KY","active":0,"geocode precision":"city"},"type":"Feature","geometry":{"type":"Point","coordinates":[-84.477715,37.988689]}},{"properties":{"city":"Lexington","latitude":37.988689,"longitude":-84.477715,"id":"a6ji4mecrxsl","geocode score":0.857,"state":"KY","active":0,"geocode precision":"city"},"type":"Feature","geometry":{"type":"Point","coordinates":[-84.477715,37.988689]}},{"properties":{"city":"Lexington","latitude":37.988689,"longitude":-84.477715,"id":"a6ji4ma78nxq","geocode score":0.857,"state":"KY","active":0,"geocode precision":"city"},"type":"Feature","geometry":{"type":"Point","coordinates":[-84.477715,37.988689]}},{"properties":{"city":"Louisville","latitude":38.188962,"longitude":-85.676819,"id":"a6ji4mmplj77","geocode score":0.714,"state":"KY","active":0,"geocode precision":"city"},"type":"Feature","geometry":{"type":"Point","coordinates":[-85.676819,38.188962]}},{"properties":{"city":"Louisville","latitude":38.188962,"longitude":-85.676819,"id":"a6ji4miu5s6i","geocode score":0.714,"state":"KY","active":0,"geocode precision":"city"},"type":"Feature","geometry":{"type":"Point","coordinates":[-85.676819,38.188962]}},{"properties":{"city":"Louisville","latitude":38.188962,"longitude":-85.676819,"id":"a6ji4m8fvtq9","geocode score":0.714,"state":"KY","active":0,"geocode precision":"city"},"type":"Feature","geometry":{"type":"Point","coordinates":[-85.676819,38.188962]}},{"properties":{"city":"Louisville","latitude":38.188962,"longitude":-85.676819,"id":"a6ji4mmwf8nm","geocode score":0.714,"state":"KY","active":0,"geocode precision":"city"},"type":"Feature","geometry":{"type":"Point","coordinates":[-85.676819,38.188962]}},{"properties":{"city":"Louisville","latitude":38.188962,"longitude":-85.676819,"id":"a6ji4mmc7qit","geocode score":0.714,"state":"KY","active":0,"geocode precision":"city"},"type":"Feature","geometry":{"type":"Point","coordinates":[-85.676819,38.188962]}},{"properties":{"city":"Owensboro","latitude":37.751818,"longitude":-87.257303,"id":"a6ji4mbf7mop","geocode score":0.714,"state":"KY","active":0,"geocode precision":"city"},"type":"Feature","geometry":{"type":"Point","coordinates":[-87.257303,37.751818]}},{"properties":{"city":"Owensboro","latitude":37.751818,"longitude":-87.257303,"id":"a6ji4mjp96zp","geocode score":0.714,"state":"KY","active":0,"geocode precision":"city"},"type":"Feature","geometry":{"type":"Point","coordinates":[-87.257303,37.751818]}},{"properties":{"city":"Owensboro","latitude":37.751818,"longitude":-87.257303,"id":"a6ji4mhqylr4","geocode score":0.714,"state":"KY","active":0,"geocode precision":"city"},"type":"Feature","geometry":{"type":"Point","coordinates":[-87.257303,37.751818]}},{"properties":{"city":"Paducah","latitude":37.031586,"longitude":-88.713292,"id":"a6ji4mf3x4o9","geocode score":0.714,"state":"KY","active":0,"geocode precision":"city"},"type":"Feature","geometry":{"type":"Point","coordinates":[-88.713292,37.031586]}},{"properties":{"city":"Paducah","latitude":37.031586,"longitude":-88.713292,"id":"a6ji4m8lvb6e","geocode score":0.714,"state":"KY","active":0,"geocode precision":"city"},"type":"Feature","geometry":{"type":"Point","coordinates":[-88.713292,37.031586]}},{"properties":{"city":"Paducah","latitude":37.031586,"longitude":-88.713292,"id":"a6ji4mf00oi5","geocode score":0.714,"state":"KY","active":0,"geocode precision":"city"},"type":"Feature","geometry":{"type":"Point","coordinates":[-88.713292,37.031586]}},{"properties":{"city":"Alexandria","latitude":31.311294,"longitude":-92.445137,"id":"a6ji4mn0s93f","geocode score":0.857,"state":"LA","active":0,"geocode precision":"city"},"type":"Feature","geometry":{"type":"Point","coordinates":[-92.445137,31.311294]}},{"properties":{"city":"Alexandria","latitude":31.311294,"longitude":-92.445137,"id":"a6ji4mboal7l","geocode score":0.857,"state":"LA","active":0,"geocode precision":"city"},"type":"Feature","geometry":{"type":"Point","coordinates":[-92.445137,31.311294]}},{"properties":{"city":"Alexandria","latitude":31.311294,"longitude":-92.445137,"id":"a6ji4mhr565e","geocode score":0.857,"state":"LA","active":0,"geocode precision":"city"},"type":"Feature","geometry":{"type":"Point","coordinates":[-92.445137,31.311294]}},{"properties":{"city":"Baton Rouge","latitude":30.159092,"longitude":-92.176237,"id":"a6ji4mdyjjj3","geocode score":0.714,"state":"LA","active":0,"geocode precision":"city"},"type":"Feature","geometry":{"type":"Point","coordinates":[-92.176237,30.159092]}},{"properties":{"city":"Baton Rouge","latitude":30.159092,"longitude":-92.176237,"id":"a6ji4mhqtzpa","geocode score":0.714,"state":"LA","active":0,"geocode precision":"city"},"type":"Feature","geometry":{"type":"Point","coordinates":[-92.176237,30.159092]}},{"properties":{"city":"Hammond","latitude":30.549037,"longitude":-90.464466,"id":"a6ji4mc58e0f","geocode score":0.714,"state":"LA","active":0,"geocode precision":"city"},"type":"Feature","geometry":{"type":"Point","coordinates":[-90.464466,30.549037]}},{"properties":{"city":"Houma","latitude":29.6421,"longitude":-90.852551,"id":"a6ji4mj044oz","geocode score":0.714,"state":"LA","active":0,"geocode precision":"city"},"type":"Feature","geometry":{"type":"Point","coordinates":[-90.852551,29.6421]}},{"properties":{"city":"Lafayette","latitude":30.232955,"longitude":-92.066574,"id":"a6ji4migsxee","geocode score":0.714,"state":"LA","active":0,"geocode precision":"city"},"type":"Feature","geometry":{"type":"Point","coordinates":[-92.066574,30.232955]}},{"properties":{"city":"Lafayette","latitude":30.232955,"longitude":-92.066574,"id":"a6ji4mcgf7rs","geocode score":0.714,"state":"LA","active":0,"geocode precision":"city"},"type":"Feature","geometry":{"type":"Point","coordinates":[-92.066574,30.232955]}},{"properties":{"city":"Lafayette","latitude":30.232955,"longitude":-92.066574,"id":"a6ji4mjcu0xd","geocode score":0.714,"state":"LA","active":0,"geocode precision":"city"},"type":"Feature","geometry":{"type":"Point","coordinates":[-92.066574,30.232955]}},{"properties":{"city":"Lake Charles","latitude":30.299917,"longitude":-90.852875,"id":"a6ji4mdj0pm9","geocode score":0.714,"state":"LA","active":0,"geocode precision":"city"},"type":"Feature","geometry":{"type":"Point","coordinates":[-90.852875,30.299917]}},{"properties":{"city":"Lake Charles","latitude":30.299917,"longitude":-90.852875,"id":"a6ji4mj2kccx","geocode score":0.714,"state":"LA","active":0,"geocode precision":"city"},"type":"Feature","geometry":{"type":"Point","coordinates":[-90.852875,30.299917]}},{"properties":{"city":"Lake Charles","latitude":30.299917,"longitude":-90.852875,"id":"a6ji4m9g3m2l","geocode score":0.714,"state":"LA","active":0,"geocode precision":"city"},"type":"Feature","geometry":{"type":"Point","coordinates":[-90.852875,30.299917]}},{"properties":{"city":"Monroe","latitude":32.502833,"longitude":-92.094583,"id":"a6ji4mcnefiq","geocode score":0.714,"state":"LA","active":0,"geocode precision":"city"},"type":"Feature","geometry":{"type":"Point","coordinates":[-92.094583,32.502833]}},{"properties":{"city":"Monroe","latitude":32.502833,"longitude":-92.094583,"id":"a6ji4m9jngbq","geocode score":0.714,"state":"LA","active":0,"geocode precision":"city"},"type":"Feature","geometry":{"type":"Point","coordinates":[-92.094583,32.502833]}},{"properties":{"city":"Monroe","latitude":32.502833,"longitude":-92.094583,"id":"a6ji4mbmt3ev","geocode score":0.714,"state":"LA","active":0,"geocode precision":"city"},"type":"Feature","geometry":{"type":"Point","coordinates":[-92.094583,32.502833]}},{"properties":{"city":"NewOrleans","latitude":30.068812,"longitude":-89.930956,"id":"a6ji4mfomdpq","geocode score":0.714,"state":"LA","active":0,"geocode precision":"city"},"type":"Feature","geometry":{"type":"Point","coordinates":[-89.930956,30.068812]}},{"properties":{"city":"Shreveport","latitude":32.498202,"longitude":-93.750228,"id":"a6ji4md2zgar","geocode score":0.714,"state":"LA","active":0,"geocode precision":"city"},"type":"Feature","geometry":{"type":"Point","coordinates":[-93.750228,32.498202]}},{"properties":{"city":"Shreveport","latitude":32.498202,"longitude":-93.750228,"id":"a6ji4mj00744","geocode score":0.714,"state":"LA","active":0,"geocode precision":"city"},"type":"Feature","geometry":{"type":"Point","coordinates":[-93.750228,32.498202]}},{"properties":{"city":"Shreveport","latitude":32.498202,"longitude":-93.750228,"id":"a6ji4m9ewq3l","geocode score":0.714,"state":"LA","active":0,"geocode precision":"city"},"type":"Feature","geometry":{"type":"Point","coordinates":[-93.750228,32.498202]}},{"properties":{"city":"Boston","latitude":42.370567,"longitude":-71.026964,"id":"a6ji4mjbk2hk","geocode score":0.714,"state":"MA","active":0,"geocode precision":"city"},"type":"Feature","geometry":{"type":"Point","coordinates":[-71.026964,42.370567]}},{"properties":{"city":"Boston","latitude":42.370567,"longitude":-71.026964,"id":"a6ji4mkqof98","geocode score":0.714,"state":"MA","active":0,"geocode precision":"city"},"type":"Feature","geometry":{"type":"Point","coordinates":[-71.026964,42.370567]}},{"properties":{"city":"Boston","latitude":42.370567,"longitude":-71.026964,"id":"a6ji4mgi6qhi","geocode score":0.714,"state":"MA","active":0,"geocode precision":"city"},"type":"Feature","geometry":{"type":"Point","coordinates":[-71.026964,42.370567]}},{"properties":{"city":"Baltimore","latitude":39.058168,"longitude":-75.844658,"id":"a6ji4mh4g5qw","geocode score":0.714,"state":"MD","active":1,"geocode precision":"city"},"type":"Feature","geometry":{"type":"Point","coordinates":[-75.844658,39.058168]}},{"properties":{"city":"Baltimore","latitude":39.058168,"longitude":-75.844658,"id":"a6ji4mcpztjp","geocode score":0.714,"state":"MD","active":1,"geocode precision":"city"},"type":"Feature","geometry":{"type":"Point","coordinates":[-75.844658,39.058168]}},{"properties":{"city":"Baltimore","latitude":39.058168,"longitude":-75.844658,"id":"a6ji4m7ukl72","geocode score":0.714,"state":"MD","active":1,"geocode precision":"city"},"type":"Feature","geometry":{"type":"Point","coordinates":[-75.844658,39.058168]}},{"properties":{"city":"Baltimore","latitude":39.058168,"longitude":-75.844658,"id":"a6ji4mcwf93w","geocode score":0.714,"state":"MD","active":1,"geocode precision":"city"},"type":"Feature","geometry":{"type":"Point","coordinates":[-75.844658,39.058168]}},{"properties":{"city":"Baltimore","latitude":39.058168,"longitude":-75.844658,"id":"a6ji4mbr1jty","geocode score":0.714,"state":"MD","active":1,"geocode precision":"city"},"type":"Feature","geometry":{"type":"Point","coordinates":[-75.844658,39.058168]}},{"properties":{"city":"Greenbelt","latitude":38.833563,"longitude":-76.877743,"id":"a6ji4m7najv1","geocode score":0.714,"state":"MD","active":1,"geocode precision":"city"},"type":"Feature","geometry":{"type":"Point","coordinates":[-76.877743,38.833563]}},{"properties":{"city":"Greenbelt","latitude":38.833563,"longitude":-76.877743,"id":"a6ji4ma2pyqt","geocode score":0.714,"state":"MD","active":1,"geocode precision":"city"},"type":"Feature","geometry":{"type":"Point","coordinates":[-76.877743,38.833563]}},{"properties":{"city":"Greenbelt","latitude":38.833563,"longitude":-76.877743,"id":"a6ji4mggu20v","geocode score":0.714,"state":"MD","active":1,"geocode precision":"city"},"type":"Feature","geometry":{"type":"Point","coordinates":[-76.877743,38.833563]}},{"properties":{"city":"Greenbelt","latitude":38.833563,"longitude":-76.877743,"id":"a6ji4mhvs3gf","geocode score":0.714,"state":"MD","active":1,"geocode precision":"city"},"type":"Feature","geometry":{"type":"Point","coordinates":[-76.877743,38.833563]}},{"properties":{"city":"Greenbelt","latitude":38.833563,"longitude":-76.877743,"id":"a6ji4m7iwz02","geocode score":0.714,"state":"MD","active":1,"geocode precision":"city"},"type":"Feature","geometry":{"type":"Point","coordinates":[-76.877743,38.833563]}},{"properties":{"city":"Salisbury","latitude":38.382445,"longitude":-75.633621,"id":"a6ji4m9ea668","geocode score":0.714,"state":"MD","active":1,"geocode precision":"city"},"type":"Feature","geometry":{"type":"Point","coordinates":[-75.633621,38.382445]}},{"properties":{"city":"Bangor","latitude":45.061744,"longitude":-68.878893,"id":"a6ji4meh2ind","geocode score":0.714,"state":"ME","active":0,"geocode precision":"city"},"type":"Feature","geometry":{"type":"Point","coordinates":[-68.878893,45.061744]}},{"properties":{"city":"Bangor","latitude":45.061744,"longitude":-68.878893,"id":"a6ji4m8u5aay","geocode score":0.714,"state":"ME","active":0,"geocode precision":"city"},"type":"Feature","geometry":{"type":"Point","coordinates":[-68.878893,45.061744]}},{"properties":{"city":"Portland","latitude":43.658784,"longitude":-70.262393,"id":"a6ji4mghtqn7","geocode score":0.714,"state":"ME","active":0,"geocode precision":"city"},"type":"Feature","geometry":{"type":"Point","coordinates":[-70.262393,43.658784]}},{"properties":{"city":"Portland","latitude":43.658784,"longitude":-70.262393,"id":"a6ji4mngx3us","geocode score":0.714,"state":"ME","active":0,"geocode precision":"city"},"type":"Feature","geometry":{"type":"Point","coordinates":[-70.262393,43.658784]}},{"properties":{"city":"Detroit","latitude":42.239933,"longitude":-83.150823,"id":"a6ji4m9elt5v","geocode score":0.714,"state":"MI","active":0,"geocode precision":"city"},"type":"Feature","geometry":{"type":"Point","coordinates":[-83.150823,42.239933]}},{"properties":{"city":"Detroit","latitude":42.239933,"longitude":-83.150823,"id":"a6ji4mapjhyz","geocode score":0.714,"state":"MI","active":0,"geocode precision":"city"},"type":"Feature","geometry":{"type":"Point","coordinates":[-83.150823,42.239933]}},{"properties":{"city":"Cape Girardeau","latitude":37.341398,"longitude":-89.611016,"id":"a6ji4mfdz618","geocode score":0.714,"state":"MO","active":0,"geocode precision":"city"},"type":"Feature","geometry":{"type":"Point","coordinates":[-89.611016,37.341398]}},{"properties":{"city":"Cape Girardeau","latitude":37.341398,"longitude":-89.611016,"id":"a6ji4mf7u325","geocode score":0.714,"state":"MO","active":0,"geocode precision":"city"},"type":"Feature","geometry":{"type":"Point","coordinates":[-89.611016,37.341398]}},{"properties":{"city":"Cape Girardeau","latitude":37.341398,"longitude":-89.611016,"id":"a6ji4mg69mzw","geocode score":0.714,"state":"MO","active":0,"geocode precision":"city"},"type":"Feature","geometry":{"type":"Point","coordinates":[-89.611016,37.341398]}},{"properties":{"city":"Hannibal","latitude":39.736986,"longitude":-91.45683,"id":"a6ji4maurz37","geocode score":0.714,"state":"MO","active":0,"geocode precision":"city"},"type":"Feature","geometry":{"type":"Point","coordinates":[-91.45683,39.736986]}},{"properties":{"city":"Jefferson City","latitude":38.494029,"longitude":-92.165194,"id":"a6ji4mh9vt11","geocode score":0.714,"state":"MO","active":1,"geocode precision":"city"},"type":"Feature","geometry":{"type":"Point","coordinates":[-92.165194,38.494029]}},{"properties":{"city":"Jefferson City","latitude":38.494029,"longitude":-92.165194,"id":"a6ji4mlyaob6","geocode score":0.714,"state":"MO","active":1,"geocode precision":"city"},"type":"Feature","geometry":{"type":"Point","coordinates":[-92.165194,38.494029]}},{"properties":{"city":"Jefferson City","latitude":38.494029,"longitude":-92.165194,"id":"a6ji4m92ym1f","geocode score":0.714,"state":"MO","active":1,"geocode precision":"city"},"type":"Feature","geometry":{"type":"Point","coordinates":[-92.165194,38.494029]}},{"properties":{"city":"Kansas City","latitude":39.102404,"longitude":-94.598583,"id":"a6ji4miodijd","geocode score":0.714,"state":"MO","active":0,"geocode precision":"city"},"type":"Feature","geometry":{"type":"Point","coordinates":[-94.598583,39.102404]}},{"properties":{"city":"Kansas City","latitude":39.102404,"longitude":-94.598583,"id":"a6ji4mimztbo","geocode score":0.714,"state":"MO","active":0,"geocode precision":"city"},"type":"Feature","geometry":{"type":"Point","coordinates":[-94.598583,39.102404]}},{"properties":{"city":"Kansas City","latitude":39.102404,"longitude":-94.598583,"id":"a6ji4mimvyec","geocode score":0.714,"state":"MO","active":0,"geocode precision":"city"},"type":"Feature","geometry":{"type":"Point","coordinates":[-94.598583,39.102404]}},{"properties":{"city":"Kansas City","latitude":39.102404,"longitude":-94.598583,"id":"a6ji4mkfyl83","geocode score":0.714,"state":"MO","active":0,"geocode precision":"city"},"type":"Feature","geometry":{"type":"Point","coordinates":[-94.598583,39.102404]}},{"properties":{"city":"Springfield","latitude":37.762541,"longitude":-92.02405,"id":"a6ji4mbpsdvm","geocode score":0.714,"state":"MO","active":1,"geocode precision":"city"},"type":"Feature","geometry":{"type":"Point","coordinates":[-92.02405,37.762541]}},{"properties":{"city":"Springfield","latitude":37.762541,"longitude":-92.02405,"id":"a6ji4mjn73na","geocode score":0.714,"state":"MO","active":1,"geocode precision":"city"},"type":"Feature","geometry":{"type":"Point","coordinates":[-92.02405,37.762541]}},{"properties":{"city":"Springfield","latitude":37.762541,"longitude":-92.02405,"id":"a6ji4me3zftz","geocode score":0.714,"state":"MO","active":1,"geocode precision":"city"},"type":"Feature","geometry":{"type":"Point","coordinates":[-92.02405,37.762541]}},{"properties":{"city":"Saint Louis","latitude":38.627273,"longitude":-90.197889,"id":"a6ji4ml3wsax","geocode score":0.857,"state":"MO","active":0,"geocode precision":"city"},"type":"Feature","geometry":{"type":"Point","coordinates":[-90.197889,38.627273]}},{"properties":{"city":"Saint Louis","latitude":38.251613,"longitude":-92.254481,"id":"a6ji4mdvb99y","geocode score":0.714,"state":"MO","active":0,"geocode precision":"city"},"type":"Feature","geometry":{"type":"Point","coordinates":[-92.254481,38.251613]}},{"properties":{"city":"Saint Louis","latitude":38.251613,"longitude":-92.254481,"id":"a6ji4m7fhd5u","geocode score":0.714,"state":"MO","active":0,"geocode precision":"city"},"type":"Feature","geometry":{"type":"Point","coordinates":[-92.254481,38.251613]}},{"properties":{"city":"Saint Louis","latitude":38.251613,"longitude":-92.254481,"id":"a6ji4m8nlj9b","geocode score":0.714,"state":"MO","active":0,"geocode precision":"city"},"type":"Feature","geometry":{"type":"Point","coordinates":[-92.254481,38.251613]}},{"properties":{"city":"Saint Louis","latitude":38.627273,"longitude":-90.197889,"id":"a6ji4mk06194","geocode score":0.857,"state":"MO","active":0,"geocode precision":"city"},"type":"Feature","geometry":{"type":"Point","coordinates":[-90.197889,38.627273]}},{"properties":{"city":"Aberdeen","latitude":33.847638,"longitude":-88.514694,"id":"a6ji4m7izu61","geocode score":0.714,"state":"MS","active":0,"geocode precision":"city"},"type":"Feature","geometry":{"type":"Point","coordinates":[-88.514694,33.847638]}},{"properties":{"city":"Aberdeen","latitude":33.847638,"longitude":-88.514694,"id":"a6ji4mi7css8","geocode score":0.714,"state":"MS","active":0,"geocode precision":"city"},"type":"Feature","geometry":{"type":"Point","coordinates":[-88.514694,33.847638]}},{"properties":{"city":"Aberdeen","latitude":33.847638,"longitude":-88.514694,"id":"a6ji4marlvsb","geocode score":0.714,"state":"MS","active":0,"geocode precision":"city"},"type":"Feature","geometry":{"type":"Point","coordinates":[-88.514694,33.847638]}},{"properties":{"city":"Greenville","latitude":33.314539,"longitude":-91.02297,"id":"a6ji4m8z0dk3","geocode score":0.714,"state":"MS","active":0,"geocode precision":"city"},"type":"Feature","geometry":{"type":"Point","coordinates":[-91.02297,33.314539]}},{"properties":{"city":"Greenville","latitude":33.314539,"longitude":-91.02297,"id":"a6ji4m8wuq7y","geocode score":0.714,"state":"MS","active":0,"geocode precision":"city"},"type":"Feature","geometry":{"type":"Point","coordinates":[-91.02297,33.314539]}},{"properties":{"city":"Oxford","latitude":31.267951,"longitude":-90.898158,"id":"a6ji4m77pmny","geocode score":0.857,"state":"MS","active":0,"geocode precision":"city"},"type":"Feature","geometry":{"type":"Point","coordinates":[-90.898158,31.267951]}},{"properties":{"city":"Oxford","latitude":31.267951,"longitude":-90.898158,"id":"a6ji4ma9s3fy","geocode score":0.857,"state":"MS","active":0,"geocode precision":"city"},"type":"Feature","geometry":{"type":"Point","coordinates":[-90.898158,31.267951]}},{"properties":{"city":"Tupelo","latitude":34.291889,"longitude":-88.683828,"id":"a6ji4mgk2x4i","geocode score":0.714,"state":"MS","active":0,"geocode precision":"city"},"type":"Feature","geometry":{"type":"Point","coordinates":[-88.683828,34.291889]}},{"properties":{"city":"Billings","latitude":45.686966,"longitude":-108.387392,"id":"a6ji4m96i1st","geocode score":0.714,"state":"MT","active":0,"geocode precision":"city"},"type":"Feature","geometry":{"type":"Point","coordinates":[-108.387392,45.686966]}},{"properties":{"city":"Billings","latitude":45.686966,"longitude":-108.387392,"id":"a6ji4mdirb1j","geocode score":0.714,"state":"MT","active":0,"geocode precision":"city"},"type":"Feature","geometry":{"type":"Point","coordinates":[-108.387392,45.686966]}},{"properties":{"city":"Browning","latitude":48.649105,"longitude":-112.793626,"id":"a6ji4mfybvtf","geocode score":0.714,"state":"MT","active":1,"geocode precision":"city"},"type":"Feature","geometry":{"type":"Point","coordinates":[-112.793626,48.649105]}},{"properties":{"city":"Butte","latitude":45.997895,"longitude":-112.598765,"id":"a6ji4mfhx5yw","geocode score":0.714,"state":"MT","active":1,"geocode precision":"city"},"type":"Feature","geometry":{"type":"Point","coordinates":[-112.598765,45.997895]}},{"properties":{"city":"Butte","latitude":45.997895,"longitude":-112.598765,"id":"a6ji4mgxpjog","geocode score":0.714,"state":"MT","active":1,"geocode precision":"city"},"type":"Feature","geometry":{"type":"Point","coordinates":[-112.598765,45.997895]}},{"properties":{"city":"Glasgow","latitude":48.43923,"longitude":-106.474987,"id":"a6ji4m8v7c29","geocode score":0.714,"state":"MT","active":0,"geocode precision":"city"},"type":"Feature","geometry":{"type":"Point","coordinates":[-106.474987,48.43923]}},{"properties":{"city":"Great Falls","latitude":47.402024,"longitude":-111.422948,"id":"a6ji4ma59n7w","geocode score":0.714,"state":"MT","active":1,"geocode precision":"city"},"type":"Feature","geometry":{"type":"Point","coordinates":[-111.422948,47.402024]}},{"properties":{"city":"Great Falls","latitude":47.402024,"longitude":-111.422948,"id":"a6ji4m9im7nx","geocode score":0.714,"state":"MT","active":1,"geocode precision":"city"},"type":"Feature","geometry":{"type":"Point","coordinates":[-111.422948,47.402024]}},{"properties":{"city":"Hardin","latitude":45.52731,"longitude":-107.6963,"id":"a6ji4mb1ox2a","geocode score":0.714,"state":"MT","active":0,"geocode precision":"city"},"type":"Feature","geometry":{"type":"Point","coordinates":[-107.6963,45.52731]}},{"properties":{"city":"Helena","latitude":46.70934,"longitude":-112.197616,"id":"a6ji4me3zurr","geocode score":0.714,"state":"MT","active":0,"geocode precision":"city"},"type":"Feature","geometry":{"type":"Point","coordinates":[-112.197616,46.70934]}},{"properties":{"city":"Helena","latitude":46.70934,"longitude":-112.197616,"id":"a6ji4mfgedyc","geocode score":0.714,"state":"MT","active":0,"geocode precision":"city"},"type":"Feature","geometry":{"type":"Point","coordinates":[-112.197616,46.70934]}},{"properties":{"city":"Missoula","latitude":46.853606,"longitude":-113.909123,"id":"a6ji4mexodqw","geocode score":0.714,"state":"MT","active":1,"geocode precision":"city"},"type":"Feature","geometry":{"type":"Point","coordinates":[-113.909123,46.853606]}},{"properties":{"city":"Missoula","latitude":46.853606,"longitude":-113.909123,"id":"a6ji4mcj16b1","geocode score":0.714,"state":"MT","active":1,"geocode precision":"city"},"type":"Feature","geometry":{"type":"Point","coordinates":[-113.909123,46.853606]}},{"properties":{"city":"Missoula","latitude":46.853606,"longitude":-113.909123,"id":"a6ji4mca2t6r","geocode score":0.714,"state":"MT","active":1,"geocode precision":"city"},"type":"Feature","geometry":{"type":"Point","coordinates":[-113.909123,46.853606]}},{"properties":{"city":"Asheville","latitude":35.602711,"longitude":-82.567281,"id":"a6ji4mh0i69y","geocode score":0.714,"state":"NC","active":1,"geocode precision":"city"},"type":"Feature","geometry":{"type":"Point","coordinates":[-82.567281,35.602711]}},{"properties":{"city":"Asheville","latitude":35.602711,"longitude":-82.567281,"id":"a6ji4mgzhliz","geocode score":0.714,"state":"NC","active":1,"geocode precision":"city"},"type":"Feature","geometry":{"type":"Point","coordinates":[-82.567281,35.602711]}},{"properties":{"city":"Ashveille","latitude":35.602711,"longitude":-82.567281,"id":"a6ji4mb7cr6e","geocode score":0.714,"state":"NC","active":1,"geocode precision":"city"},"type":"Feature","geometry":{"type":"Point","coordinates":[-82.567281,35.602711]}},{"properties":{"city":"Durham","latitude":35.981803,"longitude":-78.906933,"id":"a6ji4mbjzg4y","geocode score":0.714,"state":"NC","active":0,"geocode precision":"city"},"type":"Feature","geometry":{"type":"Point","coordinates":[-78.906933,35.981803]}},{"properties":{"city":"Durham","latitude":35.981803,"longitude":-78.906933,"id":"a6ji4mcnqodd","geocode score":0.714,"state":"NC","active":0,"geocode precision":"city"},"type":"Feature","geometry":{"type":"Point","coordinates":[-78.906933,35.981803]}},{"properties":{"city":"Durham","latitude":35.981803,"longitude":-78.906933,"id":"a6ji4mlbcz14","geocode score":0.714,"state":"NC","active":0,"geocode precision":"city"},"type":"Feature","geometry":{"type":"Point","coordinates":[-78.906933,35.981803]}},{"properties":{"city":"Durham","latitude":35.981803,"longitude":-78.906933,"id":"a6ji4m9vlph7","geocode score":0.714,"state":"NC","active":0,"geocode precision":"city"},"type":"Feature","geometry":{"type":"Point","coordinates":[-78.906933,35.981803]}},{"properties":{"city":"Greensboro","latitude":36.055285,"longitude":-79.831692,"id":"a6ji4mgomf81","geocode score":0.714,"state":"NC","active":0,"geocode precision":"city"},"type":"Feature","geometry":{"type":"Point","coordinates":[-79.831692,36.055285]}},{"properties":{"city":"Greensboro","latitude":36.055285,"longitude":-79.831692,"id":"a6ji4mkuo0ai","geocode score":0.714,"state":"NC","active":0,"geocode precision":"city"},"type":"Feature","geometry":{"type":"Point","coordinates":[-79.831692,36.055285]}},{"properties":{"city":"Greensboro","latitude":36.055285,"longitude":-79.831692,"id":"a6ji4mgcv1sx","geocode score":0.714,"state":"NC","active":0,"geocode precision":"city"},"type":"Feature","geometry":{"type":"Point","coordinates":[-79.831692,36.055285]}},{"properties":{"city":"Greensboro","latitude":36.055285,"longitude":-79.831692,"id":"a6ji4mebmcgw","geocode score":0.714,"state":"NC","active":0,"geocode precision":"city"},"type":"Feature","geometry":{"type":"Point","coordinates":[-79.831692,36.055285]}},{"properties":{"city":"Raliegh","latitude":36.034279,"longitude":-82.293464,"id":"a6ji4mm60swl","geocode score":0.714,"state":"NC","active":0,"geocode precision":"city"},"type":"Feature","geometry":{"type":"Point","coordinates":[-82.293464,36.034279]}},{"properties":{"city":"Raliegh","latitude":36.034279,"longitude":-82.293464,"id":"a6ji4mn05g95","geocode score":0.714,"state":"NC","active":0,"geocode precision":"city"},"type":"Feature","geometry":{"type":"Point","coordinates":[-82.293464,36.034279]}},{"properties":{"city":"Rockingham","latitude":34.974134,"longitude":-79.724173,"id":"a6ji4ma69wgn","geocode score":0.857,"state":"NC","active":0,"geocode precision":"city"},"type":"Feature","geometry":{"type":"Point","coordinates":[-79.724173,34.974134]}},{"properties":{"city":"Salisbury","latitude":35.680441,"longitude":-80.45316,"id":"a6ji4mm10b63","geocode score":0.714,"state":"NC","active":0,"geocode precision":"city"},"type":"Feature","geometry":{"type":"Point","coordinates":[-80.45316,35.680441]}},{"properties":{"city":"Statesville","latitude":35.785413,"longitude":-80.930908,"id":"a6ji4mifimpr","geocode score":0.714,"state":"NC","active":0,"geocode precision":"city"},"type":"Feature","geometry":{"type":"Point","coordinates":[-80.930908,35.785413]}},{"properties":{"city":"Statesville","latitude":35.785413,"longitude":-80.930908,"id":"a6ji4m8ukmj6","geocode score":0.714,"state":"NC","active":0,"geocode precision":"city"},"type":"Feature","geometry":{"type":"Point","coordinates":[-80.930908,35.785413]}},{"properties":{"city":"Wilson","latitude":35.723264,"longitude":-77.925269,"id":"a6ji4mj4gnnw","geocode score":0.714,"state":"NC","active":0,"geocode precision":"city"},"type":"Feature","geometry":{"type":"Point","coordinates":[-77.925269,35.723264]}},{"properties":{"city":"Wilson","latitude":35.723264,"longitude":-77.925269,"id":"a6ji4mi9vc22","geocode score":0.714,"state":"NC","active":0,"geocode precision":"city"},"type":"Feature","geometry":{"type":"Point","coordinates":[-77.925269,35.723264]}},{"properties":{"city":"Winston Salem","latitude":35.563572,"longitude":-78.244459,"id":"a6ji4mhl77vz","geocode score":0.714,"state":"NC","active":0,"geocode precision":"city"},"type":"Feature","geometry":{"type":"Point","coordinates":[-78.244459,35.563572]}},{"properties":{"city":"Winston Salem","latitude":35.563572,"longitude":-78.244459,"id":"a6ji4mfwbta4","geocode score":0.714,"state":"NC","active":0,"geocode precision":"city"},"type":"Feature","geometry":{"type":"Point","coordinates":[-78.244459,35.563572]}},{"properties":{"city":"Winston Salem","latitude":35.563572,"longitude":-78.244459,"id":"a6ji4mby338p","geocode score":0.714,"state":"NC","active":0,"geocode precision":"city"},"type":"Feature","geometry":{"type":"Point","coordinates":[-78.244459,35.563572]}},{"properties":{"city":"Concord","latitude":43.230314,"longitude":-71.536101,"id":"a6ji4m926lxg","geocode score":0.714,"state":"NH","active":0,"geocode precision":"city"},"type":"Feature","geometry":{"type":"Point","coordinates":[-71.536101,43.230314]}},{"properties":{"city":"Concord","latitude":43.230314,"longitude":-71.536101,"id":"a6ji4m7n4w41","geocode score":0.714,"state":"NH","active":0,"geocode precision":"city"},"type":"Feature","geometry":{"type":"Point","coordinates":[-71.536101,43.230314]}},{"properties":{"city":"Concord","latitude":43.230314,"longitude":-71.536101,"id":"a6ji4m7a2khv","geocode score":0.714,"state":"NH","active":0,"geocode precision":"city"},"type":"Feature","geometry":{"type":"Point","coordinates":[-71.536101,43.230314]}},{"properties":{"city":"Camden","latitude":39.80237,"longitude":-74.938259,"id":"a6ji4m7m5csd","geocode score":0.714,"state":"NJ","active":0,"geocode precision":"city"},"type":"Feature","geometry":{"type":"Point","coordinates":[-74.938259,39.80237]}},{"properties":{"city":"Camden","latitude":39.80237,"longitude":-74.938259,"id":"a6ji4md5jmzh","geocode score":0.714,"state":"NJ","active":0,"geocode precision":"city"},"type":"Feature","geometry":{"type":"Point","coordinates":[-74.938259,39.80237]}},{"properties":{"city":"Camden","latitude":39.80237,"longitude":-74.938259,"id":"a6ji4m9xmeld","geocode score":0.714,"state":"NJ","active":0,"geocode precision":"city"},"type":"Feature","geometry":{"type":"Point","coordinates":[-74.938259,39.80237]}},{"properties":{"city":"Linwood","latitude":39.427786,"longitude":-74.622112,"id":"a6ji4mnephq6","geocode score":0.714,"state":"NJ","active":0,"geocode precision":"city"},"type":"Feature","geometry":{"type":"Point","coordinates":[-74.622112,39.427786]}},{"properties":{"city":"Newark","latitude":40.736101,"longitude":-74.22509,"id":"a6ji4mj4os71","geocode score":0.714,"state":"NJ","active":0,"geocode precision":"city"},"type":"Feature","geometry":{"type":"Point","coordinates":[-74.22509,40.736101]}},{"properties":{"city":"Newark","latitude":40.736101,"longitude":-74.22509,"id":"a6ji4mm304qc","geocode score":0.714,"state":"NJ","active":0,"geocode precision":"city"},"type":"Feature","geometry":{"type":"Point","coordinates":[-74.22509,40.736101]}},{"properties":{"city":"Newark","latitude":40.736101,"longitude":-74.22509,"id":"a6ji4me1edsh","geocode score":0.714,"state":"NJ","active":1,"geocode precision":"city"},"type":"Feature","geometry":{"type":"Point","coordinates":[-74.22509,40.736101]}},{"properties":{"city":"Newark","latitude":40.736101,"longitude":-74.22509,"id":"a6ji4mjrh091","geocode score":0.714,"state":"NJ","active":1,"geocode precision":"city"},"type":"Feature","geometry":{"type":"Point","coordinates":[-74.22509,40.736101]}},{"properties":{"city":"Paterson","latitude":40.915045,"longitude":-74.174488,"id":"a6ji4mkmfqoy","geocode score":0.714,"state":"NJ","active":0,"geocode precision":"city"},"type":"Feature","geometry":{"type":"Point","coordinates":[-74.174488,40.915045]}},{"properties":{"city":"Tinton Falls","latitude":40.304277,"longitude":-74.100419,"id":"a6ji4mjyhfhs","geocode score":0.714,"state":"NJ","active":0,"geocode precision":"city"},"type":"Feature","geometry":{"type":"Point","coordinates":[-74.100419,40.304277]}},{"properties":{"city":"Trenton","latitude":40.280531,"longitude":-74.712018,"id":"a6ji4m9j8dru","geocode score":0.714,"state":"NJ","active":0,"geocode precision":"city"},"type":"Feature","geometry":{"type":"Point","coordinates":[-74.712018,40.280531]}},{"properties":{"city":"Trenton","latitude":40.280531,"longitude":-74.712018,"id":"a6ji4mjntj21","geocode score":0.714,"state":"NJ","active":0,"geocode precision":"city"},"type":"Feature","geometry":{"type":"Point","coordinates":[-74.712018,40.280531]}},{"properties":{"city":"Trenton","latitude":40.280531,"longitude":-74.712018,"id":"a6ji4mgcaa9u","geocode score":0.714,"state":"NJ","active":0,"geocode precision":"city"},"type":"Feature","geometry":{"type":"Point","coordinates":[-74.712018,40.280531]}},{"properties":{"city":"Albany","latitude":42.614852,"longitude":-73.970812,"id":"a6ji4m9rive8","geocode score":0.714,"state":"NY","active":0,"geocode precision":"city"},"type":"Feature","geometry":{"type":"Point","coordinates":[-73.970812,42.614852]}},{"properties":{"city":"New York","latitude":40.714269,"longitude":-74.005973,"id":"a6ji4mkidxzk","geocode score":0.714,"state":"NY","active":1,"geocode precision":"city"},"type":"Feature","geometry":{"type":"Point","coordinates":[-74.005973,40.714269]}},{"properties":{"city":"New York","latitude":40.714269,"longitude":-74.005973,"id":"a6ji4majin7p","geocode score":0.714,"state":"NY","active":0,"geocode precision":"city"},"type":"Feature","geometry":{"type":"Point","coordinates":[-74.005973,40.714269]}},{"properties":{"city":"Poughkeepsie","latitude":41.695839,"longitude":-73.896164,"id":"a6ji4m8zk7bl","geocode score":0.857,"state":"NY","active":1,"geocode precision":"city"},"type":"Feature","geometry":{"type":"Point","coordinates":[-73.896164,41.695839]}},{"properties":{"city":"Syracuse","latitude":43.02143,"longitude":-76.197701,"id":"a6ji4mm4koni","geocode score":0.714,"state":"NY","active":0,"geocode precision":"city"},"type":"Feature","geometry":{"type":"Point","coordinates":[-76.197701,43.02143]}},{"properties":{"city":"Cincinnati","latitude":39.166759,"longitude":-84.53822,"id":"a6ji4mbyhk6p","geocode score":0.714,"state":"OH","active":0,"geocode precision":"city"},"type":"Feature","geometry":{"type":"Point","coordinates":[-84.53822,39.166759]}},{"properties":{"city":"Columbus","latitude":40.97793,"longitude":-84.15053,"id":"a6ji4mb5i15w","geocode score":0.714,"state":"OH","active":0,"geocode precision":"city"},"type":"Feature","geometry":{"type":"Point","coordinates":[-84.15053,40.97793]}},{"properties":{"city":"Columbus","latitude":40.97793,"longitude":-84.15053,"id":"a6ji4mkubm8q","geocode score":0.714,"state":"OH","active":0,"geocode precision":"city"},"type":"Feature","geometry":{"type":"Point","coordinates":[-84.15053,40.97793]}},{"properties":{"city":"Dayton","latitude":39.750471,"longitude":-84.268593,"id":"a6ji4m9rpb2r","geocode score":0.714,"state":"OH","active":0,"geocode precision":"city"},"type":"Feature","geometry":{"type":"Point","coordinates":[-84.268593,39.750471]}},{"properties":{"city":"Medina","latitude":41.109975,"longitude":-81.855048,"id":"a6ji4mnlqx8f","geocode score":0.714,"state":"OH","active":0,"geocode precision":"city"},"type":"Feature","geometry":{"type":"Point","coordinates":[-81.855048,41.109975]}},{"properties":{"city":"Toledo","latitude":41.58568,"longitude":-84.124257,"id":"a6ji4mgmse8n","geocode score":0.714,"state":"OH","active":0,"geocode precision":"city"},"type":"Feature","geometry":{"type":"Point","coordinates":[-84.124257,41.58568]}},{"properties":{"city":"Mcalester","latitude":34.922756,"longitude":-95.685544,"id":"a6ji4mdcftzo","geocode score":0.714,"state":"OK","active":0,"geocode precision":"city"},"type":"Feature","geometry":{"type":"Point","coordinates":[-95.685544,34.922756]}},{"properties":{"city":"Mcalester","latitude":34.922756,"longitude":-95.685544,"id":"a6ji4m9i4bmi","geocode score":0.714,"state":"OK","active":0,"geocode precision":"city"},"type":"Feature","geometry":{"type":"Point","coordinates":[-95.685544,34.922756]}},{"properties":{"city":"Muskogee","latitude":35.70582,"longitude":-95.50025,"id":"a6ji4mf8ym6f","geocode score":0.714,"state":"OK","active":0,"geocode precision":"city"},"type":"Feature","geometry":{"type":"Point","coordinates":[-95.50025,35.70582]}},{"properties":{"city":"Muskogee","latitude":35.70582,"longitude":-95.50025,"id":"a6ji4mdk90wk","geocode score":0.714,"state":"OK","active":0,"geocode precision":"city"},"type":"Feature","geometry":{"type":"Point","coordinates":[-95.50025,35.70582]}},{"properties":{"city":"Okmulgee","latitude":35.612514,"longitude":-95.966857,"id":"a6ji4m7ehh21","geocode score":0.714,"state":"OK","active":0,"geocode precision":"city"},"type":"Feature","geometry":{"type":"Point","coordinates":[-95.966857,35.612514]}},{"properties":{"city":"Tulsa","latitude":36.039147,"longitude":-95.868667,"id":"a6ji4mg4iixa","geocode score":0.714,"state":"OK","active":0,"geocode precision":"city"},"type":"Feature","geometry":{"type":"Point","coordinates":[-95.868667,36.039147]}},{"properties":{"city":"Tulsa","latitude":36.039147,"longitude":-95.868667,"id":"a6ji4m7alu5t","geocode score":0.714,"state":"OK","active":0,"geocode precision":"city"},"type":"Feature","geometry":{"type":"Point","coordinates":[-95.868667,36.039147]}},{"properties":{"city":"Tulsa","latitude":36.039147,"longitude":-95.868667,"id":"a6ji4mm4wv9k","geocode score":0.714,"state":"OK","active":0,"geocode precision":"city"},"type":"Feature","geometry":{"type":"Point","coordinates":[-95.868667,36.039147]}},{"properties":{"city":"Tulsa","latitude":36.039147,"longitude":-95.868667,"id":"a6ji4mm5mpx9","geocode score":0.714,"state":"OK","active":0,"geocode precision":"city"},"type":"Feature","geometry":{"type":"Point","coordinates":[-95.868667,36.039147]}},{"properties":{"city":"Tulsa","latitude":36.039147,"longitude":-95.868667,"id":"a6ji4m9csx6n","geocode score":0.714,"state":"OK","active":0,"geocode precision":"city"},"type":"Feature","geometry":{"type":"Point","coordinates":[-95.868667,36.039147]}},{"properties":{"city":"Tulsa","latitude":36.039147,"longitude":-95.868667,"id":"a6ji4menc7fx","geocode score":0.714,"state":"OK","active":0,"geocode precision":"city"},"type":"Feature","geometry":{"type":"Point","coordinates":[-95.868667,36.039147]}},{"properties":{"city":"Tulsa","latitude":36.039147,"longitude":-95.868667,"id":"a6ji4mcdtbmx","geocode score":0.714,"state":"OK","active":0,"geocode precision":"city"},"type":"Feature","geometry":{"type":"Point","coordinates":[-95.868667,36.039147]}},{"properties":{"city":"Bend","latitude":45.416785,"longitude":-122.764819,"id":"a6ji4mgrwdbv","geocode score":0.714,"state":"OR","active":0,"geocode precision":"city"},"type":"Feature","geometry":{"type":"Point","coordinates":[-122.764819,45.416785]}},{"properties":{"city":"Medford","latitude":42.482623,"longitude":-122.72255,"id":"a6ji4mleqtp3","geocode score":0.714,"state":"OR","active":0,"geocode precision":"city"},"type":"Feature","geometry":{"type":"Point","coordinates":[-122.72255,42.482623]}},{"properties":{"city":"Medford","latitude":42.482623,"longitude":-122.72255,"id":"a6ji4mimyg59","geocode score":0.714,"state":"OR","active":0,"geocode precision":"city"},"type":"Feature","geometry":{"type":"Point","coordinates":[-122.72255,42.482623]}},{"properties":{"city":"Portland","latitude":45.498931,"longitude":-122.693157,"id":"a6ji4ml2bfy1","geocode score":0.714,"state":"OR","active":0,"geocode precision":"city"},"type":"Feature","geometry":{"type":"Point","coordinates":[-122.693157,45.498931]}},{"properties":{"city":"Portland","latitude":45.498931,"longitude":-122.693157,"id":"a6ji4md7pmbe","geocode score":0.714,"state":"OR","active":0,"geocode precision":"city"},"type":"Feature","geometry":{"type":"Point","coordinates":[-122.693157,45.498931]}},{"properties":{"city":"Salem","latitude":44.90472,"longitude":-122.921721,"id":"a6ji4mdu0rv2","geocode score":0.714,"state":"OR","active":0,"geocode precision":"city"},"type":"Feature","geometry":{"type":"Point","coordinates":[-122.921721,44.90472]}},{"properties":{"city":"Greenville","latitude":34.848567,"longitude":-82.402871,"id":"a6ji4mb875qx","geocode score":0.714,"state":"SC","active":1,"geocode precision":"city"},"type":"Feature","geometry":{"type":"Point","coordinates":[-82.402871,34.848567]}},{"properties":{"city":"Aberdeen","latitude":45.476172,"longitude":-98.410405,"id":"a6ji4mbnq8yo","geocode score":0.714,"state":"SD","active":0,"geocode precision":"city"},"type":"Feature","geometry":{"type":"Point","coordinates":[-98.410405,45.476172]}},{"properties":{"city":"Aberdeen","latitude":45.476172,"longitude":-98.410405,"id":"a6ji4mgxnbyp","geocode score":0.714,"state":"SD","active":0,"geocode precision":"city"},"type":"Feature","geometry":{"type":"Point","coordinates":[-98.410405,45.476172]}},{"properties":{"city":"Kyle","latitude":43.352617,"longitude":-102.5411,"id":"a6ji4m9e6ubb","geocode score":0.714,"state":"SD","active":0,"geocode precision":"city"},"type":"Feature","geometry":{"type":"Point","coordinates":[-102.5411,43.352617]}},{"properties":{"city":"Mission","latitude":43.304572,"longitude":-100.662079,"id":"a6ji4mk9p9ay","geocode score":0.857,"state":"SD","active":0,"geocode precision":"city"},"type":"Feature","geometry":{"type":"Point","coordinates":[-100.662079,43.304572]}},{"properties":{"city":"Pierre","latitude":44.334073,"longitude":-100.094195,"id":"a6ji4meegr45","geocode score":0.714,"state":"SD","active":0,"geocode precision":"city"},"type":"Feature","geometry":{"type":"Point","coordinates":[-100.094195,44.334073]}},{"properties":{"city":"Pierre","latitude":44.334073,"longitude":-100.094195,"id":"a6ji4maxnin1","geocode score":0.714,"state":"SD","active":0,"geocode precision":"city"},"type":"Feature","geometry":{"type":"Point","coordinates":[-100.094195,44.334073]}},{"properties":{"city":"Pierre","latitude":44.334073,"longitude":-100.094195,"id":"a6ji4md5dl24","geocode score":0.714,"state":"SD","active":0,"geocode precision":"city"},"type":"Feature","geometry":{"type":"Point","coordinates":[-100.094195,44.334073]}},{"properties":{"city":"Rapid City","latitude":44.004363,"longitude":-103.240024,"id":"a6ji4mjaysh2","geocode score":0.714,"state":"SD","active":0,"geocode precision":"city"},"type":"Feature","geometry":{"type":"Point","coordinates":[-103.240024,44.004363]}},{"properties":{"city":"Rapid City","latitude":44.004363,"longitude":-103.240024,"id":"a6ji4mbpsr6g","geocode score":0.714,"state":"SD","active":0,"geocode precision":"city"},"type":"Feature","geometry":{"type":"Point","coordinates":[-103.240024,44.004363]}},{"properties":{"city":"Sioux Falls","latitude":44.01053,"longitude":-97.597294,"id":"a6ji4me51obw","geocode score":0.714,"state":"SD","active":0,"geocode precision":"city"},"type":"Feature","geometry":{"type":"Point","coordinates":[-97.597294,44.01053]}},{"properties":{"city":"Sioux Falls","latitude":44.01053,"longitude":-97.597294,"id":"a6ji4mdt0ecq","geocode score":0.714,"state":"SD","active":0,"geocode precision":"city"},"type":"Feature","geometry":{"type":"Point","coordinates":[-97.597294,44.01053]}},{"properties":{"city":"Sioux Falls","latitude":44.01053,"longitude":-97.597294,"id":"a6ji4mdhlzre","geocode score":0.714,"state":"SD","active":0,"geocode precision":"city"},"type":"Feature","geometry":{"type":"Point","coordinates":[-97.597294,44.01053]}},{"properties":{"city":"Sioux Falls","latitude":44.01053,"longitude":-97.597294,"id":"a6ji4me6a46r","geocode score":0.714,"state":"SD","active":0,"geocode precision":"city"},"type":"Feature","geometry":{"type":"Point","coordinates":[-97.597294,44.01053]}},{"properties":{"city":"Sioux Falls","latitude":44.01053,"longitude":-97.597294,"id":"a6ji4mcnsp2k","geocode score":0.714,"state":"SD","active":0,"geocode precision":"city"},"type":"Feature","geometry":{"type":"Point","coordinates":[-97.597294,44.01053]}},{"properties":{"city":"Timber Lake","latitude":45.427032,"longitude":-101.07469,"id":"a6ji4mkwmeo2","geocode score":0.714,"state":"SD","active":0,"geocode precision":"city"},"type":"Feature","geometry":{"type":"Point","coordinates":[-101.07469,45.427032]}},{"properties":{"city":"Abilene","latitude":32.344457,"longitude":-99.80213,"id":"a6ji4mn75id6","geocode score":0.714,"state":"TX","active":0,"geocode precision":"city"},"type":"Feature","geometry":{"type":"Point","coordinates":[-99.80213,32.344457]}},{"properties":{"city":"Amarillo","latitude":35.221997,"longitude":-101.831297,"id":"a6ji4mb73kff","geocode score":0.714,"state":"TX","active":0,"geocode precision":"city"},"type":"Feature","geometry":{"type":"Point","coordinates":[-101.831297,35.221997]}},{"properties":{"city":"Amarillo","latitude":35.221997,"longitude":-101.831297,"id":"a6ji4mk9gxoa","geocode score":0.714,"state":"TX","active":0,"geocode precision":"city"},"type":"Feature","geometry":{"type":"Point","coordinates":[-101.831297,35.221997]}},{"properties":{"city":"Amarillo","latitude":35.221997,"longitude":-101.831297,"id":"a6ji4mczh3w8","geocode score":0.714,"state":"TX","active":0,"geocode precision":"city"},"type":"Feature","geometry":{"type":"Point","coordinates":[-101.831297,35.221997]}},{"properties":{"city":"Arlington","latitude":32.771419,"longitude":-97.291484,"id":"a6ji4mdkm3ln","geocode score":0.714,"state":"TX","active":0,"geocode precision":"city"},"type":"Feature","geometry":{"type":"Point","coordinates":[-97.291484,32.771419]}},{"properties":{"city":"Beaumont","latitude":30.073712,"longitude":-94.109705,"id":"a6ji4m7w42cb","geocode score":0.714,"state":"TX","active":0,"geocode precision":"city"},"type":"Feature","geometry":{"type":"Point","coordinates":[-94.109705,30.073712]}},{"properties":{"city":"Benbrook","latitude":32.673188,"longitude":-97.460576,"id":"a6ji4m9dzn5s","geocode score":0.714,"state":"TX","active":0,"geocode precision":"city"},"type":"Feature","geometry":{"type":"Point","coordinates":[-97.460576,32.673188]}},{"properties":{"city":"Dallas","latitude":32.370699,"longitude":-96.240533,"id":"a6ji4mdvifqt","geocode score":0.714,"state":"TX","active":0,"geocode precision":"city"},"type":"Feature","geometry":{"type":"Point","coordinates":[-96.240533,32.370699]}},{"properties":{"city":"Dallas","latitude":32.370699,"longitude":-96.240533,"id":"a6ji4mmz3n6d","geocode score":0.714,"state":"TX","active":0,"geocode precision":"city"},"type":"Feature","geometry":{"type":"Point","coordinates":[-96.240533,32.370699]}},{"properties":{"city":"Dallas","latitude":32.370699,"longitude":-96.240533,"id":"a6ji4meu3y9k","geocode score":0.714,"state":"TX","active":0,"geocode precision":"city"},"type":"Feature","geometry":{"type":"Point","coordinates":[-96.240533,32.370699]}},{"properties":{"city":"Dallas","latitude":32.370699,"longitude":-96.240533,"id":"a6ji4mixwh2d","geocode score":0.714,"state":"TX","active":0,"geocode precision":"city"},"type":"Feature","geometry":{"type":"Point","coordinates":[-96.240533,32.370699]}},{"properties":{"city":"Dallas","latitude":32.370699,"longitude":-96.240533,"id":"a6ji4mlxzuqv","geocode score":0.714,"state":"TX","active":0,"geocode precision":"city"},"type":"Feature","geometry":{"type":"Point","coordinates":[-96.240533,32.370699]}},{"properties":{"city":"Dallas","latitude":32.370699,"longitude":-96.240533,"id":"a6ji4mcx3i62","geocode score":0.714,"state":"TX","active":0,"geocode precision":"city"},"type":"Feature","geometry":{"type":"Point","coordinates":[-96.240533,32.370699]}},{"properties":{"city":"El Paso","latitude":32.342351,"longitude":-99.561747,"id":"a6ji4mfn9k4w","geocode score":0.714,"state":"TX","active":0,"geocode precision":"city"},"type":"Feature","geometry":{"type":"Point","coordinates":[-99.561747,32.342351]}},{"properties":{"city":"Fort Worth","latitude":29.049969,"longitude":-98.399458,"id":"a6ji4mjuk225","geocode score":0.714,"state":"TX","active":0,"geocode precision":"city"},"type":"Feature","geometry":{"type":"Point","coordinates":[-98.399458,29.049969]}},{"properties":{"city":"Fort Worth","latitude":29.049969,"longitude":-98.399458,"id":"a6ji4mlidkks","geocode score":0.714,"state":"TX","active":0,"geocode precision":"city"},"type":"Feature","geometry":{"type":"Point","coordinates":[-98.399458,29.049969]}},{"properties":{"city":"Fort Worth","latitude":29.049969,"longitude":-98.399458,"id":"a6ji4ml2v7d4","geocode score":0.714,"state":"TX","active":0,"geocode precision":"city"},"type":"Feature","geometry":{"type":"Point","coordinates":[-98.399458,29.049969]}},{"properties":{"city":"Lubbock","latitude":33.577863,"longitude":-101.855167,"id":"a6ji4mi4kj8u","geocode score":0.857,"state":"TX","active":0,"geocode precision":"city"},"type":"Feature","geometry":{"type":"Point","coordinates":[-101.855167,33.577863]}},{"properties":{"city":"Lubbock","latitude":33.577863,"longitude":-101.855167,"id":"a6ji4m7eemkf","geocode score":0.857,"state":"TX","active":0,"geocode precision":"city"},"type":"Feature","geometry":{"type":"Point","coordinates":[-101.855167,33.577863]}},{"properties":{"city":"Lubbock","latitude":33.577863,"longitude":-101.855167,"id":"a6ji4m8qd3zr","geocode score":0.857,"state":"TX","active":0,"geocode precision":"city"},"type":"Feature","geometry":{"type":"Point","coordinates":[-101.855167,33.577863]}},{"properties":{"city":"Plano","latitude":32.337922,"longitude":-96.053859,"id":"a6ji4m823qvi","geocode score":0.714,"state":"TX","active":0,"geocode precision":"city"},"type":"Feature","geometry":{"type":"Point","coordinates":[-96.053859,32.337922]}},{"properties":{"city":"Plano","latitude":32.337922,"longitude":-96.053859,"id":"a6ji4micbbpu","geocode score":0.714,"state":"TX","active":0,"geocode precision":"city"},"type":"Feature","geometry":{"type":"Point","coordinates":[-96.053859,32.337922]}},{"properties":{"city":"San Angelo","latitude":30.577149,"longitude":-94.686315,"id":"a6ji4mj0pftj","geocode score":0.714,"state":"TX","active":0,"geocode precision":"city"},"type":"Feature","geometry":{"type":"Point","coordinates":[-94.686315,30.577149]}},{"properties":{"city":"San Angelo","latitude":30.577149,"longitude":-94.686315,"id":"a6ji4md9psu7","geocode score":0.714,"state":"TX","active":0,"geocode precision":"city"},"type":"Feature","geometry":{"type":"Point","coordinates":[-94.686315,30.577149]}},{"properties":{"city":"San Antonio","latitude":33.770506,"longitude":-102.192713,"id":"a6ji4mdwbq10","geocode score":0.714,"state":"TX","active":1,"geocode precision":"city"},"type":"Feature","geometry":{"type":"Point","coordinates":[-102.192713,33.770506]}},{"properties":{"city":"San Antonio","latitude":33.770506,"longitude":-102.192713,"id":"a6ji4mdczlr1","geocode score":0.714,"state":"TX","active":1,"geocode precision":"city"},"type":"Feature","geometry":{"type":"Point","coordinates":[-102.192713,33.770506]}},{"properties":{"city":"San Antonio","latitude":33.770506,"longitude":-102.192713,"id":"a6ji4m86kkq5","geocode score":0.714,"state":"TX","active":1,"geocode precision":"city"},"type":"Feature","geometry":{"type":"Point","coordinates":[-102.192713,33.770506]}},{"properties":{"city":"Tyler","latitude":32.400038,"longitude":-97.933708,"id":"a6ji4maaid53","geocode score":0.714,"state":"TX","active":0,"geocode precision":"city"},"type":"Feature","geometry":{"type":"Point","coordinates":[-97.933708,32.400038]}},{"properties":{"city":"Wichita Falls","latitude":30.841022,"longitude":-97.30361,"id":"a6ji4matuef0","geocode score":0.714,"state":"TX","active":0,"geocode precision":"city"},"type":"Feature","geometry":{"type":"Point","coordinates":[-97.30361,30.841022]}},{"properties":{"city":"Wichita Falls","latitude":30.841022,"longitude":-97.30361,"id":"a6ji4mn2bo6u","geocode score":0.714,"state":"TX","active":0,"geocode precision":"city"},"type":"Feature","geometry":{"type":"Point","coordinates":[-97.30361,30.841022]}},{"properties":{"city":"Ogden","latitude":41.244261,"longitude":-112.007924,"id":"a6ji4mmgrt7e","geocode score":0.714,"state":"UT","active":0,"geocode precision":"city"},"type":"Feature","geometry":{"type":"Point","coordinates":[-112.007924,41.244261]}},{"properties":{"city":"Ogden","latitude":41.244261,"longitude":-112.007924,"id":"a6ji4m8y2spz","geocode score":0.714,"state":"UT","active":1,"geocode precision":"city"},"type":"Feature","geometry":{"type":"Point","coordinates":[-112.007924,41.244261]}},{"properties":{"city":"Salt Lake City","latitude":40.756095,"longitude":-111.900719,"id":"a6ji4mkcbqjf","geocode score":0.714,"state":"UT","active":0,"geocode precision":"city"},"type":"Feature","geometry":{"type":"Point","coordinates":[-111.900719,40.756095]}},{"properties":{"city":"Saint George","latitude":40.569992,"longitude":-111.85254,"id":"a6ji4mf3pzse","geocode score":0.753,"state":"UT","active":0,"geocode precision":"city"},"type":"Feature","geometry":{"type":"Point","coordinates":[-111.85254,40.569992]}},{"properties":{"city":"Vernal","latitude":40.368246,"longitude":-109.556103,"id":"a6ji4m89b23b","geocode score":0.714,"state":"UT","active":0,"geocode precision":"city"},"type":"Feature","geometry":{"type":"Point","coordinates":[-109.556103,40.368246]}},{"properties":{"city":"Brattleboro","latitude":42.884281,"longitude":-72.760753,"id":"a6ji4m8srxer","geocode score":0.714,"state":"VT","active":1,"geocode precision":"city"},"type":"Feature","geometry":{"type":"Point","coordinates":[-72.760753,42.884281]}},{"properties":{"city":"Bratttleboro","latitude":42.884281,"longitude":-72.760753,"id":"a6ji4mmytz6d","geocode score":0.714,"state":"VT","active":1,"geocode precision":"city"},"type":"Feature","geometry":{"type":"Point","coordinates":[-72.760753,42.884281]}},{"properties":{"city":"Burlington","latitude":44.507404,"longitude":-73.151384,"id":"a6ji4mgsyd3m","geocode score":0.714,"state":"VT","active":1,"geocode precision":"city"},"type":"Feature","geometry":{"type":"Point","coordinates":[-73.151384,44.507404]}},{"properties":{"city":"Burlington","latitude":44.507404,"longitude":-73.151384,"id":"a6ji4mlch5zs","geocode score":0.714,"state":"VT","active":1,"geocode precision":"city"},"type":"Feature","geometry":{"type":"Point","coordinates":[-73.151384,44.507404]}},{"properties":{"city":"Rutland","latitude":43.630346,"longitude":-72.93586,"id":"a6ji4mndavta","geocode score":0.714,"state":"VT","active":1,"geocode precision":"city"},"type":"Feature","geometry":{"type":"Point","coordinates":[-72.93586,43.630346]}},{"properties":{"city":"Rutland","latitude":43.630346,"longitude":-72.93586,"id":"a6ji4mk43jfr","geocode score":0.714,"state":"VT","active":1,"geocode precision":"city"},"type":"Feature","geometry":{"type":"Point","coordinates":[-72.93586,43.630346]}},{"properties":{"city":"Rutland","latitude":43.630346,"longitude":-72.93586,"id":"a6ji4mlr212i","geocode score":0.714,"state":"VT","active":1,"geocode precision":"city"},"type":"Feature","geometry":{"type":"Point","coordinates":[-72.93586,43.630346]}},{"properties":{"city":"Spokane","latitude":47.66264,"longitude":-117.435997,"id":"a6ji4m81o4v5","geocode score":0.714,"state":"WA","active":0,"geocode precision":"city"},"type":"Feature","geometry":{"type":"Point","coordinates":[-117.435997,47.66264]}},{"properties":{"city":"Spokane","latitude":47.66264,"longitude":-117.435997,"id":"a6ji4m9vc7y8","geocode score":0.714,"state":"WA","active":0,"geocode precision":"city"},"type":"Feature","geometry":{"type":"Point","coordinates":[-117.435997,47.66264]}},{"properties":{"city":"Spokane","latitude":47.66264,"longitude":-117.435997,"id":"a6ji4miic559","geocode score":0.714,"state":"WA","active":0,"geocode precision":"city"},"type":"Feature","geometry":{"type":"Point","coordinates":[-117.435997,47.66264]}},{"properties":{"city":"Spokane","latitude":47.66264,"longitude":-117.435997,"id":"a6ji4ml35pl6","geocode score":0.714,"state":"WA","active":0,"geocode precision":"city"},"type":"Feature","geometry":{"type":"Point","coordinates":[-117.435997,47.66264]}},{"properties":{"city":"Yakima","latitude":46.644476,"longitude":-120.725557,"id":"a6ji4mdtvc1m","geocode score":0.714,"state":"WA","active":0,"geocode precision":"city"},"type":"Feature","geometry":{"type":"Point","coordinates":[-120.725557,46.644476]}},{"properties":{"city":"Yakima","latitude":46.644476,"longitude":-120.725557,"id":"a6ji4mlpynvq","geocode score":0.714,"state":"WA","active":0,"geocode precision":"city"},"type":"Feature","geometry":{"type":"Point","coordinates":[-120.725557,46.644476]}},{"properties":{"city":"Green Bay","latitude":44.356106,"longitude":-87.745645,"id":"a6ji4mhn4147","geocode score":0.714,"state":"WI","active":1,"geocode precision":"city"},"type":"Feature","geometry":{"type":"Point","coordinates":[-87.745645,44.356106]}},{"properties":{"city":"Green Bay","latitude":44.356106,"longitude":-87.745645,"id":"a6ji4mlgph6y","geocode score":0.714,"state":"WI","active":1,"geocode precision":"city"},"type":"Feature","geometry":{"type":"Point","coordinates":[-87.745645,44.356106]}},{"properties":{"city":"Milwaukee","latitude":43.011264,"longitude":-87.958409,"id":"a6ji4mcrggrs","geocode score":0.714,"state":"WI","active":1,"geocode precision":"city"},"type":"Feature","geometry":{"type":"Point","coordinates":[-87.958409,43.011264]}},{"properties":{"city":"Milwaukee","latitude":43.011264,"longitude":-87.958409,"id":"a6ji4mdpb7d3","geocode score":0.714,"state":"WI","active":1,"geocode precision":"city"},"type":"Feature","geometry":{"type":"Point","coordinates":[-87.958409,43.011264]}},{"properties":{"city":"Milwaukee","latitude":43.011264,"longitude":-87.958409,"id":"a6ji4mdeyju4","geocode score":0.714,"state":"WI","active":1,"geocode precision":"city"},"type":"Feature","geometry":{"type":"Point","coordinates":[-87.958409,43.011264]}},{"properties":{"city":"Milwaukee","latitude":43.011264,"longitude":-87.958409,"id":"a6ji4med1oon","geocode score":0.714,"state":"WI","active":1,"geocode precision":"city"},"type":"Feature","geometry":{"type":"Point","coordinates":[-87.958409,43.011264]}},{"properties":{"city":"Beckley","latitude":37.767248,"longitude":-81.216446,"id":"a6ji4m78hc6i","geocode score":0.857,"state":"WV","active":1,"geocode precision":"city"},"type":"Feature","geometry":{"type":"Point","coordinates":[-81.216446,37.767248]}},{"properties":{"city":"Beckley","latitude":37.767248,"longitude":-81.216446,"id":"a6ji4mj6wmsb","geocode score":0.857,"state":"WV","active":1,"geocode precision":"city"},"type":"Feature","geometry":{"type":"Point","coordinates":[-81.216446,37.767248]}},{"properties":{"city":"Beckley","latitude":37.767248,"longitude":-81.216446,"id":"a6ji4mfv1s3q","geocode score":0.857,"state":"WV","active":1,"geocode precision":"city"},"type":"Feature","geometry":{"type":"Point","coordinates":[-81.216446,37.767248]}},{"properties":{"city":"Bluefield","latitude":37.332725,"longitude":-81.160066,"id":"a6ji4mc2unmu","geocode score":0.714,"state":"WV","active":1,"geocode precision":"city"},"type":"Feature","geometry":{"type":"Point","coordinates":[-81.160066,37.332725]}},{"properties":{"city":"Bluefield","latitude":37.332725,"longitude":-81.160066,"id":"a6ji4mmkedj1","geocode score":0.714,"state":"WV","active":1,"geocode precision":"city"},"type":"Feature","geometry":{"type":"Point","coordinates":[-81.160066,37.332725]}},{"properties":{"city":"Charleston","latitude":39.313538,"longitude":-77.860278,"id":"a6ji4mle6lko","geocode score":0.714,"state":"WV","active":0,"geocode precision":"city"},"type":"Feature","geometry":{"type":"Point","coordinates":[-77.860278,39.313538]}},{"properties":{"city":"Charleston","latitude":39.313538,"longitude":-77.860278,"id":"a6ji4mbylmmd","geocode score":0.714,"state":"WV","active":0,"geocode precision":"city"},"type":"Feature","geometry":{"type":"Point","coordinates":[-77.860278,39.313538]}},{"properties":{"city":"Charleston","latitude":39.313538,"longitude":-77.860278,"id":"a6ji4mhjwiim","geocode score":0.714,"state":"WV","active":0,"geocode precision":"city"},"type":"Feature","geometry":{"type":"Point","coordinates":[-77.860278,39.313538]}},{"properties":{"city":"Charleston","latitude":39.313538,"longitude":-77.860278,"id":"a6ji4mdnfvoi","geocode score":0.714,"state":"WV","active":0,"geocode precision":"city"},"type":"Feature","geometry":{"type":"Point","coordinates":[-77.860278,39.313538]}},{"properties":{"city":"Clarksburg","latitude":39.287434,"longitude":-80.341883,"id":"a6ji4mjkjyf5","geocode score":0.714,"state":"WV","active":1,"geocode precision":"city"},"type":"Feature","geometry":{"type":"Point","coordinates":[-80.341883,39.287434]}},{"properties":{"city":"Clarksburg","latitude":39.287434,"longitude":-80.341883,"id":"a6ji4mlir9ty","geocode score":0.714,"state":"WV","active":1,"geocode precision":"city"},"type":"Feature","geometry":{"type":"Point","coordinates":[-80.341883,39.287434]}},{"properties":{"city":"Clarksburg","latitude":39.287434,"longitude":-80.341883,"id":"a6ji4mmeyb1h","geocode score":0.714,"state":"WV","active":1,"geocode precision":"city"},"type":"Feature","geometry":{"type":"Point","coordinates":[-80.341883,39.287434]}},{"properties":{"city":"Elkins","latitude":38.846815,"longitude":-79.892841,"id":"a6ji4minwlud","geocode score":0.714,"state":"WV","active":1,"geocode precision":"city"},"type":"Feature","geometry":{"type":"Point","coordinates":[-79.892841,38.846815]}},{"properties":{"city":"Elkins","latitude":38.846815,"longitude":-79.892841,"id":"a6ji4mdupocv","geocode score":0.714,"state":"WV","active":1,"geocode precision":"city"},"type":"Feature","geometry":{"type":"Point","coordinates":[-79.892841,38.846815]}},{"properties":{"city":"Huntington","latitude":38.371727,"longitude":-82.412866,"id":"a6ji4mgfklj3","geocode score":0.714,"state":"WV","active":1,"geocode precision":"city"},"type":"Feature","geometry":{"type":"Point","coordinates":[-82.412866,38.371727]}},{"properties":{"city":"Huntington","latitude":38.371727,"longitude":-82.412866,"id":"a6ji4mi8rmxq","geocode score":0.714,"state":"WV","active":1,"geocode precision":"city"},"type":"Feature","geometry":{"type":"Point","coordinates":[-82.412866,38.371727]}},{"properties":{"city":"Huntington","latitude":38.371727,"longitude":-82.412866,"id":"a6ji4m7ixvsj","geocode score":0.714,"state":"WV","active":1,"geocode precision":"city"},"type":"Feature","geometry":{"type":"Point","coordinates":[-82.412866,38.371727]}},{"properties":{"city":"Martinsburg","latitude":39.444061,"longitude":-77.951924,"id":"a6ji4ma8iy45","geocode score":0.714,"state":"WV","active":1,"geocode precision":"city"},"type":"Feature","geometry":{"type":"Point","coordinates":[-77.951924,39.444061]}},{"properties":{"city":"Martinsburg","latitude":39.444061,"longitude":-77.951924,"id":"a6ji4mgz2vv0","geocode score":0.714,"state":"WV","active":1,"geocode precision":"city"},"type":"Feature","geometry":{"type":"Point","coordinates":[-77.951924,39.444061]}},{"properties":{"city":"Parkersburg","latitude":39.286315,"longitude":-81.55477,"id":"a6ji4m9czud1","geocode score":0.714,"state":"WV","active":0,"geocode precision":"city"},"type":"Feature","geometry":{"type":"Point","coordinates":[-81.55477,39.286315]}},{"properties":{"city":"Parkersburg","latitude":39.286315,"longitude":-81.55477,"id":"a6ji4mmrhz5o","geocode score":0.714,"state":"WV","active":0,"geocode precision":"city"},"type":"Feature","geometry":{"type":"Point","coordinates":[-81.55477,39.286315]}},{"properties":{"city":"Wheeling","latitude":40.102703,"longitude":-80.647599,"id":"a6ji4m8tdpcm","geocode score":0.714,"state":"WV","active":1,"geocode precision":"city"},"type":"Feature","geometry":{"type":"Point","coordinates":[-80.647599,40.102703]}},{"properties":{"city":"Wheeling","latitude":40.102703,"longitude":-80.647599,"id":"a6ji4maa0swn","geocode score":0.714,"state":"WV","active":1,"geocode precision":"city"},"type":"Feature","geometry":{"type":"Point","coordinates":[-80.647599,40.102703]}},{"properties":{"city":"Wheeling","latitude":40.102703,"longitude":-80.647599,"id":"a6ji4mansiyr","geocode score":0.714,"state":"WV","active":1,"geocode precision":"city"},"type":"Feature","geometry":{"type":"Point","coordinates":[-80.647599,40.102703]}},{"properties":{"city":"Casper","latitude":42.859875,"longitude":-106.312561,"id":"a6ji4me8enuf","geocode score":0.714,"state":"WY","active":0,"geocode precision":"city"},"type":"Feature","geometry":{"type":"Point","coordinates":[-106.312561,42.859875]}},{"properties":{"city":"Casper","latitude":42.859875,"longitude":-106.312561,"id":"a6ji4ml7u1x4","geocode score":0.714,"state":"WY","active":0,"geocode precision":"city"},"type":"Feature","geometry":{"type":"Point","coordinates":[-106.312561,42.859875]}},{"properties":{"city":"Casper","latitude":42.859875,"longitude":-106.312561,"id":"a6ji4mmgefrz","geocode score":0.714,"state":"WY","active":0,"geocode precision":"city"},"type":"Feature","geometry":{"type":"Point","coordinates":[-106.312561,42.859875]}},{"properties":{"city":"Casper","latitude":42.859875,"longitude":-106.312561,"id":"a6ji4mg3rr1q","geocode score":0.714,"state":"WY","active":0,"geocode precision":"city"},"type":"Feature","geometry":{"type":"Point","coordinates":[-106.312561,42.859875]}},{"properties":{"city":"Cheyenne","latitude":41.25173,"longitude":-104.56264,"id":"a6ji4m8y4glk","geocode score":0.714,"state":"WY","active":0,"geocode precision":"city"},"type":"Feature","geometry":{"type":"Point","coordinates":[-104.56264,41.25173]}},{"properties":{"city":"Cheyenne","latitude":41.25173,"longitude":-104.56264,"id":"a6ji4mhktfls","geocode score":0.714,"state":"WY","active":0,"geocode precision":"city"},"type":"Feature","geometry":{"type":"Point","coordinates":[-104.56264,41.25173]}},{"properties":{"city":"Cheyenne","latitude":41.25173,"longitude":-104.56264,"id":"a6ji4mblues2","geocode score":0.714,"state":"WY","active":0,"geocode precision":"city"},"type":"Feature","geometry":{"type":"Point","coordinates":[-104.56264,41.25173]}},{"properties":{"city":"Cheyenne","latitude":41.25173,"longitude":-104.56264,"id":"a6ji4mhzrw49","geocode score":0.714,"state":"WY","active":0,"geocode precision":"city"},"type":"Feature","geometry":{"type":"Point","coordinates":[-104.56264,41.25173]}},{"properties":{"city":"Cheyenne","latitude":41.25173,"longitude":-104.56264,"id":"a6ji4mk0ybnd","geocode score":0.714,"state":"WY","active":0,"geocode precision":"city"},"type":"Feature","geometry":{"type":"Point","coordinates":[-104.56264,41.25173]}},{"properties":{"city":"Lander","latitude":42.920832,"longitude":-108.591264,"id":"a6ji4mdljqth","geocode score":0.714,"state":"WY","active":0,"geocode precision":"city"},"type":"Feature","geometry":{"type":"Point","coordinates":[-108.591264,42.920832]}},{"properties":{"city":"Lander","latitude":42.920832,"longitude":-108.591264,"id":"a6ji4mghvjzc","geocode score":0.714,"state":"WY","active":0,"geocode precision":"city"},"type":"Feature","geometry":{"type":"Point","coordinates":[-108.591264,42.920832]}}],"is_temporal":false,"author":{"url":"","metadata":"","contact_name":"","contact_address":"","source":"","contact_phone":""},"source":"","pagination":{"sort":null,"start":0,"total":434,"limit":1000000},"state":"complete","tags":"","published":"2014-08-14T19:21:01-04:00","id":253415}