{"type":"FeatureCollection","data_type":"Dataset","url_type":null,"permissions":[{"permissions":{"download":true,"view":true},"group_id":"everyone"}],"classification":null,"title":"All Court Sites 06192012","count":434,"stream_id":253401,"contributor":{"url":"http://geocommons.com/users/33693","name":"pg8767"},"data_attributes":null,"calculation_params":null,"icon_link":null,"link":"http://geocommons.com/overlays/253401.json","extent":[-149.487,29.05,-68.8789,61.2876],"geometry_types":["point"],"unique_name":null,"name":"All Court Sites 06192012","feature_count":434,"description":"","next_feature":null,"is_raster":false,"short_classification":"Y","stats":{"active":{"max":1,"variance":0.156447887953513,"mean":0.193548387096774,"stdev":0.395534938979495,"min":0,"median":0}},"features":[{"properties":{"city":"Anchorage","geo_score":0.714,"id":"a6jhup5n0491","geo_precision":"city","state":"AK","active":0},"type":"Feature","geometry":{"type":"Point","coordinates":[-149.486981,61.287624]}},{"properties":{"city":"Anchorage","geo_score":0.714,"id":"a6jhuowybrf6","geo_precision":"city","state":"AK","active":0},"type":"Feature","geometry":{"type":"Point","coordinates":[-149.486981,61.287624]}},{"properties":{"city":"Anchorage","geo_score":0.714,"id":"a6jhuoyo0w11","geo_precision":"city","state":"AK","active":0},"type":"Feature","geometry":{"type":"Point","coordinates":[-149.486981,61.287624]}},{"properties":{"city":"Anchorage","geo_score":0.714,"id":"a6jhuotjqag4","geo_precision":"city","state":"AK","active":0},"type":"Feature","geometry":{"type":"Point","coordinates":[-149.486981,61.287624]}},{"properties":{"city":"Tuscaloosa","geo_score":0.714,"id":"a6jhuovckc06","geo_precision":"city","state":"AL","active":0},"type":"Feature","geometry":{"type":"Point","coordinates":[-87.597599,33.241899]}},{"properties":{"city":"Tuscaloosa","geo_score":0.714,"id":"a6jhuotuveuo","geo_precision":"city","state":"AL","active":0},"type":"Feature","geometry":{"type":"Point","coordinates":[-87.597599,33.241899]}},{"properties":{"city":"Tuscaloosa","geo_score":0.714,"id":"a6jhuovu7q8n","geo_precision":"city","state":"AL","active":0},"type":"Feature","geometry":{"type":"Point","coordinates":[-87.597599,33.241899]}},{"properties":{"city":"Tuscaloosa","geo_score":0.714,"id":"a6jhuowgfpdp","geo_precision":"city","state":"AL","active":0},"type":"Feature","geometry":{"type":"Point","coordinates":[-87.597599,33.241899]}},{"properties":{"city":"El Dorado","geo_score":0.714,"id":"a6jhup3w2hqx","geo_precision":"city","state":"AR","active":0},"type":"Feature","geometry":{"type":"Point","coordinates":[-93.161286,35.612581]}},{"properties":{"city":"El Dorado","geo_score":0.714,"id":"a6jhuoz65z8f","geo_precision":"city","state":"AR","active":0},"type":"Feature","geometry":{"type":"Point","coordinates":[-93.161286,35.612581]}},{"properties":{"city":"Fayetteville","geo_score":0.714,"id":"a6jhup7fg8b5","geo_precision":"city","state":"AR","active":0},"type":"Feature","geometry":{"type":"Point","coordinates":[-94.190997,35.974602]}},{"properties":{"city":"Fayetteville","geo_score":0.714,"id":"a6jhup0kov29","geo_precision":"city","state":"AR","active":0},"type":"Feature","geometry":{"type":"Point","coordinates":[-94.190997,35.974602]}},{"properties":{"city":"Fort Smith","geo_score":0.714,"id":"a6jhup43f9i4","geo_precision":"city","state":"AR","active":0},"type":"Feature","geometry":{"type":"Point","coordinates":[-94.339412,35.231245]}},{"properties":{"city":"Fort Smith","geo_score":0.714,"id":"a6jhuoumy5w0","geo_precision":"city","state":"AR","active":0},"type":"Feature","geometry":{"type":"Point","coordinates":[-94.339412,35.231245]}},{"properties":{"city":"Harrison","geo_score":0.714,"id":"a6jhuowf7ion","geo_precision":"city","state":"AR","active":0},"type":"Feature","geometry":{"type":"Point","coordinates":[-93.092861,36.295086]}},{"properties":{"city":"Harrison","geo_score":0.714,"id":"a6jhuoyc9ex2","geo_precision":"city","state":"AR","active":0},"type":"Feature","geometry":{"type":"Point","coordinates":[-93.092861,36.295086]}},{"properties":{"city":"Hot Springs","geo_score":0.714,"id":"a6jhuoxx33df","geo_precision":"city","state":"AR","active":0},"type":"Feature","geometry":{"type":"Point","coordinates":[-92.392377,35.188694]}},{"properties":{"city":"Hot Springs","geo_score":0.714,"id":"a6jhuoxi41f9","geo_precision":"city","state":"AR","active":0},"type":"Feature","geometry":{"type":"Point","coordinates":[-92.392377,35.188694]}},{"properties":{"city":"Texarkana","geo_score":0.0,"id":"a6jhuov6wlym","geo_precision":"unmatched","state":"AR","active":0},"type":"Feature","geometry":null},{"properties":{"city":"Texarkana","geo_score":0.0,"id":"a6jhuosvb9n3","geo_precision":"unmatched","state":"AR","active":0},"type":"Feature","geometry":null},{"properties":{"city":"Flagstaff","geo_score":0.714,"id":"a6jhup6rup9m","geo_precision":"city","state":"AZ","active":1},"type":"Feature","geometry":{"type":"Point","coordinates":[-111.597853,35.932116]}},{"properties":{"city":"Flagstaff","geo_score":0.714,"id":"a6jhup7od1tt","geo_precision":"city","state":"AZ","active":1},"type":"Feature","geometry":{"type":"Point","coordinates":[-111.597853,35.932116]}},{"properties":{"city":"Phoenix","geo_score":0.0,"id":"a6jhup8qvm5g","geo_precision":"unmatched","state":"AZ","active":0},"type":"Feature","geometry":null},{"properties":{"city":"Phoenix","geo_score":0.0,"id":"a6jhup0runtc","geo_precision":"unmatched","state":"AZ","active":1},"type":"Feature","geometry":null},{"properties":{"city":"Prescott","geo_score":0.714,"id":"a6jhuot0v9mj","geo_precision":"city","state":"AZ","active":1},"type":"Feature","geometry":{"type":"Point","coordinates":[-112.307777,34.668291]}},{"properties":{"city":"Prescott","geo_score":0.714,"id":"a6jhuoyzfkih","geo_precision":"city","state":"AZ","active":1},"type":"Feature","geometry":{"type":"Point","coordinates":[-112.307777,34.668291]}},{"properties":{"city":"Sierra Vista","geo_score":0.714,"id":"a6jhuoy9zilc","geo_precision":"city","state":"AZ","active":0},"type":"Feature","geometry":{"type":"Point","coordinates":[-109.997623,31.810649]}},{"properties":{"city":"Tucson","geo_score":0.714,"id":"a6jhup1wjom4","geo_precision":"city","state":"AZ","active":0},"type":"Feature","geometry":{"type":"Point","coordinates":[-110.970869,32.217975]}},{"properties":{"city":"Tucson","geo_score":0.714,"id":"a6jhup6t11u3","geo_precision":"city","state":"AZ","active":0},"type":"Feature","geometry":{"type":"Point","coordinates":[-110.970869,32.217975]}},{"properties":{"city":"Tucson","geo_score":0.714,"id":"a6jhup6a3ffi","geo_precision":"city","state":"AZ","active":0},"type":"Feature","geometry":{"type":"Point","coordinates":[-110.970869,32.217975]}},{"properties":{"city":"Chula Vista","geo_score":0.714,"id":"a6jhuovdycud","geo_precision":"city","state":"CA","active":1},"type":"Feature","geometry":{"type":"Point","coordinates":[-116.846046,33.016928]}},{"properties":{"city":"El Centro","geo_score":0.714,"id":"a6jhup7ntjy8","geo_precision":"city","state":"CA","active":0},"type":"Feature","geometry":{"type":"Point","coordinates":[-115.503842,32.900509]}},{"properties":{"city":"El Centro","geo_score":0.714,"id":"a6jhuovaug0f","geo_precision":"city","state":"CA","active":0},"type":"Feature","geometry":{"type":"Point","coordinates":[-115.503842,32.900509]}},{"properties":{"city":"El Centro","geo_score":0.714,"id":"a6jhup2uh7b1","geo_precision":"city","state":"CA","active":0},"type":"Feature","geometry":{"type":"Point","coordinates":[-115.503842,32.900509]}},{"properties":{"city":"San Diego","geo_score":0.714,"id":"a6jhup0nawb1","geo_precision":"city","state":"CA","active":0},"type":"Feature","geometry":{"type":"Point","coordinates":[-117.174366,32.7211]}},{"properties":{"city":"San Diego","geo_score":0.714,"id":"a6jhup899y3s","geo_precision":"city","state":"CA","active":1},"type":"Feature","geometry":{"type":"Point","coordinates":[-117.174366,32.7211]}},{"properties":{"city":"Vista","geo_score":0.714,"id":"a6jhup1o6om3","geo_precision":"city","state":"CA","active":1},"type":"Feature","geometry":{"type":"Point","coordinates":[-116.846046,33.016928]}},{"properties":{"city":"Woodland Hills","geo_score":0.714,"id":"a6jhuotpf63w","geo_precision":"city","state":"CA","active":0},"type":"Feature","geometry":{"type":"Point","coordinates":[-121.397892,39.08337]}},{"properties":{"city":"San Diego","geo_score":0.571,"id":"a6jhup3ojys1","geo_precision":"city","state":"CA","active":1},"type":"Feature","geometry":{"type":"Point","coordinates":[-88.886169,34.20594]}},{"properties":{"city":"Denver","geo_score":0.714,"id":"a6jhup07sba0","geo_precision":"city","state":"CO","active":0},"type":"Feature","geometry":{"type":"Point","coordinates":[-104.856808,39.726303]}},{"properties":{"city":"Denver","geo_score":0.714,"id":"a6jhuov9u3z5","geo_precision":"city","state":"CO","active":0},"type":"Feature","geometry":{"type":"Point","coordinates":[-104.856808,39.726303]}},{"properties":{"city":"Denver","geo_score":0.714,"id":"a6jhup4u552p","geo_precision":"city","state":"CO","active":0},"type":"Feature","geometry":{"type":"Point","coordinates":[-104.856808,39.726303]}},{"properties":{"city":"Denver","geo_score":0.714,"id":"a6jhup81mexx","geo_precision":"city","state":"CO","active":0},"type":"Feature","geometry":{"type":"Point","coordinates":[-104.856808,39.726303]}},{"properties":{"city":"Denver","geo_score":0.714,"id":"a6jhup51y5h6","geo_precision":"city","state":"CO","active":0},"type":"Feature","geometry":{"type":"Point","coordinates":[-104.856808,39.726303]}},{"properties":{"city":"Denver","geo_score":0.714,"id":"a6jhuouxc3mt","geo_precision":"city","state":"CO","active":0},"type":"Feature","geometry":{"type":"Point","coordinates":[-104.856808,39.726303]}},{"properties":{"city":"Denver","geo_score":0.714,"id":"a6jhup4i3wtb","geo_precision":"city","state":"CO","active":1},"type":"Feature","geometry":{"type":"Point","coordinates":[-104.856808,39.726303]}},{"properties":{"city":"Bridgeport","geo_score":0.714,"id":"a6jhup6l1zn9","geo_precision":"city","state":"CT","active":1},"type":"Feature","geometry":{"type":"Point","coordinates":[-73.363661,41.308873]}},{"properties":{"city":"Bridgeport","geo_score":0.714,"id":"a6jhup2crlb1","geo_precision":"city","state":"CT","active":1},"type":"Feature","geometry":{"type":"Point","coordinates":[-73.363661,41.308873]}},{"properties":{"city":"Hartford","geo_score":0.714,"id":"a6jhuoubv0ol","geo_precision":"city","state":"CT","active":0},"type":"Feature","geometry":{"type":"Point","coordinates":[-72.677099,41.78007]}},{"properties":{"city":"Hartford","geo_score":0.714,"id":"a6jhup62l1x3","geo_precision":"city","state":"CT","active":0},"type":"Feature","geometry":{"type":"Point","coordinates":[-72.677099,41.78007]}},{"properties":{"city":"New Haven","geo_score":0.714,"id":"a6jhuovfbew9","geo_precision":"city","state":"CT","active":0},"type":"Feature","geometry":{"type":"Point","coordinates":[-72.927507,41.365709]}},{"properties":{"city":"New Haven","geo_score":0.714,"id":"a6jhup2akz9h","geo_precision":"city","state":"CT","active":0},"type":"Feature","geometry":{"type":"Point","coordinates":[-72.927507,41.365709]}},{"properties":{"city":"New Haven","geo_score":0.714,"id":"a6jhuowrrnj3","geo_precision":"city","state":"CT","active":0},"type":"Feature","geometry":{"type":"Point","coordinates":[-72.927507,41.365709]}},{"properties":{"city":"Dover","geo_score":0.714,"id":"a6jhup820t1y","geo_precision":"city","state":"DE","active":1},"type":"Feature","geometry":{"type":"Point","coordinates":[-75.49549,39.156376]}},{"properties":{"city":"Wilmington","geo_score":0.714,"id":"a6jhuoyyptjd","geo_precision":"city","state":"DE","active":1},"type":"Feature","geometry":{"type":"Point","coordinates":[-75.58437,39.68678]}},{"properties":{"city":"Wilmington","geo_score":0.714,"id":"a6jhup1ywxmz","geo_precision":"city","state":"DE","active":1},"type":"Feature","geometry":{"type":"Point","coordinates":[-75.58437,39.68678]}},{"properties":{"city":"Gainesville","geo_score":0.714,"id":"a6jhuotqr5fc","geo_precision":"city","state":"FL","active":0},"type":"Feature","geometry":{"type":"Point","coordinates":[-82.345739,29.68041]}},{"properties":{"city":"Gainesville","geo_score":0.714,"id":"a6jhuoxo3dw2","geo_precision":"city","state":"FL","active":0},"type":"Feature","geometry":{"type":"Point","coordinates":[-82.345739,29.68041]}},{"properties":{"city":"Panama City","geo_score":0.714,"id":"a6jhup49looz","geo_precision":"city","state":"FL","active":0},"type":"Feature","geometry":{"type":"Point","coordinates":[-85.813624,30.200682]}},{"properties":{"city":"Panama City","geo_score":0.714,"id":"a6jhup2t6hha","geo_precision":"city","state":"FL","active":0},"type":"Feature","geometry":{"type":"Point","coordinates":[-85.813624,30.200682]}},{"properties":{"city":"Pensacola","geo_score":0.714,"id":"a6jhuoyefcv0","geo_precision":"city","state":"FL","active":0},"type":"Feature","geometry":{"type":"Point","coordinates":[-87.256471,30.424838]}},{"properties":{"city":"Pensacola","geo_score":0.714,"id":"a6jhup8htzoj","geo_precision":"city","state":"FL","active":0},"type":"Feature","geometry":{"type":"Point","coordinates":[-87.256471,30.424838]}},{"properties":{"city":"Pensacola","geo_score":0.714,"id":"a6jhup8dr60j","geo_precision":"city","state":"FL","active":0},"type":"Feature","geometry":{"type":"Point","coordinates":[-87.256471,30.424838]}},{"properties":{"city":"Pensacola","geo_score":0.714,"id":"a6jhuouzfsg1","geo_precision":"city","state":"FL","active":0},"type":"Feature","geometry":{"type":"Point","coordinates":[-87.256471,30.424838]}},{"properties":{"city":"Pensacola","geo_score":0.714,"id":"a6jhup8ko2mi","geo_precision":"city","state":"FL","active":0},"type":"Feature","geometry":{"type":"Point","coordinates":[-87.256471,30.424838]}},{"properties":{"city":"Pensacola","geo_score":0.714,"id":"a6jhup17sxma","geo_precision":"city","state":"FL","active":0},"type":"Feature","geometry":{"type":"Point","coordinates":[-87.256471,30.424838]}},{"properties":{"city":"Tallahassee","geo_score":0.714,"id":"a6jhup0ab6uo","geo_precision":"city","state":"FL","active":0},"type":"Feature","geometry":{"type":"Point","coordinates":[-84.203379,30.418514]}},{"properties":{"city":"Tallahassee","geo_score":0.714,"id":"a6jhup4bq7ya","geo_precision":"city","state":"FL","active":0},"type":"Feature","geometry":{"type":"Point","coordinates":[-84.203379,30.418514]}},{"properties":{"city":"Tallahassee","geo_score":0.714,"id":"a6jhuoxwlqbo","geo_precision":"city","state":"FL","active":0},"type":"Feature","geometry":{"type":"Point","coordinates":[-84.203379,30.418514]}},{"properties":{"city":"Albany","geo_score":0.714,"id":"a6jhuotr3py6","geo_precision":"city","state":"GA","active":0},"type":"Feature","geometry":{"type":"Point","coordinates":[-84.176751,31.560674]}},{"properties":{"city":"Albany","geo_score":0.714,"id":"a6jhup5a30p7","geo_precision":"city","state":"GA","active":0},"type":"Feature","geometry":{"type":"Point","coordinates":[-84.176751,31.560674]}},{"properties":{"city":"Albany","geo_score":0.714,"id":"a6jhup3960ca","geo_precision":"city","state":"GA","active":0},"type":"Feature","geometry":{"type":"Point","coordinates":[-84.176751,31.560674]}},{"properties":{"city":"Athens","geo_score":0.714,"id":"a6jhup12u9g2","geo_precision":"city","state":"GA","active":0},"type":"Feature","geometry":{"type":"Point","coordinates":[-83.353697,33.992902]}},{"properties":{"city":"Athens","geo_score":0.714,"id":"a6jhup2yp22n","geo_precision":"city","state":"GA","active":0},"type":"Feature","geometry":{"type":"Point","coordinates":[-83.353697,33.992902]}},{"properties":{"city":"Atlanta","geo_score":0.714,"id":"a6jhup6ah44p","geo_precision":"city","state":"GA","active":0},"type":"Feature","geometry":{"type":"Point","coordinates":[-84.47405,33.844371]}},{"properties":{"city":"Atlanta","geo_score":0.714,"id":"a6jhuozh82xj","geo_precision":"city","state":"GA","active":0},"type":"Feature","geometry":{"type":"Point","coordinates":[-84.47405,33.844371]}},{"properties":{"city":"Atlanta","geo_score":0.714,"id":"a6jhup02dlh5","geo_precision":"city","state":"GA","active":0},"type":"Feature","geometry":{"type":"Point","coordinates":[-84.47405,33.844371]}},{"properties":{"city":"Atlanta","geo_score":0.714,"id":"a6jhup7gqbj5","geo_precision":"city","state":"GA","active":0},"type":"Feature","geometry":{"type":"Point","coordinates":[-84.47405,33.844371]}},{"properties":{"city":"Atlanta","geo_score":0.714,"id":"a6jhup8424sm","geo_precision":"city","state":"GA","active":0},"type":"Feature","geometry":{"type":"Point","coordinates":[-84.47405,33.844371]}},{"properties":{"city":"Augusta","geo_score":0.714,"id":"a6jhup4ip43i","geo_precision":"city","state":"GA","active":0},"type":"Feature","geometry":{"type":"Point","coordinates":[-81.969184,33.456687]}},{"properties":{"city":"Augusta","geo_score":0.714,"id":"a6jhuozga2vu","geo_precision":"city","state":"GA","active":0},"type":"Feature","geometry":{"type":"Point","coordinates":[-81.969184,33.456687]}},{"properties":{"city":"Augusta","geo_score":0.714,"id":"a6jhuoyuns77","geo_precision":"city","state":"GA","active":0},"type":"Feature","geometry":{"type":"Point","coordinates":[-81.969184,33.456687]}},{"properties":{"city":"Brunswick","geo_score":0.714,"id":"a6jhuozvlc1e","geo_precision":"city","state":"GA","active":0},"type":"Feature","geometry":{"type":"Point","coordinates":[-81.492883,31.230428]}},{"properties":{"city":"Brunswick","geo_score":0.714,"id":"a6jhuou46gur","geo_precision":"city","state":"GA","active":0},"type":"Feature","geometry":{"type":"Point","coordinates":[-81.492883,31.230428]}},{"properties":{"city":"Brunswick","geo_score":0.714,"id":"a6jhup2rklym","geo_precision":"city","state":"GA","active":0},"type":"Feature","geometry":{"type":"Point","coordinates":[-81.492883,31.230428]}},{"properties":{"city":"Columbus","geo_score":0.714,"id":"a6jhup3z8791","geo_precision":"city","state":"GA","active":0},"type":"Feature","geometry":{"type":"Point","coordinates":[-84.97823,32.472864]}},{"properties":{"city":"Columbus","geo_score":0.714,"id":"a6jhuozyafwu","geo_precision":"city","state":"GA","active":0},"type":"Feature","geometry":{"type":"Point","coordinates":[-84.97823,32.472864]}},{"properties":{"city":"Dublin","geo_score":0.714,"id":"a6jhup4tkwk6","geo_precision":"city","state":"GA","active":0},"type":"Feature","geometry":{"type":"Point","coordinates":[-82.938121,32.459291]}},{"properties":{"city":"Dublin","geo_score":0.714,"id":"a6jhup76bi3d","geo_precision":"city","state":"GA","active":0},"type":"Feature","geometry":{"type":"Point","coordinates":[-82.938121,32.459291]}},{"properties":{"city":"Dublin","geo_score":0.714,"id":"a6jhuou9p588","geo_precision":"city","state":"GA","active":0},"type":"Feature","geometry":{"type":"Point","coordinates":[-82.938121,32.459291]}},{"properties":{"city":"Gainsville","geo_score":0.714,"id":"a6jhup0wihon","geo_precision":"city","state":"GA","active":0},"type":"Feature","geometry":{"type":"Point","coordinates":[-83.837912,34.334398]}},{"properties":{"city":"Gainsville","geo_score":0.714,"id":"a6jhup16p7xr","geo_precision":"city","state":"GA","active":0},"type":"Feature","geometry":{"type":"Point","coordinates":[-83.837912,34.334398]}},{"properties":{"city":"Gainsville","geo_score":0.714,"id":"a6jhuovi3ke0","geo_precision":"city","state":"GA","active":0},"type":"Feature","geometry":{"type":"Point","coordinates":[-83.837912,34.334398]}},{"properties":{"city":"Macon","geo_score":0.714,"id":"a6jhuovnltmb","geo_precision":"city","state":"GA","active":0},"type":"Feature","geometry":{"type":"Point","coordinates":[-83.595066,32.827949]}},{"properties":{"city":"Macon","geo_score":0.714,"id":"a6jhuoxsy5hc","geo_precision":"city","state":"GA","active":0},"type":"Feature","geometry":{"type":"Point","coordinates":[-83.595066,32.827949]}},{"properties":{"city":"Marietta","geo_score":0.714,"id":"a6jhup6ijwpj","geo_precision":"city","state":"GA","active":0},"type":"Feature","geometry":{"type":"Point","coordinates":[-84.557181,33.912473]}},{"properties":{"city":"Newnan","geo_score":0.714,"id":"a6jhup8tnsyj","geo_precision":"city","state":"GA","active":0},"type":"Feature","geometry":{"type":"Point","coordinates":[-84.819397,33.369595]}},{"properties":{"city":"Newnan","geo_score":0.714,"id":"a6jhuowjnpb9","geo_precision":"city","state":"GA","active":0},"type":"Feature","geometry":{"type":"Point","coordinates":[-84.819397,33.369595]}},{"properties":{"city":"Newnan","geo_score":0.714,"id":"a6jhup6efwfy","geo_precision":"city","state":"GA","active":0},"type":"Feature","geometry":{"type":"Point","coordinates":[-84.819397,33.369595]}},{"properties":{"city":"Rome","geo_score":0.714,"id":"a6jhup6gfonn","geo_precision":"city","state":"GA","active":0},"type":"Feature","geometry":{"type":"Point","coordinates":[-85.22089,34.262335]}},{"properties":{"city":"Rome","geo_score":0.714,"id":"a6jhup2ftln9","geo_precision":"city","state":"GA","active":0},"type":"Feature","geometry":{"type":"Point","coordinates":[-85.22089,34.262335]}},{"properties":{"city":"Rome","geo_score":0.714,"id":"a6jhuou7pqi7","geo_precision":"city","state":"GA","active":0},"type":"Feature","geometry":{"type":"Point","coordinates":[-85.22089,34.262335]}},{"properties":{"city":"Savannah","geo_score":0.714,"id":"a6jhup04o7ds","geo_precision":"city","state":"GA","active":0},"type":"Feature","geometry":{"type":"Point","coordinates":[-81.135618,32.072257]}},{"properties":{"city":"Savannah","geo_score":0.714,"id":"a6jhuov6218z","geo_precision":"city","state":"GA","active":0},"type":"Feature","geometry":{"type":"Point","coordinates":[-81.135618,32.072257]}},{"properties":{"city":"Savannah","geo_score":0.714,"id":"a6jhuouvpz7x","geo_precision":"city","state":"GA","active":0},"type":"Feature","geometry":{"type":"Point","coordinates":[-81.135618,32.072257]}},{"properties":{"city":"Statesboro","geo_score":0.714,"id":"a6jhup0zye10","geo_precision":"city","state":"GA","active":0},"type":"Feature","geometry":{"type":"Point","coordinates":[-81.784956,32.425]}},{"properties":{"city":"Statesboro","geo_score":0.714,"id":"a6jhuoumvwau","geo_precision":"city","state":"GA","active":0},"type":"Feature","geometry":{"type":"Point","coordinates":[-81.784956,32.425]}},{"properties":{"city":"Statesboro","geo_score":0.714,"id":"a6jhup6d43pi","geo_precision":"city","state":"GA","active":0},"type":"Feature","geometry":{"type":"Point","coordinates":[-81.784956,32.425]}},{"properties":{"city":"Tucker","geo_score":0.0,"id":"a6jhuox3b2sk","geo_precision":"unmatched","state":"GA","active":0},"type":"Feature","geometry":null},{"properties":{"city":"Valdosta","geo_score":0.714,"id":"a6jhuoy7molm","geo_precision":"city","state":"GA","active":0},"type":"Feature","geometry":{"type":"Point","coordinates":[-83.332068,30.753904]}},{"properties":{"city":"Valdosta","geo_score":0.714,"id":"a6jhuozirnok","geo_precision":"city","state":"GA","active":0},"type":"Feature","geometry":{"type":"Point","coordinates":[-83.332068,30.753904]}},{"properties":{"city":"Waycross","geo_score":0.714,"id":"a6jhup6g9c4u","geo_precision":"city","state":"GA","active":0},"type":"Feature","geometry":{"type":"Point","coordinates":[-82.359628,31.224262]}},{"properties":{"city":"Waycross","geo_score":0.714,"id":"a6jhup6kge8j","geo_precision":"city","state":"GA","active":0},"type":"Feature","geometry":{"type":"Point","coordinates":[-82.359628,31.224262]}},{"properties":{"city":"Waycross","geo_score":0.714,"id":"a6jhuotozzdv","geo_precision":"city","state":"GA","active":0},"type":"Feature","geometry":{"type":"Point","coordinates":[-82.359628,31.224262]}},{"properties":{"city":"Cedar Rapids","geo_score":0.714,"id":"a6jhuowk576g","geo_precision":"city","state":"IA","active":0},"type":"Feature","geometry":{"type":"Point","coordinates":[-91.657578,41.976612]}},{"properties":{"city":"Cedar Rapids","geo_score":0.714,"id":"a6jhuoykggzc","geo_precision":"city","state":"IA","active":0},"type":"Feature","geometry":{"type":"Point","coordinates":[-91.657578,41.976612]}},{"properties":{"city":"Cedar Rapids","geo_score":0.714,"id":"a6jhup6ebzuu","geo_precision":"city","state":"IA","active":0},"type":"Feature","geometry":{"type":"Point","coordinates":[-91.657578,41.976612]}},{"properties":{"city":"Cedar Rapids","geo_score":0.714,"id":"a6jhuoszxln1","geo_precision":"city","state":"IA","active":0},"type":"Feature","geometry":{"type":"Point","coordinates":[-91.657578,41.976612]}},{"properties":{"city":"Cedar Rapids","geo_score":0.714,"id":"a6jhup54mk4s","geo_precision":"city","state":"IA","active":0},"type":"Feature","geometry":{"type":"Point","coordinates":[-91.657578,41.976612]}},{"properties":{"city":"Boise","geo_score":0.714,"id":"a6jhup04cyn3","geo_precision":"city","state":"ID","active":0},"type":"Feature","geometry":{"type":"Point","coordinates":[-116.272921,43.603768]}},{"properties":{"city":"Boise","geo_score":0.714,"id":"a6jhup8ktce7","geo_precision":"city","state":"ID","active":0},"type":"Feature","geometry":{"type":"Point","coordinates":[-116.272921,43.603768]}},{"properties":{"city":"Boise","geo_score":0.714,"id":"a6jhuote37am","geo_precision":"city","state":"ID","active":0},"type":"Feature","geometry":{"type":"Point","coordinates":[-116.272921,43.603768]}},{"properties":{"city":"Boise","geo_score":0.714,"id":"a6jhuoy5r3t5","geo_precision":"city","state":"ID","active":0},"type":"Feature","geometry":{"type":"Point","coordinates":[-116.272921,43.603768]}},{"properties":{"city":"Boise","geo_score":0.714,"id":"a6jhup1s87aa","geo_precision":"city","state":"ID","active":0},"type":"Feature","geometry":{"type":"Point","coordinates":[-116.272921,43.603768]}},{"properties":{"city":"Coeur D'Alene","geo_score":0.714,"id":"a6jhup7urr4j","geo_precision":"city","state":"ID","active":0},"type":"Feature","geometry":{"type":"Point","coordinates":[-111.379111,43.049919]}},{"properties":{"city":"Coeur D'Alene","geo_score":0.714,"id":"a6jhuoun7yhc","geo_precision":"city","state":"ID","active":0},"type":"Feature","geometry":{"type":"Point","coordinates":[-111.379111,43.049919]}},{"properties":{"city":"Coeur D'Alene","geo_score":0.714,"id":"a6jhup0ukb2t","geo_precision":"city","state":"ID","active":0},"type":"Feature","geometry":{"type":"Point","coordinates":[-111.379111,43.049919]}},{"properties":{"city":"Moscow","geo_score":0.714,"id":"a6jhuot0l2nt","geo_precision":"city","state":"ID","active":0},"type":"Feature","geometry":{"type":"Point","coordinates":[-116.870147,46.735334]}},{"properties":{"city":"Moscow","geo_score":0.714,"id":"a6jhuoveiio0","geo_precision":"city","state":"ID","active":0},"type":"Feature","geometry":{"type":"Point","coordinates":[-116.870147,46.735334]}},{"properties":{"city":"Moscow","geo_score":0.714,"id":"a6jhuosyef58","geo_precision":"city","state":"ID","active":0},"type":"Feature","geometry":{"type":"Point","coordinates":[-116.870147,46.735334]}},{"properties":{"city":"Pocatello","geo_score":0.714,"id":"a6jhup8337wa","geo_precision":"city","state":"ID","active":0},"type":"Feature","geometry":{"type":"Point","coordinates":[-112.259807,42.770177]}},{"properties":{"city":"Pocatello","geo_score":0.714,"id":"a6jhup89pybt","geo_precision":"city","state":"ID","active":0},"type":"Feature","geometry":{"type":"Point","coordinates":[-112.259807,42.770177]}},{"properties":{"city":"Pocatello","geo_score":0.714,"id":"a6jhuozp691o","geo_precision":"city","state":"ID","active":0},"type":"Feature","geometry":{"type":"Point","coordinates":[-112.259807,42.770177]}},{"properties":{"city":"Pocatello","geo_score":0.714,"id":"a6jhup4kicnd","geo_precision":"city","state":"ID","active":0},"type":"Feature","geometry":{"type":"Point","coordinates":[-112.259807,42.770177]}},{"properties":{"city":"Twin Falls","geo_score":0.714,"id":"a6jhuoyutr83","geo_precision":"city","state":"ID","active":0},"type":"Feature","geometry":{"type":"Point","coordinates":[-114.629497,42.443224]}},{"properties":{"city":"Chicago","geo_score":0.714,"id":"a6jhuouieq13","geo_precision":"city","state":"IL","active":0},"type":"Feature","geometry":{"type":"Point","coordinates":[-87.68732,41.811929]}},{"properties":{"city":"Danville","geo_score":0.714,"id":"a6jhuozq8vvu","geo_precision":"city","state":"IL","active":0},"type":"Feature","geometry":{"type":"Point","coordinates":[-87.757792,40.10398]}},{"properties":{"city":"Lisle","geo_score":0.714,"id":"a6jhup1x2sgs","geo_precision":"city","state":"IL","active":1},"type":"Feature","geometry":{"type":"Point","coordinates":[-89.0866,41.365092]}},{"properties":{"city":"Peoria","geo_score":0.714,"id":"a6jhup1r0r5a","geo_precision":"city","state":"IL","active":0},"type":"Feature","geometry":{"type":"Point","coordinates":[-89.589847,40.693137]}},{"properties":{"city":"Peoria","geo_score":0.714,"id":"a6jhup33r53q","geo_precision":"city","state":"IL","active":0},"type":"Feature","geometry":{"type":"Point","coordinates":[-89.589847,40.693137]}},{"properties":{"city":"Peoria","geo_score":0.714,"id":"a6jhup06mb5l","geo_precision":"city","state":"IL","active":0},"type":"Feature","geometry":{"type":"Point","coordinates":[-89.589847,40.693137]}},{"properties":{"city":"Rock Island","geo_score":0.714,"id":"a6jhup2sej7x","geo_precision":"city","state":"IL","active":0},"type":"Feature","geometry":{"type":"Point","coordinates":[-88.188464,42.27179]}},{"properties":{"city":"Rock Island","geo_score":0.714,"id":"a6jhup33tsz6","geo_precision":"city","state":"IL","active":0},"type":"Feature","geometry":{"type":"Point","coordinates":[-88.188464,42.27179]}},{"properties":{"city":"Rock Island","geo_score":0.714,"id":"a6jhuowqrl52","geo_precision":"city","state":"IL","active":0},"type":"Feature","geometry":{"type":"Point","coordinates":[-88.188464,42.27179]}},{"properties":{"city":"Springfield","geo_score":0.714,"id":"a6jhup0uowag","geo_precision":"city","state":"IL","active":0},"type":"Feature","geometry":{"type":"Point","coordinates":[-88.252639,42.367273]}},{"properties":{"city":"Springfield","geo_score":0.714,"id":"a6jhup4fbpae","geo_precision":"city","state":"IL","active":0},"type":"Feature","geometry":{"type":"Point","coordinates":[-88.252639,42.367273]}},{"properties":{"city":"Springfield","geo_score":0.714,"id":"a6jhup5ra6kp","geo_precision":"city","state":"IL","active":0},"type":"Feature","geometry":{"type":"Point","coordinates":[-88.252639,42.367273]}},{"properties":{"city":"Urbana","geo_score":0.714,"id":"a6jhup6zxuwx","geo_precision":"city","state":"IL","active":0},"type":"Feature","geometry":{"type":"Point","coordinates":[-89.04063,37.974495]}},{"properties":{"city":"Urbana","geo_score":0.714,"id":"a6jhup1yuqsn","geo_precision":"city","state":"IL","active":0},"type":"Feature","geometry":{"type":"Point","coordinates":[-89.04063,37.974495]}},{"properties":{"city":"Fort Wayne","geo_score":0.714,"id":"a6jhup5xf2c4","geo_precision":"city","state":"IN","active":0},"type":"Feature","geometry":{"type":"Point","coordinates":[-85.12886,41.130604]}},{"properties":{"city":"Fort Wayne","geo_score":0.714,"id":"a6jhuoz5ol23","geo_precision":"city","state":"IN","active":0},"type":"Feature","geometry":{"type":"Point","coordinates":[-85.12886,41.130604]}},{"properties":{"city":"Fort Wayne","geo_score":0.714,"id":"a6jhuozwja49","geo_precision":"city","state":"IN","active":0},"type":"Feature","geometry":{"type":"Point","coordinates":[-85.12886,41.130604]}},{"properties":{"city":"Hammond","geo_score":0.714,"id":"a6jhuouc2ufv","geo_precision":"city","state":"IN","active":0},"type":"Feature","geometry":{"type":"Point","coordinates":[-87.487242,41.444246]}},{"properties":{"city":"Hammond","geo_score":0.714,"id":"a6jhup41l2tl","geo_precision":"city","state":"IN","active":0},"type":"Feature","geometry":{"type":"Point","coordinates":[-87.487242,41.444246]}},{"properties":{"city":"Hammond","geo_score":0.714,"id":"a6jhup6ze3nq","geo_precision":"city","state":"IN","active":0},"type":"Feature","geometry":{"type":"Point","coordinates":[-87.487242,41.444246]}},{"properties":{"city":"Lafayette","geo_score":0.714,"id":"a6jhuovojo0m","geo_precision":"city","state":"IN","active":0},"type":"Feature","geometry":{"type":"Point","coordinates":[-86.830286,40.39905]}},{"properties":{"city":"Lafayette","geo_score":0.714,"id":"a6jhup1n3w7a","geo_precision":"city","state":"IN","active":0},"type":"Feature","geometry":{"type":"Point","coordinates":[-86.830286,40.39905]}},{"properties":{"city":"Lafayette","geo_score":0.714,"id":"a6jhup05902i","geo_precision":"city","state":"IN","active":0},"type":"Feature","geometry":{"type":"Point","coordinates":[-86.830286,40.39905]}},{"properties":{"city":"South Bend","geo_score":0.714,"id":"a6jhuoun20ah","geo_precision":"city","state":"IN","active":0},"type":"Feature","geometry":{"type":"Point","coordinates":[-86.250268,39.523937]}},{"properties":{"city":"South Bend","geo_score":0.714,"id":"a6jhuozpw2k4","geo_precision":"city","state":"IN","active":0},"type":"Feature","geometry":{"type":"Point","coordinates":[-86.250268,39.523937]}},{"properties":{"city":"South Bend","geo_score":0.714,"id":"a6jhup3ch1sx","geo_precision":"city","state":"IN","active":0},"type":"Feature","geometry":{"type":"Point","coordinates":[-86.250268,39.523937]}},{"properties":{"city":"South Bend","geo_score":0.714,"id":"a6jhup4mznr3","geo_precision":"city","state":"IN","active":0},"type":"Feature","geometry":{"type":"Point","coordinates":[-86.250268,39.523937]}},{"properties":{"city":"South Bend","geo_score":0.714,"id":"a6jhup2007rx","geo_precision":"city","state":"IN","active":0},"type":"Feature","geometry":{"type":"Point","coordinates":[-86.250268,39.523937]}},{"properties":{"city":"Bowling Green","geo_score":0.714,"id":"a6jhuourd9pp","geo_precision":"city","state":"KY","active":0},"type":"Feature","geometry":{"type":"Point","coordinates":[-83.081077,38.28974]}},{"properties":{"city":"Bowling Green","geo_score":0.714,"id":"a6jhup0tqfg9","geo_precision":"city","state":"KY","active":0},"type":"Feature","geometry":{"type":"Point","coordinates":[-83.081077,38.28974]}},{"properties":{"city":"Bowling Green","geo_score":0.714,"id":"a6jhuoy611f3","geo_precision":"city","state":"KY","active":0},"type":"Feature","geometry":{"type":"Point","coordinates":[-83.081077,38.28974]}},{"properties":{"city":"Hopkinsville","geo_score":0.714,"id":"a6jhup1k66m6","geo_precision":"city","state":"KY","active":0},"type":"Feature","geometry":{"type":"Point","coordinates":[-87.471106,36.876568]}},{"properties":{"city":"Lexington","geo_score":0.0,"id":"a6jhup46jb61","geo_precision":"unmatched","state":"KY","active":0},"type":"Feature","geometry":null},{"properties":{"city":"Lexington","geo_score":0.0,"id":"a6jhup65gbtz","geo_precision":"unmatched","state":"KY","active":0},"type":"Feature","geometry":null},{"properties":{"city":"Lexington","geo_score":0.0,"id":"a6jhup70v0y5","geo_precision":"unmatched","state":"KY","active":0},"type":"Feature","geometry":null},{"properties":{"city":"Louisville","geo_score":0.714,"id":"a6jhup6rh9of","geo_precision":"city","state":"KY","active":0},"type":"Feature","geometry":{"type":"Point","coordinates":[-85.676819,38.188962]}},{"properties":{"city":"Louisville","geo_score":0.714,"id":"a6jhup0zc6or","geo_precision":"city","state":"KY","active":0},"type":"Feature","geometry":{"type":"Point","coordinates":[-85.676819,38.188962]}},{"properties":{"city":"Louisville","geo_score":0.714,"id":"a6jhup2o5z5v","geo_precision":"city","state":"KY","active":0},"type":"Feature","geometry":{"type":"Point","coordinates":[-85.676819,38.188962]}},{"properties":{"city":"Louisville","geo_score":0.714,"id":"a6jhup8sy6qy","geo_precision":"city","state":"KY","active":0},"type":"Feature","geometry":{"type":"Point","coordinates":[-85.676819,38.188962]}},{"properties":{"city":"Louisville","geo_score":0.714,"id":"a6jhup12nr67","geo_precision":"city","state":"KY","active":0},"type":"Feature","geometry":{"type":"Point","coordinates":[-85.676819,38.188962]}},{"properties":{"city":"Owensboro","geo_score":0.714,"id":"a6jhuotko9q2","geo_precision":"city","state":"KY","active":0},"type":"Feature","geometry":{"type":"Point","coordinates":[-87.257303,37.751818]}},{"properties":{"city":"Owensboro","geo_score":0.714,"id":"a6jhup6nv6te","geo_precision":"city","state":"KY","active":0},"type":"Feature","geometry":{"type":"Point","coordinates":[-87.257303,37.751818]}},{"properties":{"city":"Owensboro","geo_score":0.714,"id":"a6jhuouqkuot","geo_precision":"city","state":"KY","active":0},"type":"Feature","geometry":{"type":"Point","coordinates":[-87.257303,37.751818]}},{"properties":{"city":"Paducah","geo_score":0.714,"id":"a6jhuozk38u5","geo_precision":"city","state":"KY","active":0},"type":"Feature","geometry":{"type":"Point","coordinates":[-88.713292,37.031586]}},{"properties":{"city":"Paducah","geo_score":0.714,"id":"a6jhuozc7jwj","geo_precision":"city","state":"KY","active":0},"type":"Feature","geometry":{"type":"Point","coordinates":[-88.713292,37.031586]}},{"properties":{"city":"Paducah","geo_score":0.714,"id":"a6jhuot4q0qe","geo_precision":"city","state":"KY","active":0},"type":"Feature","geometry":{"type":"Point","coordinates":[-88.713292,37.031586]}},{"properties":{"city":"Alexandria","geo_score":0.0,"id":"a6jhup694ca2","geo_precision":"unmatched","state":"LA","active":0},"type":"Feature","geometry":null},{"properties":{"city":"Alexandria","geo_score":0.0,"id":"a6jhup8k5x5o","geo_precision":"unmatched","state":"LA","active":0},"type":"Feature","geometry":null},{"properties":{"city":"Alexandria","geo_score":0.0,"id":"a6jhuot3cmg2","geo_precision":"unmatched","state":"LA","active":0},"type":"Feature","geometry":null},{"properties":{"city":"Baton Rouge","geo_score":0.714,"id":"a6jhuotfx8h1","geo_precision":"city","state":"LA","active":0},"type":"Feature","geometry":{"type":"Point","coordinates":[-92.176237,30.159092]}},{"properties":{"city":"Baton Rouge","geo_score":0.714,"id":"a6jhuovo7ut3","geo_precision":"city","state":"LA","active":0},"type":"Feature","geometry":{"type":"Point","coordinates":[-92.176237,30.159092]}},{"properties":{"city":"Hammond","geo_score":0.714,"id":"a6jhuosjkd78","geo_precision":"city","state":"LA","active":0},"type":"Feature","geometry":{"type":"Point","coordinates":[-90.464466,30.549037]}},{"properties":{"city":"Houma","geo_score":0.714,"id":"a6jhup3we1v3","geo_precision":"city","state":"LA","active":0},"type":"Feature","geometry":{"type":"Point","coordinates":[-90.852551,29.6421]}},{"properties":{"city":"Lafayette","geo_score":0.714,"id":"a6jhup0octmh","geo_precision":"city","state":"LA","active":0},"type":"Feature","geometry":{"type":"Point","coordinates":[-92.066574,30.232955]}},{"properties":{"city":"Lafayette","geo_score":0.714,"id":"a6jhup8deh9w","geo_precision":"city","state":"LA","active":0},"type":"Feature","geometry":{"type":"Point","coordinates":[-92.066574,30.232955]}},{"properties":{"city":"Lafayette","geo_score":0.714,"id":"a6jhuozp5hfu","geo_precision":"city","state":"LA","active":0},"type":"Feature","geometry":{"type":"Point","coordinates":[-92.066574,30.232955]}},{"properties":{"city":"Lake Charles","geo_score":0.714,"id":"a6jhuosliuyr","geo_precision":"city","state":"LA","active":0},"type":"Feature","geometry":{"type":"Point","coordinates":[-90.852875,30.299917]}},{"properties":{"city":"Lake Charles","geo_score":0.714,"id":"a6jhuox17mdp","geo_precision":"city","state":"LA","active":0},"type":"Feature","geometry":{"type":"Point","coordinates":[-90.852875,30.299917]}},{"properties":{"city":"Lake Charles","geo_score":0.714,"id":"a6jhup5rhy70","geo_precision":"city","state":"LA","active":0},"type":"Feature","geometry":{"type":"Point","coordinates":[-90.852875,30.299917]}},{"properties":{"city":"Monroe","geo_score":0.714,"id":"a6jhuoujd2g5","geo_precision":"city","state":"LA","active":0},"type":"Feature","geometry":{"type":"Point","coordinates":[-92.094583,32.502833]}},{"properties":{"city":"Monroe","geo_score":0.714,"id":"a6jhuoxqbdwx","geo_precision":"city","state":"LA","active":0},"type":"Feature","geometry":{"type":"Point","coordinates":[-92.094583,32.502833]}},{"properties":{"city":"Monroe","geo_score":0.714,"id":"a6jhup34nwyr","geo_precision":"city","state":"LA","active":0},"type":"Feature","geometry":{"type":"Point","coordinates":[-92.094583,32.502833]}},{"properties":{"city":"NewOrleans","geo_score":0.714,"id":"a6jhuoxuk4d0","geo_precision":"city","state":"LA","active":0},"type":"Feature","geometry":{"type":"Point","coordinates":[-89.930956,30.068812]}},{"properties":{"city":"Shreveport","geo_score":0.714,"id":"a6jhup7fdyqu","geo_precision":"city","state":"LA","active":0},"type":"Feature","geometry":{"type":"Point","coordinates":[-93.750228,32.498202]}},{"properties":{"city":"Shreveport","geo_score":0.714,"id":"a6jhup163b6i","geo_precision":"city","state":"LA","active":0},"type":"Feature","geometry":{"type":"Point","coordinates":[-93.750228,32.498202]}},{"properties":{"city":"Shreveport","geo_score":0.714,"id":"a6jhuoypms0n","geo_precision":"city","state":"LA","active":0},"type":"Feature","geometry":{"type":"Point","coordinates":[-93.750228,32.498202]}},{"properties":{"city":"Boston","geo_score":0.714,"id":"a6jhup7u3g3m","geo_precision":"city","state":"MA","active":0},"type":"Feature","geometry":{"type":"Point","coordinates":[-71.026964,42.370567]}},{"properties":{"city":"Boston","geo_score":0.714,"id":"a6jhuoug68oa","geo_precision":"city","state":"MA","active":0},"type":"Feature","geometry":{"type":"Point","coordinates":[-71.026964,42.370567]}},{"properties":{"city":"Boston","geo_score":0.714,"id":"a6jhup435h2t","geo_precision":"city","state":"MA","active":0},"type":"Feature","geometry":{"type":"Point","coordinates":[-71.026964,42.370567]}},{"properties":{"city":"Baltimore","geo_score":0.714,"id":"a6jhup8cd4w2","geo_precision":"city","state":"MD","active":1},"type":"Feature","geometry":{"type":"Point","coordinates":[-75.844658,39.058168]}},{"properties":{"city":"Baltimore","geo_score":0.714,"id":"a6jhuoxcezsf","geo_precision":"city","state":"MD","active":1},"type":"Feature","geometry":{"type":"Point","coordinates":[-75.844658,39.058168]}},{"properties":{"city":"Baltimore","geo_score":0.714,"id":"a6jhuotym3yv","geo_precision":"city","state":"MD","active":1},"type":"Feature","geometry":{"type":"Point","coordinates":[-75.844658,39.058168]}},{"properties":{"city":"Baltimore","geo_score":0.714,"id":"a6jhuowrihg9","geo_precision":"city","state":"MD","active":1},"type":"Feature","geometry":{"type":"Point","coordinates":[-75.844658,39.058168]}},{"properties":{"city":"Baltimore","geo_score":0.714,"id":"a6jhuotpe2sf","geo_precision":"city","state":"MD","active":1},"type":"Feature","geometry":{"type":"Point","coordinates":[-75.844658,39.058168]}},{"properties":{"city":"Greenbelt","geo_score":0.714,"id":"a6jhup30jslr","geo_precision":"city","state":"MD","active":1},"type":"Feature","geometry":{"type":"Point","coordinates":[-76.877743,38.833563]}},{"properties":{"city":"Greenbelt","geo_score":0.714,"id":"a6jhuoyeim3j","geo_precision":"city","state":"MD","active":1},"type":"Feature","geometry":{"type":"Point","coordinates":[-76.877743,38.833563]}},{"properties":{"city":"Greenbelt","geo_score":0.714,"id":"a6jhuotbebul","geo_precision":"city","state":"MD","active":1},"type":"Feature","geometry":{"type":"Point","coordinates":[-76.877743,38.833563]}},{"properties":{"city":"Greenbelt","geo_score":0.714,"id":"a6jhup89xqq1","geo_precision":"city","state":"MD","active":1},"type":"Feature","geometry":{"type":"Point","coordinates":[-76.877743,38.833563]}},{"properties":{"city":"Greenbelt","geo_score":0.714,"id":"a6jhup3i7e3q","geo_precision":"city","state":"MD","active":1},"type":"Feature","geometry":{"type":"Point","coordinates":[-76.877743,38.833563]}},{"properties":{"city":"Salisbury","geo_score":0.714,"id":"a6jhuowgtn33","geo_precision":"city","state":"MD","active":1},"type":"Feature","geometry":{"type":"Point","coordinates":[-75.633621,38.382445]}},{"properties":{"city":"Bangor","geo_score":0.714,"id":"a6jhuot56b5j","geo_precision":"city","state":"ME","active":0},"type":"Feature","geometry":{"type":"Point","coordinates":[-68.878893,45.061744]}},{"properties":{"city":"Bangor","geo_score":0.714,"id":"a6jhuowfoecx","geo_precision":"city","state":"ME","active":0},"type":"Feature","geometry":{"type":"Point","coordinates":[-68.878893,45.061744]}},{"properties":{"city":"Portland","geo_score":0.714,"id":"a6jhuoszmfdr","geo_precision":"city","state":"ME","active":0},"type":"Feature","geometry":{"type":"Point","coordinates":[-70.262393,43.658784]}},{"properties":{"city":"Portland","geo_score":0.714,"id":"a6jhuourtk62","geo_precision":"city","state":"ME","active":0},"type":"Feature","geometry":{"type":"Point","coordinates":[-70.262393,43.658784]}},{"properties":{"city":"Detroit","geo_score":0.714,"id":"a6jhup7ddygq","geo_precision":"city","state":"MI","active":0},"type":"Feature","geometry":{"type":"Point","coordinates":[-83.150823,42.239933]}},{"properties":{"city":"Detroit","geo_score":0.714,"id":"a6jhup34obdb","geo_precision":"city","state":"MI","active":0},"type":"Feature","geometry":{"type":"Point","coordinates":[-83.150823,42.239933]}},{"properties":{"city":"Cape Girardeau","geo_score":0.714,"id":"a6jhup5avu5d","geo_precision":"city","state":"MO","active":0},"type":"Feature","geometry":{"type":"Point","coordinates":[-89.611016,37.341398]}},{"properties":{"city":"Cape Girardeau","geo_score":0.714,"id":"a6jhup61940z","geo_precision":"city","state":"MO","active":0},"type":"Feature","geometry":{"type":"Point","coordinates":[-89.611016,37.341398]}},{"properties":{"city":"Cape Girardeau","geo_score":0.714,"id":"a6jhuozh60e1","geo_precision":"city","state":"MO","active":0},"type":"Feature","geometry":{"type":"Point","coordinates":[-89.611016,37.341398]}},{"properties":{"city":"Hannibal","geo_score":0.714,"id":"a6jhuot48zkz","geo_precision":"city","state":"MO","active":0},"type":"Feature","geometry":{"type":"Point","coordinates":[-91.45683,39.736986]}},{"properties":{"city":"Jefferson City","geo_score":0.714,"id":"a6jhup6x5utt","geo_precision":"city","state":"MO","active":1},"type":"Feature","geometry":{"type":"Point","coordinates":[-92.165194,38.494029]}},{"properties":{"city":"Jefferson City","geo_score":0.714,"id":"a6jhuoy5fk2h","geo_precision":"city","state":"MO","active":1},"type":"Feature","geometry":{"type":"Point","coordinates":[-92.165194,38.494029]}},{"properties":{"city":"Jefferson City","geo_score":0.714,"id":"a6jhuot8s9bc","geo_precision":"city","state":"MO","active":1},"type":"Feature","geometry":{"type":"Point","coordinates":[-92.165194,38.494029]}},{"properties":{"city":"Kansas City","geo_score":0.714,"id":"a6jhup09tms1","geo_precision":"city","state":"MO","active":0},"type":"Feature","geometry":{"type":"Point","coordinates":[-94.598583,39.102404]}},{"properties":{"city":"Kansas City","geo_score":0.714,"id":"a6jhuown32ff","geo_precision":"city","state":"MO","active":0},"type":"Feature","geometry":{"type":"Point","coordinates":[-94.598583,39.102404]}},{"properties":{"city":"Kansas City","geo_score":0.714,"id":"a6jhup6vco4m","geo_precision":"city","state":"MO","active":0},"type":"Feature","geometry":{"type":"Point","coordinates":[-94.598583,39.102404]}},{"properties":{"city":"Kansas City","geo_score":0.714,"id":"a6jhuovegq5e","geo_precision":"city","state":"MO","active":0},"type":"Feature","geometry":{"type":"Point","coordinates":[-94.598583,39.102404]}},{"properties":{"city":"Springfield","geo_score":0.714,"id":"a6jhuox2ynaz","geo_precision":"city","state":"MO","active":1},"type":"Feature","geometry":{"type":"Point","coordinates":[-92.02405,37.762541]}},{"properties":{"city":"Springfield","geo_score":0.714,"id":"a6jhup1ei0gu","geo_precision":"city","state":"MO","active":1},"type":"Feature","geometry":{"type":"Point","coordinates":[-92.02405,37.762541]}},{"properties":{"city":"Springfield","geo_score":0.714,"id":"a6jhup6an72c","geo_precision":"city","state":"MO","active":1},"type":"Feature","geometry":{"type":"Point","coordinates":[-92.02405,37.762541]}},{"properties":{"city":"St Louis","geo_score":0.0,"id":"a6jhuowlf2hh","geo_precision":"unmatched","state":"MO","active":0},"type":"Feature","geometry":null},{"properties":{"city":"Saint Louis","geo_score":0.714,"id":"a6jhuot82pko","geo_precision":"city","state":"MO","active":0},"type":"Feature","geometry":{"type":"Point","coordinates":[-92.254481,38.251613]}},{"properties":{"city":"Saint Louis","geo_score":0.714,"id":"a6jhup75egib","geo_precision":"city","state":"MO","active":0},"type":"Feature","geometry":{"type":"Point","coordinates":[-92.254481,38.251613]}},{"properties":{"city":"Saint Louis","geo_score":0.714,"id":"a6jhup3cs40j","geo_precision":"city","state":"MO","active":0},"type":"Feature","geometry":{"type":"Point","coordinates":[-92.254481,38.251613]}},{"properties":{"city":"St Louis","geo_score":0.0,"id":"a6jhuox21i22","geo_precision":"unmatched","state":"MO","active":0},"type":"Feature","geometry":null},{"properties":{"city":"Aberdeen","geo_score":0.714,"id":"a6jhuoxeskb1","geo_precision":"city","state":"MS","active":0},"type":"Feature","geometry":{"type":"Point","coordinates":[-88.514694,33.847638]}},{"properties":{"city":"Aberdeen","geo_score":0.714,"id":"a6jhup81yhpx","geo_precision":"city","state":"MS","active":0},"type":"Feature","geometry":{"type":"Point","coordinates":[-88.514694,33.847638]}},{"properties":{"city":"Aberdeen","geo_score":0.714,"id":"a6jhup0fyozb","geo_precision":"city","state":"MS","active":0},"type":"Feature","geometry":{"type":"Point","coordinates":[-88.514694,33.847638]}},{"properties":{"city":"Greenville","geo_score":0.714,"id":"a6jhup5atk16","geo_precision":"city","state":"MS","active":0},"type":"Feature","geometry":{"type":"Point","coordinates":[-91.02297,33.314539]}},{"properties":{"city":"Greenville","geo_score":0.714,"id":"a6jhuou7mri3","geo_precision":"city","state":"MS","active":0},"type":"Feature","geometry":{"type":"Point","coordinates":[-91.02297,33.314539]}},{"properties":{"city":"Oxford","geo_score":0.0,"id":"a6jhup5qxxuk","geo_precision":"unmatched","state":"MS","active":0},"type":"Feature","geometry":null},{"properties":{"city":"Oxford","geo_score":0.0,"id":"a6jhuozgm87b","geo_precision":"unmatched","state":"MS","active":0},"type":"Feature","geometry":null},{"properties":{"city":"Tupelo","geo_score":0.714,"id":"a6jhup4hs18q","geo_precision":"city","state":"MS","active":0},"type":"Feature","geometry":{"type":"Point","coordinates":[-88.683828,34.291889]}},{"properties":{"city":"Billings","geo_score":0.714,"id":"a6jhuoywlkq9","geo_precision":"city","state":"MT","active":0},"type":"Feature","geometry":{"type":"Point","coordinates":[-108.387392,45.686966]}},{"properties":{"city":"Billings","geo_score":0.714,"id":"a6jhuoug9yg5","geo_precision":"city","state":"MT","active":0},"type":"Feature","geometry":{"type":"Point","coordinates":[-108.387392,45.686966]}},{"properties":{"city":"Browning","geo_score":0.714,"id":"a6jhuoxa39wh","geo_precision":"city","state":"MT","active":1},"type":"Feature","geometry":{"type":"Point","coordinates":[-112.793626,48.649105]}},{"properties":{"city":"Butte","geo_score":0.714,"id":"a6jhuov3g5x5","geo_precision":"city","state":"MT","active":1},"type":"Feature","geometry":{"type":"Point","coordinates":[-112.598765,45.997895]}},{"properties":{"city":"Butte","geo_score":0.714,"id":"a6jhup2gc7fq","geo_precision":"city","state":"MT","active":1},"type":"Feature","geometry":{"type":"Point","coordinates":[-112.598765,45.997895]}},{"properties":{"city":"Glasgow","geo_score":0.714,"id":"a6jhup191c4q","geo_precision":"city","state":"MT","active":0},"type":"Feature","geometry":{"type":"Point","coordinates":[-106.474987,48.43923]}},{"properties":{"city":"Great Falls","geo_score":0.714,"id":"a6jhuoxa4org","geo_precision":"city","state":"MT","active":1},"type":"Feature","geometry":{"type":"Point","coordinates":[-111.422948,47.402024]}},{"properties":{"city":"Great Falls","geo_score":0.714,"id":"a6jhup16p8mu","geo_precision":"city","state":"MT","active":1},"type":"Feature","geometry":{"type":"Point","coordinates":[-111.422948,47.402024]}},{"properties":{"city":"Hardin","geo_score":0.714,"id":"a6jhuouixreo","geo_precision":"city","state":"MT","active":0},"type":"Feature","geometry":{"type":"Point","coordinates":[-107.6963,45.52731]}},{"properties":{"city":"Helena","geo_score":0.714,"id":"a6jhuoupdtrg","geo_precision":"city","state":"MT","active":0},"type":"Feature","geometry":{"type":"Point","coordinates":[-112.197616,46.70934]}},{"properties":{"city":"Helena","geo_score":0.714,"id":"a6jhup34d8o8","geo_precision":"city","state":"MT","active":0},"type":"Feature","geometry":{"type":"Point","coordinates":[-112.197616,46.70934]}},{"properties":{"city":"Missoula","geo_score":0.714,"id":"a6jhup03zitx","geo_precision":"city","state":"MT","active":1},"type":"Feature","geometry":{"type":"Point","coordinates":[-113.909123,46.853606]}},{"properties":{"city":"Missoula","geo_score":0.714,"id":"a6jhuoso1cxc","geo_precision":"city","state":"MT","active":1},"type":"Feature","geometry":{"type":"Point","coordinates":[-113.909123,46.853606]}},{"properties":{"city":"Missoula","geo_score":0.714,"id":"a6jhup46hgee","geo_precision":"city","state":"MT","active":1},"type":"Feature","geometry":{"type":"Point","coordinates":[-113.909123,46.853606]}},{"properties":{"city":"Asheville","geo_score":0.714,"id":"a6jhup5dkrg6","geo_precision":"city","state":"NC","active":1},"type":"Feature","geometry":{"type":"Point","coordinates":[-82.567281,35.602711]}},{"properties":{"city":"Asheville","geo_score":0.714,"id":"a6jhup4vzgwm","geo_precision":"city","state":"NC","active":1},"type":"Feature","geometry":{"type":"Point","coordinates":[-82.567281,35.602711]}},{"properties":{"city":"Ashveille","geo_score":0.714,"id":"a6jhup0gnuyh","geo_precision":"city","state":"NC","active":1},"type":"Feature","geometry":{"type":"Point","coordinates":[-82.567281,35.602711]}},{"properties":{"city":"Durham","geo_score":0.714,"id":"a6jhup0ol5e4","geo_precision":"city","state":"NC","active":0},"type":"Feature","geometry":{"type":"Point","coordinates":[-78.906933,35.981803]}},{"properties":{"city":"Durham","geo_score":0.714,"id":"a6jhuoy7iilw","geo_precision":"city","state":"NC","active":0},"type":"Feature","geometry":{"type":"Point","coordinates":[-78.906933,35.981803]}},{"properties":{"city":"Durham","geo_score":0.714,"id":"a6jhuoyuf5mc","geo_precision":"city","state":"NC","active":0},"type":"Feature","geometry":{"type":"Point","coordinates":[-78.906933,35.981803]}},{"properties":{"city":"Durham","geo_score":0.714,"id":"a6jhup4bvwg2","geo_precision":"city","state":"NC","active":0},"type":"Feature","geometry":{"type":"Point","coordinates":[-78.906933,35.981803]}},{"properties":{"city":"Greensboro","geo_score":0.714,"id":"a6jhuoy4230w","geo_precision":"city","state":"NC","active":0},"type":"Feature","geometry":{"type":"Point","coordinates":[-79.831692,36.055285]}},{"properties":{"city":"Greensboro","geo_score":0.714,"id":"a6jhup0erqp1","geo_precision":"city","state":"NC","active":0},"type":"Feature","geometry":{"type":"Point","coordinates":[-79.831692,36.055285]}},{"properties":{"city":"Greensboro","geo_score":0.714,"id":"a6jhup558r0t","geo_precision":"city","state":"NC","active":0},"type":"Feature","geometry":{"type":"Point","coordinates":[-79.831692,36.055285]}},{"properties":{"city":"Greensboro","geo_score":0.714,"id":"a6jhuowcp8v8","geo_precision":"city","state":"NC","active":0},"type":"Feature","geometry":{"type":"Point","coordinates":[-79.831692,36.055285]}},{"properties":{"city":"Raliegh","geo_score":0.714,"id":"a6jhuoyqkwxv","geo_precision":"city","state":"NC","active":0},"type":"Feature","geometry":{"type":"Point","coordinates":[-82.293464,36.034279]}},{"properties":{"city":"Raliegh","geo_score":0.714,"id":"a6jhup4x3zjd","geo_precision":"city","state":"NC","active":0},"type":"Feature","geometry":{"type":"Point","coordinates":[-82.293464,36.034279]}},{"properties":{"city":"Rockingham","geo_score":0.0,"id":"a6jhup4k4h39","geo_precision":"unmatched","state":"NC","active":0},"type":"Feature","geometry":null},{"properties":{"city":"Salisbury","geo_score":0.714,"id":"a6jhuozladqu","geo_precision":"city","state":"NC","active":0},"type":"Feature","geometry":{"type":"Point","coordinates":[-80.45316,35.680441]}},{"properties":{"city":"Statesville","geo_score":0.714,"id":"a6jhup3vwxok","geo_precision":"city","state":"NC","active":0},"type":"Feature","geometry":{"type":"Point","coordinates":[-80.930908,35.785413]}},{"properties":{"city":"Statesville","geo_score":0.714,"id":"a6jhuou2fowp","geo_precision":"city","state":"NC","active":0},"type":"Feature","geometry":{"type":"Point","coordinates":[-80.930908,35.785413]}},{"properties":{"city":"Wilson","geo_score":0.714,"id":"a6jhup7uv1i7","geo_precision":"city","state":"NC","active":0},"type":"Feature","geometry":{"type":"Point","coordinates":[-77.925269,35.723264]}},{"properties":{"city":"Wilson","geo_score":0.714,"id":"a6jhuozrr7x8","geo_precision":"city","state":"NC","active":0},"type":"Feature","geometry":{"type":"Point","coordinates":[-77.925269,35.723264]}},{"properties":{"city":"Winston Salem","geo_score":0.714,"id":"a6jhup18r4p3","geo_precision":"city","state":"NC","active":0},"type":"Feature","geometry":{"type":"Point","coordinates":[-78.244459,35.563572]}},{"properties":{"city":"Winston Salem","geo_score":0.714,"id":"a6jhuoxfqkbf","geo_precision":"city","state":"NC","active":0},"type":"Feature","geometry":{"type":"Point","coordinates":[-78.244459,35.563572]}},{"properties":{"city":"Winston Salem","geo_score":0.714,"id":"a6jhuow9fz4k","geo_precision":"city","state":"NC","active":0},"type":"Feature","geometry":{"type":"Point","coordinates":[-78.244459,35.563572]}},{"properties":{"city":"Concord","geo_score":0.714,"id":"a6jhup7fiazy","geo_precision":"city","state":"NH","active":0},"type":"Feature","geometry":{"type":"Point","coordinates":[-71.536101,43.230314]}},{"properties":{"city":"Concord","geo_score":0.714,"id":"a6jhup4fpnse","geo_precision":"city","state":"NH","active":0},"type":"Feature","geometry":{"type":"Point","coordinates":[-71.536101,43.230314]}},{"properties":{"city":"Concord","geo_score":0.714,"id":"a6jhup1ttzii","geo_precision":"city","state":"NH","active":0},"type":"Feature","geometry":{"type":"Point","coordinates":[-71.536101,43.230314]}},{"properties":{"city":"Camden","geo_score":0.714,"id":"a6jhuoyl7np4","geo_precision":"city","state":"NJ","active":0},"type":"Feature","geometry":{"type":"Point","coordinates":[-74.938259,39.80237]}},{"properties":{"city":"Camden","geo_score":0.714,"id":"a6jhuox869b0","geo_precision":"city","state":"NJ","active":0},"type":"Feature","geometry":{"type":"Point","coordinates":[-74.938259,39.80237]}},{"properties":{"city":"Camden","geo_score":0.714,"id":"a6jhuovz3hhp","geo_precision":"city","state":"NJ","active":0},"type":"Feature","geometry":{"type":"Point","coordinates":[-74.938259,39.80237]}},{"properties":{"city":"Linwood","geo_score":0.714,"id":"a6jhuot539hj","geo_precision":"city","state":"NJ","active":0},"type":"Feature","geometry":{"type":"Point","coordinates":[-74.622112,39.427786]}},{"properties":{"city":"Newark","geo_score":0.714,"id":"a6jhup21rr03","geo_precision":"city","state":"NJ","active":0},"type":"Feature","geometry":{"type":"Point","coordinates":[-74.22509,40.736101]}},{"properties":{"city":"Newark","geo_score":0.714,"id":"a6jhup4kloip","geo_precision":"city","state":"NJ","active":0},"type":"Feature","geometry":{"type":"Point","coordinates":[-74.22509,40.736101]}},{"properties":{"city":"Newark","geo_score":0.714,"id":"a6jhup2vzk3a","geo_precision":"city","state":"NJ","active":1},"type":"Feature","geometry":{"type":"Point","coordinates":[-74.22509,40.736101]}},{"properties":{"city":"Newark","geo_score":0.714,"id":"a6jhup22by5r","geo_precision":"city","state":"NJ","active":1},"type":"Feature","geometry":{"type":"Point","coordinates":[-74.22509,40.736101]}},{"properties":{"city":"Paterson","geo_score":0.714,"id":"a6jhup4r41qz","geo_precision":"city","state":"NJ","active":0},"type":"Feature","geometry":{"type":"Point","coordinates":[-74.174488,40.915045]}},{"properties":{"city":"Tinton Falls","geo_score":0.714,"id":"a6jhup6craq5","geo_precision":"city","state":"NJ","active":0},"type":"Feature","geometry":{"type":"Point","coordinates":[-74.100419,40.304277]}},{"properties":{"city":"Trenton","geo_score":0.714,"id":"a6jhup187j74","geo_precision":"city","state":"NJ","active":0},"type":"Feature","geometry":{"type":"Point","coordinates":[-74.712018,40.280531]}},{"properties":{"city":"Trenton","geo_score":0.714,"id":"a6jhuotzpnl8","geo_precision":"city","state":"NJ","active":0},"type":"Feature","geometry":{"type":"Point","coordinates":[-74.712018,40.280531]}},{"properties":{"city":"Trenton","geo_score":0.714,"id":"a6jhup1e8lnw","geo_precision":"city","state":"NJ","active":0},"type":"Feature","geometry":{"type":"Point","coordinates":[-74.712018,40.280531]}},{"properties":{"city":"Albany","geo_score":0.714,"id":"a6jhup06a3iz","geo_precision":"city","state":"NY","active":0},"type":"Feature","geometry":{"type":"Point","coordinates":[-73.970812,42.614852]}},{"properties":{"city":"New York","geo_score":0.714,"id":"a6jhup4cq7tz","geo_precision":"city","state":"NY","active":1},"type":"Feature","geometry":{"type":"Point","coordinates":[-74.005973,40.714269]}},{"properties":{"city":"New York","geo_score":0.714,"id":"a6jhuowqh7m2","geo_precision":"city","state":"NY","active":0},"type":"Feature","geometry":{"type":"Point","coordinates":[-74.005973,40.714269]}},{"properties":{"city":"Poughkeepsie","geo_score":0.0,"id":"a6jhup37248k","geo_precision":"unmatched","state":"NY","active":1},"type":"Feature","geometry":null},{"properties":{"city":"Syracuse","geo_score":0.714,"id":"a6jhuoysfz8m","geo_precision":"city","state":"NY","active":0},"type":"Feature","geometry":{"type":"Point","coordinates":[-76.197701,43.02143]}},{"properties":{"city":"Cincinnati","geo_score":0.714,"id":"a6jhuoxyjcaf","geo_precision":"city","state":"OH","active":0},"type":"Feature","geometry":{"type":"Point","coordinates":[-84.53822,39.166759]}},{"properties":{"city":"Columbus","geo_score":0.714,"id":"a6jhuosn3gbh","geo_precision":"city","state":"OH","active":0},"type":"Feature","geometry":{"type":"Point","coordinates":[-84.15053,40.97793]}},{"properties":{"city":"Columbus","geo_score":0.714,"id":"a6jhuoy98gk7","geo_precision":"city","state":"OH","active":0},"type":"Feature","geometry":{"type":"Point","coordinates":[-84.15053,40.97793]}},{"properties":{"city":"Dayton","geo_score":0.714,"id":"a6jhup8grwkw","geo_precision":"city","state":"OH","active":0},"type":"Feature","geometry":{"type":"Point","coordinates":[-84.268593,39.750471]}},{"properties":{"city":"Medina","geo_score":0.714,"id":"a6jhuox723mj","geo_precision":"city","state":"OH","active":0},"type":"Feature","geometry":{"type":"Point","coordinates":[-81.855048,41.109975]}},{"properties":{"city":"Toledo","geo_score":0.714,"id":"a6jhup70sqwc","geo_precision":"city","state":"OH","active":0},"type":"Feature","geometry":{"type":"Point","coordinates":[-84.124257,41.58568]}},{"properties":{"city":"Mcalester","geo_score":0.714,"id":"a6jhuoxyejlf","geo_precision":"city","state":"OK","active":0},"type":"Feature","geometry":{"type":"Point","coordinates":[-95.685544,34.922756]}},{"properties":{"city":"Mcalester","geo_score":0.714,"id":"a6jhuotfmqrp","geo_precision":"city","state":"OK","active":0},"type":"Feature","geometry":{"type":"Point","coordinates":[-95.685544,34.922756]}},{"properties":{"city":"Muskogee","geo_score":0.714,"id":"a6jhuov0aur2","geo_precision":"city","state":"OK","active":0},"type":"Feature","geometry":{"type":"Point","coordinates":[-95.50025,35.70582]}},{"properties":{"city":"Muskogee","geo_score":0.714,"id":"a6jhuox67yxw","geo_precision":"city","state":"OK","active":0},"type":"Feature","geometry":{"type":"Point","coordinates":[-95.50025,35.70582]}},{"properties":{"city":"Okmulgee","geo_score":0.714,"id":"a6jhuot205c5","geo_precision":"city","state":"OK","active":0},"type":"Feature","geometry":{"type":"Point","coordinates":[-95.966857,35.612514]}},{"properties":{"city":"Tulsa","geo_score":0.714,"id":"a6jhuoy29r5v","geo_precision":"city","state":"OK","active":0},"type":"Feature","geometry":{"type":"Point","coordinates":[-95.868667,36.039147]}},{"properties":{"city":"Tulsa","geo_score":0.714,"id":"a6jhuozm4unu","geo_precision":"city","state":"OK","active":0},"type":"Feature","geometry":{"type":"Point","coordinates":[-95.868667,36.039147]}},{"properties":{"city":"Tulsa","geo_score":0.714,"id":"a6jhuoueefvx","geo_precision":"city","state":"OK","active":0},"type":"Feature","geometry":{"type":"Point","coordinates":[-95.868667,36.039147]}},{"properties":{"city":"Tulsa","geo_score":0.714,"id":"a6jhup1nd3lh","geo_precision":"city","state":"OK","active":0},"type":"Feature","geometry":{"type":"Point","coordinates":[-95.868667,36.039147]}},{"properties":{"city":"Tulsa","geo_score":0.714,"id":"a6jhup101k1u","geo_precision":"city","state":"OK","active":0},"type":"Feature","geometry":{"type":"Point","coordinates":[-95.868667,36.039147]}},{"properties":{"city":"Tulsa","geo_score":0.714,"id":"a6jhup72zsj6","geo_precision":"city","state":"OK","active":0},"type":"Feature","geometry":{"type":"Point","coordinates":[-95.868667,36.039147]}},{"properties":{"city":"Tulsa","geo_score":0.714,"id":"a6jhup6050w7","geo_precision":"city","state":"OK","active":0},"type":"Feature","geometry":{"type":"Point","coordinates":[-95.868667,36.039147]}},{"properties":{"city":"Bend","geo_score":0.714,"id":"a6jhup8oa12w","geo_precision":"city","state":"OR","active":0},"type":"Feature","geometry":{"type":"Point","coordinates":[-122.764819,45.416785]}},{"properties":{"city":"Medford","geo_score":0.714,"id":"a6jhup6bdrvk","geo_precision":"city","state":"OR","active":0},"type":"Feature","geometry":{"type":"Point","coordinates":[-122.72255,42.482623]}},{"properties":{"city":"Medford","geo_score":0.714,"id":"a6jhup1yst0d","geo_precision":"city","state":"OR","active":0},"type":"Feature","geometry":{"type":"Point","coordinates":[-122.72255,42.482623]}},{"properties":{"city":"Portland","geo_score":0.714,"id":"a6jhup3e5ui0","geo_precision":"city","state":"OR","active":0},"type":"Feature","geometry":{"type":"Point","coordinates":[-122.693157,45.498931]}},{"properties":{"city":"Portland","geo_score":0.714,"id":"a6jhuow97lo5","geo_precision":"city","state":"OR","active":0},"type":"Feature","geometry":{"type":"Point","coordinates":[-122.693157,45.498931]}},{"properties":{"city":"Salem","geo_score":0.714,"id":"a6jhup6lhtt8","geo_precision":"city","state":"OR","active":0},"type":"Feature","geometry":{"type":"Point","coordinates":[-122.921721,44.90472]}},{"properties":{"city":"Greenville","geo_score":0.714,"id":"a6jhuouff0pe","geo_precision":"city","state":"SC","active":1},"type":"Feature","geometry":{"type":"Point","coordinates":[-82.402871,34.848567]}},{"properties":{"city":"Aberdeen","geo_score":0.714,"id":"a6jhup0znnol","geo_precision":"city","state":"SD","active":0},"type":"Feature","geometry":{"type":"Point","coordinates":[-98.410405,45.476172]}},{"properties":{"city":"Aberdeen","geo_score":0.714,"id":"a6jhuozcg774","geo_precision":"city","state":"SD","active":0},"type":"Feature","geometry":{"type":"Point","coordinates":[-98.410405,45.476172]}},{"properties":{"city":"Kyle","geo_score":0.714,"id":"a6jhup33m6dg","geo_precision":"city","state":"SD","active":0},"type":"Feature","geometry":{"type":"Point","coordinates":[-102.5411,43.352617]}},{"properties":{"city":"Mission","geo_score":0.0,"id":"a6jhuoubkqb1","geo_precision":"unmatched","state":"SD","active":0},"type":"Feature","geometry":null},{"properties":{"city":"Pierre","geo_score":0.714,"id":"a6jhup6f4iib","geo_precision":"city","state":"SD","active":0},"type":"Feature","geometry":{"type":"Point","coordinates":[-100.094195,44.334073]}},{"properties":{"city":"Pierre","geo_score":0.714,"id":"a6jhuou63wzm","geo_precision":"city","state":"SD","active":0},"type":"Feature","geometry":{"type":"Point","coordinates":[-100.094195,44.334073]}},{"properties":{"city":"Pierre","geo_score":0.714,"id":"a6jhup7f48wd","geo_precision":"city","state":"SD","active":0},"type":"Feature","geometry":{"type":"Point","coordinates":[-100.094195,44.334073]}},{"properties":{"city":"Rapid City","geo_score":0.714,"id":"a6jhuoxlx3lq","geo_precision":"city","state":"SD","active":0},"type":"Feature","geometry":{"type":"Point","coordinates":[-103.240024,44.004363]}},{"properties":{"city":"Rapid City","geo_score":0.714,"id":"a6jhuowr0o9z","geo_precision":"city","state":"SD","active":0},"type":"Feature","geometry":{"type":"Point","coordinates":[-103.240024,44.004363]}},{"properties":{"city":"Sioux Falls","geo_score":0.714,"id":"a6jhup0o457g","geo_precision":"city","state":"SD","active":0},"type":"Feature","geometry":{"type":"Point","coordinates":[-97.597294,44.01053]}},{"properties":{"city":"Sioux Falls","geo_score":0.714,"id":"a6jhup0jffoa","geo_precision":"city","state":"SD","active":0},"type":"Feature","geometry":{"type":"Point","coordinates":[-97.597294,44.01053]}},{"properties":{"city":"Sioux Falls","geo_score":0.714,"id":"a6jhup4poxm0","geo_precision":"city","state":"SD","active":0},"type":"Feature","geometry":{"type":"Point","coordinates":[-97.597294,44.01053]}},{"properties":{"city":"Sioux Falls","geo_score":0.714,"id":"a6jhup3h7ja8","geo_precision":"city","state":"SD","active":0},"type":"Feature","geometry":{"type":"Point","coordinates":[-97.597294,44.01053]}},{"properties":{"city":"Sioux Falls","geo_score":0.714,"id":"a6jhuowdf1td","geo_precision":"city","state":"SD","active":0},"type":"Feature","geometry":{"type":"Point","coordinates":[-97.597294,44.01053]}},{"properties":{"city":"Timber Lake","geo_score":0.714,"id":"a6jhup2dt8cn","geo_precision":"city","state":"SD","active":0},"type":"Feature","geometry":{"type":"Point","coordinates":[-101.07469,45.427032]}},{"properties":{"city":"Abilene","geo_score":0.714,"id":"a6jhuouz2f32","geo_precision":"city","state":"TX","active":0},"type":"Feature","geometry":{"type":"Point","coordinates":[-99.80213,32.344457]}},{"properties":{"city":"Amarillo","geo_score":0.714,"id":"a6jhuotyu8ca","geo_precision":"city","state":"TX","active":0},"type":"Feature","geometry":{"type":"Point","coordinates":[-101.831297,35.221997]}},{"properties":{"city":"Amarillo","geo_score":0.714,"id":"a6jhup299ov6","geo_precision":"city","state":"TX","active":0},"type":"Feature","geometry":{"type":"Point","coordinates":[-101.831297,35.221997]}},{"properties":{"city":"Amarillo","geo_score":0.714,"id":"a6jhup0f4zcd","geo_precision":"city","state":"TX","active":0},"type":"Feature","geometry":{"type":"Point","coordinates":[-101.831297,35.221997]}},{"properties":{"city":"Arlington","geo_score":0.714,"id":"a6jhuov1ebu6","geo_precision":"city","state":"TX","active":0},"type":"Feature","geometry":{"type":"Point","coordinates":[-97.291484,32.771419]}},{"properties":{"city":"Beaumont","geo_score":0.714,"id":"a6jhuov26y00","geo_precision":"city","state":"TX","active":0},"type":"Feature","geometry":{"type":"Point","coordinates":[-94.109705,30.073712]}},{"properties":{"city":"Benbrook","geo_score":0.714,"id":"a6jhuovo8ff6","geo_precision":"city","state":"TX","active":0},"type":"Feature","geometry":{"type":"Point","coordinates":[-97.460576,32.673188]}},{"properties":{"city":"Dallas","geo_score":0.714,"id":"a6jhup3xhaeu","geo_precision":"city","state":"TX","active":0},"type":"Feature","geometry":{"type":"Point","coordinates":[-96.240533,32.370699]}},{"properties":{"city":"Dallas","geo_score":0.714,"id":"a6jhuovk9s8x","geo_precision":"city","state":"TX","active":0},"type":"Feature","geometry":{"type":"Point","coordinates":[-96.240533,32.370699]}},{"properties":{"city":"Dallas","geo_score":0.714,"id":"a6jhuov8cwsa","geo_precision":"city","state":"TX","active":0},"type":"Feature","geometry":{"type":"Point","coordinates":[-96.240533,32.370699]}},{"properties":{"city":"Dallas","geo_score":0.714,"id":"a6jhup2jd8v2","geo_precision":"city","state":"TX","active":0},"type":"Feature","geometry":{"type":"Point","coordinates":[-96.240533,32.370699]}},{"properties":{"city":"Dallas","geo_score":0.714,"id":"a6jhup2ud0hb","geo_precision":"city","state":"TX","active":0},"type":"Feature","geometry":{"type":"Point","coordinates":[-96.240533,32.370699]}},{"properties":{"city":"Dallas","geo_score":0.714,"id":"a6jhup4egg3x","geo_precision":"city","state":"TX","active":0},"type":"Feature","geometry":{"type":"Point","coordinates":[-96.240533,32.370699]}},{"properties":{"city":"El Paso","geo_score":0.714,"id":"a6jhup49fgs0","geo_precision":"city","state":"TX","active":0},"type":"Feature","geometry":{"type":"Point","coordinates":[-99.561747,32.342351]}},{"properties":{"city":"Fort Worth","geo_score":0.714,"id":"a6jhuoxpyezi","geo_precision":"city","state":"TX","active":0},"type":"Feature","geometry":{"type":"Point","coordinates":[-98.399458,29.049969]}},{"properties":{"city":"Fort Worth","geo_score":0.714,"id":"a6jhuox39s2f","geo_precision":"city","state":"TX","active":0},"type":"Feature","geometry":{"type":"Point","coordinates":[-98.399458,29.049969]}},{"properties":{"city":"Fort Worth","geo_score":0.714,"id":"a6jhuotsvtcx","geo_precision":"city","state":"TX","active":0},"type":"Feature","geometry":{"type":"Point","coordinates":[-98.399458,29.049969]}},{"properties":{"city":"Lubbock","geo_score":0.0,"id":"a6jhuox9mwwi","geo_precision":"unmatched","state":"TX","active":0},"type":"Feature","geometry":null},{"properties":{"city":"Lubbock","geo_score":0.0,"id":"a6jhup0lxsoe","geo_precision":"unmatched","state":"TX","active":0},"type":"Feature","geometry":null},{"properties":{"city":"Lubbock","geo_score":0.0,"id":"a6jhuot8ssey","geo_precision":"unmatched","state":"TX","active":0},"type":"Feature","geometry":null},{"properties":{"city":"Plano","geo_score":0.714,"id":"a6jhuoveol8g","geo_precision":"city","state":"TX","active":0},"type":"Feature","geometry":{"type":"Point","coordinates":[-96.053859,32.337922]}},{"properties":{"city":"Plano","geo_score":0.714,"id":"a6jhuox4c03u","geo_precision":"city","state":"TX","active":0},"type":"Feature","geometry":{"type":"Point","coordinates":[-96.053859,32.337922]}},{"properties":{"city":"San Angelo","geo_score":0.714,"id":"a6jhup2aeqks","geo_precision":"city","state":"TX","active":0},"type":"Feature","geometry":{"type":"Point","coordinates":[-94.686315,30.577149]}},{"properties":{"city":"San Angelo","geo_score":0.714,"id":"a6jhup5yrgk0","geo_precision":"city","state":"TX","active":0},"type":"Feature","geometry":{"type":"Point","coordinates":[-94.686315,30.577149]}},{"properties":{"city":"San Antonio","geo_score":0.714,"id":"a6jhuovk9adi","geo_precision":"city","state":"TX","active":1},"type":"Feature","geometry":{"type":"Point","coordinates":[-102.192713,33.770506]}},{"properties":{"city":"San Antonio","geo_score":0.714,"id":"a6jhuov1glz5","geo_precision":"city","state":"TX","active":1},"type":"Feature","geometry":{"type":"Point","coordinates":[-102.192713,33.770506]}},{"properties":{"city":"San Antonio","geo_score":0.714,"id":"a6jhuozomc75","geo_precision":"city","state":"TX","active":1},"type":"Feature","geometry":{"type":"Point","coordinates":[-102.192713,33.770506]}},{"properties":{"city":"Tyler","geo_score":0.714,"id":"a6jhuoyezvgm","geo_precision":"city","state":"TX","active":0},"type":"Feature","geometry":{"type":"Point","coordinates":[-97.933708,32.400038]}},{"properties":{"city":"Wichita Falls","geo_score":0.714,"id":"a6jhup27fqw9","geo_precision":"city","state":"TX","active":0},"type":"Feature","geometry":{"type":"Point","coordinates":[-97.30361,30.841022]}},{"properties":{"city":"Wichita Falls","geo_score":0.714,"id":"a6jhuozcrle6","geo_precision":"city","state":"TX","active":0},"type":"Feature","geometry":{"type":"Point","coordinates":[-97.30361,30.841022]}},{"properties":{"city":"Ogden","geo_score":0.714,"id":"a6jhuoyir6mt","geo_precision":"city","state":"UT","active":0},"type":"Feature","geometry":{"type":"Point","coordinates":[-112.007924,41.244261]}},{"properties":{"city":"Ogden","geo_score":0.714,"id":"a6jhuouf1fzk","geo_precision":"city","state":"UT","active":1},"type":"Feature","geometry":{"type":"Point","coordinates":[-112.007924,41.244261]}},{"properties":{"city":"Salt Lake City","geo_score":0.714,"id":"a6jhuovmo6u7","geo_precision":"city","state":"UT","active":0},"type":"Feature","geometry":{"type":"Point","coordinates":[-111.900719,40.756095]}},{"properties":{"city":"St George","geo_score":0.0,"id":"a6jhuox2s9jy","geo_precision":"unmatched","state":"UT","active":0},"type":"Feature","geometry":null},{"properties":{"city":"Vernal","geo_score":0.714,"id":"a6jhup4xgc7g","geo_precision":"city","state":"UT","active":0},"type":"Feature","geometry":{"type":"Point","coordinates":[-109.556103,40.368246]}},{"properties":{"city":"Brattleboro","geo_score":0.714,"id":"a6jhuoz88fls","geo_precision":"city","state":"VT","active":1},"type":"Feature","geometry":{"type":"Point","coordinates":[-72.760753,42.884281]}},{"properties":{"city":"Bratttleboro","geo_score":0.714,"id":"a6jhup8hrwmw","geo_precision":"city","state":"VT","active":1},"type":"Feature","geometry":{"type":"Point","coordinates":[-72.760753,42.884281]}},{"properties":{"city":"Burlington","geo_score":0.714,"id":"a6jhuotm74ou","geo_precision":"city","state":"VT","active":1},"type":"Feature","geometry":{"type":"Point","coordinates":[-73.151384,44.507404]}},{"properties":{"city":"Burlington","geo_score":0.714,"id":"a6jhuovv9k5k","geo_precision":"city","state":"VT","active":1},"type":"Feature","geometry":{"type":"Point","coordinates":[-73.151384,44.507404]}},{"properties":{"city":"Rutland","geo_score":0.714,"id":"a6jhup7czr39","geo_precision":"city","state":"VT","active":1},"type":"Feature","geometry":{"type":"Point","coordinates":[-72.93586,43.630346]}},{"properties":{"city":"Rutland","geo_score":0.714,"id":"a6jhuow4la47","geo_precision":"city","state":"VT","active":1},"type":"Feature","geometry":{"type":"Point","coordinates":[-72.93586,43.630346]}},{"properties":{"city":"Rutland","geo_score":0.714,"id":"a6jhup0xorvx","geo_precision":"city","state":"VT","active":1},"type":"Feature","geometry":{"type":"Point","coordinates":[-72.93586,43.630346]}},{"properties":{"city":"Spokane","geo_score":0.714,"id":"a6jhuoxa9y1z","geo_precision":"city","state":"WA","active":0},"type":"Feature","geometry":{"type":"Point","coordinates":[-117.435997,47.66264]}},{"properties":{"city":"Spokane","geo_score":0.714,"id":"a6jhup48v3e5","geo_precision":"city","state":"WA","active":0},"type":"Feature","geometry":{"type":"Point","coordinates":[-117.435997,47.66264]}},{"properties":{"city":"Spokane","geo_score":0.714,"id":"a6jhup3njom0","geo_precision":"city","state":"WA","active":0},"type":"Feature","geometry":{"type":"Point","coordinates":[-117.435997,47.66264]}},{"properties":{"city":"Spokane","geo_score":0.714,"id":"a6jhup57wpnb","geo_precision":"city","state":"WA","active":0},"type":"Feature","geometry":{"type":"Point","coordinates":[-117.435997,47.66264]}},{"properties":{"city":"Yakima","geo_score":0.714,"id":"a6jhup63eatd","geo_precision":"city","state":"WA","active":0},"type":"Feature","geometry":{"type":"Point","coordinates":[-120.725557,46.644476]}},{"properties":{"city":"Yakima","geo_score":0.714,"id":"a6jhup365e6m","geo_precision":"city","state":"WA","active":0},"type":"Feature","geometry":{"type":"Point","coordinates":[-120.725557,46.644476]}},{"properties":{"city":"Green Bay","geo_score":0.714,"id":"a6jhup5t78v8","geo_precision":"city","state":"WI","active":1},"type":"Feature","geometry":{"type":"Point","coordinates":[-87.745645,44.356106]}},{"properties":{"city":"Green Bay","geo_score":0.714,"id":"a6jhuou0s89t","geo_precision":"city","state":"WI","active":1},"type":"Feature","geometry":{"type":"Point","coordinates":[-87.745645,44.356106]}},{"properties":{"city":"Milwaukee","geo_score":0.714,"id":"a6jhuowg99ku","geo_precision":"city","state":"WI","active":1},"type":"Feature","geometry":{"type":"Point","coordinates":[-87.958409,43.011264]}},{"properties":{"city":"Milwaukee","geo_score":0.714,"id":"a6jhup1iwnuc","geo_precision":"city","state":"WI","active":1},"type":"Feature","geometry":{"type":"Point","coordinates":[-87.958409,43.011264]}},{"properties":{"city":"Milwaukee","geo_score":0.714,"id":"a6jhuoxjoec3","geo_precision":"city","state":"WI","active":1},"type":"Feature","geometry":{"type":"Point","coordinates":[-87.958409,43.011264]}},{"properties":{"city":"Milwaukee","geo_score":0.714,"id":"a6jhup01snuq","geo_precision":"city","state":"WI","active":1},"type":"Feature","geometry":{"type":"Point","coordinates":[-87.958409,43.011264]}},{"properties":{"city":"Beckley","geo_score":0.0,"id":"a6jhup6rg1w8","geo_precision":"unmatched","state":"WV","active":1},"type":"Feature","geometry":null},{"properties":{"city":"Beckley","geo_score":0.0,"id":"a6jhup4kqm5k","geo_precision":"unmatched","state":"WV","active":1},"type":"Feature","geometry":null},{"properties":{"city":"Beckley","geo_score":0.0,"id":"a6jhuovlcmt9","geo_precision":"unmatched","state":"WV","active":1},"type":"Feature","geometry":null},{"properties":{"city":"Bluefield","geo_score":0.714,"id":"a6jhup8fszjr","geo_precision":"city","state":"WV","active":1},"type":"Feature","geometry":{"type":"Point","coordinates":[-81.160066,37.332725]}},{"properties":{"city":"Bluefield","geo_score":0.714,"id":"a6jhuot8kduu","geo_precision":"city","state":"WV","active":1},"type":"Feature","geometry":{"type":"Point","coordinates":[-81.160066,37.332725]}},{"properties":{"city":"Charleston","geo_score":0.714,"id":"a6jhup3m9aw2","geo_precision":"city","state":"WV","active":0},"type":"Feature","geometry":{"type":"Point","coordinates":[-77.860278,39.313538]}},{"properties":{"city":"Charleston","geo_score":0.714,"id":"a6jhup5ld43f","geo_precision":"city","state":"WV","active":0},"type":"Feature","geometry":{"type":"Point","coordinates":[-77.860278,39.313538]}},{"properties":{"city":"Charleston","geo_score":0.714,"id":"a6jhup7jxqrc","geo_precision":"city","state":"WV","active":0},"type":"Feature","geometry":{"type":"Point","coordinates":[-77.860278,39.313538]}},{"properties":{"city":"Charleston","geo_score":0.714,"id":"a6jhup8m8o94","geo_precision":"city","state":"WV","active":0},"type":"Feature","geometry":{"type":"Point","coordinates":[-77.860278,39.313538]}},{"properties":{"city":"Clarksburg","geo_score":0.714,"id":"a6jhup33xp5x","geo_precision":"city","state":"WV","active":1},"type":"Feature","geometry":{"type":"Point","coordinates":[-80.341883,39.287434]}},{"properties":{"city":"Clarksburg","geo_score":0.714,"id":"a6jhuoze682r","geo_precision":"city","state":"WV","active":1},"type":"Feature","geometry":{"type":"Point","coordinates":[-80.341883,39.287434]}},{"properties":{"city":"Clarksburg","geo_score":0.714,"id":"a6jhuoyn724l","geo_precision":"city","state":"WV","active":1},"type":"Feature","geometry":{"type":"Point","coordinates":[-80.341883,39.287434]}},{"properties":{"city":"Elkins","geo_score":0.714,"id":"a6jhup0bac51","geo_precision":"city","state":"WV","active":1},"type":"Feature","geometry":{"type":"Point","coordinates":[-79.892841,38.846815]}},{"properties":{"city":"Elkins","geo_score":0.714,"id":"a6jhuowi14mu","geo_precision":"city","state":"WV","active":1},"type":"Feature","geometry":{"type":"Point","coordinates":[-79.892841,38.846815]}},{"properties":{"city":"Huntington","geo_score":0.714,"id":"a6jhuowyern0","geo_precision":"city","state":"WV","active":1},"type":"Feature","geometry":{"type":"Point","coordinates":[-82.412866,38.371727]}},{"properties":{"city":"Huntington","geo_score":0.714,"id":"a6jhup2ap4ia","geo_precision":"city","state":"WV","active":1},"type":"Feature","geometry":{"type":"Point","coordinates":[-82.412866,38.371727]}},{"properties":{"city":"Huntington","geo_score":0.714,"id":"a6jhup21m14g","geo_precision":"city","state":"WV","active":1},"type":"Feature","geometry":{"type":"Point","coordinates":[-82.412866,38.371727]}},{"properties":{"city":"Martinsburg","geo_score":0.714,"id":"a6jhup26s9tg","geo_precision":"city","state":"WV","active":1},"type":"Feature","geometry":{"type":"Point","coordinates":[-77.951924,39.444061]}},{"properties":{"city":"Martinsburg","geo_score":0.714,"id":"a6jhuoymu5aj","geo_precision":"city","state":"WV","active":1},"type":"Feature","geometry":{"type":"Point","coordinates":[-77.951924,39.444061]}},{"properties":{"city":"Parkersburg","geo_score":0.714,"id":"a6jhup3q87fg","geo_precision":"city","state":"WV","active":0},"type":"Feature","geometry":{"type":"Point","coordinates":[-81.55477,39.286315]}},{"properties":{"city":"Parkersburg","geo_score":0.714,"id":"a6jhuoszx209","geo_precision":"city","state":"WV","active":0},"type":"Feature","geometry":{"type":"Point","coordinates":[-81.55477,39.286315]}},{"properties":{"city":"Wheeling","geo_score":0.714,"id":"a6jhuossjdju","geo_precision":"city","state":"WV","active":1},"type":"Feature","geometry":{"type":"Point","coordinates":[-80.647599,40.102703]}},{"properties":{"city":"Wheeling","geo_score":0.714,"id":"a6jhuouni2gl","geo_precision":"city","state":"WV","active":1},"type":"Feature","geometry":{"type":"Point","coordinates":[-80.647599,40.102703]}},{"properties":{"city":"Wheeling","geo_score":0.714,"id":"a6jhup80ua9p","geo_precision":"city","state":"WV","active":1},"type":"Feature","geometry":{"type":"Point","coordinates":[-80.647599,40.102703]}},{"properties":{"city":"Casper","geo_score":0.714,"id":"a6jhup6xizhp","geo_precision":"city","state":"WY","active":0},"type":"Feature","geometry":{"type":"Point","coordinates":[-106.312561,42.859875]}},{"properties":{"city":"Casper","geo_score":0.714,"id":"a6jhuoyn9gpp","geo_precision":"city","state":"WY","active":0},"type":"Feature","geometry":{"type":"Point","coordinates":[-106.312561,42.859875]}},{"properties":{"city":"Casper","geo_score":0.714,"id":"a6jhup0ek6oq","geo_precision":"city","state":"WY","active":0},"type":"Feature","geometry":{"type":"Point","coordinates":[-106.312561,42.859875]}},{"properties":{"city":"Casper","geo_score":0.714,"id":"a6jhuoye2o8f","geo_precision":"city","state":"WY","active":0},"type":"Feature","geometry":{"type":"Point","coordinates":[-106.312561,42.859875]}},{"properties":{"city":"Cheyenne","geo_score":0.714,"id":"a6jhup1of1yy","geo_precision":"city","state":"WY","active":0},"type":"Feature","geometry":{"type":"Point","coordinates":[-104.56264,41.25173]}},{"properties":{"city":"Cheyenne","geo_score":0.714,"id":"a6jhuoz4h8go","geo_precision":"city","state":"WY","active":0},"type":"Feature","geometry":{"type":"Point","coordinates":[-104.56264,41.25173]}},{"properties":{"city":"Cheyenne","geo_score":0.714,"id":"a6jhup1ehgkq","geo_precision":"city","state":"WY","active":0},"type":"Feature","geometry":{"type":"Point","coordinates":[-104.56264,41.25173]}},{"properties":{"city":"Cheyenne","geo_score":0.714,"id":"a6jhup3esgw7","geo_precision":"city","state":"WY","active":0},"type":"Feature","geometry":{"type":"Point","coordinates":[-104.56264,41.25173]}},{"properties":{"city":"Cheyenne","geo_score":0.714,"id":"a6jhuovi5yyz","geo_precision":"city","state":"WY","active":0},"type":"Feature","geometry":{"type":"Point","coordinates":[-104.56264,41.25173]}},{"properties":{"city":"Lander","geo_score":0.714,"id":"a6jhuox1j4hq","geo_precision":"city","state":"WY","active":0},"type":"Feature","geometry":{"type":"Point","coordinates":[-108.591264,42.920832]}},{"properties":{"city":"Lander","geo_score":0.714,"id":"a6jhuov1l219","geo_precision":"city","state":"WY","active":0},"type":"Feature","geometry":{"type":"Point","coordinates":[-108.591264,42.920832]}}],"is_temporal":false,"author":{"url":"","metadata":"","contact_name":"","contact_address":"","source":"","contact_phone":""},"source":"","pagination":{"sort":null,"start":0,"total":434,"limit":1000000},"state":"complete","tags":"","published":"2014-08-14T19:20:21-04:00","id":253401}