{"type":"FeatureCollection","data_type":"Dataset","url_type":null,"permissions":[{"permissions":{"download":true,"view":true},"group_id":"everyone"}],"classification":null,"title":"Margin Geocommons2.0","count":306,"stream_id":253608,"contributor":{"url":"http://geocommons.com/users/19917","name":"diethrick@gmail.com"},"data_attributes":null,"calculation_params":null,"icon_link":null,"link":"http://geocommons.com/overlays/253608.json","extent":[-82.4838,35.4916,-75.341,42.0809],"geometry_types":["point"],"unique_name":null,"name":"Margin Geocommons2.0","feature_count":306,"description":"","next_feature":null,"is_raster":false,"short_classification":"Y","stats":{"margin":{"max":30,"variance":71.5577520625736,"mean":14.7091503267974,"stdev":8.45918152438955,"min":0,"median":14}},"features":[{"properties":{"city":"AKRON","margin":17,"geo_score":0.857,"zip code":"44319-1117","id":"a6k5b1wc4e1h","geo_precision":"zip","state":"OH"},"type":"Feature","geometry":{"type":"Point","coordinates":[-81.492894,40.975056]}},{"properties":{"city":"ALLIANCE","margin":6,"geo_score":0.857,"zip code":"44601-4717","id":"a6k5b1n45j4s","geo_precision":"zip","state":"OH"},"type":"Feature","geometry":{"type":"Point","coordinates":[-81.105931,40.901447]}},{"properties":{"city":"ALTOONA","margin":6,"geo_score":0.857,"zip code":"16602-1111","id":"a6k5b1lgdnxd","geo_precision":"zip","state":"PA"},"type":"Feature","geometry":{"type":"Point","coordinates":[-78.392513,40.465905]}},{"properties":{"city":"ARCHDALE","margin":21,"geo_score":0.857,"zip code":"27263","id":"a6k5b1rkx983","geo_precision":"zip","state":"NC"},"type":"Feature","geometry":{"type":"Point","coordinates":[-79.971983,35.914581]}},{"properties":{"city":"ASHEBORO","margin":14,"geo_score":0.857,"zip code":"27203","id":"a6k5b1lk796d","geo_precision":"zip","state":"NC"},"type":"Feature","geometry":{"type":"Point","coordinates":[-79.976987,35.65347]}},{"properties":{"city":"ASHLAND","margin":3,"geo_score":0.857,"zip code":"23005-7941","id":"a6k5b1iayfas","geo_precision":"zip","state":"VA"},"type":"Feature","geometry":{"type":"Point","coordinates":[-77.480128,37.754912]}},{"properties":{"city":"ASHTABULA","margin":6,"geo_score":0.857,"zip code":"44004-5305","id":"a6k5b1sjn2x2","geo_precision":"zip","state":"OH"},"type":"Feature","geometry":{"type":"Point","coordinates":[-80.74349,41.772583]}},{"properties":{"city":"AUSTINTOWN","margin":6,"geo_score":0.857,"zip code":"44515-2420","id":"a6k5b1jbytw8","geo_precision":"zip","state":"OH"},"type":"Feature","geometry":{"type":"Point","coordinates":[-80.793137,41.09978]}},{"properties":{"city":"BADEN","margin":16,"geo_score":0.857,"zip code":"15005-1931","id":"a6k5b1mfa103","geo_precision":"zip","state":"PA"},"type":"Feature","geometry":{"type":"Point","coordinates":[-80.188949,40.647289]}},{"properties":{"city":"BARBOURSVILLE","margin":5,"geo_score":0.857,"zip code":"25504-1821","id":"a6k5b1ruq6yg","geo_precision":"zip","state":"WV"},"type":"Feature","geometry":{"type":"Point","coordinates":[-82.334594,38.380085]}},{"properties":{"city":"BEALETON","margin":6,"geo_score":0.857,"zip code":"22712-6931","id":"a6k5b1uvpa3n","geo_precision":"zip","state":"VA"},"type":"Feature","geometry":{"type":"Point","coordinates":[-77.699991,38.501792]}},{"properties":{"city":"BEAVER","margin":21,"geo_score":0.857,"zip code":"25813","id":"a6k5b1iep2dg","geo_precision":"zip","state":"WV"},"type":"Feature","geometry":{"type":"Point","coordinates":[-81.1973,37.753437]}},{"properties":{"city":"BEAVER FALLS","margin":4,"geo_score":0.857,"zip code":"15010-3414","id":"a6k5b1j4tc42","geo_precision":"zip","state":"PA"},"type":"Feature","geometry":{"type":"Point","coordinates":[-80.325619,40.760621]}},{"properties":{"city":"BECKLEY","margin":13,"geo_score":0.857,"zip code":"25801","id":"a6k5b1kar4g3","geo_precision":"zip","state":"WV"},"type":"Feature","geometry":{"type":"Point","coordinates":[-81.172044,37.769282]}},{"properties":{"city":"BEDFORD","margin":3,"geo_score":0.857,"zip code":"15522-3703","id":"a6k5b1qsf4dj","geo_precision":"zip","state":"PA"},"type":"Feature","geometry":{"type":"Point","coordinates":[-78.52974,40.046469]}},{"properties":{"city":"BELINGTON","margin":6,"geo_score":0.857,"zip code":"26250-9538","id":"a6k5b1w0qp9e","geo_precision":"zip","state":"WV"},"type":"Feature","geometry":{"type":"Point","coordinates":[-79.936185,38.995381]}},{"properties":{"city":"BELLE VERNON","margin":27,"geo_score":0.857,"zip code":"15012","id":"a6k5b1ibduec","geo_precision":"zip","state":"PA"},"type":"Feature","geometry":{"type":"Point","coordinates":[-79.881992,40.133683]}},{"properties":{"city":"BELLEFONTE","margin":7,"geo_score":0.857,"zip code":"16823-4734","id":"a6k5b1qrjs7a","geo_precision":"zip","state":"PA"},"type":"Feature","geometry":{"type":"Point","coordinates":[-77.758057,40.917839]}},{"properties":{"city":"BENSON","margin":15,"geo_score":0.857,"zip code":"27504","id":"a6k5b1vt4jig","geo_precision":"zip","state":"NC"},"type":"Feature","geometry":{"type":"Point","coordinates":[-78.543619,35.514327]}},{"properties":{"city":"BERKELEY SPRINGS","margin":13,"geo_score":0.857,"zip code":"25411-1418","id":"a6k5b1l292g5","geo_precision":"zip","state":"WV"},"type":"Feature","geometry":{"type":"Point","coordinates":[-78.082503,39.667038]}},{"properties":{"city":"BERWICK","margin":18,"geo_score":0.857,"zip code":"18603","id":"a6k5b1plrrno","geo_precision":"zip","state":"PA"},"type":"Feature","geometry":{"type":"Point","coordinates":[-76.26688,41.068696]}},{"properties":{"city":"BETHLEHEM","margin":23,"geo_score":0.857,"zip code":"18017-2103","id":"a6k5b1xkw9bm","geo_precision":"zip","state":"PA"},"type":"Feature","geometry":{"type":"Point","coordinates":[-75.341013,40.680653]}},{"properties":{"city":"BIRDSBORO","margin":16,"geo_score":0.857,"zip code":"19508-1017","id":"a6k5b1lincsd","geo_precision":"zip","state":"PA"},"type":"Feature","geometry":{"type":"Point","coordinates":[-75.87187,40.284259]}},{"properties":{"city":"BLAIRSVILLE","margin":4,"geo_score":0.857,"zip code":"157171323","id":"a6k5b1isf425","geo_precision":"zip","state":"PA"},"type":"Feature","geometry":{"type":"Point","coordinates":[-79.094476,40.472014]}},{"properties":{"city":"BLOOMSBURG","margin":23,"geo_score":0.857,"zip code":"17815-8848","id":"a6k5b1j6m13y","geo_precision":"zip","state":"PA"},"type":"Feature","geometry":{"type":"Point","coordinates":[-76.474114,40.979254]}},{"properties":{"city":"BOONSBORO","margin":10,"geo_score":0.857,"zip code":"21713-1624","id":"a6k5b1lxray5","geo_precision":"zip","state":"MD"},"type":"Feature","geometry":{"type":"Point","coordinates":[-77.623879,39.485378]}},{"properties":{"city":"BOYCE","margin":6,"geo_score":0.857,"zip code":"22620-2030","id":"a6k5b1rpc9nd","geo_precision":"zip","state":"VA"},"type":"Feature","geometry":{"type":"Point","coordinates":[-78.060132,39.048614]}},{"properties":{"city":"BREEZEWOOD","margin":27,"geo_score":0.857,"zip code":"155330282","id":"a6k5b1tslzjd","geo_precision":"zip","state":"PA"},"type":"Feature","geometry":{"type":"Point","coordinates":[-78.241678,39.953418]}},{"properties":{"city":"BRIDGEPORT","margin":20,"geo_score":0.857,"zip code":"26330-1354","id":"a6k5b1invpva","geo_precision":"zip","state":"WV"},"type":"Feature","geometry":{"type":"Point","coordinates":[-80.215641,39.275369]}},{"properties":{"city":"BROCKWAY","margin":0,"geo_score":0.857,"zip code":"158241638","id":"a6k5b1oapg2t","geo_precision":"zip","state":"PA"},"type":"Feature","geometry":{"type":"Point","coordinates":[-78.820586,41.210062]}},{"properties":{"city":"BROOKVILLE","margin":8,"geo_score":0.857,"zip code":"158251552","id":"a6k5b1xbryaj","geo_precision":"zip","state":"PA"},"type":"Feature","geometry":{"type":"Point","coordinates":[-79.14615,41.177842]}},{"properties":{"city":"BUCKHANNON","margin":11,"geo_score":0.857,"zip code":"26201-8400","id":"a6k5b1ojrjiu","geo_precision":"zip","state":"WV"},"type":"Feature","geometry":{"type":"Point","coordinates":[-80.127579,38.895936]}},{"properties":{"city":"BURLINGTON","margin":3,"geo_score":0.857,"zip code":"27215-6256","id":"a6k5b1vye76i","geo_precision":"zip","state":"NC"},"type":"Feature","geometry":{"type":"Point","coordinates":[-79.430129,36.091025]}},{"properties":{"city":"BUTLER","margin":25,"geo_score":0.857,"zip code":"16001-3508","id":"a6k5b1swbl31","geo_precision":"zip","state":"PA"},"type":"Feature","geometry":{"type":"Point","coordinates":[-79.906999,40.904231]}},{"properties":{"city":"CALIFORNIA","margin":12,"geo_score":0.857,"zip code":"20619-3073","id":"a6k5b1s7dqkw","geo_precision":"zip","state":"MD"},"type":"Feature","geometry":{"type":"Point","coordinates":[-76.637383,38.324994]}},{"properties":{"city":"CAMBRIDGE","margin":23,"geo_score":0.857,"zip code":"43725-3080","id":"a6k5b1w2fxfa","geo_precision":"zip","state":"OH"},"type":"Feature","geometry":{"type":"Point","coordinates":[-81.645679,40.094516]}},{"properties":{"city":"CANFIELD","margin":1,"geo_score":0.857,"zip code":"44406-8130","id":"a6k5b1ih4nxs","geo_precision":"zip","state":"OH"},"type":"Feature","geometry":{"type":"Point","coordinates":[-80.838417,41.048947]}},{"properties":{"city":"CANONSBURG","margin":12,"geo_score":0.857,"zip code":"15317-2254","id":"a6k5b1izdap8","geo_precision":"zip","state":"PA"},"type":"Feature","geometry":{"type":"Point","coordinates":[-80.12842,40.155704]}},{"properties":{"city":"CANTON","margin":26,"geo_score":0.857,"zip code":"44708-5013","id":"a6k5b1qilc2o","geo_precision":"zip","state":"OH"},"type":"Feature","geometry":{"type":"Point","coordinates":[-81.414282,40.826447]}},{"properties":{"city":"CARLISLE","margin":15,"geo_score":0.857,"zip code":"170131615","id":"a6k5b1nfv7cy","geo_precision":"zip","state":"PA"},"type":"Feature","geometry":{"type":"Point","coordinates":[-77.164425,40.27092]}},{"properties":{"city":"CARMICHAELS","margin":21,"geo_score":0.857,"zip code":"153209501","id":"a6k5b1ihus8p","geo_precision":"zip","state":"PA"},"type":"Feature","geometry":{"type":"Point","coordinates":[-79.980612,39.862021]}},{"properties":{"city":"CARROLLTOWN","margin":2,"geo_score":0.857,"zip code":"15722-7206","id":"a6k5b1trs7bl","geo_precision":"zip","state":"PA"},"type":"Feature","geometry":{"type":"Point","coordinates":[-78.728455,40.583025]}},{"properties":{"city":"CHAMBERSBURG","margin":22,"geo_score":0.857,"zip code":"172012101","id":"a6k5b1v5y9aq","geo_precision":"zip","state":"PA"},"type":"Feature","geometry":{"type":"Point","coordinates":[-77.630546,39.927869]}},{"properties":{"city":"CHANTILLY","margin":12,"geo_score":0.857,"zip code":"20151-1940","id":"a6k5b1tri6b6","geo_precision":"zip","state":"VA"},"type":"Feature","geometry":{"type":"Point","coordinates":[-77.44566,38.88668]}},{"properties":{"city":"CHARDON","margin":19,"geo_score":0.857,"zip code":"44024","id":"a6k5b1q4n7nq","geo_precision":"zip","state":"OH"},"type":"Feature","geometry":{"type":"Point","coordinates":[-81.145655,41.604218]}},{"properties":{"city":"CHARLES TOWN","margin":7,"geo_score":0.857,"zip code":"25414-4476","id":"a6k5b1wwcdkw","geo_precision":"zip","state":"WV"},"type":"Feature","geometry":{"type":"Point","coordinates":[-77.860278,39.313538]}},{"properties":{"city":"CHESTER","margin":1,"geo_score":0.857,"zip code":"23836-2613","id":"a6k5b1srzt88","geo_precision":"zip","state":"VA"},"type":"Feature","geometry":{"type":"Point","coordinates":[-77.338551,37.347458]}},{"properties":{"city":"CHRISTIANSBURG","margin":28,"geo_score":0.857,"zip code":"24073-1208","id":"a6k5b1ojx0kx","geo_precision":"zip","state":"VA"},"type":"Feature","geometry":{"type":"Point","coordinates":[-80.572003,37.221515]}},{"properties":{"city":"CLARION","margin":12,"geo_score":0.857,"zip code":"162141211","id":"a6k5b1jxfb6d","geo_precision":"zip","state":"PA"},"type":"Feature","geometry":{"type":"Point","coordinates":[-79.343377,41.252007]}},{"properties":{"city":"CLARKS SUMMIT","margin":27,"geo_score":0.857,"zip code":"18411-2221","id":"a6k5b1y1ewis","geo_precision":"zip","state":"PA"},"type":"Feature","geometry":{"type":"Point","coordinates":[-75.699636,41.492856]}},{"properties":{"city":"CLARKSBURG","margin":26,"geo_score":0.857,"zip code":"26301","id":"a6k5b1pti7ep","geo_precision":"zip","state":"WV"},"type":"Feature","geometry":{"type":"Point","coordinates":[-80.338701,39.285089]}},{"properties":{"city":"CLAYSBURG","margin":21,"geo_score":0.857,"zip code":"16625","id":"a6k5b1l8tzq0","geo_precision":"zip","state":"PA"},"type":"Feature","geometry":{"type":"Point","coordinates":[-78.512794,40.299242]}},{"properties":{"city":"CLEARFIELD","margin":28,"geo_score":0.857,"zip code":"168302433","id":"a6k5b1kwf99s","geo_precision":"zip","state":"PA"},"type":"Feature","geometry":{"type":"Point","coordinates":[-78.325572,41.073947]}},{"properties":{"city":"CLYMER","margin":9,"geo_score":0.857,"zip code":"15728-1178","id":"a6k5b1jym0ge","geo_precision":"zip","state":"PA"},"type":"Feature","geometry":{"type":"Point","coordinates":[-78.878362,40.647289]}},{"properties":{"city":"COLONIAL HEIGHTS","margin":22,"geo_score":0.857,"zip code":"23834-2944","id":"a6k5b1nn5x3n","geo_precision":"zip","state":"VA"},"type":"Feature","geometry":{"type":"Point","coordinates":[-77.396989,37.26219]}},{"properties":{"city":"CONNEAUT LAKE","margin":15,"geo_score":0.857,"zip code":"163165096","id":"a6k5b1s887u7","geo_precision":"zip","state":"PA"},"type":"Feature","geometry":{"type":"Point","coordinates":[-80.326731,41.574221]}},{"properties":{"city":"CONNELLSVILLE","margin":10,"geo_score":0.857,"zip code":"154252408","id":"a6k5b1jgeyky","geo_precision":"zip","state":"PA"},"type":"Feature","geometry":{"type":"Point","coordinates":[-79.571149,40.019519]}},{"properties":{"city":"CORRIGANVILLE","margin":30,"geo_score":0.857,"zip code":"215240298","id":"a6k5b1uhs6gm","geo_precision":"zip","state":"MD"},"type":"Feature","geometry":{"type":"Point","coordinates":[-78.803067,39.69668]}},{"properties":{"city":"COUDERSPORT","margin":12,"geo_score":0.857,"zip code":"169151306","id":"a6k5b1ixon77","geo_precision":"zip","state":"PA"},"type":"Feature","geometry":{"type":"Point","coordinates":[-77.956692,41.776165]}},{"properties":{"city":"CRANBERRY","margin":12,"geo_score":0.857,"zip code":"163190228","id":"a6k5b1uf7m63","geo_precision":"zip","state":"PA"},"type":"Feature","geometry":{"type":"Point","coordinates":[-79.738809,41.398105]}},{"properties":{"city":"CRANBERRY TOWNSHIP","margin":4,"geo_score":0.857,"zip code":"16066","id":"a6k5b1mhru2q","geo_precision":"zip","state":"PA"},"type":"Feature","geometry":{"type":"Point","coordinates":[-80.104597,40.709713]}},{"properties":{"city":"CREIGHTON","margin":5,"geo_score":0.857,"zip code":"150301065","id":"a6k5b1x4ytox","geo_precision":"zip","state":"PA"},"type":"Feature","geometry":{"type":"Point","coordinates":[-80.024817,40.434436]}},{"properties":{"city":"CRESAPTOWN","margin":29,"geo_score":0.857,"zip code":"21502-5608","id":"a6k5b1q3hzef","geo_precision":"zip","state":"MD"},"type":"Feature","geometry":{"type":"Point","coordinates":[-78.793908,39.674531]}},{"properties":{"city":"CRESSON","margin":22,"geo_score":0.857,"zip code":"166301017","id":"a6k5b1o6mhby","geo_precision":"zip","state":"PA"},"type":"Feature","geometry":{"type":"Point","coordinates":[-78.58946,40.470718]}},{"properties":{"city":"CUMBERLAND","margin":19,"geo_score":0.857,"zip code":"21502","id":"a6k5b1o7prtl","geo_precision":"zip","state":"MD"},"type":"Feature","geometry":{"type":"Point","coordinates":[-78.793908,39.674531]}},{"properties":{"city":"CUYAHOGA FALLS","margin":11,"geo_score":0.857,"zip code":"44221-4923","id":"a6k5b1sneflq","geo_precision":"zip","state":"OH"},"type":"Feature","geometry":{"type":"Point","coordinates":[-81.473585,41.143906]}},{"properties":{"city":"DANVILLE","margin":16,"geo_score":0.857,"zip code":"245414631","id":"a6k5b1pig9oe","geo_precision":"zip","state":"VA"},"type":"Feature","geometry":{"type":"Point","coordinates":[-79.472525,36.547083]}},{"properties":{"city":"DILLSBURG","margin":22,"geo_score":0.857,"zip code":"17019-1610","id":"a6k5b1ogn89n","geo_precision":"zip","state":"PA"},"type":"Feature","geometry":{"type":"Point","coordinates":[-77.062757,40.058704]}},{"properties":{"city":"DOBSON","margin":18,"geo_score":0.857,"zip code":"27017","id":"a6k5b1kax4x5","geo_precision":"zip","state":"NC"},"type":"Feature","geometry":{"type":"Point","coordinates":[-80.628674,36.344581]}},{"properties":{"city":"DUBOIS","margin":18,"geo_score":0.857,"zip code":"158012539","id":"a6k5b1ifhry3","geo_precision":"zip","state":"PA"},"type":"Feature","geometry":{"type":"Point","coordinates":[-78.791142,41.057006]}},{"properties":{"city":"DUNCANNON","margin":20,"geo_score":0.857,"zip code":"17020-9553","id":"a6k5b1lmixge","geo_precision":"zip","state":"PA"},"type":"Feature","geometry":{"type":"Point","coordinates":[-77.009422,40.403975]}},{"properties":{"city":"DUNCANSVILLE","margin":5,"geo_score":0.857,"zip code":"16635-8456","id":"a6k5b1w6xixf","geo_precision":"zip","state":"PA"},"type":"Feature","geometry":{"type":"Point","coordinates":[-78.455292,40.415906]}},{"properties":{"city":"DUNMORE","margin":13,"geo_score":0.857,"zip code":"18512-1705","id":"a6k5b1kvn76r","geo_precision":"zip","state":"PA"},"type":"Feature","geometry":{"type":"Point","coordinates":[-75.611855,41.451469]}},{"properties":{"city":"DURHAM","margin":8,"geo_score":0.857,"zip code":"27703-9045","id":"a6k5b1t5jp0j","geo_precision":"zip","state":"NC"},"type":"Feature","geometry":{"type":"Point","coordinates":[-78.821694,35.957366]}},{"properties":{"city":"EAST FREEDOM","margin":18,"geo_score":0.857,"zip code":"16637-8039","id":"a6k5b1msxsjs","geo_precision":"zip","state":"PA"},"type":"Feature","geometry":{"type":"Point","coordinates":[-78.417236,40.359797]}},{"properties":{"city":"EAST LIVERPOOL","margin":8,"geo_score":0.857,"zip code":"439209626","id":"a6k5b1je3ot3","geo_precision":"zip","state":"OH"},"type":"Feature","geometry":{"type":"Point","coordinates":[-80.597849,40.645897]}},{"properties":{"city":"EBENSBURG","margin":21,"geo_score":0.857,"zip code":"159311806","id":"a6k5b1kh1yh0","geo_precision":"zip","state":"PA"},"type":"Feature","geometry":{"type":"Point","coordinates":[-78.742521,40.480072]}},{"properties":{"city":"EDEN","margin":16,"geo_score":0.857,"zip code":"27288","id":"a6k5b1u5qncn","geo_precision":"zip","state":"NC"},"type":"Feature","geometry":{"type":"Point","coordinates":[-79.693366,36.517916]}},{"properties":{"city":"EDINBORO","margin":20,"geo_score":0.857,"zip code":"16412-1256","id":"a6k5b1v3oxc0","geo_precision":"zip","state":"PA"},"type":"Feature","geometry":{"type":"Point","coordinates":[-80.157715,41.90425]}},{"properties":{"city":"ELYSBURG","margin":28,"geo_score":0.857,"zip code":"17824-9669","id":"a6k5b1qou3ls","geo_precision":"zip","state":"PA"},"type":"Feature","geometry":{"type":"Point","coordinates":[-76.444118,40.854253]}},{"properties":{"city":"EMPORIUM","margin":29,"geo_score":0.857,"zip code":"158341215","id":"a6k5b1q4yih3","geo_precision":"zip","state":"PA"},"type":"Feature","geometry":{"type":"Point","coordinates":[-78.23157,41.51031]}},{"properties":{"city":"EPHRATA","margin":12,"geo_score":0.857,"zip code":"17522-9550","id":"a6k5b1u7evcu","geo_precision":"zip","state":"PA"},"type":"Feature","geometry":{"type":"Point","coordinates":[-76.201062,40.196483]}},{"properties":{"city":"ERIE","margin":22,"geo_score":0.857,"zip code":"16506-1438","id":"a6k5b1hrhkj3","geo_precision":"zip","state":"PA"},"type":"Feature","geometry":{"type":"Point","coordinates":[-80.140894,42.08089]}},{"properties":{"city":"EVERETT","margin":14,"geo_score":0.857,"zip code":"155371169","id":"a6k5b1oqvwfy","geo_precision":"zip","state":"PA"},"type":"Feature","geometry":{"type":"Point","coordinates":[-78.324458,39.973417]}},{"properties":{"city":"FAIRLAWN","margin":15,"geo_score":0.857,"zip code":"24141-8501","id":"a6k5b1ph1wz2","geo_precision":"zip","state":"VA"},"type":"Feature","geometry":{"type":"Point","coordinates":[-80.548668,37.163738]}},{"properties":{"city":"FALLS CREEK","margin":20,"geo_score":0.857,"zip code":"15840-9515","id":"a6k5b1ie28o4","geo_precision":"zip","state":"PA"},"type":"Feature","geometry":{"type":"Point","coordinates":[-78.820695,41.149752]}},{"properties":{"city":"FARMVILLE","margin":11,"geo_score":0.857,"zip code":"23901-7500","id":"a6k5b1ikmqnz","geo_precision":"zip","state":"VA"},"type":"Feature","geometry":{"type":"Point","coordinates":[-78.443051,37.230153]}},{"properties":{"city":"FAYETTEVILLE","margin":8,"geo_score":0.857,"zip code":"25840","id":"a6k5b1u1ga23","geo_precision":"zip","state":"WV"},"type":"Feature","geometry":{"type":"Point","coordinates":[-81.162604,38.053999]}},{"properties":{"city":"FISHERVILLE","margin":20,"geo_score":0.857,"zip code":"22939","id":"a6k5b1wfxbr0","geo_precision":"zip","state":"VA"},"type":"Feature","geometry":{"type":"Point","coordinates":[-78.943637,38.110968]}},{"properties":{"city":"FLEETWOOD","margin":3,"geo_score":0.857,"zip code":"19522-8663","id":"a6k5b1wu08b8","geo_precision":"zip","state":"PA"},"type":"Feature","geometry":{"type":"Point","coordinates":[-75.821866,40.42676]}},{"properties":{"city":"FOLLANSBEE","margin":8,"geo_score":0.857,"zip code":"26037","id":"a6k5b1naq95g","geo_precision":"zip","state":"WV"},"type":"Feature","geometry":{"type":"Point","coordinates":[-80.577572,40.324792]}},{"properties":{"city":"FORD CITY","margin":10,"geo_score":0.857,"zip code":"162261813","id":"a6k5b1kxswso","geo_precision":"zip","state":"PA"},"type":"Feature","geometry":{"type":"Point","coordinates":[-79.458098,40.670065]}},{"properties":{"city":"FOREST","margin":24,"geo_score":0.857,"zip code":"24551-4370","id":"a6k5b1lew6lx","geo_precision":"zip","state":"VA"},"type":"Feature","geometry":{"type":"Point","coordinates":[-79.357807,37.382364]}},{"properties":{"city":"FRANKLIN","margin":27,"geo_score":0.857,"zip code":"16323-1281","id":"a6k5b1tyz4va","geo_precision":"zip","state":"PA"},"type":"Feature","geometry":{"type":"Point","coordinates":[-79.896723,41.450334]}},{"properties":{"city":"FREDERICK","margin":20,"geo_score":0.857,"zip code":"217018311","id":"a6k5b1thg7c2","geo_precision":"zip","state":"MD"},"type":"Feature","geometry":{"type":"Point","coordinates":[-77.48582,39.420657]}},{"properties":{"city":"FREDERICKSBURG","margin":11,"geo_score":0.857,"zip code":"22405-3241","id":"a6k5b1r6u6py","geo_precision":"zip","state":"VA"},"type":"Feature","geometry":{"type":"Point","coordinates":[-77.46054,38.303184]}},{"properties":{"city":"FROSTBURG","margin":8,"geo_score":0.857,"zip code":"21532-1451","id":"a6k5b1ow35hq","geo_precision":"zip","state":"MD"},"type":"Feature","geometry":{"type":"Point","coordinates":[-78.950858,39.608422]}},{"properties":{"city":"FUQUAY-VARINA","margin":27,"geo_score":0.857,"zip code":"27526-9021","id":"a6k5b1lrdic2","geo_precision":"zip","state":"NC"},"type":"Feature","geometry":{"type":"Point","coordinates":[-78.770291,35.572936]}},{"properties":{"city":"GETTYSBURG","margin":1,"geo_score":0.857,"zip code":"17325-8376","id":"a6k5b1ne1pd1","geo_precision":"zip","state":"PA"},"type":"Feature","geometry":{"type":"Point","coordinates":[-77.226591,39.840922]}},{"properties":{"city":"GIBSONIA","margin":26,"geo_score":0.857,"zip code":"150449808","id":"a6k5b1j2gufs","geo_precision":"zip","state":"PA"},"type":"Feature","geometry":{"type":"Point","coordinates":[-80.024817,40.434436]}},{"properties":{"city":"GIRARD","margin":21,"geo_score":0.857,"zip code":"44420-3148","id":"a6k5b1lcdia3","geo_precision":"zip","state":"OH"},"type":"Feature","geometry":{"type":"Point","coordinates":[-80.7223,41.143947]}},{"properties":{"city":"GRAHAM","margin":12,"geo_score":0.857,"zip code":"27253","id":"a6k5b1mocy46","geo_precision":"zip","state":"NC"},"type":"Feature","geometry":{"type":"Point","coordinates":[-79.347527,35.972114]}},{"properties":{"city":"GREAT MILLS","margin":5,"geo_score":0.857,"zip code":"20634-5300","id":"a6k5b1vxp3bw","geo_precision":"zip","state":"MD"},"type":"Feature","geometry":{"type":"Point","coordinates":[-76.501513,38.242387]}},{"properties":{"city":"GREENCASTLE","margin":2,"geo_score":0.857,"zip code":"172251411","id":"a6k5b1xxxp1n","geo_precision":"zip","state":"PA"},"type":"Feature","geometry":{"type":"Point","coordinates":[-77.852219,39.764816]}},{"properties":{"city":"GREENSBORO","margin":21,"geo_score":0.857,"zip code":"27407-1910","id":"a6k5b1sanjt1","geo_precision":"zip","state":"NC"},"type":"Feature","geometry":{"type":"Point","coordinates":[-79.888672,36.001791]}},{"properties":{"city":"GREENSBURG","margin":5,"geo_score":0.857,"zip code":"15601-1911","id":"a6k5b1u88wum","geo_precision":"zip","state":"PA"},"type":"Feature","geometry":{"type":"Point","coordinates":[-79.545598,40.430901]}},{"properties":{"city":"GREENVILLE","margin":6,"geo_score":0.857,"zip code":"161252612","id":"a6k5b1r4w10n","geo_precision":"zip","state":"PA"},"type":"Feature","geometry":{"type":"Point","coordinates":[-80.398957,41.379777]}},{"properties":{"city":"GROVE CITY","margin":7,"geo_score":0.857,"zip code":"16127","id":"a6k5b1xumby7","geo_precision":"zip","state":"PA"},"type":"Feature","geometry":{"type":"Point","coordinates":[-80.044503,41.22867]}},{"properties":{"city":"HAGERSTOWN","margin":9,"geo_score":0.857,"zip code":"217403840","id":"a6k5b1ophpx8","geo_precision":"zip","state":"MD"},"type":"Feature","geometry":{"type":"Point","coordinates":[-77.712215,39.686206]}},{"properties":{"city":"HALIFAX","margin":26,"geo_score":0.857,"zip code":"17032-9044","id":"a6k5b1la0gxe","geo_precision":"zip","state":"PA"},"type":"Feature","geometry":{"type":"Point","coordinates":[-76.849695,40.491752]}},{"properties":{"city":"HANCOCK","margin":9,"geo_score":0.857,"zip code":"217501433","id":"a6k5b1m8d01k","geo_precision":"zip","state":"MD"},"type":"Feature","geometry":{"type":"Point","coordinates":[-78.190841,39.703425]}},{"properties":{"city":"HANOVER","margin":10,"geo_score":0.857,"zip code":"17331-1201","id":"a6k5b1jpahj9","geo_precision":"zip","state":"PA"},"type":"Feature","geometry":{"type":"Point","coordinates":[-76.973313,39.825099]}},{"properties":{"city":"HARRISBURG","margin":22,"geo_score":0.857,"zip code":"171129189","id":"a6k5b1lpblby","geo_precision":"zip","state":"PA"},"type":"Feature","geometry":{"type":"Point","coordinates":[-76.789138,40.333977]}},{"properties":{"city":"HARRISONBURG","margin":12,"geo_score":0.857,"zip code":"22801-3729","id":"a6k5b1u9kzyj","geo_precision":"zip","state":"VA"},"type":"Feature","geometry":{"type":"Point","coordinates":[-78.959752,38.486235]}},{"properties":{"city":"HARRISVILLE","margin":7,"geo_score":0.857,"zip code":"16038-1905","id":"a6k5b1pxow6z","geo_precision":"zip","state":"PA"},"type":"Feature","geometry":{"type":"Point","coordinates":[-79.931444,41.195893]}},{"properties":{"city":"HAYMARKET","margin":13,"geo_score":0.857,"zip code":"20169-2990","id":"a6k5b1q5tmz5","geo_precision":"zip","state":"VA"},"type":"Feature","geometry":{"type":"Point","coordinates":[-77.644539,38.867441]}},{"properties":{"city":"HAZLE TOWNSHIP","margin":23,"geo_score":0.857,"zip code":"18202-3328","id":"a6k5b1jiq9d3","geo_precision":"zip","state":"PA"},"type":"Feature","geometry":{"type":"Point","coordinates":[-76.013856,40.970058]}},{"properties":{"city":"HENDERSON","margin":20,"geo_score":0.857,"zip code":"27536","id":"a6k5b1x6lpqq","geo_precision":"zip","state":"NC"},"type":"Feature","geometry":{"type":"Point","coordinates":[-78.36833,36.276536]}},{"properties":{"city":"HERMITAGE","margin":8,"geo_score":0.857,"zip code":"16148-5955","id":"a6k5b1x4255l","geo_precision":"zip","state":"PA"},"type":"Feature","geometry":{"type":"Point","coordinates":[-80.438887,41.221984]}},{"properties":{"city":"HIGH POINT","margin":27,"geo_score":0.857,"zip code":"27265","id":"a6k5b1juvfjj","geo_precision":"zip","state":"NC"},"type":"Feature","geometry":{"type":"Point","coordinates":[-79.991542,36.029892]}},{"properties":{"city":"HOLLIDAYSBURG","margin":30,"geo_score":0.857,"zip code":"166482444","id":"a6k5b1ndb46i","geo_precision":"zip","state":"PA"},"type":"Feature","geometry":{"type":"Point","coordinates":[-78.415014,40.367574]}},{"properties":{"city":"HOMER CITY","margin":5,"geo_score":0.857,"zip code":"15748-7317","id":"a6k5b1von8ew","geo_precision":"zip","state":"PA"},"type":"Feature","geometry":{"type":"Point","coordinates":[-79.089616,40.627752]}},{"properties":{"city":"HUMMELSTOWN","margin":12,"geo_score":0.857,"zip code":"17036","id":"a6k5b1srhtkq","geo_precision":"zip","state":"PA"},"type":"Feature","geometry":{"type":"Point","coordinates":[-76.68247,40.240369]}},{"properties":{"city":"HUNTINGDON","margin":24,"geo_score":0.857,"zip code":"16652-1932","id":"a6k5b1n0n7hx","geo_precision":"zip","state":"PA"},"type":"Feature","geometry":{"type":"Point","coordinates":[-77.846388,40.636179]}},{"properties":{"city":"HUNTINGTON","margin":1,"geo_score":0.857,"zip code":"25704","id":"a6k5b1mvjsoj","geo_precision":"zip","state":"WV"},"type":"Feature","geometry":{"type":"Point","coordinates":[-82.483767,38.410638]}},{"properties":{"city":"HURRICANE","margin":7,"geo_score":0.857,"zip code":"25526","id":"a6k5b1vjt2m2","geo_precision":"zip","state":"WV"},"type":"Feature","geometry":{"type":"Point","coordinates":[-81.961657,38.397097]}},{"properties":{"city":"INDIANA","margin":11,"geo_score":0.857,"zip code":"157013075","id":"a6k5b1q4k8ma","geo_precision":"zip","state":"PA"},"type":"Feature","geometry":{"type":"Point","coordinates":[-79.201425,40.609233]}},{"properties":{"city":"INWOOD","margin":2,"geo_score":0.857,"zip code":"25428-3810","id":"a6k5b1v8qz0g","geo_precision":"zip","state":"WV"},"type":"Feature","geometry":{"type":"Point","coordinates":[-78.033065,39.362373]}},{"properties":{"city":"IRWIN","margin":12,"geo_score":0.857,"zip code":"15642-2724","id":"a6k5b1qjynki","geo_precision":"zip","state":"PA"},"type":"Feature","geometry":{"type":"Point","coordinates":[-79.739211,40.305348]}},{"properties":{"city":"JAMESTOWN","margin":27,"geo_score":0.857,"zip code":"27282-8901","id":"a6k5b1r06sjg","geo_precision":"zip","state":"NC"},"type":"Feature","geometry":{"type":"Point","coordinates":[-79.92837,35.981803]}},{"properties":{"city":"JOHNSTOWN","margin":8,"geo_score":0.857,"zip code":"159022602","id":"a6k5b1jb1mqw","geo_precision":"zip","state":"PA"},"type":"Feature","geometry":{"type":"Point","coordinates":[-78.892247,40.298964]}},{"properties":{"city":"JOPPA","margin":11,"geo_score":0.857,"zip code":"21085-3914","id":"a6k5b1kzrzd4","geo_precision":"zip","state":"MD"},"type":"Feature","geometry":{"type":"Point","coordinates":[-76.373849,39.483441]}},{"properties":{"city":"KEARNEYSVILLE","margin":0,"geo_score":0.857,"zip code":"25430","id":"a6k5b1nh8vx8","geo_precision":"zip","state":"WV"},"type":"Feature","geometry":{"type":"Point","coordinates":[-77.933608,39.348434]}},{"properties":{"city":"KENT","margin":5,"geo_score":0.857,"zip code":"44240-2850","id":"a6k5b1vv9git","geo_precision":"zip","state":"OH"},"type":"Feature","geometry":{"type":"Point","coordinates":[-81.346497,41.100057]}},{"properties":{"city":"KERNERSVILLE","margin":23,"geo_score":0.857,"zip code":"27284","id":"a6k5b1w089q5","geo_precision":"zip","state":"NC"},"type":"Feature","geometry":{"type":"Point","coordinates":[-80.118933,36.04847]}},{"properties":{"city":"KEYSER","margin":22,"geo_score":0.857,"zip code":"26726","id":"a6k5b1y3rn11","geo_precision":"zip","state":"WV"},"type":"Feature","geometry":{"type":"Point","coordinates":[-78.892554,39.452686]}},{"properties":{"city":"KING","margin":9,"geo_score":0.857,"zip code":"27021","id":"a6k5b1uzrlir","geo_precision":"zip","state":"NC"},"type":"Feature","geometry":{"type":"Point","coordinates":[-80.303941,36.309027]}},{"properties":{"city":"KING GEORGE","margin":19,"geo_score":0.857,"zip code":"22485-5973","id":"a6k5b1kvr5d9","geo_precision":"zip","state":"VA"},"type":"Feature","geometry":{"type":"Point","coordinates":[-77.203867,38.276239]}},{"properties":{"city":"KITTANNING","margin":7,"geo_score":0.857,"zip code":"162011503","id":"a6k5b1pgnuo4","geo_precision":"zip","state":"PA"},"type":"Feature","geometry":{"type":"Point","coordinates":[-79.371153,40.780342]}},{"properties":{"city":"KNOXVILLE","margin":0,"geo_score":0.857,"zip code":"217589723","id":"a6k5b1r764bj","geo_precision":"zip","state":"MD"},"type":"Feature","geometry":{"type":"Point","coordinates":[-77.710548,39.325934]}},{"properties":{"city":"LANCASTER","margin":4,"geo_score":0.857,"zip code":"17601-4311","id":"a6k5b1mq1zwa","geo_precision":"zip","state":"PA"},"type":"Feature","geometry":{"type":"Point","coordinates":[-76.31607,40.075097]}},{"properties":{"city":"LATROBE","margin":3,"geo_score":0.857,"zip code":"156503250","id":"a6k5b1nbv2tb","geo_precision":"zip","state":"PA"},"type":"Feature","geometry":{"type":"Point","coordinates":[-79.39337,40.302848]}},{"properties":{"city":"LEBANON","margin":23,"geo_score":0.857,"zip code":"17042-8827","id":"a6k5b1lcq122","geo_precision":"zip","state":"PA"},"type":"Feature","geometry":{"type":"Point","coordinates":[-76.431628,40.359536]}},{"properties":{"city":"LEESBURG","margin":13,"geo_score":0.857,"zip code":"20176-3301","id":"a6k5b1vfik2s","geo_precision":"zip","state":"VA"},"type":"Feature","geometry":{"type":"Point","coordinates":[-77.603458,39.119727]}},{"properties":{"city":"LEESPORT","margin":25,"geo_score":0.857,"zip code":"19533-8642","id":"a6k5b1sv5a4r","geo_precision":"zip","state":"PA"},"type":"Feature","geometry":{"type":"Point","coordinates":[-75.85715,40.420446]}},{"properties":{"city":"LEWISBURG","margin":15,"geo_score":0.857,"zip code":"17837-7487","id":"a6k5b1vhkk2w","geo_precision":"zip","state":"PA"},"type":"Feature","geometry":{"type":"Point","coordinates":[-76.988301,40.983695]}},{"properties":{"city":"LEWISTOWN","margin":9,"geo_score":0.857,"zip code":"17044-2575","id":"a6k5b1pahcyf","geo_precision":"zip","state":"PA"},"type":"Feature","geometry":{"type":"Point","coordinates":[-77.658882,40.54313]}},{"properties":{"city":"LEXINGTON","margin":13,"geo_score":0.857,"zip code":"27295","id":"a6k5b1r883g9","geo_precision":"zip","state":"NC"},"type":"Feature","geometry":{"type":"Point","coordinates":[-80.277877,35.813292]}},{"properties":{"city":"LIGONIER","margin":26,"geo_score":0.857,"zip code":"15658-9791","id":"a6k5b1wzismy","geo_precision":"zip","state":"PA"},"type":"Feature","geometry":{"type":"Point","coordinates":[-79.167531,40.254517]}},{"properties":{"city":"LINDEN","margin":0,"geo_score":0.857,"zip code":"17744","id":"a6k5b1s6oboe","geo_precision":"zip","state":"PA"},"type":"Feature","geometry":{"type":"Point","coordinates":[-77.17747,41.237853]}},{"properties":{"city":"LITITZ","margin":3,"geo_score":0.857,"zip code":"175439501","id":"a6k5b1sa40vu","geo_precision":"zip","state":"PA"},"type":"Feature","geometry":{"type":"Point","coordinates":[-76.340514,40.158984]}},{"properties":{"city":"LITTLESTOWN","margin":29,"geo_score":0.857,"zip code":"173401611","id":"a6k5b1rkrmhj","geo_precision":"zip","state":"PA"},"type":"Feature","geometry":{"type":"Point","coordinates":[-77.109427,39.790932]}},{"properties":{"city":"LOCUST GROVE","margin":20,"geo_score":0.857,"zip code":"22508-2019","id":"a6k5b1ns4y18","geo_precision":"zip","state":"VA"},"type":"Feature","geometry":{"type":"Point","coordinates":[-77.798604,38.369018]}},{"properties":{"city":"LOUISBURG","margin":12,"geo_score":0.857,"zip code":"27549","id":"a6k5b1j51xng","geo_precision":"zip","state":"NC"},"type":"Feature","geometry":{"type":"Point","coordinates":[-78.227215,36.07654]}},{"properties":{"city":"LOWER BURRELL","margin":13,"geo_score":0.857,"zip code":"15068","id":"a6k5b1mmjnal","geo_precision":"zip","state":"PA"},"type":"Feature","geometry":{"type":"Point","coordinates":[-79.723659,40.599789]}},{"properties":{"city":"LYNCHBURG","margin":9,"geo_score":0.857,"zip code":"24501-3619","id":"a6k5b1uzdchy","geo_precision":"zip","state":"VA"},"type":"Feature","geometry":{"type":"Point","coordinates":[-79.178326,37.383112]}},{"properties":{"city":"MADISON","margin":25,"geo_score":0.857,"zip code":"22727-2509","id":"a6k5b1tw35ag","geo_precision":"zip","state":"VA"},"type":"Feature","geometry":{"type":"Point","coordinates":[-78.301115,38.457904]}},{"properties":{"city":"MADISON HEIGHTS","margin":1,"geo_score":0.857,"zip code":"24572-5947","id":"a6k5b1mbf9sl","geo_precision":"zip","state":"VA"},"type":"Feature","geometry":{"type":"Point","coordinates":[-79.088912,37.443198]}},{"properties":{"city":"MANASSAS PARK","margin":18,"geo_score":0.857,"zip code":"20111-2357","id":"a6k5b1mrypr4","geo_precision":"zip","state":"VA"},"type":"Feature","geometry":{"type":"Point","coordinates":[-77.469711,38.784004]}},{"properties":{"city":"MANCHESTER","margin":8,"geo_score":0.857,"zip code":"21102-1773","id":"a6k5b1kc8l04","geo_precision":"zip","state":"MD"},"type":"Feature","geometry":{"type":"Point","coordinates":[-76.870849,39.556164]}},{"properties":{"city":"MANCHESTER","margin":21,"geo_score":0.857,"zip code":"17345-1306","id":"a6k5b1kq4x24","geo_precision":"zip","state":"PA"},"type":"Feature","geometry":{"type":"Point","coordinates":[-76.761357,40.091206]}},{"properties":{"city":"MANSFIELD","margin":24,"geo_score":0.857,"zip code":"16933","id":"a6k5b1k6wjt8","geo_precision":"zip","state":"PA"},"type":"Feature","geometry":{"type":"Point","coordinates":[-76.957463,41.86563]}},{"properties":{"city":"MARIETTA","margin":23,"geo_score":0.857,"zip code":"17547-1615","id":"a6k5b1m3ejsk","geo_precision":"zip","state":"PA"},"type":"Feature","geometry":{"type":"Point","coordinates":[-76.485935,40.061596]}},{"properties":{"city":"MARTINSBURG","margin":3,"geo_score":0.857,"zip code":"25401-2000","id":"a6k5b1r7onhp","geo_precision":"zip","state":"WV"},"type":"Feature","geometry":{"type":"Point","coordinates":[-78.019999,39.462598]}},{"properties":{"city":"MCCONNELLSBURG","margin":11,"geo_score":0.857,"zip code":"172331508","id":"a6k5b1ujqjhd","geo_precision":"zip","state":"PA"},"type":"Feature","geometry":{"type":"Point","coordinates":[-77.981379,39.928812]}},{"properties":{"city":"MEADVILLE","margin":3,"geo_score":0.857,"zip code":"16335-3671","id":"a6k5b1xmnonf","geo_precision":"zip","state":"PA"},"type":"Feature","geometry":{"type":"Point","coordinates":[-80.04089,41.681167]}},{"properties":{"city":"MEBANE","margin":19,"geo_score":0.857,"zip code":"27302-9680","id":"a6k5b1jbq7pa","geo_precision":"zip","state":"NC"},"type":"Feature","geometry":{"type":"Point","coordinates":[-79.220017,36.211527]}},{"properties":{"city":"MECHANICSBURG","margin":10,"geo_score":0.857,"zip code":"17050-1766","id":"a6k5b1ryypiw","geo_precision":"zip","state":"PA"},"type":"Feature","geometry":{"type":"Point","coordinates":[-77.005116,40.210952]}},{"properties":{"city":"MENTOR","margin":8,"geo_score":0.857,"zip code":"44060-5320","id":"a6k5b1wna49y","geo_precision":"zip","state":"OH"},"type":"Feature","geometry":{"type":"Point","coordinates":[-81.311772,41.739766]}},{"properties":{"city":"MERCER","margin":5,"geo_score":0.857,"zip code":"161371204","id":"a6k5b1vmlbxn","geo_precision":"zip","state":"PA"},"type":"Feature","geometry":{"type":"Point","coordinates":[-80.173395,41.166726]}},{"properties":{"city":"MEYERSDALE","margin":20,"geo_score":0.857,"zip code":"155521142","id":"a6k5b1lbc3ga","geo_precision":"zip","state":"PA"},"type":"Feature","geometry":{"type":"Point","coordinates":[-79.075583,39.80897]}},{"properties":{"city":"MIFFLINBURG","margin":22,"geo_score":0.857,"zip code":"17844-9315","id":"a6k5b1x03w8w","geo_precision":"zip","state":"PA"},"type":"Feature","geometry":{"type":"Point","coordinates":[-77.052749,40.940082]}},{"properties":{"city":"MIFFLINTOWN","margin":21,"geo_score":0.857,"zip code":"17059-8933","id":"a6k5b1r497cm","geo_precision":"zip","state":"PA"},"type":"Feature","geometry":{"type":"Point","coordinates":[-77.409434,40.576188]}},{"properties":{"city":"MILL HALL","margin":27,"geo_score":0.857,"zip code":"17751-1907","id":"a6k5b1mbc6az","geo_precision":"zip","state":"PA"},"type":"Feature","geometry":{"type":"Point","coordinates":[-77.520825,41.017288]}},{"properties":{"city":"MILTON","margin":2,"geo_score":0.857,"zip code":"25541","id":"a6k5b1jw5wna","geo_precision":"zip","state":"WV"},"type":"Feature","geometry":{"type":"Point","coordinates":[-82.14431,38.502864]}},{"properties":{"city":"MOCKSVILLE","margin":16,"geo_score":0.857,"zip code":"27028","id":"a6k5b1mefkel","geo_precision":"zip","state":"NC"},"type":"Feature","geometry":{"type":"Point","coordinates":[-80.577283,35.974303]}},{"properties":{"city":"MONONGAHELA","margin":18,"geo_score":0.857,"zip code":"150632308","id":"a6k5b1jepd2u","geo_precision":"zip","state":"PA"},"type":"Feature","geometry":{"type":"Point","coordinates":[-79.883103,40.198127]}},{"properties":{"city":"MONROEVILLE","margin":19,"geo_score":0.857,"zip code":"15146-4219","id":"a6k5b1v6qy4s","geo_precision":"zip","state":"PA"},"type":"Feature","geometry":{"type":"Point","coordinates":[-79.756713,40.430069]}},{"properties":{"city":"MOON TOWNSHIP","margin":4,"geo_score":0.857,"zip code":"15108-4215","id":"a6k5b1krn2ki","geo_precision":"zip","state":"PA"},"type":"Feature","geometry":{"type":"Point","coordinates":[-80.239226,40.508957]}},{"properties":{"city":"MOOREFIELD","margin":11,"geo_score":0.857,"zip code":"268361020","id":"a6k5b1itrjau","geo_precision":"zip","state":"WV"},"type":"Feature","geometry":{"type":"Point","coordinates":[-79.045587,39.038998]}},{"properties":{"city":"MORGANTOWN","margin":3,"geo_score":0.857,"zip code":"265052807","id":"a6k5b1urz7db","geo_precision":"zip","state":"WV"},"type":"Feature","geometry":{"type":"Point","coordinates":[-79.917285,39.605082]}},{"properties":{"city":"MORGANTOWN","margin":26,"geo_score":0.857,"zip code":"19543-8858","id":"a6k5b1ir52kg","geo_precision":"zip","state":"PA"},"type":"Feature","geometry":{"type":"Point","coordinates":[-75.89161,40.367731]}},{"properties":{"city":"MORRISVILLE","margin":11,"geo_score":0.857,"zip code":"27560","id":"a6k5b1losfba","geo_precision":"zip","state":"NC"},"type":"Feature","geometry":{"type":"Point","coordinates":[-78.850007,35.88237]}},{"properties":{"city":"MOUNT UNION","margin":9,"geo_score":0.857,"zip code":"17066-1224","id":"a6k5b1ityfcv","geo_precision":"zip","state":"PA"},"type":"Feature","geometry":{"type":"Point","coordinates":[-77.885831,40.39341]}},{"properties":{"city":"MT AIRY","margin":30,"geo_score":0.857,"zip code":"27030","id":"a6k5b1perecc","geo_precision":"zip","state":"NC"},"type":"Feature","geometry":{"type":"Point","coordinates":[-80.83785,36.482354]}},{"properties":{"city":"MT HOLLY SPRINGS","margin":23,"geo_score":0.857,"zip code":"170651618","id":"a6k5b1y00ucs","geo_precision":"zip","state":"PA"},"type":"Feature","geometry":{"type":"Point","coordinates":[-77.179148,40.103146]}},{"properties":{"city":"MT HOPE","margin":12,"geo_score":0.857,"zip code":"25880","id":"a6k5b1nkfjll","geo_precision":"zip","state":"WV"},"type":"Feature","geometry":{"type":"Point","coordinates":[-81.189547,37.882335]}},{"properties":{"city":"MT JACKSON","margin":30,"geo_score":0.857,"zip code":"22842-2862","id":"a6k5b1uii6yx","geo_precision":"zip","state":"VA"},"type":"Feature","geometry":{"type":"Point","coordinates":[-78.690017,38.829557]}},{"properties":{"city":"MT JOY","margin":18,"geo_score":0.857,"zip code":"17552-9414","id":"a6k5b1o5euml","geo_precision":"zip","state":"PA"},"type":"Feature","geometry":{"type":"Point","coordinates":[-76.468298,40.068708]}},{"properties":{"city":"MURRYSVILLE","margin":17,"geo_score":0.857,"zip code":"15668-2022","id":"a6k5b1xtnzru","geo_precision":"zip","state":"PA"},"type":"Feature","geometry":{"type":"Point","coordinates":[-79.656156,40.445346]}},{"properties":{"city":"NANTY GLO","margin":25,"geo_score":0.857,"zip code":"15943-3403","id":"a6k5b1qljupp","geo_precision":"zip","state":"PA"},"type":"Feature","geometry":{"type":"Point","coordinates":[-78.848566,40.392443]}},{"properties":{"city":"NEW ALEXANDRIA","margin":26,"geo_score":0.857,"zip code":"15670-3150","id":"a6k5b1n9nc0s","geo_precision":"zip","state":"PA"},"type":"Feature","geometry":{"type":"Point","coordinates":[-79.444008,40.396655]}},{"properties":{"city":"NEW CASTLE","margin":9,"geo_score":0.857,"zip code":"16101-7960","id":"a6k5b1s9xq3n","geo_precision":"zip","state":"PA"},"type":"Feature","geometry":{"type":"Point","coordinates":[-80.382843,40.953395]}},{"properties":{"city":"NEW HOLLAND","margin":3,"geo_score":0.857,"zip code":"17557-9211","id":"a6k5b1l9iktd","geo_precision":"zip","state":"PA"},"type":"Feature","geometry":{"type":"Point","coordinates":[-76.073814,40.14607]}},{"properties":{"city":"NEW KENSINGTON","margin":28,"geo_score":0.857,"zip code":"150686023","id":"a6k5b1lphdur","geo_precision":"zip","state":"PA"},"type":"Feature","geometry":{"type":"Point","coordinates":[-79.723659,40.599789]}},{"properties":{"city":"NEW PHILADELPHIA","margin":16,"geo_score":0.857,"zip code":"44663-6943","id":"a6k5b1y3n9j9","geo_precision":"zip","state":"OH"},"type":"Feature","geometry":{"type":"Point","coordinates":[-81.349556,40.475898]}},{"properties":{"city":"NEW STANTON","margin":0,"geo_score":0.857,"zip code":"156729418","id":"a6k5b1u1zn9f","geo_precision":"zip","state":"PA"},"type":"Feature","geometry":{"type":"Point","coordinates":[-79.605874,40.227293]}},{"properties":{"city":"NEWVILLE","margin":21,"geo_score":0.857,"zip code":"17241","id":"a6k5b1sze6wr","geo_precision":"zip","state":"PA"},"type":"Feature","geometry":{"type":"Point","coordinates":[-77.489709,40.192309]}},{"properties":{"city":"NORTH CANTON","margin":6,"geo_score":0.857,"zip code":"44720","id":"a6k5b1kq8g2y","geo_precision":"zip","state":"OH"},"type":"Feature","geometry":{"type":"Point","coordinates":[-81.433036,40.895607]}},{"properties":{"city":"NORTH HUNTINGDON","margin":27,"geo_score":0.857,"zip code":"15642-2724","id":"a6k5b1ss3x44","geo_precision":"zip","state":"PA"},"type":"Feature","geometry":{"type":"Point","coordinates":[-79.739211,40.305348]}},{"properties":{"city":"NORTH LIMA","margin":13,"geo_score":0.857,"zip code":"44452-9557","id":"a6k5b1ul5isi","geo_precision":"zip","state":"OH"},"type":"Feature","geometry":{"type":"Point","coordinates":[-80.65063,40.973393]}},{"properties":{"city":"NORTH RIDGEVILLE","margin":7,"geo_score":0.857,"zip code":"44039-3420","id":"a6k5b1xiqis9","geo_precision":"zip","state":"OH"},"type":"Feature","geometry":{"type":"Point","coordinates":[-82.019365,41.377776]}},{"properties":{"city":"NORTHERN CAMBRIA","margin":7,"geo_score":0.857,"zip code":"15714-2038","id":"a6k5b1itmqse","geo_precision":"zip","state":"PA"},"type":"Feature","geometry":{"type":"Point","coordinates":[-78.794582,40.658721]}},{"properties":{"city":"OAKLAND","margin":23,"geo_score":0.857,"zip code":"215501321","id":"a6k5b1n2hgq5","geo_precision":"zip","state":"MD"},"type":"Feature","geometry":{"type":"Point","coordinates":[-79.373097,39.501758]}},{"properties":{"city":"ORANGE","margin":14,"geo_score":0.857,"zip code":"22960-1016","id":"a6k5b1suolxi","geo_precision":"zip","state":"VA"},"type":"Feature","geometry":{"type":"Point","coordinates":[-77.968053,38.154303]}},{"properties":{"city":"PALMYRA","margin":5,"geo_score":0.857,"zip code":"170781913","id":"a6k5b1qs6nwf","geo_precision":"zip","state":"PA"},"type":"Feature","geometry":{"type":"Point","coordinates":[-76.416907,40.317606]}},{"properties":{"city":"PARMA","margin":29,"geo_score":0.857,"zip code":"44129","id":"a6k5b1y03rn9","geo_precision":"zip","state":"OH"},"type":"Feature","geometry":{"type":"Point","coordinates":[-81.722909,41.404774]}},{"properties":{"city":"PARSONS","margin":24,"geo_score":0.857,"zip code":"26287-1236","id":"a6k5b1k189i6","geo_precision":"zip","state":"WV"},"type":"Feature","geometry":{"type":"Point","coordinates":[-79.678724,39.096016]}},{"properties":{"city":"PATTON","margin":17,"geo_score":0.857,"zip code":"166681016","id":"a6k5b1k6skt5","geo_precision":"zip","state":"PA"},"type":"Feature","geometry":{"type":"Point","coordinates":[-78.652522,40.598402]}},{"properties":{"city":"PERRY","margin":7,"geo_score":0.857,"zip code":"44081-9557","id":"a6k5b1ssv3z9","geo_precision":"zip","state":"OH"},"type":"Feature","geometry":{"type":"Point","coordinates":[-81.14626,41.768495]}},{"properties":{"city":"PETERSBURG","margin":26,"geo_score":0.857,"zip code":"268471533","id":"a6k5b1wdwmks","geo_precision":"zip","state":"WV"},"type":"Feature","geometry":{"type":"Point","coordinates":[-79.185871,38.912611]}},{"properties":{"city":"PHILIPPI","margin":3,"geo_score":0.857,"zip code":"264161146","id":"a6k5b1s4nwan","geo_precision":"zip","state":"WV"},"type":"Feature","geometry":{"type":"Point","coordinates":[-79.942021,39.162044]}},{"properties":{"city":"PHILIPSBURG","margin":9,"geo_score":0.857,"zip code":"16866-8261","id":"a6k5b1td9kfe","geo_precision":"zip","state":"PA"},"type":"Feature","geometry":{"type":"Point","coordinates":[-78.216402,40.915057]}},{"properties":{"city":"PITTSBURGH","margin":6,"geo_score":0.857,"zip code":"15237-5351","id":"a6k5b1jb4mja","geo_precision":"zip","state":"PA"},"type":"Feature","geometry":{"type":"Point","coordinates":[-80.003666,40.531735]}},{"properties":{"city":"PLAINS TOWNSHIP","margin":15,"geo_score":0.857,"zip code":"187027006","id":"a6k5b1msbarx","geo_precision":"zip","state":"PA"},"type":"Feature","geometry":{"type":"Point","coordinates":[-75.836306,41.289248]}},{"properties":{"city":"PORT ALLEGANY","margin":11,"geo_score":0.857,"zip code":"16743","id":"a6k5b1rk03gx","geo_precision":"zip","state":"PA"},"type":"Feature","geometry":{"type":"Point","coordinates":[-78.20501,41.788954]}},{"properties":{"city":"PORTAGE","margin":27,"geo_score":0.857,"zip code":"159461307","id":"a6k5b1y6802a","geo_precision":"zip","state":"PA"},"type":"Feature","geometry":{"type":"Point","coordinates":[-78.689464,40.381463]}},{"properties":{"city":"POTTSVILLE","margin":26,"geo_score":0.857,"zip code":"17901-4202","id":"a6k5b1irfq55","geo_precision":"zip","state":"PA"},"type":"Feature","geometry":{"type":"Point","coordinates":[-76.172164,40.687312]}},{"properties":{"city":"POWHATAN","margin":13,"geo_score":0.857,"zip code":"23139-7401","id":"a6k5b1rauzro","geo_precision":"zip","state":"VA"},"type":"Feature","geometry":{"type":"Point","coordinates":[-77.928759,37.541609]}},{"properties":{"city":"PRINCETON","margin":9,"geo_score":0.857,"zip code":"24740","id":"a6k5b1vzv0f6","geo_precision":"zip","state":"WV"},"type":"Feature","geometry":{"type":"Point","coordinates":[-80.886191,37.34901]}},{"properties":{"city":"PUNXSUTAWNEY","margin":6,"geo_score":0.857,"zip code":"157671618","id":"a6k5b1r1qbca","geo_precision":"zip","state":"PA"},"type":"Feature","geometry":{"type":"Point","coordinates":[-78.850032,40.904786]}},{"properties":{"city":"RALEIGH","margin":8,"geo_score":0.857,"zip code":"27610-1428","id":"a6k5b1r3t2zv","geo_precision":"zip","state":"NC"},"type":"Feature","geometry":{"type":"Point","coordinates":[-78.555281,35.693209]}},{"properties":{"city":"RAVENNA","margin":15,"geo_score":0.857,"zip code":"44266-9736","id":"a6k5b1xk3eo1","geo_precision":"zip","state":"OH"},"type":"Feature","geometry":{"type":"Point","coordinates":[-81.197323,41.13589]}},{"properties":{"city":"READING","margin":28,"geo_score":0.857,"zip code":"19605-1730","id":"a6k5b1vrbbiq","geo_precision":"zip","state":"PA"},"type":"Feature","geometry":{"type":"Point","coordinates":[-75.936875,40.404815]}},{"properties":{"city":"RED LION","margin":27,"geo_score":0.857,"zip code":"17356-9073","id":"a6k5b1onflo6","geo_precision":"zip","state":"PA"},"type":"Feature","geometry":{"type":"Point","coordinates":[-76.488576,39.9126]}},{"properties":{"city":"RICHMOND","margin":9,"geo_score":0.857,"zip code":"23235-4305","id":"a6k5b1whgq2r","geo_precision":"zip","state":"VA"},"type":"Feature","geometry":{"type":"Point","coordinates":[-77.585544,37.535147]}},{"properties":{"city":"RIDGEWAY","margin":22,"geo_score":0.857,"zip code":"24148-3483","id":"a6k5b1nkdsql","geo_precision":"zip","state":"VA"},"type":"Feature","geometry":{"type":"Point","coordinates":[-79.858094,36.616249]}},{"properties":{"city":"RIDGWAY","margin":8,"geo_score":0.857,"zip code":"15853-1004","id":"a6k5b1xa9wc2","geo_precision":"zip","state":"PA"},"type":"Feature","geometry":{"type":"Point","coordinates":[-78.740306,41.498395]}},{"properties":{"city":"ROANOKE","margin":1,"geo_score":0.857,"zip code":"24019-3509","id":"a6k5b1trhwfc","geo_precision":"zip","state":"VA"},"type":"Feature","geometry":{"type":"Point","coordinates":[-79.943095,37.341246]}},{"properties":{"city":"ROCHESTER","margin":15,"geo_score":0.857,"zip code":"150741940","id":"a6k5b1o9rfkm","geo_precision":"zip","state":"PA"},"type":"Feature","geometry":{"type":"Point","coordinates":[-80.207561,40.745344]}},{"properties":{"city":"ROCKY MOUNT","margin":20,"geo_score":0.857,"zip code":"24151-5891","id":"a6k5b1jv0iyg","geo_precision":"zip","state":"VA"},"type":"Feature","geometry":{"type":"Point","coordinates":[-79.852489,36.995127]}},{"properties":{"city":"ROCKY MOUNT","margin":22,"geo_score":0.857,"zip code":"27804","id":"a6k5b1uzquzc","geo_precision":"zip","state":"NC"},"type":"Feature","geometry":{"type":"Point","coordinates":[-77.939841,35.941739]}},{"properties":{"city":"ROMNEY","margin":7,"geo_score":0.857,"zip code":"267571819","id":"a6k5b1tvpgmd","geo_precision":"zip","state":"WV"},"type":"Feature","geometry":{"type":"Point","coordinates":[-78.734739,39.395096]}},{"properties":{"city":"RUCKERSVILLE","margin":1,"geo_score":0.857,"zip code":"22968-3449","id":"a6k5b1mfrn08","geo_precision":"zip","state":"VA"},"type":"Feature","geometry":{"type":"Point","coordinates":[-78.407377,38.258615]}},{"properties":{"city":"SALEM","margin":17,"geo_score":0.857,"zip code":"24153-7220","id":"a6k5b1rygtrs","geo_precision":"zip","state":"VA"},"type":"Feature","geometry":{"type":"Point","coordinates":[-80.067762,37.28814]}},{"properties":{"city":"SALISBURY","margin":19,"geo_score":0.857,"zip code":"28146","id":"a6k5b1m75rzl","geo_precision":"zip","state":"NC"},"type":"Feature","geometry":{"type":"Point","coordinates":[-80.402235,35.618694]}},{"properties":{"city":"SARVER","margin":6,"geo_score":0.857,"zip code":"16055-9301","id":"a6k5b1j22hm8","geo_precision":"zip","state":"PA"},"type":"Feature","geometry":{"type":"Point","coordinates":[-79.670882,40.758953]}},{"properties":{"city":"SCHUYLKILL HAVEN","margin":5,"geo_score":0.857,"zip code":"17972-9708","id":"a6k5b1pt8pqx","geo_precision":"zip","state":"PA"},"type":"Feature","geometry":{"type":"Point","coordinates":[-76.154856,40.602048]}},{"properties":{"city":"SCOTT DEPOT","margin":1,"geo_score":0.857,"zip code":"25560","id":"a6k5b1mmqavm","geo_precision":"zip","state":"WV"},"type":"Feature","geometry":{"type":"Point","coordinates":[-81.896554,38.450355]}},{"properties":{"city":"SCOTTDALE","margin":25,"geo_score":0.857,"zip code":"156831950","id":"a6k5b1msh6c5","geo_precision":"zip","state":"PA"},"type":"Feature","geometry":{"type":"Point","coordinates":[-79.564205,40.117572]}},{"properties":{"city":"SCRANTON","margin":16,"geo_score":0.857,"zip code":"18508-1118","id":"a6k5b1qctx6r","geo_precision":"zip","state":"PA"},"type":"Feature","geometry":{"type":"Point","coordinates":[-75.66843,41.439979]}},{"properties":{"city":"SELINSGROVE","margin":7,"geo_score":0.857,"zip code":"17870","id":"a6k5b1si9ya2","geo_precision":"zip","state":"PA"},"type":"Feature","geometry":{"type":"Point","coordinates":[-76.895804,40.860085]}},{"properties":{"city":"SHEFFIELD VILLAGE","margin":20,"geo_score":0.857,"zip code":"44054","id":"a6k5b1ribqfc","geo_precision":"zip","state":"OH"},"type":"Feature","geometry":{"type":"Point","coordinates":[-82.089769,41.463541]}},{"properties":{"city":"SHEPHERDSTOWN","margin":21,"geo_score":0.857,"zip code":"25443-4403","id":"a6k5b1o6st36","geo_precision":"zip","state":"WV"},"type":"Feature","geometry":{"type":"Point","coordinates":[-77.832495,39.48371]}},{"properties":{"city":"SHIPPENSBURG","margin":25,"geo_score":0.857,"zip code":"172571425","id":"a6k5b1tgde43","geo_precision":"zip","state":"PA"},"type":"Feature","geometry":{"type":"Point","coordinates":[-77.515542,40.038146]}},{"properties":{"city":"SHOEMAKERSVILLE","margin":19,"geo_score":0.857,"zip code":"195551511","id":"a6k5b1robe05","geo_precision":"zip","state":"PA"},"type":"Feature","geometry":{"type":"Point","coordinates":[-75.932153,40.46176]}},{"properties":{"city":"SIDMAN","margin":11,"geo_score":0.857,"zip code":"159550188","id":"a6k5b1rp04mz","geo_precision":"zip","state":"PA"},"type":"Feature","geometry":{"type":"Point","coordinates":[-78.715511,40.334129]}},{"properties":{"city":"SINKING SPRING","margin":8,"geo_score":0.857,"zip code":"19608-9707","id":"a6k5b1u48esg","geo_precision":"zip","state":"PA"},"type":"Feature","geometry":{"type":"Point","coordinates":[-76.068552,40.29537]}},{"properties":{"city":"SLIPPERY ROCK","margin":25,"geo_score":0.857,"zip code":"160571249","id":"a6k5b1lpdlc2","geo_precision":"zip","state":"PA"},"type":"Feature","geometry":{"type":"Point","coordinates":[-80.110615,41.04034]}},{"properties":{"city":"SOMERSET","margin":21,"geo_score":0.857,"zip code":"155012106","id":"a6k5b1nfxjt5","geo_precision":"zip","state":"PA"},"type":"Feature","geometry":{"type":"Point","coordinates":[-79.126974,40.086743]}},{"properties":{"city":"SOUTH BOSTON","margin":24,"geo_score":0.857,"zip code":"24592-6831","id":"a6k5b1i4aqsj","geo_precision":"zip","state":"VA"},"type":"Feature","geometry":{"type":"Point","coordinates":[-79.098626,36.645416]}},{"properties":{"city":"SPRINGDALE","margin":3,"geo_score":0.857,"zip code":"151441503","id":"a6k5b1ry3m68","geo_precision":"zip","state":"PA"},"type":"Feature","geometry":{"type":"Point","coordinates":[-79.783938,40.54979]}},{"properties":{"city":"ST. MARY'S","margin":25,"geo_score":0.857,"zip code":"15857","id":"a6k5b1u4hoso","geo_precision":"zip","state":"PA"},"type":"Feature","geometry":{"type":"Point","coordinates":[-78.563356,41.437284]}},{"properties":{"city":"STAR CITY","margin":26,"geo_score":0.857,"zip code":"26505","id":"a6k5b1ojl4hv","geo_precision":"zip","state":"WV"},"type":"Feature","geometry":{"type":"Point","coordinates":[-79.917285,39.605082]}},{"properties":{"city":"STATE COLLEGE","margin":17,"geo_score":0.857,"zip code":"16801","id":"a6k5b1nwh06n","geo_precision":"zip","state":"PA"},"type":"Feature","geometry":{"type":"Point","coordinates":[-77.825555,40.763396]}},{"properties":{"city":"STATESVILLE","margin":2,"geo_score":0.857,"zip code":"28625-3214","id":"a6k5b1im12rv","geo_precision":"zip","state":"NC"},"type":"Feature","geometry":{"type":"Point","coordinates":[-80.89757,35.790866]}},{"properties":{"city":"STAUNTON","margin":4,"geo_score":0.857,"zip code":"24402-4976","id":"a6k5b1pg61ai","geo_precision":"zip","state":"VA"},"type":"Feature","geometry":{"type":"Point","coordinates":[-79.062858,38.159275]}},{"properties":{"city":"STEPHENS CITY","margin":17,"geo_score":0.857,"zip code":"226552818","id":"a6k5b1vzb5sl","geo_precision":"zip","state":"VA"},"type":"Feature","geometry":{"type":"Point","coordinates":[-78.246946,39.058163]}},{"properties":{"city":"STOW","margin":21,"geo_score":0.857,"zip code":"44224-4976","id":"a6k5b1xnhc3l","geo_precision":"zip","state":"OH"},"type":"Feature","geometry":{"type":"Point","coordinates":[-81.44039,41.202556]}},{"properties":{"city":"STREETSBORO","margin":27,"geo_score":0.857,"zip code":"44241-5210","id":"a6k5b1t4cvku","geo_precision":"zip","state":"OH"},"type":"Feature","geometry":{"type":"Point","coordinates":[-81.340528,41.241655]}},{"properties":{"city":"STRONGSVILLE","margin":1,"geo_score":0.857,"zip code":"44149-3802","id":"a6k5b1ti4jx1","geo_precision":"zip","state":"OH"},"type":"Feature","geometry":{"type":"Point","coordinates":[-81.856087,41.312349]}},{"properties":{"city":"SUGARLOAF","margin":27,"geo_score":0.857,"zip code":"18249","id":"a6k5b1rrwty8","geo_precision":"zip","state":"PA"},"type":"Feature","geometry":{"type":"Point","coordinates":[-76.0845,40.975202]}},{"properties":{"city":"SUMMERVILLE","margin":13,"geo_score":0.857,"zip code":"26651","id":"a6k5b1uewxi7","geo_precision":"zip","state":"WV"},"type":"Feature","geometry":{"type":"Point","coordinates":[-80.949823,38.285941]}},{"properties":{"city":"TANEYTOWN","margin":7,"geo_score":0.857,"zip code":"217872225","id":"a6k5b1lc5r1k","geo_precision":"zip","state":"MD"},"type":"Feature","geometry":{"type":"Point","coordinates":[-77.153594,39.633989]}},{"properties":{"city":"TAPPAHANNOCK","margin":21,"geo_score":0.857,"zip code":"22560-9350","id":"a6k5b1vz4v40","geo_precision":"zip","state":"VA"},"type":"Feature","geometry":{"type":"Point","coordinates":[-76.921355,37.940136]}},{"properties":{"city":"THURMONT","margin":25,"geo_score":0.857,"zip code":"217881643","id":"a6k5b1xw6nmy","geo_precision":"zip","state":"MD"},"type":"Feature","geometry":{"type":"Point","coordinates":[-77.381653,39.614265]}},{"properties":{"city":"TRANSFER","margin":26,"geo_score":0.857,"zip code":"16154-1845","id":"a6k5b1k5n9zu","geo_precision":"zip","state":"PA"},"type":"Feature","geometry":{"type":"Point","coordinates":[-80.360703,41.368354]}},{"properties":{"city":"TRIADELPHIA","margin":9,"geo_score":0.857,"zip code":"26059","id":"a6k5b1m7qcvj","geo_precision":"zip","state":"WV"},"type":"Feature","geometry":{"type":"Point","coordinates":[-80.580907,40.082573]}},{"properties":{"city":"TRINITY","margin":24,"geo_score":0.857,"zip code":"27370-8847","id":"a6k5b1qh2jgl","geo_precision":"zip","state":"NC"},"type":"Feature","geometry":{"type":"Point","coordinates":[-79.961118,35.801501]}},{"properties":{"city":"TRUCKSVILLE","margin":28,"geo_score":0.857,"zip code":"18708-1463","id":"a6k5b1nbdnas","geo_precision":"zip","state":"PA"},"type":"Feature","geometry":{"type":"Point","coordinates":[-75.947216,41.24083]}},{"properties":{"city":"TWINSBURG","margin":3,"geo_score":0.857,"zip code":"44087-2145","id":"a6k5b1rfblsm","geo_precision":"zip","state":"OH"},"type":"Feature","geometry":{"type":"Point","coordinates":[-81.440435,41.313304]}},{"properties":{"city":"TYRONE","margin":24,"geo_score":0.857,"zip code":"166861638","id":"a6k5b1utrg04","geo_precision":"zip","state":"PA"},"type":"Feature","geometry":{"type":"Point","coordinates":[-78.168343,40.62201]}},{"properties":{"city":"UNIONTOWN","margin":12,"geo_score":0.857,"zip code":"15401","id":"a6k5b1uya795","geo_precision":"zip","state":"PA"},"type":"Feature","geometry":{"type":"Point","coordinates":[-79.802827,39.838688]}},{"properties":{"city":"VERONA","margin":17,"geo_score":0.857,"zip code":"15147","id":"a6k5b1x33g0q","geo_precision":"zip","state":"PA"},"type":"Feature","geometry":{"type":"Point","coordinates":[-79.967551,40.015352]}},{"properties":{"city":"WADSWORTH","margin":24,"geo_score":0.857,"zip code":"44281-9708","id":"a6k5b1kgik81","geo_precision":"zip","state":"OH"},"type":"Feature","geometry":{"type":"Point","coordinates":[-81.751008,41.071841]}},{"properties":{"city":"WALKERSVILLE","margin":25,"geo_score":0.857,"zip code":"217935199","id":"a6k5b1iclkf5","geo_precision":"zip","state":"MD"},"type":"Feature","geometry":{"type":"Point","coordinates":[-77.343542,39.491247]}},{"properties":{"city":"WALKERTOWN","margin":24,"geo_score":0.857,"zip code":"27051-9770","id":"a6k5b1lyfmwz","geo_precision":"zip","state":"NC"},"type":"Feature","geometry":{"type":"Point","coordinates":[-80.16357,36.191405]}},{"properties":{"city":"WARREN","margin":11,"geo_score":0.857,"zip code":"44484-2541","id":"a6k5b1nyqp29","geo_precision":"zip","state":"OH"},"type":"Feature","geometry":{"type":"Point","coordinates":[-80.740635,41.252835]}},{"properties":{"city":"WARRENTON","margin":26,"geo_score":0.857,"zip code":"20186-2201","id":"a6k5b1j6kr7l","geo_precision":"zip","state":"VA"},"type":"Feature","geometry":{"type":"Point","coordinates":[-77.836115,38.689832]}},{"properties":{"city":"WAYNESBORO","margin":20,"geo_score":0.857,"zip code":"17268-8513","id":"a6k5b1tuoh51","geo_precision":"zip","state":"PA"},"type":"Feature","geometry":{"type":"Point","coordinates":[-77.561936,39.748705]}},{"properties":{"city":"WAYNESBORO","margin":14,"geo_score":0.857,"zip code":"22980-1754","id":"a6k5b1w97z43","geo_precision":"zip","state":"VA"},"type":"Feature","geometry":{"type":"Point","coordinates":[-78.88058,38.139578]}},{"properties":{"city":"WAYNESBURG","margin":18,"geo_score":0.857,"zip code":"15370","id":"a6k5b1jwpqmb","geo_precision":"zip","state":"PA"},"type":"Feature","geometry":{"type":"Point","coordinates":[-80.186453,39.888964]}},{"properties":{"city":"WEIRTON","margin":12,"geo_score":0.857,"zip code":"26062-3828","id":"a6k5b1qjf78y","geo_precision":"zip","state":"WV"},"type":"Feature","geometry":{"type":"Point","coordinates":[-80.605351,40.398401]}},{"properties":{"city":"WENDELL","margin":22,"geo_score":0.857,"zip code":"27591","id":"a6k5b1kfnr1f","geo_precision":"zip","state":"NC"},"type":"Feature","geometry":{"type":"Point","coordinates":[-78.395966,35.811324]}},{"properties":{"city":"WESTMINSTER","margin":17,"geo_score":0.857,"zip code":"211575518","id":"a6k5b1wvux4q","geo_precision":"zip","state":"MD"},"type":"Feature","geometry":{"type":"Point","coordinates":[-77.012204,39.554823]}},{"properties":{"city":"WESTON","margin":12,"geo_score":0.857,"zip code":"26452-8367","id":"a6k5b1kf6z7b","geo_precision":"zip","state":"WV"},"type":"Feature","geometry":{"type":"Point","coordinates":[-80.509259,39.047871]}},{"properties":{"city":"WEXFORD","margin":3,"geo_score":0.857,"zip code":"15090-8349","id":"a6k5b1n6svnl","geo_precision":"zip","state":"PA"},"type":"Feature","geometry":{"type":"Point","coordinates":[-80.024817,40.434436]}},{"properties":{"city":"WHEELING","margin":20,"geo_score":0.857,"zip code":"26003-6438","id":"a6k5b1josu6i","geo_precision":"zip","state":"WV"},"type":"Feature","geometry":{"type":"Point","coordinates":[-80.585075,39.987575]}},{"properties":{"city":"WHITEHALL","margin":27,"geo_score":0.857,"zip code":"18052-1221","id":"a6k5b1nonax8","geo_precision":"zip","state":"PA"},"type":"Feature","geometry":{"type":"Point","coordinates":[-75.508239,40.665374]}},{"properties":{"city":"WILKES BARRE","margin":12,"geo_score":0.857,"zip code":"18702-6604","id":"a6k5b1odjang","geo_precision":"zip","state":"PA"},"type":"Feature","geometry":{"type":"Point","coordinates":[-75.836306,41.289248]}},{"properties":{"city":"WILLIAMSPORT","margin":13,"geo_score":0.857,"zip code":"217951108","id":"a6k5b1xoag3z","geo_precision":"zip","state":"MD"},"type":"Feature","geometry":{"type":"Point","coordinates":[-77.801661,39.548431]}},{"properties":{"city":"WILLIAMSPORT","margin":18,"geo_score":0.857,"zip code":"17701-5869","id":"a6k5b1tiy3f4","geo_precision":"zip","state":"PA"},"type":"Feature","geometry":{"type":"Point","coordinates":[-77.059691,41.281744]}},{"properties":{"city":"WILSON","margin":28,"geo_score":0.857,"zip code":"27893-9296","id":"a6k5b1ip741w","geo_precision":"zip","state":"NC"},"type":"Feature","geometry":{"type":"Point","coordinates":[-77.783034,35.706825]}},{"properties":{"city":"WINCHESTER","margin":3,"geo_score":0.857,"zip code":"22601-8688","id":"a6k5b1u3hyys","geo_precision":"zip","state":"VA"},"type":"Feature","geometry":{"type":"Point","coordinates":[-78.246669,39.157327]}},{"properties":{"city":"WINDBER","margin":21,"geo_score":0.857,"zip code":"15963-1711","id":"a6k5b1jly5vj","geo_precision":"zip","state":"PA"},"type":"Feature","geometry":{"type":"Point","coordinates":[-78.808077,40.217855]}},{"properties":{"city":"WINSTON SALEM","margin":8,"geo_score":0.857,"zip code":"27107","id":"a6k5b1uoxzto","geo_precision":"zip","state":"NC"},"type":"Feature","geometry":{"type":"Point","coordinates":[-80.203937,36.069582]}},{"properties":{"city":"WINTERVILLE","margin":5,"geo_score":0.857,"zip code":"28590-7931","id":"a6k5b1sr3mcn","geo_precision":"zip","state":"NC"},"type":"Feature","geometry":{"type":"Point","coordinates":[-77.35413,35.491552]}},{"properties":{"city":"WOODBRIDGE","margin":20,"geo_score":0.857,"zip code":"22193-7630","id":"a6k5b1mfao51","geo_precision":"zip","state":"VA"},"type":"Feature","geometry":{"type":"Point","coordinates":[-77.359152,38.680395]}},{"properties":{"city":"WOODSTOCK","margin":12,"geo_score":0.857,"zip code":"226641011","id":"a6k5b1s657ab","geo_precision":"zip","state":"VA"},"type":"Feature","geometry":{"type":"Point","coordinates":[-78.512429,38.918791]}},{"properties":{"city":"WYTHEVILLE","margin":4,"geo_score":0.857,"zip code":"24382-1000","id":"a6k5b1ucnetg","geo_precision":"zip","state":"VA"},"type":"Feature","geometry":{"type":"Point","coordinates":[-80.982304,36.864567]}},{"properties":{"city":"YORK","margin":8,"geo_score":0.857,"zip code":"17402","id":"a6k5b1p44dat","geo_precision":"zip","state":"PA"},"type":"Feature","geometry":{"type":"Point","coordinates":[-76.689918,40.001615]}},{"properties":{"city":"YOUNGSVILLE","margin":2,"geo_score":0.857,"zip code":"27596-9184","id":"a6k5b1n05974","geo_precision":"zip","state":"NC"},"type":"Feature","geometry":{"type":"Point","coordinates":[-78.353053,35.931541]}},{"properties":{"city":"YOUNGWOOD","margin":14,"geo_score":0.857,"zip code":"15697-1613","id":"a6k5b1le4a1x","geo_precision":"zip","state":"PA"},"type":"Feature","geometry":{"type":"Point","coordinates":[-79.566984,40.239792]}},{"properties":{"city":"ZANESVILLE","margin":19,"geo_score":0.857,"zip code":"43701-6171","id":"a6k5b1tjtll3","geo_precision":"zip","state":"OH"},"type":"Feature","geometry":{"type":"Point","coordinates":[-81.9043,39.984236]}},{"properties":{"city":"ZEBULON","margin":20,"geo_score":0.857,"zip code":"27597-8734","id":"a6k5b1x85ggg","geo_precision":"zip","state":"NC"},"type":"Feature","geometry":{"type":"Point","coordinates":[-78.264996,35.884876]}},{"properties":{"city":"ZION CROSSROADS","margin":23,"geo_score":0.857,"zip code":"22942","id":"a6k5b1qc1bcf","geo_precision":"zip","state":"VA"},"type":"Feature","geometry":{"type":"Point","coordinates":[-78.219726,37.970974]}}],"is_temporal":false,"author":{"url":"","metadata":"","contact_name":"","contact_address":"","source":"","contact_phone":""},"source":"","pagination":{"sort":null,"start":0,"total":306,"limit":1000000},"state":"complete","tags":"","published":"2014-08-14T19:32:11-04:00","id":253608}