{"type":"FeatureCollection","data_type":"Dataset","url_type":null,"permissions":[{"permissions":{"download":true,"view":true},"group_id":"everyone"}],"classification":null,"title":"Software v2","count":11,"stream_id":253657,"contributor":{"url":"http://geocommons.com/users/47629","name":"bwobst7531"},"data_attributes":null,"calculation_params":null,"icon_link":null,"link":"http://geocommons.com/overlays/253657.json","extent":[-117.174,31.4091,-74.4077,46.7093],"geometry_types":["point"],"unique_name":null,"name":"Software v2","feature_count":11,"description":"","next_feature":null,"is_raster":false,"short_classification":"Y","stats":{},"features":[{"properties":{"city":"San Diego","chapter":"Pacific West","geo_score":0.714,"customer name":"Technology Integration Group","id":"a6k6ydfyzyx0","geo_precision":"city","software brands":"OPEN, Tivoli - Storage Management","state":"CA"},"type":"Feature","geometry":{"type":"Point","coordinates":[-117.174366,32.7211]}},{"properties":{"city":"Naperville","chapter":"Great Lakes","geo_score":0.714,"customer name":"Pace Systems","id":"a6k6yd8qmlie","geo_precision":"city","software brands":"SPSS Statistics","state":"IL"},"type":"Feature","geometry":{"type":"Point","coordinates":[-88.152381,41.759029]}},{"properties":{"city":"Helena","chapter":"Pacific West","geo_score":0.714,"customer name":"Marlow Entertainment  Inc.","id":"a6k6ydcobwxk","geo_precision":"city","software brands":"OPEN","state":"MT"},"type":"Feature","geometry":{"type":"Point","coordinates":[-112.197616,46.70934]}},{"properties":{"city":"Parsippany","chapter":"Big Apple","geo_score":0.714,"customer name":"Revelwood Inc","id":"a6k6ydexsvur","geo_precision":"city","software brands":"Cognos","state":"NJ"},"type":"Feature","geometry":{"type":"Point","coordinates":[-74.407706,40.852118]}},{"properties":{"city":"Parsippany","chapter":"Big Apple","geo_score":0.714,"customer name":"Fyi Systems Inc","id":"a6k6ydk3r17r","geo_precision":"city","software brands":"Cognos","state":"NJ"},"type":"Feature","geometry":{"type":"Point","coordinates":[-74.407706,40.852118]}},{"properties":{"city":"Rochester","chapter":"Snow Belt","geo_score":0.714,"customer name":"Lpa Systems Inc","id":"a6k6ydi1lnqt","geo_precision":"city","software brands":"Cognos, IM - Heritage CM, Websphere - Core","state":"NY"},"type":"Feature","geometry":{"type":"Point","coordinates":[-77.684264,43.286024]}},{"properties":{"city":"Cincinnati","chapter":"Snow Belt","geo_score":0.714,"customer name":"Data Processing Sciences Corp.","id":"a6k6ydjm8llj","geo_precision":"city","software brands":"OPEN","state":"OH"},"type":"Feature","geometry":{"type":"Point","coordinates":[-84.53822,39.166759]}},{"properties":{"city":"Bellwood","chapter":"MidAtlantic","geo_score":0.714,"customer name":"Link Computer Corp.","id":"a6k6yd8rzlyr","geo_precision":"city","software brands":"OPEN, Lotus","state":"PA"},"type":"Feature","geometry":{"type":"Point","coordinates":[-78.363835,40.562667]}},{"properties":{"city":"Wyomissing","chapter":"MidAtlantic","geo_score":0.714,"customer name":"Weidenhammer Systems Corporation","id":"a6k6ydbolar2","geo_precision":"city","software brands":"SS &amp; UC, Lotus","state":"PA"},"type":"Feature","geometry":{"type":"Point","coordinates":[-75.979657,40.337593]}},{"properties":{"city":"Millington","chapter":"Southeast","geo_score":0.714,"customer name":"Unistar-Sparco Computers  Inc","id":"a6k6ydhdyy9v","geo_precision":"city","software brands":"OPEN, Rational, DOC/Media, IM - Data Management, SS &amp; UC, Lotus","state":"TN"},"type":"Feature","geometry":{"type":"Point","coordinates":[-89.892286,35.320197]}},{"properties":{"city":"Odessa","chapter":"Lone Star","geo_score":0.714,"customer name":"Synetra Inc","id":"a6k6ydarfeyl","geo_precision":"city","software brands":"OPEN","state":"TX"},"type":"Feature","geometry":{"type":"Point","coordinates":[-96.715817,31.409063]}}],"is_temporal":false,"author":{"url":"","metadata":"","contact_name":"","contact_address":"","source":"","contact_phone":""},"source":"","pagination":{"sort":null,"start":0,"total":11,"limit":1000000},"state":"complete","tags":"","published":"2014-08-14T19:35:15-04:00","id":253657}