{"type":"FeatureCollection","data_type":"Dataset","url_type":null,"permissions":[{"permissions":{"download":true,"view":true},"group_id":"everyone"}],"classification":null,"title":"Margin Geocommons2.03","count":306,"stream_id":253642,"contributor":{"url":"http://geocommons.com/users/19917","name":"diethrick@gmail.com"},"data_attributes":null,"calculation_params":null,"icon_link":null,"link":"http://geocommons.com/overlays/253642.json","extent":[-82.4838,35.4916,-75.341,42.0809],"geometry_types":["point"],"unique_name":null,"name":"Margin Geocommons2.03","feature_count":306,"description":"","next_feature":null,"is_raster":false,"short_classification":"Y","stats":{"size":{"max":10,"variance":8.5893924783028,"mean":4.88235294117647,"stdev":2.93076653425393,"min":0,"median":5},"margin":{"max":30,"variance":70.0659594985535,"mean":15.5882352941176,"stdev":8.37054117118801,"min":0,"median":16}},"features":[{"properties":{"city":"AKRON","size":6,"margin":4,"geo_score":0.857,"zip code":"44319-1117","id":"a6k652017rkd","geo_precision":"zip","state":"OH"},"type":"Feature","geometry":{"type":"Point","coordinates":[-81.492894,40.975056]}},{"properties":{"city":"ALLIANCE","size":9,"margin":29,"geo_score":0.857,"zip code":"44601-4717","id":"a6k6526w3gy2","geo_precision":"zip","state":"OH"},"type":"Feature","geometry":{"type":"Point","coordinates":[-81.105931,40.901447]}},{"properties":{"city":"ALTOONA","size":8,"margin":23,"geo_score":0.857,"zip code":"16602-1111","id":"a6k65254r292","geo_precision":"zip","state":"PA"},"type":"Feature","geometry":{"type":"Point","coordinates":[-78.392513,40.465905]}},{"properties":{"city":"ARCHDALE","size":3,"margin":2,"geo_score":0.857,"zip code":"27263","id":"a6k652dedj7n","geo_precision":"zip","state":"NC"},"type":"Feature","geometry":{"type":"Point","coordinates":[-79.971983,35.914581]}},{"properties":{"city":"ASHEBORO","size":5,"margin":0,"geo_score":0.857,"zip code":"27203","id":"a6k6528loh30","geo_precision":"zip","state":"NC"},"type":"Feature","geometry":{"type":"Point","coordinates":[-79.976987,35.65347]}},{"properties":{"city":"ASHLAND","size":3,"margin":21,"geo_score":0.857,"zip code":"23005-7941","id":"a6k652ar8iul","geo_precision":"zip","state":"VA"},"type":"Feature","geometry":{"type":"Point","coordinates":[-77.480128,37.754912]}},{"properties":{"city":"ASHTABULA","size":4,"margin":23,"geo_score":0.857,"zip code":"44004-5305","id":"a6k651zmy6c7","geo_precision":"zip","state":"OH"},"type":"Feature","geometry":{"type":"Point","coordinates":[-80.74349,41.772583]}},{"properties":{"city":"AUSTINTOWN","size":5,"margin":25,"geo_score":0.857,"zip code":"44515-2420","id":"a6k6527c6zk4","geo_precision":"zip","state":"OH"},"type":"Feature","geometry":{"type":"Point","coordinates":[-80.793137,41.09978]}},{"properties":{"city":"BADEN","size":8,"margin":25,"geo_score":0.857,"zip code":"15005-1931","id":"a6k6526i6e6b","geo_precision":"zip","state":"PA"},"type":"Feature","geometry":{"type":"Point","coordinates":[-80.188949,40.647289]}},{"properties":{"city":"BARBOURSVILLE","size":5,"margin":24,"geo_score":0.857,"zip code":"25504-1821","id":"a6k652b58v84","geo_precision":"zip","state":"WV"},"type":"Feature","geometry":{"type":"Point","coordinates":[-82.334594,38.380085]}},{"properties":{"city":"BEALETON","size":6,"margin":4,"geo_score":0.857,"zip code":"22712-6931","id":"a6k652b81hwp","geo_precision":"zip","state":"VA"},"type":"Feature","geometry":{"type":"Point","coordinates":[-77.699991,38.501792]}},{"properties":{"city":"BEAVER","size":8,"margin":26,"geo_score":0.857,"zip code":"25813","id":"a6k652612fbb","geo_precision":"zip","state":"WV"},"type":"Feature","geometry":{"type":"Point","coordinates":[-81.1973,37.753437]}},{"properties":{"city":"BEAVER FALLS","size":1,"margin":15,"geo_score":0.857,"zip code":"15010-3414","id":"a6k652frugha","geo_precision":"zip","state":"PA"},"type":"Feature","geometry":{"type":"Point","coordinates":[-80.325619,40.760621]}},{"properties":{"city":"BECKLEY","size":10,"margin":11,"geo_score":0.857,"zip code":"25801","id":"a6k6520exxbg","geo_precision":"zip","state":"WV"},"type":"Feature","geometry":{"type":"Point","coordinates":[-81.172044,37.769282]}},{"properties":{"city":"BEDFORD","size":9,"margin":10,"geo_score":0.857,"zip code":"15522-3703","id":"a6k652cdfevb","geo_precision":"zip","state":"PA"},"type":"Feature","geometry":{"type":"Point","coordinates":[-78.52974,40.046469]}},{"properties":{"city":"BELINGTON","size":4,"margin":16,"geo_score":0.857,"zip code":"26250-9538","id":"a6k6523wjxnz","geo_precision":"zip","state":"WV"},"type":"Feature","geometry":{"type":"Point","coordinates":[-79.936185,38.995381]}},{"properties":{"city":"BELLE VERNON","size":1,"margin":21,"geo_score":0.857,"zip code":"15012","id":"a6k6522m4ue0","geo_precision":"zip","state":"PA"},"type":"Feature","geometry":{"type":"Point","coordinates":[-79.881992,40.133683]}},{"properties":{"city":"BELLEFONTE","size":1,"margin":26,"geo_score":0.857,"zip code":"16823-4734","id":"a6k652cuu5yo","geo_precision":"zip","state":"PA"},"type":"Feature","geometry":{"type":"Point","coordinates":[-77.758057,40.917839]}},{"properties":{"city":"BENSON","size":0,"margin":20,"geo_score":0.857,"zip code":"27504","id":"a6k652csgc5i","geo_precision":"zip","state":"NC"},"type":"Feature","geometry":{"type":"Point","coordinates":[-78.543619,35.514327]}},{"properties":{"city":"BERKELEY SPRINGS","size":4,"margin":28,"geo_score":0.857,"zip code":"25411-1418","id":"a6k6520gwl5q","geo_precision":"zip","state":"WV"},"type":"Feature","geometry":{"type":"Point","coordinates":[-78.082503,39.667038]}},{"properties":{"city":"BERWICK","size":5,"margin":29,"geo_score":0.857,"zip code":"18603","id":"a6k6522usiev","geo_precision":"zip","state":"PA"},"type":"Feature","geometry":{"type":"Point","coordinates":[-76.26688,41.068696]}},{"properties":{"city":"BETHLEHEM","size":9,"margin":24,"geo_score":0.857,"zip code":"18017-2103","id":"a6k652e634f4","geo_precision":"zip","state":"PA"},"type":"Feature","geometry":{"type":"Point","coordinates":[-75.341013,40.680653]}},{"properties":{"city":"BIRDSBORO","size":5,"margin":20,"geo_score":0.857,"zip code":"19508-1017","id":"a6k652djs9jp","geo_precision":"zip","state":"PA"},"type":"Feature","geometry":{"type":"Point","coordinates":[-75.87187,40.284259]}},{"properties":{"city":"BLAIRSVILLE","size":2,"margin":7,"geo_score":0.857,"zip code":"157171323","id":"a6k652dzhu3v","geo_precision":"zip","state":"PA"},"type":"Feature","geometry":{"type":"Point","coordinates":[-79.094476,40.472014]}},{"properties":{"city":"BLOOMSBURG","size":1,"margin":3,"geo_score":0.857,"zip code":"17815-8848","id":"a6k652a64ag3","geo_precision":"zip","state":"PA"},"type":"Feature","geometry":{"type":"Point","coordinates":[-76.474114,40.979254]}},{"properties":{"city":"BOONSBORO","size":8,"margin":16,"geo_score":0.857,"zip code":"21713-1624","id":"a6k6527prza1","geo_precision":"zip","state":"MD"},"type":"Feature","geometry":{"type":"Point","coordinates":[-77.623879,39.485378]}},{"properties":{"city":"BOYCE","size":7,"margin":1,"geo_score":0.857,"zip code":"22620-2030","id":"a6k652b7pad3","geo_precision":"zip","state":"VA"},"type":"Feature","geometry":{"type":"Point","coordinates":[-78.060132,39.048614]}},{"properties":{"city":"BREEZEWOOD","size":1,"margin":7,"geo_score":0.857,"zip code":"155330282","id":"a6k652flex8h","geo_precision":"zip","state":"PA"},"type":"Feature","geometry":{"type":"Point","coordinates":[-78.241678,39.953418]}},{"properties":{"city":"BRIDGEPORT","size":5,"margin":9,"geo_score":0.857,"zip code":"26330-1354","id":"a6k652cctjwi","geo_precision":"zip","state":"WV"},"type":"Feature","geometry":{"type":"Point","coordinates":[-80.215641,39.275369]}},{"properties":{"city":"BROCKWAY","size":5,"margin":11,"geo_score":0.857,"zip code":"158241638","id":"a6k6525fg7ig","geo_precision":"zip","state":"PA"},"type":"Feature","geometry":{"type":"Point","coordinates":[-78.820586,41.210062]}},{"properties":{"city":"BROOKVILLE","size":6,"margin":2,"geo_score":0.857,"zip code":"158251552","id":"a6k6523cvlgl","geo_precision":"zip","state":"PA"},"type":"Feature","geometry":{"type":"Point","coordinates":[-79.14615,41.177842]}},{"properties":{"city":"BUCKHANNON","size":5,"margin":21,"geo_score":0.857,"zip code":"26201-8400","id":"a6k6526ypc64","geo_precision":"zip","state":"WV"},"type":"Feature","geometry":{"type":"Point","coordinates":[-80.127579,38.895936]}},{"properties":{"city":"BURLINGTON","size":6,"margin":30,"geo_score":0.857,"zip code":"27215-6256","id":"a6k652atjnkl","geo_precision":"zip","state":"NC"},"type":"Feature","geometry":{"type":"Point","coordinates":[-79.430129,36.091025]}},{"properties":{"city":"BUTLER","size":9,"margin":24,"geo_score":0.857,"zip code":"16001-3508","id":"a6k6526nzi0w","geo_precision":"zip","state":"PA"},"type":"Feature","geometry":{"type":"Point","coordinates":[-79.906999,40.904231]}},{"properties":{"city":"CALIFORNIA","size":7,"margin":5,"geo_score":0.857,"zip code":"20619-3073","id":"a6k6524yvq2h","geo_precision":"zip","state":"MD"},"type":"Feature","geometry":{"type":"Point","coordinates":[-76.637383,38.324994]}},{"properties":{"city":"CAMBRIDGE","size":3,"margin":7,"geo_score":0.857,"zip code":"43725-3080","id":"a6k6520or5df","geo_precision":"zip","state":"OH"},"type":"Feature","geometry":{"type":"Point","coordinates":[-81.645679,40.094516]}},{"properties":{"city":"CANFIELD","size":9,"margin":7,"geo_score":0.857,"zip code":"44406-8130","id":"a6k6527fk4g1","geo_precision":"zip","state":"OH"},"type":"Feature","geometry":{"type":"Point","coordinates":[-80.838417,41.048947]}},{"properties":{"city":"CANONSBURG","size":2,"margin":27,"geo_score":0.857,"zip code":"15317-2254","id":"a6k6527zcjic","geo_precision":"zip","state":"PA"},"type":"Feature","geometry":{"type":"Point","coordinates":[-80.12842,40.155704]}},{"properties":{"city":"CANTON","size":0,"margin":30,"geo_score":0.857,"zip code":"44708-5013","id":"a6k6526n7mqs","geo_precision":"zip","state":"OH"},"type":"Feature","geometry":{"type":"Point","coordinates":[-81.414282,40.826447]}},{"properties":{"city":"CARLISLE","size":7,"margin":26,"geo_score":0.857,"zip code":"170131615","id":"a6k6524xz7yf","geo_precision":"zip","state":"PA"},"type":"Feature","geometry":{"type":"Point","coordinates":[-77.164425,40.27092]}},{"properties":{"city":"CARMICHAELS","size":7,"margin":11,"geo_score":0.857,"zip code":"153209501","id":"a6k652c5x59k","geo_precision":"zip","state":"PA"},"type":"Feature","geometry":{"type":"Point","coordinates":[-79.980612,39.862021]}},{"properties":{"city":"CARROLLTOWN","size":10,"margin":3,"geo_score":0.857,"zip code":"15722-7206","id":"a6k6524yfx0m","geo_precision":"zip","state":"PA"},"type":"Feature","geometry":{"type":"Point","coordinates":[-78.728455,40.583025]}},{"properties":{"city":"CHAMBERSBURG","size":2,"margin":13,"geo_score":0.857,"zip code":"172012101","id":"a6k652c4z1l7","geo_precision":"zip","state":"PA"},"type":"Feature","geometry":{"type":"Point","coordinates":[-77.630546,39.927869]}},{"properties":{"city":"CHANTILLY","size":6,"margin":29,"geo_score":0.857,"zip code":"20151-1940","id":"a6k652f92b8l","geo_precision":"zip","state":"VA"},"type":"Feature","geometry":{"type":"Point","coordinates":[-77.44566,38.88668]}},{"properties":{"city":"CHARDON","size":7,"margin":22,"geo_score":0.857,"zip code":"44024","id":"a6k65210fruf","geo_precision":"zip","state":"OH"},"type":"Feature","geometry":{"type":"Point","coordinates":[-81.145655,41.604218]}},{"properties":{"city":"CHARLES TOWN","size":1,"margin":26,"geo_score":0.857,"zip code":"25414-4476","id":"a6k652fv9577","geo_precision":"zip","state":"WV"},"type":"Feature","geometry":{"type":"Point","coordinates":[-77.860278,39.313538]}},{"properties":{"city":"CHESTER","size":5,"margin":3,"geo_score":0.857,"zip code":"23836-2613","id":"a6k65224f4p3","geo_precision":"zip","state":"VA"},"type":"Feature","geometry":{"type":"Point","coordinates":[-77.338551,37.347458]}},{"properties":{"city":"CHRISTIANSBURG","size":7,"margin":5,"geo_score":0.857,"zip code":"24073-1208","id":"a6k652anoh6a","geo_precision":"zip","state":"VA"},"type":"Feature","geometry":{"type":"Point","coordinates":[-80.572003,37.221515]}},{"properties":{"city":"CLARION","size":2,"margin":18,"geo_score":0.857,"zip code":"162141211","id":"a6k6526m08iu","geo_precision":"zip","state":"PA"},"type":"Feature","geometry":{"type":"Point","coordinates":[-79.343377,41.252007]}},{"properties":{"city":"CLARKS SUMMIT","size":7,"margin":17,"geo_score":0.857,"zip code":"18411-2221","id":"a6k652ej9iz2","geo_precision":"zip","state":"PA"},"type":"Feature","geometry":{"type":"Point","coordinates":[-75.699636,41.492856]}},{"properties":{"city":"CLARKSBURG","size":3,"margin":10,"geo_score":0.857,"zip code":"26301","id":"a6k6523nu74i","geo_precision":"zip","state":"WV"},"type":"Feature","geometry":{"type":"Point","coordinates":[-80.338701,39.285089]}},{"properties":{"city":"CLAYSBURG","size":6,"margin":7,"geo_score":0.857,"zip code":"16625","id":"a6k652fjbshy","geo_precision":"zip","state":"PA"},"type":"Feature","geometry":{"type":"Point","coordinates":[-78.512794,40.299242]}},{"properties":{"city":"CLEARFIELD","size":5,"margin":18,"geo_score":0.857,"zip code":"168302433","id":"a6k652464pes","geo_precision":"zip","state":"PA"},"type":"Feature","geometry":{"type":"Point","coordinates":[-78.325572,41.073947]}},{"properties":{"city":"CLYMER","size":7,"margin":14,"geo_score":0.857,"zip code":"15728-1178","id":"a6k6529dotz0","geo_precision":"zip","state":"PA"},"type":"Feature","geometry":{"type":"Point","coordinates":[-78.878362,40.647289]}},{"properties":{"city":"COLONIAL HEIGHTS","size":7,"margin":23,"geo_score":0.857,"zip code":"23834-2944","id":"a6k652bl0qbe","geo_precision":"zip","state":"VA"},"type":"Feature","geometry":{"type":"Point","coordinates":[-77.396989,37.26219]}},{"properties":{"city":"CONNEAUT LAKE","size":7,"margin":14,"geo_score":0.857,"zip code":"163165096","id":"a6k652dks6rt","geo_precision":"zip","state":"PA"},"type":"Feature","geometry":{"type":"Point","coordinates":[-80.326731,41.574221]}},{"properties":{"city":"CONNELLSVILLE","size":8,"margin":18,"geo_score":0.857,"zip code":"154252408","id":"a6k652fm9xnk","geo_precision":"zip","state":"PA"},"type":"Feature","geometry":{"type":"Point","coordinates":[-79.571149,40.019519]}},{"properties":{"city":"CORRIGANVILLE","size":8,"margin":12,"geo_score":0.857,"zip code":"215240298","id":"a6k652etyxx2","geo_precision":"zip","state":"MD"},"type":"Feature","geometry":{"type":"Point","coordinates":[-78.803067,39.69668]}},{"properties":{"city":"COUDERSPORT","size":5,"margin":1,"geo_score":0.857,"zip code":"169151306","id":"a6k652fysxqq","geo_precision":"zip","state":"PA"},"type":"Feature","geometry":{"type":"Point","coordinates":[-77.956692,41.776165]}},{"properties":{"city":"CRANBERRY","size":9,"margin":10,"geo_score":0.857,"zip code":"163190228","id":"a6k652fv8sfw","geo_precision":"zip","state":"PA"},"type":"Feature","geometry":{"type":"Point","coordinates":[-79.738809,41.398105]}},{"properties":{"city":"CRANBERRY TOWNSHIP","size":7,"margin":21,"geo_score":0.857,"zip code":"16066","id":"a6k6522h7y8z","geo_precision":"zip","state":"PA"},"type":"Feature","geometry":{"type":"Point","coordinates":[-80.104597,40.709713]}},{"properties":{"city":"CREIGHTON","size":6,"margin":6,"geo_score":0.857,"zip code":"150301065","id":"a6k6529ajbwt","geo_precision":"zip","state":"PA"},"type":"Feature","geometry":{"type":"Point","coordinates":[-80.024817,40.434436]}},{"properties":{"city":"CRESAPTOWN","size":5,"margin":18,"geo_score":0.857,"zip code":"21502-5608","id":"a6k65294jo0d","geo_precision":"zip","state":"MD"},"type":"Feature","geometry":{"type":"Point","coordinates":[-78.793908,39.674531]}},{"properties":{"city":"CRESSON","size":4,"margin":19,"geo_score":0.857,"zip code":"166301017","id":"a6k6525839kz","geo_precision":"zip","state":"PA"},"type":"Feature","geometry":{"type":"Point","coordinates":[-78.58946,40.470718]}},{"properties":{"city":"CUMBERLAND","size":5,"margin":23,"geo_score":0.857,"zip code":"21502","id":"a6k6523dae9b","geo_precision":"zip","state":"MD"},"type":"Feature","geometry":{"type":"Point","coordinates":[-78.793908,39.674531]}},{"properties":{"city":"CUYAHOGA FALLS","size":10,"margin":3,"geo_score":0.857,"zip code":"44221-4923","id":"a6k652en8js0","geo_precision":"zip","state":"OH"},"type":"Feature","geometry":{"type":"Point","coordinates":[-81.473585,41.143906]}},{"properties":{"city":"DANVILLE","size":3,"margin":13,"geo_score":0.857,"zip code":"245414631","id":"a6k6529zpyr9","geo_precision":"zip","state":"VA"},"type":"Feature","geometry":{"type":"Point","coordinates":[-79.472525,36.547083]}},{"properties":{"city":"DILLSBURG","size":3,"margin":17,"geo_score":0.857,"zip code":"17019-1610","id":"a6k652clkeq6","geo_precision":"zip","state":"PA"},"type":"Feature","geometry":{"type":"Point","coordinates":[-77.062757,40.058704]}},{"properties":{"city":"DOBSON","size":8,"margin":30,"geo_score":0.857,"zip code":"27017","id":"a6k65285atfv","geo_precision":"zip","state":"NC"},"type":"Feature","geometry":{"type":"Point","coordinates":[-80.628674,36.344581]}},{"properties":{"city":"DUBOIS","size":8,"margin":20,"geo_score":0.857,"zip code":"158012539","id":"a6k6529vfygh","geo_precision":"zip","state":"PA"},"type":"Feature","geometry":{"type":"Point","coordinates":[-78.791142,41.057006]}},{"properties":{"city":"DUNCANNON","size":6,"margin":15,"geo_score":0.857,"zip code":"17020-9553","id":"a6k65232yfne","geo_precision":"zip","state":"PA"},"type":"Feature","geometry":{"type":"Point","coordinates":[-77.009422,40.403975]}},{"properties":{"city":"DUNCANSVILLE","size":4,"margin":9,"geo_score":0.857,"zip code":"16635-8456","id":"a6k6527r85sj","geo_precision":"zip","state":"PA"},"type":"Feature","geometry":{"type":"Point","coordinates":[-78.455292,40.415906]}},{"properties":{"city":"DUNMORE","size":9,"margin":21,"geo_score":0.857,"zip code":"18512-1705","id":"a6k6528ht0t1","geo_precision":"zip","state":"PA"},"type":"Feature","geometry":{"type":"Point","coordinates":[-75.611855,41.451469]}},{"properties":{"city":"DURHAM","size":9,"margin":4,"geo_score":0.857,"zip code":"27703-9045","id":"a6k652cgr9dr","geo_precision":"zip","state":"NC"},"type":"Feature","geometry":{"type":"Point","coordinates":[-78.821694,35.957366]}},{"properties":{"city":"EAST FREEDOM","size":4,"margin":24,"geo_score":0.857,"zip code":"16637-8039","id":"a6k6524z42t0","geo_precision":"zip","state":"PA"},"type":"Feature","geometry":{"type":"Point","coordinates":[-78.417236,40.359797]}},{"properties":{"city":"EAST LIVERPOOL","size":3,"margin":29,"geo_score":0.857,"zip code":"439209626","id":"a6k652bwg0ay","geo_precision":"zip","state":"OH"},"type":"Feature","geometry":{"type":"Point","coordinates":[-80.597849,40.645897]}},{"properties":{"city":"EBENSBURG","size":9,"margin":11,"geo_score":0.857,"zip code":"159311806","id":"a6k652fgtsfe","geo_precision":"zip","state":"PA"},"type":"Feature","geometry":{"type":"Point","coordinates":[-78.742521,40.480072]}},{"properties":{"city":"EDEN","size":8,"margin":28,"geo_score":0.857,"zip code":"27288","id":"a6k652a56fts","geo_precision":"zip","state":"NC"},"type":"Feature","geometry":{"type":"Point","coordinates":[-79.693366,36.517916]}},{"properties":{"city":"EDINBORO","size":9,"margin":30,"geo_score":0.857,"zip code":"16412-1256","id":"a6k6526rlej2","geo_precision":"zip","state":"PA"},"type":"Feature","geometry":{"type":"Point","coordinates":[-80.157715,41.90425]}},{"properties":{"city":"ELYSBURG","size":5,"margin":17,"geo_score":0.857,"zip code":"17824-9669","id":"a6k6528nqimf","geo_precision":"zip","state":"PA"},"type":"Feature","geometry":{"type":"Point","coordinates":[-76.444118,40.854253]}},{"properties":{"city":"EMPORIUM","size":9,"margin":4,"geo_score":0.857,"zip code":"158341215","id":"a6k6528jncy2","geo_precision":"zip","state":"PA"},"type":"Feature","geometry":{"type":"Point","coordinates":[-78.23157,41.51031]}},{"properties":{"city":"EPHRATA","size":7,"margin":5,"geo_score":0.857,"zip code":"17522-9550","id":"a6k652acahb8","geo_precision":"zip","state":"PA"},"type":"Feature","geometry":{"type":"Point","coordinates":[-76.201062,40.196483]}},{"properties":{"city":"ERIE","size":0,"margin":22,"geo_score":0.857,"zip code":"16506-1438","id":"a6k6523ewqvw","geo_precision":"zip","state":"PA"},"type":"Feature","geometry":{"type":"Point","coordinates":[-80.140894,42.08089]}},{"properties":{"city":"EVERETT","size":0,"margin":25,"geo_score":0.857,"zip code":"155371169","id":"a6k652fupgky","geo_precision":"zip","state":"PA"},"type":"Feature","geometry":{"type":"Point","coordinates":[-78.324458,39.973417]}},{"properties":{"city":"FAIRLAWN","size":6,"margin":4,"geo_score":0.857,"zip code":"24141-8501","id":"a6k6523l4mas","geo_precision":"zip","state":"VA"},"type":"Feature","geometry":{"type":"Point","coordinates":[-80.548668,37.163738]}},{"properties":{"city":"FALLS CREEK","size":3,"margin":20,"geo_score":0.857,"zip code":"15840-9515","id":"a6k6521wi9ro","geo_precision":"zip","state":"PA"},"type":"Feature","geometry":{"type":"Point","coordinates":[-78.820695,41.149752]}},{"properties":{"city":"FARMVILLE","size":2,"margin":13,"geo_score":0.857,"zip code":"23901-7500","id":"a6k65259wqv0","geo_precision":"zip","state":"VA"},"type":"Feature","geometry":{"type":"Point","coordinates":[-78.443051,37.230153]}},{"properties":{"city":"FAYETTEVILLE","size":7,"margin":18,"geo_score":0.857,"zip code":"25840","id":"a6k6529uz5kr","geo_precision":"zip","state":"WV"},"type":"Feature","geometry":{"type":"Point","coordinates":[-81.162604,38.053999]}},{"properties":{"city":"FISHERVILLE","size":6,"margin":25,"geo_score":0.857,"zip code":"22939","id":"a6k65282wrts","geo_precision":"zip","state":"VA"},"type":"Feature","geometry":{"type":"Point","coordinates":[-78.943637,38.110968]}},{"properties":{"city":"FLEETWOOD","size":1,"margin":25,"geo_score":0.857,"zip code":"19522-8663","id":"a6k6527a9xyj","geo_precision":"zip","state":"PA"},"type":"Feature","geometry":{"type":"Point","coordinates":[-75.821866,40.42676]}},{"properties":{"city":"FOLLANSBEE","size":1,"margin":10,"geo_score":0.857,"zip code":"26037","id":"a6k6521ryxkt","geo_precision":"zip","state":"WV"},"type":"Feature","geometry":{"type":"Point","coordinates":[-80.577572,40.324792]}},{"properties":{"city":"FORD CITY","size":8,"margin":24,"geo_score":0.857,"zip code":"162261813","id":"a6k6524bowvv","geo_precision":"zip","state":"PA"},"type":"Feature","geometry":{"type":"Point","coordinates":[-79.458098,40.670065]}},{"properties":{"city":"FOREST","size":10,"margin":27,"geo_score":0.857,"zip code":"24551-4370","id":"a6k6523vy0qq","geo_precision":"zip","state":"VA"},"type":"Feature","geometry":{"type":"Point","coordinates":[-79.357807,37.382364]}},{"properties":{"city":"FRANKLIN","size":7,"margin":13,"geo_score":0.857,"zip code":"16323-1281","id":"a6k652d69sij","geo_precision":"zip","state":"PA"},"type":"Feature","geometry":{"type":"Point","coordinates":[-79.896723,41.450334]}},{"properties":{"city":"FREDERICK","size":9,"margin":14,"geo_score":0.857,"zip code":"217018311","id":"a6k6521ds58h","geo_precision":"zip","state":"MD"},"type":"Feature","geometry":{"type":"Point","coordinates":[-77.48582,39.420657]}},{"properties":{"city":"FREDERICKSBURG","size":2,"margin":12,"geo_score":0.857,"zip code":"22405-3241","id":"a6k652b44e00","geo_precision":"zip","state":"VA"},"type":"Feature","geometry":{"type":"Point","coordinates":[-77.46054,38.303184]}},{"properties":{"city":"FROSTBURG","size":1,"margin":14,"geo_score":0.857,"zip code":"21532-1451","id":"a6k6520ti1pi","geo_precision":"zip","state":"MD"},"type":"Feature","geometry":{"type":"Point","coordinates":[-78.950858,39.608422]}},{"properties":{"city":"FUQUAY-VARINA","size":9,"margin":21,"geo_score":0.857,"zip code":"27526-9021","id":"a6k6521bhq2i","geo_precision":"zip","state":"NC"},"type":"Feature","geometry":{"type":"Point","coordinates":[-78.770291,35.572936]}},{"properties":{"city":"GETTYSBURG","size":9,"margin":11,"geo_score":0.857,"zip code":"17325-8376","id":"a6k652beoo49","geo_precision":"zip","state":"PA"},"type":"Feature","geometry":{"type":"Point","coordinates":[-77.226591,39.840922]}},{"properties":{"city":"GIBSONIA","size":6,"margin":24,"geo_score":0.857,"zip code":"150449808","id":"a6k65236l6gk","geo_precision":"zip","state":"PA"},"type":"Feature","geometry":{"type":"Point","coordinates":[-80.024817,40.434436]}},{"properties":{"city":"GIRARD","size":9,"margin":15,"geo_score":0.857,"zip code":"44420-3148","id":"a6k6525qjwso","geo_precision":"zip","state":"OH"},"type":"Feature","geometry":{"type":"Point","coordinates":[-80.7223,41.143947]}},{"properties":{"city":"GRAHAM","size":7,"margin":6,"geo_score":0.857,"zip code":"27253","id":"a6k6526oamz0","geo_precision":"zip","state":"NC"},"type":"Feature","geometry":{"type":"Point","coordinates":[-79.347527,35.972114]}},{"properties":{"city":"GREAT MILLS","size":6,"margin":2,"geo_score":0.857,"zip code":"20634-5300","id":"a6k6528tuliw","geo_precision":"zip","state":"MD"},"type":"Feature","geometry":{"type":"Point","coordinates":[-76.501513,38.242387]}},{"properties":{"city":"GREENCASTLE","size":5,"margin":24,"geo_score":0.857,"zip code":"172251411","id":"a6k6524rci3x","geo_precision":"zip","state":"PA"},"type":"Feature","geometry":{"type":"Point","coordinates":[-77.852219,39.764816]}},{"properties":{"city":"GREENSBORO","size":6,"margin":24,"geo_score":0.857,"zip code":"27407-1910","id":"a6k65264teyk","geo_precision":"zip","state":"NC"},"type":"Feature","geometry":{"type":"Point","coordinates":[-79.888672,36.001791]}},{"properties":{"city":"GREENSBURG","size":1,"margin":23,"geo_score":0.857,"zip code":"15601-1911","id":"a6k6524o5k07","geo_precision":"zip","state":"PA"},"type":"Feature","geometry":{"type":"Point","coordinates":[-79.545598,40.430901]}},{"properties":{"city":"GREENVILLE","size":7,"margin":17,"geo_score":0.857,"zip code":"161252612","id":"a6k652bshz19","geo_precision":"zip","state":"PA"},"type":"Feature","geometry":{"type":"Point","coordinates":[-80.398957,41.379777]}},{"properties":{"city":"GROVE CITY","size":8,"margin":18,"geo_score":0.857,"zip code":"16127","id":"a6k652f2xl02","geo_precision":"zip","state":"PA"},"type":"Feature","geometry":{"type":"Point","coordinates":[-80.044503,41.22867]}},{"properties":{"city":"HAGERSTOWN","size":5,"margin":29,"geo_score":0.857,"zip code":"217403840","id":"a6k652deg65n","geo_precision":"zip","state":"MD"},"type":"Feature","geometry":{"type":"Point","coordinates":[-77.712215,39.686206]}},{"properties":{"city":"HALIFAX","size":2,"margin":22,"geo_score":0.857,"zip code":"17032-9044","id":"a6k652flq9ky","geo_precision":"zip","state":"PA"},"type":"Feature","geometry":{"type":"Point","coordinates":[-76.849695,40.491752]}},{"properties":{"city":"HANCOCK","size":9,"margin":2,"geo_score":0.857,"zip code":"217501433","id":"a6k65229bwmk","geo_precision":"zip","state":"MD"},"type":"Feature","geometry":{"type":"Point","coordinates":[-78.190841,39.703425]}},{"properties":{"city":"HANOVER","size":3,"margin":19,"geo_score":0.857,"zip code":"17331-1201","id":"a6k65248mm0w","geo_precision":"zip","state":"PA"},"type":"Feature","geometry":{"type":"Point","coordinates":[-76.973313,39.825099]}},{"properties":{"city":"HARRISBURG","size":9,"margin":28,"geo_score":0.857,"zip code":"171129189","id":"a6k6529yr6kq","geo_precision":"zip","state":"PA"},"type":"Feature","geometry":{"type":"Point","coordinates":[-76.789138,40.333977]}},{"properties":{"city":"HARRISONBURG","size":5,"margin":5,"geo_score":0.857,"zip code":"22801-3729","id":"a6k652353u1s","geo_precision":"zip","state":"VA"},"type":"Feature","geometry":{"type":"Point","coordinates":[-78.959752,38.486235]}},{"properties":{"city":"HARRISVILLE","size":9,"margin":16,"geo_score":0.857,"zip code":"16038-1905","id":"a6k651znrowp","geo_precision":"zip","state":"PA"},"type":"Feature","geometry":{"type":"Point","coordinates":[-79.931444,41.195893]}},{"properties":{"city":"HAYMARKET","size":5,"margin":24,"geo_score":0.857,"zip code":"20169-2990","id":"a6k6523uoyck","geo_precision":"zip","state":"VA"},"type":"Feature","geometry":{"type":"Point","coordinates":[-77.644539,38.867441]}},{"properties":{"city":"HAZLE TOWNSHIP","size":1,"margin":8,"geo_score":0.857,"zip code":"18202-3328","id":"a6k652ett4y7","geo_precision":"zip","state":"PA"},"type":"Feature","geometry":{"type":"Point","coordinates":[-76.013856,40.970058]}},{"properties":{"city":"HENDERSON","size":0,"margin":19,"geo_score":0.857,"zip code":"27536","id":"a6k6521mkuqh","geo_precision":"zip","state":"NC"},"type":"Feature","geometry":{"type":"Point","coordinates":[-78.36833,36.276536]}},{"properties":{"city":"HERMITAGE","size":1,"margin":23,"geo_score":0.857,"zip code":"16148-5955","id":"a6k652fy21kg","geo_precision":"zip","state":"PA"},"type":"Feature","geometry":{"type":"Point","coordinates":[-80.438887,41.221984]}},{"properties":{"city":"HIGH POINT","size":1,"margin":10,"geo_score":0.857,"zip code":"27265","id":"a6k6526ndiae","geo_precision":"zip","state":"NC"},"type":"Feature","geometry":{"type":"Point","coordinates":[-79.991542,36.029892]}},{"properties":{"city":"HOLLIDAYSBURG","size":4,"margin":4,"geo_score":0.857,"zip code":"166482444","id":"a6k652bmd3gn","geo_precision":"zip","state":"PA"},"type":"Feature","geometry":{"type":"Point","coordinates":[-78.415014,40.367574]}},{"properties":{"city":"HOMER CITY","size":2,"margin":10,"geo_score":0.857,"zip code":"15748-7317","id":"a6k6526o69ws","geo_precision":"zip","state":"PA"},"type":"Feature","geometry":{"type":"Point","coordinates":[-79.089616,40.627752]}},{"properties":{"city":"HUMMELSTOWN","size":3,"margin":23,"geo_score":0.857,"zip code":"17036","id":"a6k65298dlza","geo_precision":"zip","state":"PA"},"type":"Feature","geometry":{"type":"Point","coordinates":[-76.68247,40.240369]}},{"properties":{"city":"HUNTINGDON","size":7,"margin":11,"geo_score":0.857,"zip code":"16652-1932","id":"a6k6520ijlfu","geo_precision":"zip","state":"PA"},"type":"Feature","geometry":{"type":"Point","coordinates":[-77.846388,40.636179]}},{"properties":{"city":"HUNTINGTON","size":3,"margin":13,"geo_score":0.857,"zip code":"25704","id":"a6k6526p8h44","geo_precision":"zip","state":"WV"},"type":"Feature","geometry":{"type":"Point","coordinates":[-82.483767,38.410638]}},{"properties":{"city":"HURRICANE","size":1,"margin":11,"geo_score":0.857,"zip code":"25526","id":"a6k652chmjy0","geo_precision":"zip","state":"WV"},"type":"Feature","geometry":{"type":"Point","coordinates":[-81.961657,38.397097]}},{"properties":{"city":"INDIANA","size":4,"margin":17,"geo_score":0.857,"zip code":"157013075","id":"a6k652fqgrgt","geo_precision":"zip","state":"PA"},"type":"Feature","geometry":{"type":"Point","coordinates":[-79.201425,40.609233]}},{"properties":{"city":"INWOOD","size":8,"margin":27,"geo_score":0.857,"zip code":"25428-3810","id":"a6k6529jnylx","geo_precision":"zip","state":"WV"},"type":"Feature","geometry":{"type":"Point","coordinates":[-78.033065,39.362373]}},{"properties":{"city":"IRWIN","size":9,"margin":7,"geo_score":0.857,"zip code":"15642-2724","id":"a6k652fbup6n","geo_precision":"zip","state":"PA"},"type":"Feature","geometry":{"type":"Point","coordinates":[-79.739211,40.305348]}},{"properties":{"city":"JAMESTOWN","size":9,"margin":10,"geo_score":0.857,"zip code":"27282-8901","id":"a6k652c9tejw","geo_precision":"zip","state":"NC"},"type":"Feature","geometry":{"type":"Point","coordinates":[-79.92837,35.981803]}},{"properties":{"city":"JOHNSTOWN","size":6,"margin":2,"geo_score":0.857,"zip code":"159022602","id":"a6k6529mbbnk","geo_precision":"zip","state":"PA"},"type":"Feature","geometry":{"type":"Point","coordinates":[-78.892247,40.298964]}},{"properties":{"city":"JOPPA","size":7,"margin":22,"geo_score":0.857,"zip code":"21085-3914","id":"a6k6529mfr2k","geo_precision":"zip","state":"MD"},"type":"Feature","geometry":{"type":"Point","coordinates":[-76.373849,39.483441]}},{"properties":{"city":"KEARNEYSVILLE","size":10,"margin":27,"geo_score":0.857,"zip code":"25430","id":"a6k652bdzod7","geo_precision":"zip","state":"WV"},"type":"Feature","geometry":{"type":"Point","coordinates":[-77.933608,39.348434]}},{"properties":{"city":"KENT","size":3,"margin":7,"geo_score":0.857,"zip code":"44240-2850","id":"a6k6524ed5vt","geo_precision":"zip","state":"OH"},"type":"Feature","geometry":{"type":"Point","coordinates":[-81.346497,41.100057]}},{"properties":{"city":"KERNERSVILLE","size":6,"margin":25,"geo_score":0.857,"zip code":"27284","id":"a6k652edq001","geo_precision":"zip","state":"NC"},"type":"Feature","geometry":{"type":"Point","coordinates":[-80.118933,36.04847]}},{"properties":{"city":"KEYSER","size":8,"margin":29,"geo_score":0.857,"zip code":"26726","id":"a6k652799kuh","geo_precision":"zip","state":"WV"},"type":"Feature","geometry":{"type":"Point","coordinates":[-78.892554,39.452686]}},{"properties":{"city":"KING","size":2,"margin":6,"geo_score":0.857,"zip code":"27021","id":"a6k652fn3gl7","geo_precision":"zip","state":"NC"},"type":"Feature","geometry":{"type":"Point","coordinates":[-80.303941,36.309027]}},{"properties":{"city":"KING GEORGE","size":2,"margin":12,"geo_score":0.857,"zip code":"22485-5973","id":"a6k652apn94f","geo_precision":"zip","state":"VA"},"type":"Feature","geometry":{"type":"Point","coordinates":[-77.203867,38.276239]}},{"properties":{"city":"KITTANNING","size":4,"margin":25,"geo_score":0.857,"zip code":"162011503","id":"a6k652e45u25","geo_precision":"zip","state":"PA"},"type":"Feature","geometry":{"type":"Point","coordinates":[-79.371153,40.780342]}},{"properties":{"city":"KNOXVILLE","size":6,"margin":24,"geo_score":0.857,"zip code":"217589723","id":"a6k652eyranp","geo_precision":"zip","state":"MD"},"type":"Feature","geometry":{"type":"Point","coordinates":[-77.710548,39.325934]}},{"properties":{"city":"LANCASTER","size":1,"margin":11,"geo_score":0.857,"zip code":"17601-4311","id":"a6k6523dhmge","geo_precision":"zip","state":"PA"},"type":"Feature","geometry":{"type":"Point","coordinates":[-76.31607,40.075097]}},{"properties":{"city":"LATROBE","size":1,"margin":16,"geo_score":0.857,"zip code":"156503250","id":"a6k6521x6jfi","geo_precision":"zip","state":"PA"},"type":"Feature","geometry":{"type":"Point","coordinates":[-79.39337,40.302848]}},{"properties":{"city":"LEBANON","size":8,"margin":1,"geo_score":0.857,"zip code":"17042-8827","id":"a6k652av2do3","geo_precision":"zip","state":"PA"},"type":"Feature","geometry":{"type":"Point","coordinates":[-76.431628,40.359536]}},{"properties":{"city":"LEESBURG","size":0,"margin":11,"geo_score":0.857,"zip code":"20176-3301","id":"a6k6524yefk9","geo_precision":"zip","state":"VA"},"type":"Feature","geometry":{"type":"Point","coordinates":[-77.603458,39.119727]}},{"properties":{"city":"LEESPORT","size":4,"margin":13,"geo_score":0.857,"zip code":"19533-8642","id":"a6k6527gm3qt","geo_precision":"zip","state":"PA"},"type":"Feature","geometry":{"type":"Point","coordinates":[-75.85715,40.420446]}},{"properties":{"city":"LEWISBURG","size":4,"margin":22,"geo_score":0.857,"zip code":"17837-7487","id":"a6k6526kpkkt","geo_precision":"zip","state":"PA"},"type":"Feature","geometry":{"type":"Point","coordinates":[-76.988301,40.983695]}},{"properties":{"city":"LEWISTOWN","size":0,"margin":4,"geo_score":0.857,"zip code":"17044-2575","id":"a6k6529ozovm","geo_precision":"zip","state":"PA"},"type":"Feature","geometry":{"type":"Point","coordinates":[-77.658882,40.54313]}},{"properties":{"city":"LEXINGTON","size":4,"margin":2,"geo_score":0.857,"zip code":"27295","id":"a6k652b06i9b","geo_precision":"zip","state":"NC"},"type":"Feature","geometry":{"type":"Point","coordinates":[-80.277877,35.813292]}},{"properties":{"city":"LIGONIER","size":9,"margin":29,"geo_score":0.857,"zip code":"15658-9791","id":"a6k6521ikb5w","geo_precision":"zip","state":"PA"},"type":"Feature","geometry":{"type":"Point","coordinates":[-79.167531,40.254517]}},{"properties":{"city":"LINDEN","size":3,"margin":14,"geo_score":0.857,"zip code":"17744","id":"a6k65274jvp8","geo_precision":"zip","state":"PA"},"type":"Feature","geometry":{"type":"Point","coordinates":[-77.17747,41.237853]}},{"properties":{"city":"LITITZ","size":3,"margin":19,"geo_score":0.857,"zip code":"175439501","id":"a6k6525cw2v2","geo_precision":"zip","state":"PA"},"type":"Feature","geometry":{"type":"Point","coordinates":[-76.340514,40.158984]}},{"properties":{"city":"LITTLESTOWN","size":9,"margin":13,"geo_score":0.857,"zip code":"173401611","id":"a6k6523b6x71","geo_precision":"zip","state":"PA"},"type":"Feature","geometry":{"type":"Point","coordinates":[-77.109427,39.790932]}},{"properties":{"city":"LOCUST GROVE","size":1,"margin":4,"geo_score":0.857,"zip code":"22508-2019","id":"a6k652433hdd","geo_precision":"zip","state":"VA"},"type":"Feature","geometry":{"type":"Point","coordinates":[-77.798604,38.369018]}},{"properties":{"city":"LOUISBURG","size":4,"margin":18,"geo_score":0.857,"zip code":"27549","id":"a6k652a7zctv","geo_precision":"zip","state":"NC"},"type":"Feature","geometry":{"type":"Point","coordinates":[-78.227215,36.07654]}},{"properties":{"city":"LOWER BURRELL","size":2,"margin":22,"geo_score":0.857,"zip code":"15068","id":"a6k6520tvbvm","geo_precision":"zip","state":"PA"},"type":"Feature","geometry":{"type":"Point","coordinates":[-79.723659,40.599789]}},{"properties":{"city":"LYNCHBURG","size":4,"margin":19,"geo_score":0.857,"zip code":"24501-3619","id":"a6k652bs40u9","geo_precision":"zip","state":"VA"},"type":"Feature","geometry":{"type":"Point","coordinates":[-79.178326,37.383112]}},{"properties":{"city":"MADISON","size":4,"margin":11,"geo_score":0.857,"zip code":"22727-2509","id":"a6k6528opwqq","geo_precision":"zip","state":"VA"},"type":"Feature","geometry":{"type":"Point","coordinates":[-78.301115,38.457904]}},{"properties":{"city":"MADISON HEIGHTS","size":9,"margin":5,"geo_score":0.857,"zip code":"24572-5947","id":"a6k6524fm817","geo_precision":"zip","state":"VA"},"type":"Feature","geometry":{"type":"Point","coordinates":[-79.088912,37.443198]}},{"properties":{"city":"MANASSAS PARK","size":10,"margin":0,"geo_score":0.857,"zip code":"20111-2357","id":"a6k652b0js51","geo_precision":"zip","state":"VA"},"type":"Feature","geometry":{"type":"Point","coordinates":[-77.469711,38.784004]}},{"properties":{"city":"MANCHESTER","size":3,"margin":14,"geo_score":0.857,"zip code":"21102-1773","id":"a6k6524fcr3d","geo_precision":"zip","state":"MD"},"type":"Feature","geometry":{"type":"Point","coordinates":[-76.870849,39.556164]}},{"properties":{"city":"MANCHESTER","size":3,"margin":19,"geo_score":0.857,"zip code":"17345-1306","id":"a6k6521phj2h","geo_precision":"zip","state":"PA"},"type":"Feature","geometry":{"type":"Point","coordinates":[-76.761357,40.091206]}},{"properties":{"city":"MANSFIELD","size":5,"margin":18,"geo_score":0.857,"zip code":"16933","id":"a6k6523y5uln","geo_precision":"zip","state":"PA"},"type":"Feature","geometry":{"type":"Point","coordinates":[-76.957463,41.86563]}},{"properties":{"city":"MARIETTA","size":6,"margin":20,"geo_score":0.857,"zip code":"17547-1615","id":"a6k651zlzhg5","geo_precision":"zip","state":"PA"},"type":"Feature","geometry":{"type":"Point","coordinates":[-76.485935,40.061596]}},{"properties":{"city":"MARTINSBURG","size":6,"margin":22,"geo_score":0.857,"zip code":"25401-2000","id":"a6k6528d9czi","geo_precision":"zip","state":"WV"},"type":"Feature","geometry":{"type":"Point","coordinates":[-78.019999,39.462598]}},{"properties":{"city":"MCCONNELLSBURG","size":1,"margin":18,"geo_score":0.857,"zip code":"172331508","id":"a6k6529vrgx1","geo_precision":"zip","state":"PA"},"type":"Feature","geometry":{"type":"Point","coordinates":[-77.981379,39.928812]}},{"properties":{"city":"MEADVILLE","size":8,"margin":25,"geo_score":0.857,"zip code":"16335-3671","id":"a6k652a1ftc2","geo_precision":"zip","state":"PA"},"type":"Feature","geometry":{"type":"Point","coordinates":[-80.04089,41.681167]}},{"properties":{"city":"MEBANE","size":1,"margin":8,"geo_score":0.857,"zip code":"27302-9680","id":"a6k6522rsvnd","geo_precision":"zip","state":"NC"},"type":"Feature","geometry":{"type":"Point","coordinates":[-79.220017,36.211527]}},{"properties":{"city":"MECHANICSBURG","size":8,"margin":3,"geo_score":0.857,"zip code":"17050-1766","id":"a6k65213p2bd","geo_precision":"zip","state":"PA"},"type":"Feature","geometry":{"type":"Point","coordinates":[-77.005116,40.210952]}},{"properties":{"city":"MENTOR","size":7,"margin":28,"geo_score":0.857,"zip code":"44060-5320","id":"a6k6528t0a8h","geo_precision":"zip","state":"OH"},"type":"Feature","geometry":{"type":"Point","coordinates":[-81.311772,41.739766]}},{"properties":{"city":"MERCER","size":9,"margin":15,"geo_score":0.857,"zip code":"161371204","id":"a6k652dwrpko","geo_precision":"zip","state":"PA"},"type":"Feature","geometry":{"type":"Point","coordinates":[-80.173395,41.166726]}},{"properties":{"city":"MEYERSDALE","size":0,"margin":5,"geo_score":0.857,"zip code":"155521142","id":"a6k6520ubzv5","geo_precision":"zip","state":"PA"},"type":"Feature","geometry":{"type":"Point","coordinates":[-79.075583,39.80897]}},{"properties":{"city":"MIFFLINBURG","size":5,"margin":14,"geo_score":0.857,"zip code":"17844-9315","id":"a6k652362ppf","geo_precision":"zip","state":"PA"},"type":"Feature","geometry":{"type":"Point","coordinates":[-77.052749,40.940082]}},{"properties":{"city":"MIFFLINTOWN","size":3,"margin":26,"geo_score":0.857,"zip code":"17059-8933","id":"a6k6523s7y6c","geo_precision":"zip","state":"PA"},"type":"Feature","geometry":{"type":"Point","coordinates":[-77.409434,40.576188]}},{"properties":{"city":"MILL HALL","size":3,"margin":16,"geo_score":0.857,"zip code":"17751-1907","id":"a6k6528xnt95","geo_precision":"zip","state":"PA"},"type":"Feature","geometry":{"type":"Point","coordinates":[-77.520825,41.017288]}},{"properties":{"city":"MILTON","size":2,"margin":19,"geo_score":0.857,"zip code":"25541","id":"a6k652dej6ym","geo_precision":"zip","state":"WV"},"type":"Feature","geometry":{"type":"Point","coordinates":[-82.14431,38.502864]}},{"properties":{"city":"MOCKSVILLE","size":2,"margin":0,"geo_score":0.857,"zip code":"27028","id":"a6k6528nmg5j","geo_precision":"zip","state":"NC"},"type":"Feature","geometry":{"type":"Point","coordinates":[-80.577283,35.974303]}},{"properties":{"city":"MONONGAHELA","size":5,"margin":23,"geo_score":0.857,"zip code":"150632308","id":"a6k652f0hysg","geo_precision":"zip","state":"PA"},"type":"Feature","geometry":{"type":"Point","coordinates":[-79.883103,40.198127]}},{"properties":{"city":"MONROEVILLE","size":0,"margin":11,"geo_score":0.857,"zip code":"15146-4219","id":"a6k65231e7j5","geo_precision":"zip","state":"PA"},"type":"Feature","geometry":{"type":"Point","coordinates":[-79.756713,40.430069]}},{"properties":{"city":"MOON TOWNSHIP","size":7,"margin":22,"geo_score":0.857,"zip code":"15108-4215","id":"a6k652aoa2h9","geo_precision":"zip","state":"PA"},"type":"Feature","geometry":{"type":"Point","coordinates":[-80.239226,40.508957]}},{"properties":{"city":"MOOREFIELD","size":5,"margin":14,"geo_score":0.857,"zip code":"268361020","id":"a6k65277sgrv","geo_precision":"zip","state":"WV"},"type":"Feature","geometry":{"type":"Point","coordinates":[-79.045587,39.038998]}},{"properties":{"city":"MORGANTOWN","size":7,"margin":11,"geo_score":0.857,"zip code":"265052807","id":"a6k652dgs442","geo_precision":"zip","state":"WV"},"type":"Feature","geometry":{"type":"Point","coordinates":[-79.917285,39.605082]}},{"properties":{"city":"MORGANTOWN","size":6,"margin":14,"geo_score":0.857,"zip code":"19543-8858","id":"a6k6523euo68","geo_precision":"zip","state":"PA"},"type":"Feature","geometry":{"type":"Point","coordinates":[-75.89161,40.367731]}},{"properties":{"city":"MORRISVILLE","size":4,"margin":8,"geo_score":0.857,"zip code":"27560","id":"a6k6520c1fa6","geo_precision":"zip","state":"NC"},"type":"Feature","geometry":{"type":"Point","coordinates":[-78.850007,35.88237]}},{"properties":{"city":"MOUNT UNION","size":1,"margin":15,"geo_score":0.857,"zip code":"17066-1224","id":"a6k65298vb0w","geo_precision":"zip","state":"PA"},"type":"Feature","geometry":{"type":"Point","coordinates":[-77.885831,40.39341]}},{"properties":{"city":"MT AIRY","size":7,"margin":9,"geo_score":0.857,"zip code":"27030","id":"a6k652f6jpw8","geo_precision":"zip","state":"NC"},"type":"Feature","geometry":{"type":"Point","coordinates":[-80.83785,36.482354]}},{"properties":{"city":"MT HOLLY SPRINGS","size":2,"margin":10,"geo_score":0.857,"zip code":"170651618","id":"a6k65210bagx","geo_precision":"zip","state":"PA"},"type":"Feature","geometry":{"type":"Point","coordinates":[-77.179148,40.103146]}},{"properties":{"city":"MT HOPE","size":7,"margin":4,"geo_score":0.857,"zip code":"25880","id":"a6k6520pbdvb","geo_precision":"zip","state":"WV"},"type":"Feature","geometry":{"type":"Point","coordinates":[-81.189547,37.882335]}},{"properties":{"city":"MT JACKSON","size":9,"margin":23,"geo_score":0.857,"zip code":"22842-2862","id":"a6k652binijw","geo_precision":"zip","state":"VA"},"type":"Feature","geometry":{"type":"Point","coordinates":[-78.690017,38.829557]}},{"properties":{"city":"MT JOY","size":4,"margin":25,"geo_score":0.857,"zip code":"17552-9414","id":"a6k65242p6hb","geo_precision":"zip","state":"PA"},"type":"Feature","geometry":{"type":"Point","coordinates":[-76.468298,40.068708]}},{"properties":{"city":"MURRYSVILLE","size":9,"margin":15,"geo_score":0.857,"zip code":"15668-2022","id":"a6k652cr4xl2","geo_precision":"zip","state":"PA"},"type":"Feature","geometry":{"type":"Point","coordinates":[-79.656156,40.445346]}},{"properties":{"city":"NANTY GLO","size":9,"margin":9,"geo_score":0.857,"zip code":"15943-3403","id":"a6k652fjmdzq","geo_precision":"zip","state":"PA"},"type":"Feature","geometry":{"type":"Point","coordinates":[-78.848566,40.392443]}},{"properties":{"city":"NEW ALEXANDRIA","size":4,"margin":25,"geo_score":0.857,"zip code":"15670-3150","id":"a6k6524wufln","geo_precision":"zip","state":"PA"},"type":"Feature","geometry":{"type":"Point","coordinates":[-79.444008,40.396655]}},{"properties":{"city":"NEW CASTLE","size":1,"margin":11,"geo_score":0.857,"zip code":"16101-7960","id":"a6k6524ybozr","geo_precision":"zip","state":"PA"},"type":"Feature","geometry":{"type":"Point","coordinates":[-80.382843,40.953395]}},{"properties":{"city":"NEW HOLLAND","size":6,"margin":12,"geo_score":0.857,"zip code":"17557-9211","id":"a6k652brwg7t","geo_precision":"zip","state":"PA"},"type":"Feature","geometry":{"type":"Point","coordinates":[-76.073814,40.14607]}},{"properties":{"city":"NEW KENSINGTON","size":9,"margin":30,"geo_score":0.857,"zip code":"150686023","id":"a6k6520b3cx3","geo_precision":"zip","state":"PA"},"type":"Feature","geometry":{"type":"Point","coordinates":[-79.723659,40.599789]}},{"properties":{"city":"NEW PHILADELPHIA","size":2,"margin":10,"geo_score":0.857,"zip code":"44663-6943","id":"a6k652bk1w8r","geo_precision":"zip","state":"OH"},"type":"Feature","geometry":{"type":"Point","coordinates":[-81.349556,40.475898]}},{"properties":{"city":"NEW STANTON","size":1,"margin":7,"geo_score":0.857,"zip code":"156729418","id":"a6k6520cz2z2","geo_precision":"zip","state":"PA"},"type":"Feature","geometry":{"type":"Point","coordinates":[-79.605874,40.227293]}},{"properties":{"city":"NEWVILLE","size":1,"margin":28,"geo_score":0.857,"zip code":"17241","id":"a6k6524y6gb3","geo_precision":"zip","state":"PA"},"type":"Feature","geometry":{"type":"Point","coordinates":[-77.489709,40.192309]}},{"properties":{"city":"NORTH CANTON","size":9,"margin":10,"geo_score":0.857,"zip code":"44720","id":"a6k6526qsi8w","geo_precision":"zip","state":"OH"},"type":"Feature","geometry":{"type":"Point","coordinates":[-81.433036,40.895607]}},{"properties":{"city":"NORTH HUNTINGDON","size":9,"margin":26,"geo_score":0.857,"zip code":"15642-2724","id":"a6k6528fqf1o","geo_precision":"zip","state":"PA"},"type":"Feature","geometry":{"type":"Point","coordinates":[-79.739211,40.305348]}},{"properties":{"city":"NORTH LIMA","size":5,"margin":0,"geo_score":0.857,"zip code":"44452-9557","id":"a6k6523xv51m","geo_precision":"zip","state":"OH"},"type":"Feature","geometry":{"type":"Point","coordinates":[-80.65063,40.973393]}},{"properties":{"city":"NORTH RIDGEVILLE","size":3,"margin":8,"geo_score":0.857,"zip code":"44039-3420","id":"a6k6521jsep9","geo_precision":"zip","state":"OH"},"type":"Feature","geometry":{"type":"Point","coordinates":[-82.019365,41.377776]}},{"properties":{"city":"NORTHERN CAMBRIA","size":7,"margin":4,"geo_score":0.857,"zip code":"15714-2038","id":"a6k652ce848j","geo_precision":"zip","state":"PA"},"type":"Feature","geometry":{"type":"Point","coordinates":[-78.794582,40.658721]}},{"properties":{"city":"OAKLAND","size":8,"margin":14,"geo_score":0.857,"zip code":"215501321","id":"a6k652apjmzj","geo_precision":"zip","state":"MD"},"type":"Feature","geometry":{"type":"Point","coordinates":[-79.373097,39.501758]}},{"properties":{"city":"ORANGE","size":3,"margin":8,"geo_score":0.857,"zip code":"22960-1016","id":"a6k652dk00ek","geo_precision":"zip","state":"VA"},"type":"Feature","geometry":{"type":"Point","coordinates":[-77.968053,38.154303]}},{"properties":{"city":"PALMYRA","size":3,"margin":7,"geo_score":0.857,"zip code":"170781913","id":"a6k6524tlk2x","geo_precision":"zip","state":"PA"},"type":"Feature","geometry":{"type":"Point","coordinates":[-76.416907,40.317606]}},{"properties":{"city":"PARMA","size":3,"margin":30,"geo_score":0.857,"zip code":"44129","id":"a6k6529luhvk","geo_precision":"zip","state":"OH"},"type":"Feature","geometry":{"type":"Point","coordinates":[-81.722909,41.404774]}},{"properties":{"city":"PARSONS","size":1,"margin":20,"geo_score":0.857,"zip code":"26287-1236","id":"a6k652a202sp","geo_precision":"zip","state":"WV"},"type":"Feature","geometry":{"type":"Point","coordinates":[-79.678724,39.096016]}},{"properties":{"city":"PATTON","size":4,"margin":1,"geo_score":0.857,"zip code":"166681016","id":"a6k6520rixkg","geo_precision":"zip","state":"PA"},"type":"Feature","geometry":{"type":"Point","coordinates":[-78.652522,40.598402]}},{"properties":{"city":"PERRY","size":7,"margin":19,"geo_score":0.857,"zip code":"44081-9557","id":"a6k6524d97a5","geo_precision":"zip","state":"OH"},"type":"Feature","geometry":{"type":"Point","coordinates":[-81.14626,41.768495]}},{"properties":{"city":"PETERSBURG","size":6,"margin":25,"geo_score":0.857,"zip code":"268471533","id":"a6k651zkm7ym","geo_precision":"zip","state":"WV"},"type":"Feature","geometry":{"type":"Point","coordinates":[-79.185871,38.912611]}},{"properties":{"city":"PHILIPPI","size":6,"margin":24,"geo_score":0.857,"zip code":"264161146","id":"a6k65223qbxz","geo_precision":"zip","state":"WV"},"type":"Feature","geometry":{"type":"Point","coordinates":[-79.942021,39.162044]}},{"properties":{"city":"PHILIPSBURG","size":3,"margin":9,"geo_score":0.857,"zip code":"16866-8261","id":"a6k652eus1xa","geo_precision":"zip","state":"PA"},"type":"Feature","geometry":{"type":"Point","coordinates":[-78.216402,40.915057]}},{"properties":{"city":"PITTSBURGH","size":3,"margin":17,"geo_score":0.857,"zip code":"15237-5351","id":"a6k6525w7tfh","geo_precision":"zip","state":"PA"},"type":"Feature","geometry":{"type":"Point","coordinates":[-80.003666,40.531735]}},{"properties":{"city":"PLAINS TOWNSHIP","size":3,"margin":26,"geo_score":0.857,"zip code":"187027006","id":"a6k652bncfjt","geo_precision":"zip","state":"PA"},"type":"Feature","geometry":{"type":"Point","coordinates":[-75.836306,41.289248]}},{"properties":{"city":"PORT ALLEGANY","size":4,"margin":28,"geo_score":0.857,"zip code":"16743","id":"a6k6523cknp5","geo_precision":"zip","state":"PA"},"type":"Feature","geometry":{"type":"Point","coordinates":[-78.20501,41.788954]}},{"properties":{"city":"PORTAGE","size":6,"margin":23,"geo_score":0.857,"zip code":"159461307","id":"a6k6527mq4x6","geo_precision":"zip","state":"PA"},"type":"Feature","geometry":{"type":"Point","coordinates":[-78.689464,40.381463]}},{"properties":{"city":"POTTSVILLE","size":4,"margin":10,"geo_score":0.857,"zip code":"17901-4202","id":"a6k652d2ba6e","geo_precision":"zip","state":"PA"},"type":"Feature","geometry":{"type":"Point","coordinates":[-76.172164,40.687312]}},{"properties":{"city":"POWHATAN","size":2,"margin":19,"geo_score":0.857,"zip code":"23139-7401","id":"a6k652dhrdnv","geo_precision":"zip","state":"VA"},"type":"Feature","geometry":{"type":"Point","coordinates":[-77.928759,37.541609]}},{"properties":{"city":"PRINCETON","size":6,"margin":1,"geo_score":0.857,"zip code":"24740","id":"a6k65289fmt5","geo_precision":"zip","state":"WV"},"type":"Feature","geometry":{"type":"Point","coordinates":[-80.886191,37.34901]}},{"properties":{"city":"PUNXSUTAWNEY","size":6,"margin":4,"geo_score":0.857,"zip code":"157671618","id":"a6k652fulc5r","geo_precision":"zip","state":"PA"},"type":"Feature","geometry":{"type":"Point","coordinates":[-78.850032,40.904786]}},{"properties":{"city":"RALEIGH","size":9,"margin":8,"geo_score":0.857,"zip code":"27610-1428","id":"a6k652741p9o","geo_precision":"zip","state":"NC"},"type":"Feature","geometry":{"type":"Point","coordinates":[-78.555281,35.693209]}},{"properties":{"city":"RAVENNA","size":0,"margin":11,"geo_score":0.857,"zip code":"44266-9736","id":"a6k652651qkm","geo_precision":"zip","state":"OH"},"type":"Feature","geometry":{"type":"Point","coordinates":[-81.197323,41.13589]}},{"properties":{"city":"READING","size":10,"margin":26,"geo_score":0.857,"zip code":"19605-1730","id":"a6k652chip0s","geo_precision":"zip","state":"PA"},"type":"Feature","geometry":{"type":"Point","coordinates":[-75.936875,40.404815]}},{"properties":{"city":"RED LION","size":10,"margin":24,"geo_score":0.857,"zip code":"17356-9073","id":"a6k6528uh1z0","geo_precision":"zip","state":"PA"},"type":"Feature","geometry":{"type":"Point","coordinates":[-76.488576,39.9126]}},{"properties":{"city":"RICHMOND","size":10,"margin":7,"geo_score":0.857,"zip code":"23235-4305","id":"a6k6527xyrza","geo_precision":"zip","state":"VA"},"type":"Feature","geometry":{"type":"Point","coordinates":[-77.585544,37.535147]}},{"properties":{"city":"RIDGEWAY","size":1,"margin":17,"geo_score":0.857,"zip code":"24148-3483","id":"a6k65209tcoa","geo_precision":"zip","state":"VA"},"type":"Feature","geometry":{"type":"Point","coordinates":[-79.858094,36.616249]}},{"properties":{"city":"RIDGWAY","size":2,"margin":15,"geo_score":0.857,"zip code":"15853-1004","id":"a6k652ejqqfo","geo_precision":"zip","state":"PA"},"type":"Feature","geometry":{"type":"Point","coordinates":[-78.740306,41.498395]}},{"properties":{"city":"ROANOKE","size":2,"margin":18,"geo_score":0.857,"zip code":"24019-3509","id":"a6k6528bjpih","geo_precision":"zip","state":"VA"},"type":"Feature","geometry":{"type":"Point","coordinates":[-79.943095,37.341246]}},{"properties":{"city":"ROCHESTER","size":9,"margin":9,"geo_score":0.857,"zip code":"150741940","id":"a6k652a85ljj","geo_precision":"zip","state":"PA"},"type":"Feature","geometry":{"type":"Point","coordinates":[-80.207561,40.745344]}},{"properties":{"city":"ROCKY MOUNT","size":5,"margin":17,"geo_score":0.857,"zip code":"24151-5891","id":"a6k6527794z5","geo_precision":"zip","state":"VA"},"type":"Feature","geometry":{"type":"Point","coordinates":[-79.852489,36.995127]}},{"properties":{"city":"ROCKY MOUNT","size":5,"margin":20,"geo_score":0.857,"zip code":"27804","id":"a6k6520iqs1p","geo_precision":"zip","state":"NC"},"type":"Feature","geometry":{"type":"Point","coordinates":[-77.939841,35.941739]}},{"properties":{"city":"ROMNEY","size":6,"margin":8,"geo_score":0.857,"zip code":"267571819","id":"a6k6527pwd2y","geo_precision":"zip","state":"WV"},"type":"Feature","geometry":{"type":"Point","coordinates":[-78.734739,39.395096]}},{"properties":{"city":"RUCKERSVILLE","size":2,"margin":10,"geo_score":0.857,"zip code":"22968-3449","id":"a6k651zq3my5","geo_precision":"zip","state":"VA"},"type":"Feature","geometry":{"type":"Point","coordinates":[-78.407377,38.258615]}},{"properties":{"city":"SALEM","size":4,"margin":6,"geo_score":0.857,"zip code":"24153-7220","id":"a6k652b6s1ko","geo_precision":"zip","state":"VA"},"type":"Feature","geometry":{"type":"Point","coordinates":[-80.067762,37.28814]}},{"properties":{"city":"SALISBURY","size":8,"margin":23,"geo_score":0.857,"zip code":"28146","id":"a6k652945fcu","geo_precision":"zip","state":"NC"},"type":"Feature","geometry":{"type":"Point","coordinates":[-80.402235,35.618694]}},{"properties":{"city":"SARVER","size":4,"margin":11,"geo_score":0.857,"zip code":"16055-9301","id":"a6k6520fd94j","geo_precision":"zip","state":"PA"},"type":"Feature","geometry":{"type":"Point","coordinates":[-79.670882,40.758953]}},{"properties":{"city":"SCHUYLKILL HAVEN","size":1,"margin":30,"geo_score":0.857,"zip code":"17972-9708","id":"a6k6524ypqnh","geo_precision":"zip","state":"PA"},"type":"Feature","geometry":{"type":"Point","coordinates":[-76.154856,40.602048]}},{"properties":{"city":"SCOTT DEPOT","size":9,"margin":9,"geo_score":0.857,"zip code":"25560","id":"a6k65257ujt6","geo_precision":"zip","state":"WV"},"type":"Feature","geometry":{"type":"Point","coordinates":[-81.896554,38.450355]}},{"properties":{"city":"SCOTTDALE","size":5,"margin":2,"geo_score":0.857,"zip code":"156831950","id":"a6k652cio78c","geo_precision":"zip","state":"PA"},"type":"Feature","geometry":{"type":"Point","coordinates":[-79.564205,40.117572]}},{"properties":{"city":"SCRANTON","size":1,"margin":22,"geo_score":0.857,"zip code":"18508-1118","id":"a6k6524jdwtn","geo_precision":"zip","state":"PA"},"type":"Feature","geometry":{"type":"Point","coordinates":[-75.66843,41.439979]}},{"properties":{"city":"SELINSGROVE","size":0,"margin":28,"geo_score":0.857,"zip code":"17870","id":"a6k6523ppejx","geo_precision":"zip","state":"PA"},"type":"Feature","geometry":{"type":"Point","coordinates":[-76.895804,40.860085]}},{"properties":{"city":"SHEFFIELD VILLAGE","size":3,"margin":18,"geo_score":0.857,"zip code":"44054","id":"a6k6526ifoie","geo_precision":"zip","state":"OH"},"type":"Feature","geometry":{"type":"Point","coordinates":[-82.089769,41.463541]}},{"properties":{"city":"SHEPHERDSTOWN","size":4,"margin":1,"geo_score":0.857,"zip code":"25443-4403","id":"a6k6527oquox","geo_precision":"zip","state":"WV"},"type":"Feature","geometry":{"type":"Point","coordinates":[-77.832495,39.48371]}},{"properties":{"city":"SHIPPENSBURG","size":3,"margin":4,"geo_score":0.857,"zip code":"172571425","id":"a6k6527lla6o","geo_precision":"zip","state":"PA"},"type":"Feature","geometry":{"type":"Point","coordinates":[-77.515542,40.038146]}},{"properties":{"city":"SHOEMAKERSVILLE","size":7,"margin":16,"geo_score":0.857,"zip code":"195551511","id":"a6k652es379w","geo_precision":"zip","state":"PA"},"type":"Feature","geometry":{"type":"Point","coordinates":[-75.932153,40.46176]}},{"properties":{"city":"SIDMAN","size":5,"margin":18,"geo_score":0.857,"zip code":"159550188","id":"a6k65216rs3g","geo_precision":"zip","state":"PA"},"type":"Feature","geometry":{"type":"Point","coordinates":[-78.715511,40.334129]}},{"properties":{"city":"SINKING SPRING","size":6,"margin":27,"geo_score":0.857,"zip code":"19608-9707","id":"a6k6524hi96y","geo_precision":"zip","state":"PA"},"type":"Feature","geometry":{"type":"Point","coordinates":[-76.068552,40.29537]}},{"properties":{"city":"SLIPPERY ROCK","size":0,"margin":21,"geo_score":0.857,"zip code":"160571249","id":"a6k65296tecn","geo_precision":"zip","state":"PA"},"type":"Feature","geometry":{"type":"Point","coordinates":[-80.110615,41.04034]}},{"properties":{"city":"SOMERSET","size":6,"margin":18,"geo_score":0.857,"zip code":"155012106","id":"a6k6522voj5r","geo_precision":"zip","state":"PA"},"type":"Feature","geometry":{"type":"Point","coordinates":[-79.126974,40.086743]}},{"properties":{"city":"SOUTH BOSTON","size":2,"margin":9,"geo_score":0.857,"zip code":"24592-6831","id":"a6k65244efsa","geo_precision":"zip","state":"VA"},"type":"Feature","geometry":{"type":"Point","coordinates":[-79.098626,36.645416]}},{"properties":{"city":"SPRINGDALE","size":7,"margin":30,"geo_score":0.857,"zip code":"151441503","id":"a6k6527sd9qo","geo_precision":"zip","state":"PA"},"type":"Feature","geometry":{"type":"Point","coordinates":[-79.783938,40.54979]}},{"properties":{"city":"ST. MARY'S","size":1,"margin":17,"geo_score":0.857,"zip code":"15857","id":"a6k652dbakee","geo_precision":"zip","state":"PA"},"type":"Feature","geometry":{"type":"Point","coordinates":[-78.563356,41.437284]}},{"properties":{"city":"STAR CITY","size":2,"margin":29,"geo_score":0.857,"zip code":"26505","id":"a6k652fjf9gf","geo_precision":"zip","state":"WV"},"type":"Feature","geometry":{"type":"Point","coordinates":[-79.917285,39.605082]}},{"properties":{"city":"STATE COLLEGE","size":8,"margin":14,"geo_score":0.857,"zip code":"16801","id":"a6k6529uzk6d","geo_precision":"zip","state":"PA"},"type":"Feature","geometry":{"type":"Point","coordinates":[-77.825555,40.763396]}},{"properties":{"city":"STATESVILLE","size":0,"margin":13,"geo_score":0.857,"zip code":"28625-3214","id":"a6k6529yit66","geo_precision":"zip","state":"NC"},"type":"Feature","geometry":{"type":"Point","coordinates":[-80.89757,35.790866]}},{"properties":{"city":"STAUNTON","size":3,"margin":28,"geo_score":0.857,"zip code":"24402-4976","id":"a6k652bisga1","geo_precision":"zip","state":"VA"},"type":"Feature","geometry":{"type":"Point","coordinates":[-79.062858,38.159275]}},{"properties":{"city":"STEPHENS CITY","size":4,"margin":11,"geo_score":0.857,"zip code":"226552818","id":"a6k6522cmf8w","geo_precision":"zip","state":"VA"},"type":"Feature","geometry":{"type":"Point","coordinates":[-78.246946,39.058163]}},{"properties":{"city":"STOW","size":0,"margin":22,"geo_score":0.857,"zip code":"44224-4976","id":"a6k6522vxlq6","geo_precision":"zip","state":"OH"},"type":"Feature","geometry":{"type":"Point","coordinates":[-81.44039,41.202556]}},{"properties":{"city":"STREETSBORO","size":4,"margin":24,"geo_score":0.857,"zip code":"44241-5210","id":"a6k652aeeojx","geo_precision":"zip","state":"OH"},"type":"Feature","geometry":{"type":"Point","coordinates":[-81.340528,41.241655]}},{"properties":{"city":"STRONGSVILLE","size":0,"margin":26,"geo_score":0.857,"zip code":"44149-3802","id":"a6k652bim89i","geo_precision":"zip","state":"OH"},"type":"Feature","geometry":{"type":"Point","coordinates":[-81.856087,41.312349]}},{"properties":{"city":"SUGARLOAF","size":6,"margin":17,"geo_score":0.857,"zip code":"18249","id":"a6k65246lvci","geo_precision":"zip","state":"PA"},"type":"Feature","geometry":{"type":"Point","coordinates":[-76.0845,40.975202]}},{"properties":{"city":"SUMMERVILLE","size":1,"margin":17,"geo_score":0.857,"zip code":"26651","id":"a6k651zpibs7","geo_precision":"zip","state":"WV"},"type":"Feature","geometry":{"type":"Point","coordinates":[-80.949823,38.285941]}},{"properties":{"city":"TANEYTOWN","size":2,"margin":14,"geo_score":0.857,"zip code":"217872225","id":"a6k6528kdbsg","geo_precision":"zip","state":"MD"},"type":"Feature","geometry":{"type":"Point","coordinates":[-77.153594,39.633989]}},{"properties":{"city":"TAPPAHANNOCK","size":10,"margin":21,"geo_score":0.857,"zip code":"22560-9350","id":"a6k652dz37q8","geo_precision":"zip","state":"VA"},"type":"Feature","geometry":{"type":"Point","coordinates":[-76.921355,37.940136]}},{"properties":{"city":"THURMONT","size":1,"margin":21,"geo_score":0.857,"zip code":"217881643","id":"a6k652fpfqz7","geo_precision":"zip","state":"MD"},"type":"Feature","geometry":{"type":"Point","coordinates":[-77.381653,39.614265]}},{"properties":{"city":"TRANSFER","size":7,"margin":17,"geo_score":0.857,"zip code":"16154-1845","id":"a6k6528kj43j","geo_precision":"zip","state":"PA"},"type":"Feature","geometry":{"type":"Point","coordinates":[-80.360703,41.368354]}},{"properties":{"city":"TRIADELPHIA","size":7,"margin":17,"geo_score":0.857,"zip code":"26059","id":"a6k652fripxr","geo_precision":"zip","state":"WV"},"type":"Feature","geometry":{"type":"Point","coordinates":[-80.580907,40.082573]}},{"properties":{"city":"TRINITY","size":4,"margin":19,"geo_score":0.857,"zip code":"27370-8847","id":"a6k6528kyjzw","geo_precision":"zip","state":"NC"},"type":"Feature","geometry":{"type":"Point","coordinates":[-79.961118,35.801501]}},{"properties":{"city":"TRUCKSVILLE","size":2,"margin":20,"geo_score":0.857,"zip code":"18708-1463","id":"a6k6526ubvg4","geo_precision":"zip","state":"PA"},"type":"Feature","geometry":{"type":"Point","coordinates":[-75.947216,41.24083]}},{"properties":{"city":"TWINSBURG","size":4,"margin":26,"geo_score":0.857,"zip code":"44087-2145","id":"a6k652c4anev","geo_precision":"zip","state":"OH"},"type":"Feature","geometry":{"type":"Point","coordinates":[-81.440435,41.313304]}},{"properties":{"city":"TYRONE","size":9,"margin":16,"geo_score":0.857,"zip code":"166861638","id":"a6k652bks9kx","geo_precision":"zip","state":"PA"},"type":"Feature","geometry":{"type":"Point","coordinates":[-78.168343,40.62201]}},{"properties":{"city":"UNIONTOWN","size":0,"margin":19,"geo_score":0.857,"zip code":"15401","id":"a6k6525t9u0r","geo_precision":"zip","state":"PA"},"type":"Feature","geometry":{"type":"Point","coordinates":[-79.802827,39.838688]}},{"properties":{"city":"VERONA","size":8,"margin":5,"geo_score":0.857,"zip code":"15147","id":"a6k6527zooc5","geo_precision":"zip","state":"PA"},"type":"Feature","geometry":{"type":"Point","coordinates":[-79.967551,40.015352]}},{"properties":{"city":"WADSWORTH","size":0,"margin":29,"geo_score":0.857,"zip code":"44281-9708","id":"a6k6521bnrls","geo_precision":"zip","state":"OH"},"type":"Feature","geometry":{"type":"Point","coordinates":[-81.751008,41.071841]}},{"properties":{"city":"WALKERSVILLE","size":5,"margin":5,"geo_score":0.857,"zip code":"217935199","id":"a6k6526ysvol","geo_precision":"zip","state":"MD"},"type":"Feature","geometry":{"type":"Point","coordinates":[-77.343542,39.491247]}},{"properties":{"city":"WALKERTOWN","size":0,"margin":2,"geo_score":0.857,"zip code":"27051-9770","id":"a6k652db6gs9","geo_precision":"zip","state":"NC"},"type":"Feature","geometry":{"type":"Point","coordinates":[-80.16357,36.191405]}},{"properties":{"city":"WARREN","size":4,"margin":22,"geo_score":0.857,"zip code":"44484-2541","id":"a6k6527se3e4","geo_precision":"zip","state":"OH"},"type":"Feature","geometry":{"type":"Point","coordinates":[-80.740635,41.252835]}},{"properties":{"city":"WARRENTON","size":4,"margin":22,"geo_score":0.857,"zip code":"20186-2201","id":"a6k6528b3n4k","geo_precision":"zip","state":"VA"},"type":"Feature","geometry":{"type":"Point","coordinates":[-77.836115,38.689832]}},{"properties":{"city":"WAYNESBORO","size":9,"margin":6,"geo_score":0.857,"zip code":"17268-8513","id":"a6k65269bf3t","geo_precision":"zip","state":"PA"},"type":"Feature","geometry":{"type":"Point","coordinates":[-77.561936,39.748705]}},{"properties":{"city":"WAYNESBORO","size":7,"margin":18,"geo_score":0.857,"zip code":"22980-1754","id":"a6k652cm8273","geo_precision":"zip","state":"VA"},"type":"Feature","geometry":{"type":"Point","coordinates":[-78.88058,38.139578]}},{"properties":{"city":"WAYNESBURG","size":2,"margin":27,"geo_score":0.857,"zip code":"15370","id":"a6k6525l5kqs","geo_precision":"zip","state":"PA"},"type":"Feature","geometry":{"type":"Point","coordinates":[-80.186453,39.888964]}},{"properties":{"city":"WEIRTON","size":0,"margin":2,"geo_score":0.857,"zip code":"26062-3828","id":"a6k6527hu667","geo_precision":"zip","state":"WV"},"type":"Feature","geometry":{"type":"Point","coordinates":[-80.605351,40.398401]}},{"properties":{"city":"WENDELL","size":6,"margin":2,"geo_score":0.857,"zip code":"27591","id":"a6k6520hen59","geo_precision":"zip","state":"NC"},"type":"Feature","geometry":{"type":"Point","coordinates":[-78.395966,35.811324]}},{"properties":{"city":"WESTMINSTER","size":6,"margin":20,"geo_score":0.857,"zip code":"211575518","id":"a6k652bufb1p","geo_precision":"zip","state":"MD"},"type":"Feature","geometry":{"type":"Point","coordinates":[-77.012204,39.554823]}},{"properties":{"city":"WESTON","size":7,"margin":4,"geo_score":0.857,"zip code":"26452-8367","id":"a6k652c989jj","geo_precision":"zip","state":"WV"},"type":"Feature","geometry":{"type":"Point","coordinates":[-80.509259,39.047871]}},{"properties":{"city":"WEXFORD","size":3,"margin":22,"geo_score":0.857,"zip code":"15090-8349","id":"a6k652e2erj6","geo_precision":"zip","state":"PA"},"type":"Feature","geometry":{"type":"Point","coordinates":[-80.024817,40.434436]}},{"properties":{"city":"WHEELING","size":7,"margin":22,"geo_score":0.857,"zip code":"26003-6438","id":"a6k652a1llz6","geo_precision":"zip","state":"WV"},"type":"Feature","geometry":{"type":"Point","coordinates":[-80.585075,39.987575]}},{"properties":{"city":"WHITEHALL","size":5,"margin":24,"geo_score":0.857,"zip code":"18052-1221","id":"a6k652dapsoy","geo_precision":"zip","state":"PA"},"type":"Feature","geometry":{"type":"Point","coordinates":[-75.508239,40.665374]}},{"properties":{"city":"WILKES BARRE","size":0,"margin":11,"geo_score":0.857,"zip code":"18702-6604","id":"a6k6524wx5q5","geo_precision":"zip","state":"PA"},"type":"Feature","geometry":{"type":"Point","coordinates":[-75.836306,41.289248]}},{"properties":{"city":"WILLIAMSPORT","size":3,"margin":8,"geo_score":0.857,"zip code":"217951108","id":"a6k6527gktqc","geo_precision":"zip","state":"MD"},"type":"Feature","geometry":{"type":"Point","coordinates":[-77.801661,39.548431]}},{"properties":{"city":"WILLIAMSPORT","size":7,"margin":14,"geo_score":0.857,"zip code":"17701-5869","id":"a6k652a3rh41","geo_precision":"zip","state":"PA"},"type":"Feature","geometry":{"type":"Point","coordinates":[-77.059691,41.281744]}},{"properties":{"city":"WILSON","size":5,"margin":8,"geo_score":0.857,"zip code":"27893-9296","id":"a6k65277ptl1","geo_precision":"zip","state":"NC"},"type":"Feature","geometry":{"type":"Point","coordinates":[-77.783034,35.706825]}},{"properties":{"city":"WINCHESTER","size":1,"margin":15,"geo_score":0.857,"zip code":"22601-8688","id":"a6k651zw6l19","geo_precision":"zip","state":"VA"},"type":"Feature","geometry":{"type":"Point","coordinates":[-78.246669,39.157327]}},{"properties":{"city":"WINDBER","size":5,"margin":4,"geo_score":0.857,"zip code":"15963-1711","id":"a6k65288wzmz","geo_precision":"zip","state":"PA"},"type":"Feature","geometry":{"type":"Point","coordinates":[-78.808077,40.217855]}},{"properties":{"city":"WINSTON SALEM","size":0,"margin":15,"geo_score":0.857,"zip code":"27107","id":"a6k652f2tqxx","geo_precision":"zip","state":"NC"},"type":"Feature","geometry":{"type":"Point","coordinates":[-80.203937,36.069582]}},{"properties":{"city":"WINTERVILLE","size":2,"margin":24,"geo_score":0.857,"zip code":"28590-7931","id":"a6k6525z2qtd","geo_precision":"zip","state":"NC"},"type":"Feature","geometry":{"type":"Point","coordinates":[-77.35413,35.491552]}},{"properties":{"city":"WOODBRIDGE","size":10,"margin":6,"geo_score":0.857,"zip code":"22193-7630","id":"a6k652exn21o","geo_precision":"zip","state":"VA"},"type":"Feature","geometry":{"type":"Point","coordinates":[-77.359152,38.680395]}},{"properties":{"city":"WOODSTOCK","size":7,"margin":7,"geo_score":0.857,"zip code":"226641011","id":"a6k652e5subo","geo_precision":"zip","state":"VA"},"type":"Feature","geometry":{"type":"Point","coordinates":[-78.512429,38.918791]}},{"properties":{"city":"WYTHEVILLE","size":5,"margin":21,"geo_score":0.857,"zip code":"24382-1000","id":"a6k6529c8pu7","geo_precision":"zip","state":"VA"},"type":"Feature","geometry":{"type":"Point","coordinates":[-80.982304,36.864567]}},{"properties":{"city":"YORK","size":9,"margin":11,"geo_score":0.857,"zip code":"17402","id":"a6k6524z5i84","geo_precision":"zip","state":"PA"},"type":"Feature","geometry":{"type":"Point","coordinates":[-76.689918,40.001615]}},{"properties":{"city":"YOUNGSVILLE","size":3,"margin":9,"geo_score":0.857,"zip code":"27596-9184","id":"a6k652c1qezl","geo_precision":"zip","state":"NC"},"type":"Feature","geometry":{"type":"Point","coordinates":[-78.353053,35.931541]}},{"properties":{"city":"YOUNGWOOD","size":3,"margin":21,"geo_score":0.857,"zip code":"15697-1613","id":"a6k652bn8ekg","geo_precision":"zip","state":"PA"},"type":"Feature","geometry":{"type":"Point","coordinates":[-79.566984,40.239792]}},{"properties":{"city":"ZANESVILLE","size":8,"margin":4,"geo_score":0.857,"zip code":"43701-6171","id":"a6k6525rj75c","geo_precision":"zip","state":"OH"},"type":"Feature","geometry":{"type":"Point","coordinates":[-81.9043,39.984236]}},{"properties":{"city":"ZEBULON","size":3,"margin":20,"geo_score":0.857,"zip code":"27597-8734","id":"a6k652c3rm25","geo_precision":"zip","state":"NC"},"type":"Feature","geometry":{"type":"Point","coordinates":[-78.264996,35.884876]}},{"properties":{"city":"ZION CROSSROADS","size":8,"margin":8,"geo_score":0.857,"zip code":"22942","id":"a6k65287mxiv","geo_precision":"zip","state":"VA"},"type":"Feature","geometry":{"type":"Point","coordinates":[-78.219726,37.970974]}}],"is_temporal":false,"author":{"url":"","metadata":"","contact_name":"","contact_address":"","source":"","contact_phone":""},"source":"","pagination":{"sort":null,"start":0,"total":306,"limit":1000000},"state":"complete","tags":"","published":"2014-08-14T19:34:50-04:00","id":253642}