{"type":"FeatureCollection","data_type":"Dataset","url_type":null,"permissions":[{"permissions":{"download":true,"view":true},"group_id":"everyone"}],"classification":null,"title":"3-31-2012 Colorado DaVinci Installations","count":571,"stream_id":253605,"contributor":{"url":"http://geocommons.com/users/47763","name":"byeagley"},"data_attributes":null,"calculation_params":null,"icon_link":null,"link":"http://geocommons.com/overlays/253605.json","extent":[-108.787,37.076,-102.099,40.7087],"geometry_types":["point"],"unique_name":null,"name":"3-31-2012 Colorado DaVinci Installations","feature_count":571,"description":"Davinci installations in Colorado","next_feature":null,"is_raster":false,"short_classification":"Y","stats":{},"features":[{"properties":{"city":"Greenwood Village","geo_score":0.805,"type":"Bellaforte Slate","full address":"5901 S. Akron Way, Greenwood Village CO","color":"Cambridge","id":"a6k57hu86m3z","geo_precision":"range","address":"5901 S. Akron Way"},"type":"Feature","geometry":{"type":"Point","coordinates":[-104.884758,39.609009]}},{"properties":{"city":"Monument","geo_score":0.902,"type":"Bellaforte Slate","full address":"1660 Blueberry Hills Road, Monument CO","color":"Dark Mountain","id":"a6k57i0rksyc","geo_precision":"range","address":"1660 Blueberry Hills Road"},"type":"Feature","geometry":{"type":"Point","coordinates":[-104.856838,39.116181]}},{"properties":{"city":"Avon","geo_score":0.805,"type":"Bellaforte Slate","full address":"150 Windermere Circle, Avon CO","color":"Q FB Cambridge","id":"a6k57i11jfxd","geo_precision":"range","address":"150 Windermere Circle"},"type":"Feature","geometry":{"type":"Point","coordinates":[-106.565043,39.634764]}},{"properties":{"city":"Aurora","geo_score":0.707,"type":"Bellaforte Slate","full address":"11678 E. Powers Avenue, Aurora CO","color":"Sabino","id":"a6k57i8cpitj","geo_precision":"street","address":"11678 E. Powers Avenue"},"type":"Feature","geometry":{"type":"Point","coordinates":[-104.797303,39.614747]}},{"properties":{"city":"Longmont","geo_score":0.468,"type":"Bellaforte slate","full address":"6078 Fox Hill Drive, Longmont CO","color":"Custom Tan, Gray, Autumn, Amber","id":"a6k57i432lmz","geo_precision":"street","address":"6078 Fox Hill Drive"},"type":"Feature","geometry":{"type":"Point","coordinates":[-105.114636,40.144652]}},{"properties":{"city":"Sterling","geo_score":0.902,"type":"Bellaforte Slate","full address":"407 Melba Road, Sterling CO","color":"Slate Black","id":"a6k57i7oo88r","geo_precision":"range","address":"407 Melba Road"},"type":"Feature","geometry":{"type":"Point","coordinates":[-103.254869,40.616485]}},{"properties":{"city":"Arrowhead","geo_score":0.0,"type":"Shake","full address":"107 Windemere Place, Arrowhead CO","color":"Autumn Blend","id":"a6k57hv45lu8","geo_precision":"unmatched","address":"107 Windemere Place"},"type":"Feature","geometry":null},{"properties":{"city":"Arrowhead","geo_score":0.0,"type":"Shake","full address":"33 Windemere Place, Arrowhead CO","color":"Autumn Blend","id":"a6k57i4ejr6b","geo_precision":"unmatched","address":"33 Windemere Place"},"type":"Feature","geometry":null},{"properties":{"city":"Arvada","geo_score":0.837,"type":"Shake","full address":"11502 W 77th Drive, Arvada CO","color":"Autumn Blend","id":"a6k57i533ud6","geo_precision":"range","address":"11502 W 77th Drive"},"type":"Feature","geometry":{"type":"Point","coordinates":[-105.125144,39.838419]}},{"properties":{"city":"Arvada","geo_score":0.837,"type":"Shake","full address":"11802 West 77th Drive, Arvada CO","color":"Autumn Blend","id":"a6k57ht5iq2x","geo_precision":"range","address":"11802 West 77th Drive"},"type":"Feature","geometry":{"type":"Point","coordinates":[-105.12963,39.840422]}},{"properties":{"city":"Arvada","geo_score":0.642,"type":"Shake","full address":"1368 W 57th Place, Arvada CO","color":"Autumn Blend","id":"a6k57hysp04c","geo_precision":"street","address":"1368 W 57th Place"},"type":"Feature","geometry":{"type":"Point","coordinates":[-105.105919,39.800965]}},{"properties":{"city":"Arvada","geo_score":0.837,"type":"Shake","full address":"13719 W 59th Drive, Arvada CO","color":"Autumn Blend","id":"a6k57i0slrt9","geo_precision":"range","address":"13719 W 59th Drive"},"type":"Feature","geometry":{"type":"Point","coordinates":[-105.154586,39.80443]}},{"properties":{"city":"Arvada","geo_score":0.837,"type":"Shake","full address":"13830 W 59th Drive, Arvada CO","color":"Autumn Blend","id":"a6k57i70k1yz","geo_precision":"range","address":"13830 W 59th Drive"},"type":"Feature","geometry":{"type":"Point","coordinates":[-105.153582,39.804275]}},{"properties":{"city":"Arvada","geo_score":0.844,"type":"Shake","full address":"13831 W 59th Ave, Arvada CO","color":"Autumn Blend","id":"a6k57hznr6vb","geo_precision":"range","address":"13831 W 59th Ave"},"type":"Feature","geometry":{"type":"Point","coordinates":[-105.153802,39.803709]}},{"properties":{"city":"Arvada","geo_score":0.902,"type":"Shake","full address":"5974 Cole Way, Arvada CO","color":"Autumn Blend","id":"a6k57i4wbe4t","geo_precision":"range","address":"5974 Cole Way"},"type":"Feature","geometry":{"type":"Point","coordinates":[-105.152529,39.804816]}},{"properties":{"city":"Aspen","geo_score":0.902,"type":"Shake","full address":"1 Ranch Road, Starwood , Aspen CO","color":"Autumn Blend","id":"a6k57i5gj67p","geo_precision":"range","address":"1 Ranch Road, Starwood"},"type":"Feature","geometry":{"type":"Point","coordinates":[-106.82037,39.209656]}},{"properties":{"city":"Aspen","geo_score":0.902,"type":"Shake","full address":"148 Danielson Drive, Aspen CO","color":"Autumn Blend","id":"a6k57i6qtu64","geo_precision":"range","address":"148 Danielson Drive"},"type":"Feature","geometry":{"type":"Point","coordinates":[-106.843788,39.226635]}},{"properties":{"city":"Aspen","geo_score":0.725,"type":"Shake","full address":"181 Larkspur, Aspen CO","color":"Autumn Blend","id":"a6k57hynlndh","geo_precision":"street","address":"181 Larkspur"},"type":"Feature","geometry":{"type":"Point","coordinates":[-106.841186,39.186062]}},{"properties":{"city":"Aspen","geo_score":0.902,"type":"Shake","full address":"200 West Buttermilk Road, Aspen CO","color":"Autumn Blend","id":"a6k57hzhmxc2","geo_precision":"range","address":"200 West Buttermilk Road"},"type":"Feature","geometry":{"type":"Point","coordinates":[-106.866741,39.20923]}},{"properties":{"city":"Aspen","geo_score":0.876,"type":"Shake","full address":"219 Buchanan Drive, Aspen CO","color":"Autumn Blend","id":"a6k57i08j30p","geo_precision":"range","address":"219 Buchanan Drive"},"type":"Feature","geometry":{"type":"Point","coordinates":[-106.848183,39.236156]}},{"properties":{"city":"Aspen","geo_score":0.902,"type":"Shake","full address":"220 W. Buttermilk Road, Aspen CO","color":"Autumn Blend","id":"a6k57hxho7t0","geo_precision":"range","address":"220 W. Buttermilk Road"},"type":"Feature","geometry":{"type":"Point","coordinates":[-106.866543,39.209157]}},{"properties":{"city":"Aspen","geo_score":0.829,"type":"Shake","full address":"321 West Francis, Aspen CO","color":"Autumn Blend","id":"a6k57hvc3bh4","geo_precision":"range","address":"321 West Francis"},"type":"Feature","geometry":{"type":"Point","coordinates":[-106.82534,39.194403]}},{"properties":{"city":"Aspen","geo_score":0.505,"type":"Shake","full address":"368 Willoughby Way, Aspen CO","color":"Autumn Blend","id":"a6k57i2hx6en","geo_precision":"city","address":"368 Willoughby Way"},"type":"Feature","geometry":{"type":"Point","coordinates":[-106.776744,39.169324]}},{"properties":{"city":"Aspen","geo_score":0.902,"type":"Shake","full address":"372 Glen Eagle Drive, Aspen CO","color":"Autumn Blend","id":"a6k57i7m2uuw","geo_precision":"range","address":"372 Glen Eagle Drive"},"type":"Feature","geometry":{"type":"Point","coordinates":[-106.850558,39.184077]}},{"properties":{"city":"Aspen","geo_score":0.902,"type":"Shake","full address":"44 Ridge Place, Aspen CO","color":"Autumn Blend","id":"a6k57hypms96","geo_precision":"range","address":"44 Ridge Place"},"type":"Feature","geometry":{"type":"Point","coordinates":[-106.822731,39.203527]}},{"properties":{"city":"Aspen","geo_score":0.902,"type":"Shake","full address":"681 Mountain Laurel Dr, Aspen CO","color":"Autumn Blend","id":"a6k57hvysvqw","geo_precision":"range","address":"681 Mountain Laurel Dr"},"type":"Feature","geometry":{"type":"Point","coordinates":[-106.799925,39.184132]}},{"properties":{"city":"Aspen","geo_score":0.611,"type":"Shake","full address":"698 Eppley, Starwood , Aspen CO","color":"Autumn Blend","id":"a6k57i5dw9b9","geo_precision":"street","address":"698 Eppley, Starwood"},"type":"Feature","geometry":{"type":"Point","coordinates":[-106.842387,39.226355]}},{"properties":{"city":"Aspen","geo_score":0.902,"type":"Shake","full address":"74 Ute Place, Aspen CO","color":"Autumn Blend","id":"a6k57i5q8w3j","geo_precision":"range","address":"74 Ute Place"},"type":"Feature","geometry":{"type":"Point","coordinates":[-106.8136,39.183382]}},{"properties":{"city":"Aspen","geo_score":0.51,"type":"Shake","full address":"87 Magnifico, Aspen CO","color":"Autumn Blend","id":"a6k57hvrny9u","geo_precision":"city","address":"87 Magnifico"},"type":"Feature","geometry":{"type":"Point","coordinates":[-106.776744,39.169324]}},{"properties":{"city":"Aspen","geo_score":0.902,"type":"Shake","full address":"914 Red Mountain Rd., Aspen CO","color":"Autumn Blend","id":"a6k57i22355g","geo_precision":"range","address":"914 Red Mountain Rd."},"type":"Feature","geometry":{"type":"Point","coordinates":[-106.817514,39.204121]}},{"properties":{"city":"Aspen","geo_score":0.902,"type":"Shake","full address":"965 Powder Lane, Aspen CO","color":"Autumn Blend","id":"a6k57hy2cqco","geo_precision":"range","address":"965 Powder Lane"},"type":"Feature","geometry":{"type":"Point","coordinates":[-106.816621,39.183384]}},{"properties":{"city":"Aspen","geo_score":0.902,"type":"Shake","full address":"979 Red Mountain Rd, Aspen CO","color":"Autumn Blend","id":"a6k57hwm05b9","geo_precision":"range","address":"979 Red Mountain Rd"},"type":"Feature","geometry":{"type":"Point","coordinates":[-106.816113,39.20388]}},{"properties":{"city":"Aurora","geo_score":0.902,"type":"Shake","full address":"15758 E Grand Avenue, Aurora CO","color":"Autumn Blend","id":"a6k57i1po68v","geo_precision":"range","address":"15758 E Grand Avenue"},"type":"Feature","geometry":{"type":"Point","coordinates":[-104.805423,39.626165]}},{"properties":{"city":"Aurora","geo_score":0.902,"type":"Shake","full address":"4805 S. Joplin Street, Aurora CO","color":"Autumn Blend","id":"a6k57i6vexap","geo_precision":"range","address":"4805 S. Joplin Street"},"type":"Feature","geometry":{"type":"Point","coordinates":[-104.804642,39.628257]}},{"properties":{"city":"Basalt","geo_score":0.902,"type":"Shake","full address":"372 Holland Hills Road, Basalt CO","color":"Autumn Blend","id":"a6k57hwv1tj0","geo_precision":"range","address":"372 Holland Hills Road"},"type":"Feature","geometry":{"type":"Point","coordinates":[-107.014851,39.352457]}},{"properties":{"city":"Beaver Creek","geo_score":0.456,"type":"Shake","full address":"141 South Fairway, Beaver Creek CO","color":"Autumn Blend","id":"a6k57i59ckj3","geo_precision":"street","address":"141 South Fairway"},"type":"Feature","geometry":{"type":"Point","coordinates":[-107.534255,40.520019]}},{"properties":{"city":"Breckenridge","geo_score":0.369,"type":"Shake","full address":"14926 Hwy 9, Breckenridge CO","color":"Autumn Blend","id":"a6k57hssuyfc","geo_precision":"street","address":"14926 Hwy 9"},"type":"Feature","geometry":{"type":"Point","coordinates":[-105.275617,39.50223]}},{"properties":{"city":"Breckenridge","geo_score":0.428,"type":"Shake","full address":"299 Peerless Drive, Breckenridge CO","color":"Autumn Blend","id":"a6k57i7jvqpr","geo_precision":"street","address":"299 Peerless Drive"},"type":"Feature","geometry":{"type":"Point","coordinates":[-105.271619,39.506426]}},{"properties":{"city":"Burlington","geo_score":0.561,"type":"Shake","full address":"1189 Yuma Cty Rd. LL5, Burlington CO","color":"Autumn Blend","id":"a6k57hwqpn6x","geo_precision":"street","address":"1189 Yuma Cty Rd. LL5"},"type":"Feature","geometry":{"type":"Point","coordinates":[-102.099026,39.515343]}},{"properties":{"city":"Burlington","geo_score":0.902,"type":"Shake","full address":"48144 Cottonwood Lane, Burlington CO","color":"Autumn Blend","id":"a6k57hxdnayb","geo_precision":"range","address":"48144 Cottonwood Lane"},"type":"Feature","geometry":{"type":"Point","coordinates":[-102.277872,39.331709]}},{"properties":{"city":"Carbondale","geo_score":0.709,"type":"Shake","full address":"2557 Delores Way, Carbondale CO","color":"Autumn Blend","id":"a6k57i5hrz2x","geo_precision":"street","address":"2557 Delores Way"},"type":"Feature","geometry":{"type":"Point","coordinates":[-107.224871,39.410876]}},{"properties":{"city":"Carbondale","geo_score":0.649,"type":"Shake","full address":"3889 Crystal Bridge Rd., Carbondale CO","color":"Autumn Blend","id":"a6k57htikhgz","geo_precision":"street","address":"3889 Crystal Bridge Rd."},"type":"Feature","geometry":{"type":"Point","coordinates":[-107.249287,39.16766]}},{"properties":{"city":"Carbondale","geo_score":0.638,"type":"Shake","full address":"60 Patterson,River Valley Ranch, Carbondale CO","color":"Autumn Blend","id":"a6k57hwlps1q","geo_precision":"street","address":"60 Patterson,River Valley Ranch"},"type":"Feature","geometry":{"type":"Point","coordinates":[-107.213361,39.381775]}},{"properties":{"city":"Carbondale","geo_score":0.612,"type":"Shake","full address":"Lot B2, Aspen Glen, Carbondale CO","color":"Autumn Blend","id":"a6k57hsogkvz","geo_precision":"street","address":"Lot B2, Aspen Glen"},"type":"Feature","geometry":{"type":"Point","coordinates":[-107.228638,39.213053]}},{"properties":{"city":"Castle Pines","geo_score":0.0,"type":"Shake","full address":"30 Albion Place, Castle Pines CO","color":"Autumn Blend","id":"a6k57i34wfku","geo_precision":"unmatched","address":"30 Albion Place"},"type":"Feature","geometry":null},{"properties":{"city":"Centennial","geo_score":0.547,"type":"Shake","full address":"7393 S. Fillmore Circle, Centennial CO","color":"Autumn Blend","id":"a6k57i6snnq1","geo_precision":"street","address":"7393 S. Fillmore Circle"},"type":"Feature","geometry":{"type":"Point","coordinates":[-105.152364,39.989412]}},{"properties":{"city":"Centennial","geo_score":0.547,"type":"Shake","full address":"7421 S Fillmore Circle, Centennial CO","color":"Autumn Blend","id":"a6k57hu95ib8","geo_precision":"street","address":"7421 S Fillmore Circle"},"type":"Feature","geometry":{"type":"Point","coordinates":[-105.152364,39.989412]}},{"properties":{"city":"Centennial","geo_score":0.547,"type":"Shake","full address":"7445 S. Fillmore Circle, Centennial CO","color":"Autumn Blend","id":"a6k57hx9m2x2","geo_precision":"street","address":"7445 S. Fillmore Circle"},"type":"Feature","geometry":{"type":"Point","coordinates":[-105.152364,39.989412]}},{"properties":{"city":"Cherry Hills Village","geo_score":0.707,"type":"Shake","full address":"3210 Cherryridge Road (Garage), Cherry Hills Village  CO","color":"Autumn Blend","id":"a6k57i678uvf","geo_precision":"range","address":"3210 Cherryridge Road (Garage)"},"type":"Feature","geometry":{"type":"Point","coordinates":[-104.953379,39.631972]}},{"properties":{"city":"Cordillera","geo_score":0.0,"type":"Shake","full address":"113 Kimberwick Way, Cordillera CO","color":"Autumn Blend","id":"a6k57i0wr1yu","geo_precision":"unmatched","address":"113 Kimberwick Way"},"type":"Feature","geometry":null},{"properties":{"city":"Cordillera","geo_score":0.0,"type":"Shake","full address":"122 West Timber Draw, Cordillera CO","color":"Autumn Blend","id":"a6k57i6f43ef","geo_precision":"unmatched","address":"122 West Timber Draw"},"type":"Feature","geometry":null},{"properties":{"city":"Cordillera","geo_score":0.0,"type":"Shake","full address":"138 E. Timber Drive, Cordillera CO","color":"Autumn Blend","id":"a6k57i8l162o","geo_precision":"unmatched","address":"138 E. Timber Drive"},"type":"Feature","geometry":null},{"properties":{"city":"Cordillera","geo_score":0.0,"type":"Shake","full address":"15 Cantle Place, Cordillera CO","color":"Autumn Blend","id":"a6k57htwdntq","geo_precision":"unmatched","address":"15 Cantle Place"},"type":"Feature","geometry":null},{"properties":{"city":"Cordillera","geo_score":0.0,"type":"Shake","full address":"196 Fenno Drive, Cordillera CO","color":"Autumn Blend","id":"a6k57hu0z2g3","geo_precision":"unmatched","address":"196 Fenno Drive"},"type":"Feature","geometry":null},{"properties":{"city":"Cordillera","geo_score":0.0,"type":"Shake","full address":"210 Aspen Meadows Road, Cordillera CO","color":"Autumn Blend","id":"a6k57i1xwjus","geo_precision":"unmatched","address":"210 Aspen Meadows Road"},"type":"Feature","geometry":null},{"properties":{"city":"Cordillera","geo_score":0.0,"type":"Shake","full address":"2655 Fenno Drive, Cordillera CO","color":"Autumn Blend","id":"a6k57i54w2lf","geo_precision":"unmatched","address":"2655 Fenno Drive"},"type":"Feature","geometry":null},{"properties":{"city":"Cordillera","geo_score":0.0,"type":"Shake","full address":"28 S. Aspen Meadows, Cordillera CO","color":"Autumn Blend","id":"a6k57i0l4ywv","geo_precision":"unmatched","address":"28 S. Aspen Meadows"},"type":"Feature","geometry":null},{"properties":{"city":"Cordillera","geo_score":0.0,"type":"Shake","full address":"362 Pine Marten Way, Cordillera CO","color":"Autumn Blend","id":"a6k57hv07z3r","geo_precision":"unmatched","address":"362 Pine Marten Way"},"type":"Feature","geometry":null},{"properties":{"city":"Cordillera","geo_score":0.0,"type":"Shake","full address":"42 Stag Gulch Road, Cordillera CO","color":"Autumn Blend","id":"a6k57htum44l","geo_precision":"unmatched","address":"42 Stag Gulch Road"},"type":"Feature","geometry":null},{"properties":{"city":"Cordillera","geo_score":0.0,"type":"Shake","full address":"44 Stag Gulch Road, Cordillera CO","color":"Autumn Blend","id":"a6k57huf5u2b","geo_precision":"unmatched","address":"44 Stag Gulch Road"},"type":"Feature","geometry":null},{"properties":{"city":"Cordillera","geo_score":0.0,"type":"Shake","full address":"46 Stag Gulch Road, Cordillera CO","color":"Autumn Blend","id":"a6k57i8eaofs","geo_precision":"unmatched","address":"46 Stag Gulch Road"},"type":"Feature","geometry":null},{"properties":{"city":"Cordillera","geo_score":0.0,"type":"Shake","full address":"605 Andorra Drive, Cordillera CO","color":"Autumn Blend","id":"a6k57hv38l1m","geo_precision":"unmatched","address":"605 Andorra Drive"},"type":"Feature","geometry":null},{"properties":{"city":"Cordillera","geo_score":0.0,"type":"Shake","full address":"625 Graham Rd., Cordillera CO","color":"Autumn Blend","id":"a6k57hwfxr7b","geo_precision":"unmatched","address":"625 Graham Rd."},"type":"Feature","geometry":null},{"properties":{"city":"Cordillera","geo_score":0.0,"type":"Shake","full address":"628 Settler's Loop, Cordillera CO","color":"Autumn Blend","id":"a6k57huenjzn","geo_precision":"unmatched","address":"628 Settler's Loop"},"type":"Feature","geometry":null},{"properties":{"city":"Cordillera","geo_score":0.0,"type":"Shake","full address":"695 Cordillera Way, Cordillera CO","color":"Autumn Blend","id":"a6k57i8f9c31","geo_precision":"unmatched","address":"695 Cordillera Way"},"type":"Feature","geometry":null},{"properties":{"city":"Cordillera","geo_score":0.0,"type":"Shake","full address":"78 S Aspen Meadows Road, Cordillera CO","color":"Autumn Blend","id":"a6k57hygw4sx","geo_precision":"unmatched","address":"78 S Aspen Meadows Road"},"type":"Feature","geometry":null},{"properties":{"city":"Cordillera","geo_score":0.0,"type":"Shake","full address":"82 West Timber Draw, Cordillera CO","color":"Autumn Blend","id":"a6k57i5ovcqh","geo_precision":"unmatched","address":"82 West Timber Draw"},"type":"Feature","geometry":null},{"properties":{"city":"Crested Butte","geo_score":0.857,"type":"Shake","full address":"5 Moon Ridge Road, Crested Butte CO","color":"Autumn Blend","id":"a6k57hx4v2ww","geo_precision":"range","address":"5 Moon Ridge Road"},"type":"Feature","geometry":{"type":"Point","coordinates":[-106.974384,38.8805]}},{"properties":{"city":"Denver","geo_score":0.902,"type":"Shake","full address":"3734 S. Niagara Way, Denver CO","color":"Autumn Blend","id":"a6k57hypdqdk","geo_precision":"range","address":"3734 S. Niagara Way"},"type":"Feature","geometry":{"type":"Point","coordinates":[-104.910814,39.64927]}},{"properties":{"city":"Durango","geo_score":0.902,"type":"Shake","full address":"731 County Road 247, Durango CO","color":"Autumn Blend","id":"a6k57i86mb6w","geo_precision":"range","address":"731 County Road 247"},"type":"Feature","geometry":{"type":"Point","coordinates":[-107.738971,37.332849]}},{"properties":{"city":"Eagle","geo_score":0.882,"type":"Shake","full address":"310 Castle Peak Drive, Eby Creek Mesa, Eagle CO","color":"Autumn Blend","id":"a6k57i161nf6","geo_precision":"range","address":"310 Castle Peak Drive, Eby Creek Mesa"},"type":"Feature","geometry":{"type":"Point","coordinates":[-106.83402,39.672437]}},{"properties":{"city":"Edwards","geo_score":0.902,"type":"Shake","full address":"11 Mustang Road, Singletree, Edwards CO","color":"Autumn Blend","id":"a6k57hzjknk4","geo_precision":"range","address":"11 Mustang Road, Singletree"},"type":"Feature","geometry":{"type":"Point","coordinates":[-106.572998,39.652141]}},{"properties":{"city":"Edwards","geo_score":0.902,"type":"Shake","full address":"181 Spring Creek Lane,Cord.Valley Club, Edwards CO","color":"Autumn Blend","id":"a6k57i5oz3nj","geo_precision":"range","address":"181 Spring Creek Lane,Cord.Valley Club"},"type":"Feature","geometry":{"type":"Point","coordinates":[-106.619824,39.663117]}},{"properties":{"city":"Edwards","geo_score":0.756,"type":"Shake","full address":"197 Saddle Ridge Loop, Edwards CO","color":"Autumn Blend","id":"a6k57i2ojzp6","geo_precision":"street","address":"197 Saddle Ridge Loop"},"type":"Feature","geometry":{"type":"Point","coordinates":[-106.660586,39.627308]}},{"properties":{"city":"Edwards","geo_score":0.902,"type":"Shake","full address":"231 Saddle Ridge Loop, Edwards CO","color":"Autumn Blend","id":"a6k57hwiz9ct","geo_precision":"range","address":"231 Saddle Ridge Loop"},"type":"Feature","geometry":{"type":"Point","coordinates":[-106.660391,39.627324]}},{"properties":{"city":"Edwards","geo_score":0.829,"type":"Shake","full address":"97 Castle Peak Gate, Edwards CO","color":"Autumn Blend","id":"a6k57i5q7q2l","geo_precision":"range","address":"97 Castle Peak Gate"},"type":"Feature","geometry":{"type":"Point","coordinates":[-106.599792,39.640881]}},{"properties":{"city":"Evergreen","geo_score":0.805,"type":"Shake","full address":"30032 Troutdale Road, Evergreen CO","color":"Autumn Blend","id":"a6k57i6fpk9i","geo_precision":"range","address":"30032 Troutdale Road"},"type":"Feature","geometry":{"type":"Point","coordinates":[-105.343188,39.64049]}},{"properties":{"city":"Evergreen","geo_score":0.902,"type":"Shake","full address":"3552 Overlook Trail, Evergreen CO","color":"Autumn Blend","id":"a6k57hz36zx6","geo_precision":"range","address":"3552 Overlook Trail"},"type":"Feature","geometry":{"type":"Point","coordinates":[-105.35247,39.651296]}},{"properties":{"city":"Frisco","geo_score":0.561,"type":"Shake","full address":"50045 Main Gore Drive, Frisco CO","color":"Autumn Blend","id":"a6k57i3bazqe","geo_precision":"street","address":"50045 Main Gore Drive"},"type":"Feature","geometry":{"type":"Point","coordinates":[-106.09386,39.576506]}},{"properties":{"city":"Golden","geo_score":0.707,"type":"Shake","full address":"15095 Foothills Road, Golden CO","color":"Autumn Blend","id":"a6k57i1t7t8f","geo_precision":"street","address":"15095 Foothills Road"},"type":"Feature","geometry":{"type":"Point","coordinates":[-105.230515,39.744355]}},{"properties":{"city":"Golden","geo_score":0.902,"type":"Shake","full address":"22194 Forest Hills Drive, Golden CO","color":"Autumn Blend","id":"a6k57hz5imtz","geo_precision":"range","address":"22194 Forest Hills Drive"},"type":"Feature","geometry":{"type":"Point","coordinates":[-105.250098,39.699505]}},{"properties":{"city":"Greenwood Village","geo_score":0.805,"type":"Shake","full address":"5385 S. Fulton Court, Greenwood Village CO","color":"Autumn Blend","id":"a6k57hxft6oq","geo_precision":"range","address":"5385 S. Fulton Court"},"type":"Feature","geometry":{"type":"Point","coordinates":[-104.871965,39.618906]}},{"properties":{"city":"Lakewood","geo_score":0.844,"type":"Shake","full address":"10665 W 26th Avenue, Lakewood CO","color":"Autumn Blend","id":"a6k57i2cwium","geo_precision":"range","address":"10665 W 26th Avenue"},"type":"Feature","geometry":{"type":"Point","coordinates":[-105.11726,39.754745]}},{"properties":{"city":"Lakewood","geo_score":0.74,"type":"Shake","full address":"9495 W 2nd Avenue, Lakewood CO","color":"Autumn Blend","id":"a6k57hwkk2yx","geo_precision":"range","address":"9495 W 2nd Avenue"},"type":"Feature","geometry":{"type":"Point","coordinates":[-105.103709,39.719813]}},{"properties":{"city":"Littleton","geo_score":0.902,"type":"Shake","full address":"5153 W Fair Avenue, Littleton CO","color":"Autumn Blend","id":"a6k57i57oqpb","geo_precision":"range","address":"5153 W Fair Avenue"},"type":"Feature","geometry":{"type":"Point","coordinates":[-105.052964,39.60393]}},{"properties":{"city":"Pueblo","geo_score":0.793,"type":"Shake","full address":"1901 Court Street, Pueblo CO","color":"Autumn Blend","id":"a6k57i5sn87o","geo_precision":"range","address":"1901 Court Street"},"type":"Feature","geometry":{"type":"Point","coordinates":[-104.610373,38.285969]}},{"properties":{"city":"Redstone","geo_score":0.902,"type":"Shake","full address":"102 Firehouse Road, Redstone CO","color":"Autumn Blend","id":"a6k57hy0g9uo","geo_precision":"range","address":"102 Firehouse Road"},"type":"Feature","geometry":{"type":"Point","coordinates":[-107.23832,39.180638]}},{"properties":{"city":"Ridgway","geo_score":0.756,"type":"Shake","full address":"Loghill Road, Ridgway CO","color":"Autumn Blend","id":"a6k57hzfpuaa","geo_precision":"city","address":"Loghill Road"},"type":"Feature","geometry":{"type":"Point","coordinates":[-107.72736,38.177464]}},{"properties":{"city":"Rock Springs","geo_score":0.352,"type":"Shake","full address":"West WY CC - 2500 College Drive, Rock Springs CO","color":"Autumn Blend","id":"a6k57hzcn0ca","geo_precision":"street","address":"West WY CC - 2500 College Drive"},"type":"Feature","geometry":{"type":"Point","coordinates":[-102.621798,37.408113]}},{"properties":{"city":"Snowmass","geo_score":0.805,"type":"Shake","full address":"142 Aspen Way, Snowmass CO","color":"Autumn Blend","id":"a6k57hxkm0u7","geo_precision":"range","address":"142 Aspen Way"},"type":"Feature","geometry":{"type":"Point","coordinates":[-106.961245,39.203317]}},{"properties":{"city":"Snowmass","geo_score":0.805,"type":"Shake","full address":"28 Forest Lane, Snowmass CO","color":"Autumn Blend","id":"a6k57hxvgh9k","geo_precision":"range","address":"28 Forest Lane"},"type":"Feature","geometry":{"type":"Point","coordinates":[-106.945398,39.200618]}},{"properties":{"city":"Snowmass","geo_score":0.805,"type":"Shake","full address":"5728 Snowmass Creek Rd., Snowmass CO","color":"Autumn Blend","id":"a6k57hx6i5qq","geo_precision":"street","address":"5728 Snowmass Creek Rd."},"type":"Feature","geometry":{"type":"Point","coordinates":[-106.964962,39.260191]}},{"properties":{"city":"Snowmass Village","geo_score":0.861,"type":"Shake","full address":"439 Maple Ridge Rd., Snowmass Village CO","color":"Autumn Blend","id":"a6k57i4c7n76","geo_precision":"range","address":"439 Maple Ridge Rd."},"type":"Feature","geometry":{"type":"Point","coordinates":[-106.938701,39.209852]}},{"properties":{"city":"Snowmass Village","geo_score":0.6,"type":"Shake","full address":"568 Fox Run Drive, Snowmass Village CO","color":"Autumn Blend","id":"a6k57i7n4w6g","geo_precision":"range","address":"568 Fox Run Drive"},"type":"Feature","geometry":{"type":"Point","coordinates":[-107.027532,39.363177]}},{"properties":{"city":"Snowmass Village","geo_score":0.805,"type":"Shake","full address":"81 Fairway Drive, Snowmass Village CO","color":"Autumn Blend","id":"a6k57i0qcdee","geo_precision":"street","address":"81 Fairway Drive"},"type":"Feature","geometry":{"type":"Point","coordinates":[-106.921724,39.215885]}},{"properties":{"city":"Snowmass Village","geo_score":0.767,"type":"Shake","full address":"940 Two Creeks, Snowmass Village CO","color":"Autumn Blend","id":"a6k57hvadqy6","geo_precision":"range","address":"940 Two Creeks"},"type":"Feature","geometry":{"type":"Point","coordinates":[-106.927272,39.205934]}},{"properties":{"city":"Steamboat Springs","geo_score":0.902,"type":"Shake","full address":"1320 Mark Twain Lane, Steamboat Springs CO","color":"Autumn Blend","id":"a6k57hwlu81g","geo_precision":"range","address":"1320 Mark Twain Lane"},"type":"Feature","geometry":{"type":"Point","coordinates":[-106.811028,40.464577]}},{"properties":{"city":"Telluride","geo_score":0.585,"type":"Shake","full address":"1640 Brown Ranch Road, Telluride CO","color":"Autumn Blend","id":"a6k57i5kxe3g","geo_precision":"street","address":"1640 Brown Ranch Road"},"type":"Feature","geometry":{"type":"Point","coordinates":[-108.014991,38.111253]}},{"properties":{"city":"Telluride","geo_score":0.415,"type":"Shake","full address":"8210 Hwy 45, Telluride CO","color":"Autumn Blend","id":"a6k57hxj7t4y","geo_precision":"street","address":"8210 Hwy 45"},"type":"Feature","geometry":{"type":"Point","coordinates":[-108.242243,38.128558]}},{"properties":{"city":"Vail","geo_score":0.805,"type":"Shake","full address":"100 East Meadow Drive, Campo De Fiori, Vail CO","color":"Autumn Blend","id":"a6k57i67mmdi","geo_precision":"street","address":"100 East Meadow Drive, Campo De Fiori"},"type":"Feature","geometry":{"type":"Point","coordinates":[-106.374783,39.642116]}},{"properties":{"city":"Vail","geo_score":0.829,"type":"Shake","full address":"1119 Ptarmigan, Vail CO","color":"Autumn Blend","id":"a6k57i3kgsf3","geo_precision":"range","address":"1119 Ptarmigan"},"type":"Feature","geometry":{"type":"Point","coordinates":[-106.358998,39.637944]}},{"properties":{"city":"Vail","geo_score":0.902,"type":"Shake","full address":"1388 Vail Valley Drive, Vail CO","color":"Autumn Blend","id":"a6k57hwwoaxs","geo_precision":"range","address":"1388 Vail Valley Drive"},"type":"Feature","geometry":{"type":"Point","coordinates":[-106.350495,39.64027]}},{"properties":{"city":"Vail","geo_score":0.502,"type":"Shake","full address":"197 Rockledge Road, Vail CO","color":"Autumn Blend","id":"a6k57i5daral","geo_precision":"city","address":"197 Rockledge Road"},"type":"Feature","geometry":{"type":"Point","coordinates":[-106.44873,39.5824]}},{"properties":{"city":"Vail","geo_score":0.451,"type":"Shake","full address":"201 Gore Creek Drive - Retail&amp;Condos, Vail CO","color":"Autumn Blend","id":"a6k57hz5sxim","geo_precision":"street","address":"201 Gore Creek Drive - Retail&amp;Condos"},"type":"Feature","geometry":{"type":"Point","coordinates":[-106.281335,39.62768]}},{"properties":{"city":"Vail","geo_score":0.805,"type":"Shake","full address":"288 Bridge Street, Retail, Vail CO","color":"Autumn Blend","id":"a6k57i1urvgt","geo_precision":"range","address":"288 Bridge Street, Retail"},"type":"Feature","geometry":{"type":"Point","coordinates":[-106.373591,39.640575]}},{"properties":{"city":"Vail","geo_score":0.902,"type":"Shake","full address":"315 Mill Creek Circle, Vail CO","color":"Autumn Blend","id":"a6k57i068otc","geo_precision":"range","address":"315 Mill Creek Circle"},"type":"Feature","geometry":{"type":"Point","coordinates":[-106.371889,39.638263]}},{"properties":{"city":"Vail","geo_score":0.503,"type":"Shake","full address":"3944 Bighorn Road, Vail CO","color":"Autumn Blend","id":"a6k57hsqo178","geo_precision":"city","address":"3944 Bighorn Road"},"type":"Feature","geometry":{"type":"Point","coordinates":[-106.44873,39.5824]}},{"properties":{"city":"Vail","geo_score":0.595,"type":"Shake","full address":"Northwoods Condos-600 Vail Valley Dr, Vail CO","color":"Autumn Blend","id":"a6k57htv6wzi","geo_precision":"street","address":"Northwoods Condos-600 Vail Valley Dr"},"type":"Feature","geometry":{"type":"Point","coordinates":[-106.369367,39.639534]}},{"properties":{"city":"Vail","geo_score":0.52,"type":"Shake","full address":"Pinos Del Norte - 600 Vail Valley Drive, Vail CO","color":"Autumn Blend","id":"a6k57i14mw57","geo_precision":"street","address":"Pinos Del Norte - 600 Vail Valley Drive"},"type":"Feature","geometry":{"type":"Point","coordinates":[-106.369367,39.639534]}},{"properties":{"city":"Westminister","geo_score":0.461,"type":"Shake","full address":"3955 W 28th Ave, Westminister CO","color":"Autumn Blend","id":"a6k57i6g7nbg","geo_precision":"street","address":"3955 W 28th Ave"},"type":"Feature","geometry":{"type":"Point","coordinates":[-105.062575,39.865085]}},{"properties":{"city":"Woodland Park","geo_score":0.902,"type":"Shake","full address":"145 Sun Valley Drive, Woodland Park CO","color":"Autumn Blend","id":"a6k57i6h8u04","geo_precision":"range","address":"145 Sun Valley Drive"},"type":"Feature","geometry":{"type":"Point","coordinates":[-105.034832,38.970345]}},{"properties":{"city":"Cordillera","geo_score":0.0,"type":"Shake","full address":"123 Pine Marten Drive, Cordillera CO","color":"Autumn Blend","id":"a6k57i5vqm45","geo_precision":"unmatched","address":"123 Pine Marten Drive"},"type":"Feature","geometry":null},{"properties":{"city":"Montrose","geo_score":0.403,"type":"Shake","full address":"Golf Cabins - Connerstone Golf Club, Montrose CO","color":"Autumn Blend","id":"a6k57i5zigps","geo_precision":"street","address":"Golf Cabins - Connerstone Golf Club"},"type":"Feature","geometry":{"type":"Point","coordinates":[-107.845291,37.923542]}},{"properties":{"city":"Parker","geo_score":0.649,"type":"Shake","full address":"12540 N. Pine Creek Road, Parker CO","color":"Autumn Blend","id":"a6k57i5neb5d","geo_precision":"street","address":"12540 N. Pine Creek Road"},"type":"Feature","geometry":{"type":"Point","coordinates":[-104.709416,39.538436]}},{"properties":{"city":"Vail","geo_score":0.902,"type":"Shake","full address":"1067 Ptarmigan Road, Vail CO","color":"Autumn Blend","id":"a6k57i61pkpc","geo_precision":"range","address":"1067 Ptarmigan Road"},"type":"Feature","geometry":{"type":"Point","coordinates":[-106.358134,39.637899]}},{"properties":{"city":"Vail","geo_score":0.84,"type":"Shake","full address":"5045 Maingore Drive, Vail CO","color":"Autumn Blend","id":"a6k57i45pvsb","geo_precision":"range","address":"5045 Maingore Drive"},"type":"Feature","geometry":{"type":"Point","coordinates":[-106.283751,39.627024]}},{"properties":{"city":"Evergreen","geo_score":0.878,"type":"Shake","full address":"2374 El Dorado Lane, Evergreen CO","color":"Custom Blend","id":"a6k57i8h8vdb","geo_precision":"range","address":"2374 El Dorado Lane"},"type":"Feature","geometry":{"type":"Point","coordinates":[-105.358933,39.671899]}},{"properties":{"city":"Vail","geo_score":0.707,"type":"Shake","full address":"1455 Greenhill Drive, Vail CO","color":"Custom Blend","id":"a6k57i0gknyh","geo_precision":"street","address":"1455 Greenhill Drive"},"type":"Feature","geometry":{"type":"Point","coordinates":[-106.404575,39.634384]}},{"properties":{"city":"Colorado Springs","geo_score":0.524,"type":"Shake","full address":"7917 Red Granite Loop, Colorado Springs CO","color":"Mounatin Blend","id":"a6k57hxavr89","geo_precision":"street","address":"7917 Red Granite Loop"},"type":"Feature","geometry":{"type":"Point","coordinates":[-104.809855,38.758183]}},{"properties":{"city":"Arrowhead","geo_score":0.0,"type":"Shake","full address":"101 E Wildflower, Arrowhead CO","color":"Mountain Blend","id":"a6k57hyvry86","geo_precision":"unmatched","address":"101 E Wildflower"},"type":"Feature","geometry":null},{"properties":{"city":"Arrowhead","geo_score":0.0,"type":"Shake","full address":"289 Riverbend, Arrowhead CO","color":"Mountain Blend","id":"a6k57hzctbt2","geo_precision":"unmatched","address":"289 Riverbend"},"type":"Feature","geometry":null},{"properties":{"city":"Arrowhead","geo_score":0.0,"type":"Shake","full address":"54 Wildflower, Arrowhead CO","color":"Mountain Blend","id":"a6k57i2r8mvn","geo_precision":"unmatched","address":"54 Wildflower"},"type":"Feature","geometry":null},{"properties":{"city":"Arrowhead","geo_score":0.0,"type":"Shake","full address":"80 Windemere, Arrowhead CO","color":"Mountain Blend","id":"a6k57hsu5zf6","geo_precision":"unmatched","address":"80 Windemere"},"type":"Feature","geometry":null},{"properties":{"city":"Arrowhead","geo_score":0.0,"type":"Shake","full address":"98 McCoy Creek Drive, Arrowhead CO","color":"Mountain Blend","id":"a6k57hxxn7z6","geo_precision":"unmatched","address":"98 McCoy Creek Drive"},"type":"Feature","geometry":null},{"properties":{"city":"Arrowhead","geo_score":0.0,"type":"Shake","full address":"McCoy Creek Cabin, Arrowhead CO","color":"Mountain Blend","id":"a6k57hz3pg91","geo_precision":"unmatched","address":"McCoy Creek Cabin"},"type":"Feature","geometry":null},{"properties":{"city":"Arvada","geo_score":0.837,"type":"Shake","full address":"13668 W 59th Place, Arvada CO","color":"Mountain Blend","id":"a6k57hsowni5","geo_precision":"range","address":"13668 W 59th Place"},"type":"Feature","geometry":{"type":"Point","coordinates":[-105.156044,39.804281]}},{"properties":{"city":"Arvada","geo_score":0.844,"type":"Shake","full address":"13742 W 59th Ave, Arvada CO","color":"Mountain Blend","id":"a6k57hz351nc","geo_precision":"range","address":"13742 W 59th Ave"},"type":"Feature","geometry":{"type":"Point","coordinates":[-105.155182,39.803858]}},{"properties":{"city":"Arvada","geo_score":0.844,"type":"Shake","full address":"13862 W 59th Ave, Arvada CO","color":"Mountain Blend","id":"a6k57htrogg6","geo_precision":"range","address":"13862 W 59th Ave"},"type":"Feature","geometry":{"type":"Point","coordinates":[-105.15404,39.803563]}},{"properties":{"city":"Arvada","geo_score":0.837,"type":"Shake","full address":"13984 W 58th Place, Arvada CO","color":"Mountain Blend","id":"a6k57hupuivx","geo_precision":"range","address":"13984 W 58th Place"},"type":"Feature","geometry":{"type":"Point","coordinates":[-105.153379,39.803612]}},{"properties":{"city":"Arvada","geo_score":0.837,"type":"Shake","full address":"15451 W 76th Drive, Arvada CO","color":"Mountain Blend","id":"a6k57hznc0zz","geo_precision":"range","address":"15451 W 76th Drive"},"type":"Feature","geometry":{"type":"Point","coordinates":[-105.17136,39.835706]}},{"properties":{"city":"Arvada","geo_score":0.902,"type":"Shake","full address":"5864 Cole Way, Arvada CO","color":"Mountain Blend","id":"a6k57hsdx0qj","geo_precision":"range","address":"5864 Cole Way"},"type":"Feature","geometry":{"type":"Point","coordinates":[-105.152655,39.802507]}},{"properties":{"city":"Arvada","geo_score":0.902,"type":"Shake","full address":"5994 Cole Way, Arvada CO","color":"Mountain Blend","id":"a6k57i74u7v8","geo_precision":"range","address":"5994 Cole Way"},"type":"Feature","geometry":{"type":"Point","coordinates":[-105.152449,39.804426]}},{"properties":{"city":"Aspen","geo_score":0.902,"type":"Shake","full address":"0066 Heather Lane, Aspen CO","color":"Mountain Blend","id":"a6k57hv95u7t","geo_precision":"range","address":"0066 Heather Lane"},"type":"Feature","geometry":{"type":"Point","coordinates":[-106.842364,39.192431]}},{"properties":{"city":"Aspen","geo_score":0.675,"type":"Shake","full address":"28 Lark Spur, Aspen CO","color":"Mountain Blend","id":"a6k57i31t608","geo_precision":"range","address":"28 Lark Spur"},"type":"Feature","geometry":{"type":"Point","coordinates":[-106.509783,39.624623]}},{"properties":{"city":"Aspen","geo_score":0.829,"type":"Shake","full address":"321 W Francis, Aspen CO","color":"Mountain Blend","id":"a6k57ht36122","geo_precision":"range","address":"321 W Francis"},"type":"Feature","geometry":{"type":"Point","coordinates":[-106.82534,39.194403]}},{"properties":{"city":"Aspen","geo_score":0.507,"type":"Shake","full address":"37 Shavano Drive, Aspen CO","color":"Mountain Blend","id":"a6k57hym1ipb","geo_precision":"city","address":"37 Shavano Drive"},"type":"Feature","geometry":{"type":"Point","coordinates":[-106.776744,39.169324]}},{"properties":{"city":"Aspen","geo_score":0.902,"type":"Shake","full address":"371 E. Reds Road, Aspen CO","color":"Mountain Blend","id":"a6k57i6ksgxs","geo_precision":"range","address":"371 E. Reds Road"},"type":"Feature","geometry":{"type":"Point","coordinates":[-106.814937,39.205277]}},{"properties":{"city":"Aspen","geo_score":0.902,"type":"Shake","full address":"405 Glen Eagle Drive, Aspen CO","color":"Mountain Blend","id":"a6k57i7wnh9j","geo_precision":"range","address":"405 Glen Eagle Drive"},"type":"Feature","geometry":{"type":"Point","coordinates":[-106.850643,39.183707]}},{"properties":{"city":"Aspen","geo_score":0.902,"type":"Shake","full address":"815 Bonita Drive, Aspen CO","color":"Mountain Blend","id":"a6k57i6vnzwy","geo_precision":"range","address":"815 Bonita Drive"},"type":"Feature","geometry":{"type":"Point","coordinates":[-106.839771,39.202669]}},{"properties":{"city":"Avon","geo_score":0.854,"type":"Shake","full address":"373 Strawberry Park, Avon CO","color":"Mountain Blend","id":"a6k57i5795rg","geo_precision":"range","address":"373 Strawberry Park"},"type":"Feature","geometry":{"type":"Point","coordinates":[-106.526894,39.608722]}},{"properties":{"city":"Bailey","geo_score":0.815,"type":"Shake","full address":"64441 Hwy 285, Bailey CO","color":"Mountain Blend","id":"a6k57hza4jly","geo_precision":"range","address":"64441 Hwy 285"},"type":"Feature","geometry":{"type":"Point","coordinates":[-105.446035,39.443162]}},{"properties":{"city":"Basalt","geo_score":0.857,"type":"Shake","full address":"118 E Hillside Drive, Basalt CO","color":"Mountain Blend","id":"a6k57i892gw7","geo_precision":"range","address":"118 E Hillside Drive"},"type":"Feature","geometry":{"type":"Point","coordinates":[-107.035166,39.371178]}},{"properties":{"city":"Basalt","geo_score":0.707,"type":"Shake","full address":"258 Basalt Avenue, Basalt CO","color":"Mountain Blend","id":"a6k57i5z1xq7","geo_precision":"street","address":"258 Basalt Avenue"},"type":"Feature","geometry":{"type":"Point","coordinates":[-107.03502,39.360962]}},{"properties":{"city":"Beaver Creek","geo_score":0.48,"type":"Shake","full address":"179 South Fairway Drive, Beaver Creek CO","color":"Mountain Blend","id":"a6k57ht22xon","geo_precision":"street","address":"179 South Fairway Drive"},"type":"Feature","geometry":{"type":"Point","coordinates":[-107.534255,40.520019]}},{"properties":{"city":"Beaver Creek","geo_score":0.407,"type":"Shake","full address":"373 Strawberry Park, Beaver Creek CO","color":"Mountain Blend","id":"a6k57hsgat6c","geo_precision":"street","address":"373 Strawberry Park"},"type":"Feature","geometry":{"type":"Point","coordinates":[-107.58943,40.51932]}},{"properties":{"city":"Beaver Creek","geo_score":0.366,"type":"Shake","full address":"43 Holden Road, Beaver Creek CO","color":"Mountain Blend","id":"a6k57hwjxp4z","geo_precision":"street","address":"43 Holden Road"},"type":"Feature","geometry":{"type":"Point","coordinates":[-107.56978,40.485029]}},{"properties":{"city":"Beaver Creek","geo_score":0.244,"type":"Shake","full address":"48 Holden Road, Beaver Creek CO","color":"Mountain Blend","id":"a6k57huj4uyu","geo_precision":"street","address":"48 Holden Road"},"type":"Feature","geometry":{"type":"Point","coordinates":[-107.56978,40.485029]}},{"properties":{"city":"Beaver Creek","geo_score":0.244,"type":"Shake","full address":"76 Holden Road, Beaver Creek CO","color":"Mountain Blend","id":"a6k57i4wb2sh","geo_precision":"street","address":"76 Holden Road"},"type":"Feature","geometry":{"type":"Point","coordinates":[-107.56978,40.485029]}},{"properties":{"city":"Boulder","geo_score":0.902,"type":"Shake","full address":"6886 Jay Road, Boulder CO","color":"Mountain Blend","id":"a6k57i6xm8jm","geo_precision":"range","address":"6886 Jay Road"},"type":"Feature","geometry":{"type":"Point","coordinates":[-105.198839,40.050893]}},{"properties":{"city":"Breckenridge","geo_score":0.594,"type":"Shake","full address":"238 Timber Trail, Breckenridge CO","color":"Mountain Blend","id":"a6k57i6dhfdj","geo_precision":"street","address":"238 Timber Trail"},"type":"Feature","geometry":{"type":"Point","coordinates":[-105.313018,39.50266]}},{"properties":{"city":"Burlington","geo_score":0.902,"type":"Shake","full address":"54263 County Road X, Burlington CO","color":"Mountain Blend","id":"a6k57hyoskh1","geo_precision":"range","address":"54263 County Road X"},"type":"Feature","geometry":{"type":"Point","coordinates":[-102.15149,39.331247]}},{"properties":{"city":"Clark","geo_score":0.434,"type":"Shake","full address":"57300 Cowboy Way, Clark CO","color":"Mountain Blend","id":"a6k57hwlrxv7","geo_precision":"street","address":"57300 Cowboy Way"},"type":"Feature","geometry":{"type":"Point","coordinates":[-105.346777,39.603173]}},{"properties":{"city":"Colorado Springs","geo_score":0.579,"type":"Shake","full address":"11136 Rampart Hill View, Colorado Springs CO","color":"Mountain Blend","id":"a6k57i53yb9x","geo_precision":"street","address":"11136 Rampart Hill View"},"type":"Feature","geometry":{"type":"Point","coordinates":[-104.911914,38.893374]}},{"properties":{"city":"Colorado Springs","geo_score":0.561,"type":"Shake","full address":"655 Mission Hill Way, Colorado Springs CO","color":"Mountain Blend","id":"a6k57hymn3dc","geo_precision":"street","address":"655 Mission Hill Way"},"type":"Feature","geometry":{"type":"Point","coordinates":[-104.733296,38.795649]}},{"properties":{"city":"Conifer","geo_score":0.401,"type":"Shake","full address":"31871 Black Widow Drive, Conifer CO","color":"Mountain Blend","id":"a6k57i2dp6ns","geo_precision":"street","address":"31871 Black Widow Drive"},"type":"Feature","geometry":{"type":"Point","coordinates":[-105.486252,39.693478]}},{"properties":{"city":"Cordillera","geo_score":0.0,"type":"Shake","full address":"122 Timber Draw, Cordillera CO","color":"Mountain Blend","id":"a6k57i5n2gmd","geo_precision":"unmatched","address":"122 Timber Draw"},"type":"Feature","geometry":null},{"properties":{"city":"Cordillera","geo_score":0.0,"type":"Shake","full address":"204 Aspen Meadows Road, Cordillera CO","color":"Mountain Blend","id":"a6k57i4yzm9m","geo_precision":"unmatched","address":"204 Aspen Meadows Road"},"type":"Feature","geometry":null},{"properties":{"city":"Cordillera","geo_score":0.0,"type":"Shake","full address":"212 Pikes Way, Cordillera CO","color":"Mountain Blend","id":"a6k57i6v5fjd","geo_precision":"unmatched","address":"212 Pikes Way"},"type":"Feature","geometry":null},{"properties":{"city":"Cordillera","geo_score":0.0,"type":"Shake","full address":"242 Peregrine, Cordillera CO","color":"Mountain Blend","id":"a6k57i3rj6bq","geo_precision":"unmatched","address":"242 Peregrine"},"type":"Feature","geometry":null},{"properties":{"city":"Cordillera","geo_score":0.0,"type":"Shake","full address":"26 Wildflower Place, Cordillera CO","color":"Mountain Blend","id":"a6k57i2ohb8f","geo_precision":"unmatched","address":"26 Wildflower Place"},"type":"Feature","geometry":null},{"properties":{"city":"Cordillera","geo_score":0.0,"type":"Shake","full address":"395 Forest Trail, Cordillera CO","color":"Mountain Blend","id":"a6k57htgeoa5","geo_precision":"unmatched","address":"395 Forest Trail"},"type":"Feature","geometry":null},{"properties":{"city":"Cordillera","geo_score":0.0,"type":"Shake","full address":"73 Summit Trail, Cordillera CO","color":"Mountain Blend","id":"a6k57huf5ars","geo_precision":"unmatched","address":"73 Summit Trail"},"type":"Feature","geometry":null},{"properties":{"city":"Cordillera","geo_score":0.0,"type":"Shake","full address":"805 Red Draw Drive, Cordillera CO","color":"Mountain Blend","id":"a6k57hwwoook","geo_precision":"unmatched","address":"805 Red Draw Drive"},"type":"Feature","geometry":null},{"properties":{"city":"Denver","geo_score":0.505,"type":"Shake","full address":"3936 South Magnolia Way, Denver CO","color":"Mountain Blend","id":"a6k57i4fe5fa","geo_precision":"city","address":"3936 South Magnolia Way"},"type":"Feature","geometry":{"type":"Point","coordinates":[-104.856808,39.726303]}},{"properties":{"city":"Edwards","geo_score":0.646,"type":"Shake","full address":"230 Stagecoach, Singletree, Edwards CO","color":"Mountain Blend","id":"a6k57i1ojr2a","geo_precision":"street","address":"230 Stagecoach, Singletree"},"type":"Feature","geometry":{"type":"Point","coordinates":[-106.577145,39.647949]}},{"properties":{"city":"Golden","geo_score":0.902,"type":"Shake","full address":"2948 Kendrick Street, Golden CO","color":"Mountain Blend","id":"a6k57hv3sxwc","geo_precision":"range","address":"2948 Kendrick Street"},"type":"Feature","geometry":{"type":"Point","coordinates":[-105.170125,39.758923]}},{"properties":{"city":"Golden","geo_score":0.902,"type":"Shake","full address":"2948 Kendrick Street, Golden CO","color":"Mountain Blend","id":"a6k57hx5wxug","geo_precision":"range","address":"2948 Kendrick Street"},"type":"Feature","geometry":{"type":"Point","coordinates":[-105.170125,39.758923]}},{"properties":{"city":"Lakewood","geo_score":0.805,"type":"Shake","full address":"675 Ammons Way, Lakewood CO","color":"Mountain Blend","id":"a6k57hsdn3c7","geo_precision":"range","address":"675 Ammons Way"},"type":"Feature","geometry":{"type":"Point","coordinates":[-105.08749,39.727189]}},{"properties":{"city":"Littleton","geo_score":0.512,"type":"Shake","full address":"4433 Christensen Circle, Littleton CO","color":"Mountain Blend","id":"a6k57i71jisc","geo_precision":"street","address":"4433 Christensen Circle"},"type":"Feature","geometry":{"type":"Point","coordinates":[-105.107547,39.576426]}},{"properties":{"city":"Parker","geo_score":0.561,"type":"Shake","full address":"141 South Fairway, Parker CO","color":"Mountain Blend","id":"a6k57i6owsns","geo_precision":"street","address":"141 South Fairway"},"type":"Feature","geometry":{"type":"Point","coordinates":[-104.748118,39.455099]}},{"properties":{"city":"Parker","geo_score":0.537,"type":"Shake","full address":"7539 E. Lake Cliff Way, The Pinery, Parker CO","color":"Mountain Blend","id":"a6k57hsfoff2","geo_precision":"street","address":"7539 E. Lake Cliff Way, The Pinery"},"type":"Feature","geometry":{"type":"Point","coordinates":[-104.70973,39.480523]}},{"properties":{"city":"Red Sky Ranch Wolcott","geo_score":0.401,"type":"Shake","full address":"2083 Red Sky, Red Sky Ranch Wolcott CO","color":"Mountain Blend","id":"a6k57i3d93qq","geo_precision":"street","address":"2083 Red Sky"},"type":"Feature","geometry":{"type":"Point","coordinates":[-107.961201,39.241174]}},{"properties":{"city":"Red Sky Ranch Wolcott","geo_score":0.489,"type":"Shake","full address":"38 Elk Bugle, Red Sky Ranch Wolcott CO","color":"Mountain Blend","id":"a6k57i7buesf","geo_precision":"street","address":"38 Elk Bugle"},"type":"Feature","geometry":{"type":"Point","coordinates":[-107.029253,39.364304]}},{"properties":{"city":"Salida","geo_score":0.78,"type":"Shake","full address":"16700 County Road 220, Salida CO","color":"Mountain Blend","id":"a6k57i17pbv0","geo_precision":"range","address":"16700 County Road 220"},"type":"Feature","geometry":{"type":"Point","coordinates":[-106.185071,38.536166]}},{"properties":{"city":"Snowmass","geo_score":0.78,"type":"Shake","full address":"1111 Capitol Creek Road, Snowmass CO","color":"Mountain Blend","id":"a6k57i0dnljf","geo_precision":"range","address":"1111 Capitol Creek Road"},"type":"Feature","geometry":{"type":"Point","coordinates":[-106.982217,39.313295]}},{"properties":{"city":"Snowmass Village","geo_score":0.36,"type":"Shake","full address":"549 Fox Run, Snowmass Village CO","color":"Mountain Blend","id":"a6k57i8ae2p5","geo_precision":"street","address":"549 Fox Run"},"type":"Feature","geometry":{"type":"Point","coordinates":[-107.104281,39.412003]}},{"properties":{"city":"Snowmass Village","geo_score":0.716,"type":"Shake","full address":"985 Faraway Road, Snowmass Village CO","color":"Mountain Blend","id":"a6k57hunb0dq","geo_precision":"street","address":"985 Faraway Road"},"type":"Feature","geometry":{"type":"Point","coordinates":[-106.934113,39.209196]}},{"properties":{"city":"Vail","geo_score":0.857,"type":"Shake","full address":"1045 Homesteak Circle, Vail CO","color":"Mountain Blend","id":"a6k57i62mfmg","geo_precision":"range","address":"1045 Homesteak Circle"},"type":"Feature","geometry":{"type":"Point","coordinates":[-106.358628,39.639436]}},{"properties":{"city":"Vail","geo_score":0.876,"type":"Shake","full address":"1404 Moraine Drive, Vail CO","color":"Mountain Blend","id":"a6k57hvnxf8w","geo_precision":"range","address":"1404 Moraine Drive"},"type":"Feature","geometry":{"type":"Point","coordinates":[-106.408723,39.637365]}},{"properties":{"city":"Vail","geo_score":0.823,"type":"Shake","full address":"2039 Sunburst, Vail CO","color":"Mountain Blend","id":"a6k57hwxetex","geo_precision":"range","address":"2039 Sunburst"},"type":"Feature","geometry":{"type":"Point","coordinates":[-106.343159,39.64118]}},{"properties":{"city":"Vail","geo_score":0.61,"type":"Shake","full address":"2605 Bald Mountain Road, East Vail, Vail CO","color":"Mountain Blend","id":"a6k57hy5bhzp","geo_precision":"range","address":"2605 Bald Mountain Road, East Vail"},"type":"Feature","geometry":{"type":"Point","coordinates":[-106.330047,39.648528]}},{"properties":{"city":"Vail","geo_score":0.785,"type":"Shake","full address":"2860 A Aspen Lane, Vail CO","color":"Mountain Blend","id":"a6k57hwo35qp","geo_precision":"range","address":"2860 A Aspen Lane"},"type":"Feature","geometry":{"type":"Point","coordinates":[-106.32512,39.646232]}},{"properties":{"city":"Vail","geo_score":0.805,"type":"Shake","full address":"3907 Lupine, Vail CO","color":"Mountain Blend","id":"a6k57hus2c4b","geo_precision":"range","address":"3907 Lupine"},"type":"Feature","geometry":{"type":"Point","coordinates":[-106.305217,39.640502]}},{"properties":{"city":"Vail","geo_score":0.835,"type":"Shake","full address":"394 Beaver Dam, Vail CO","color":"Mountain Blend","id":"a6k57i69fj7s","geo_precision":"range","address":"394 Beaver Dam"},"type":"Feature","geometry":{"type":"Point","coordinates":[-106.385188,39.641229]}},{"properties":{"city":"Vail","geo_score":0.902,"type":"Shake","full address":"4918 Meadow Drive, Vail CO","color":"Mountain Blend","id":"a6k57i6ckfbb","geo_precision":"range","address":"4918 Meadow Drive"},"type":"Feature","geometry":{"type":"Point","coordinates":[-106.285501,39.625449]}},{"properties":{"city":"Vail","geo_score":0.902,"type":"Shake","full address":"744 Sandy Lane, Vail CO","color":"Mountain Blend","id":"a6k57hyftu87","geo_precision":"range","address":"744 Sandy Lane"},"type":"Feature","geometry":{"type":"Point","coordinates":[-106.392297,39.647044]}},{"properties":{"city":"Vail","geo_score":0.902,"type":"Shake","full address":"930 Fairway Drive, Vail CO","color":"Mountain Blend","id":"a6k57i0afdkk","geo_precision":"range","address":"930 Fairway Drive"},"type":"Feature","geometry":{"type":"Point","coordinates":[-106.360324,39.637181]}},{"properties":{"city":"Centennial","geo_score":0.623,"type":"Shake","full address":"Park Gazebo - 17500 E Long Avenue, Centennial CO","color":"Mountain Blend","id":"a6k57hyeyjet","geo_precision":"street","address":"Park Gazebo - 17500 E Long Avenue"},"type":"Feature","geometry":{"type":"Point","coordinates":[-105.069667,39.937376]}},{"properties":{"city":"Snowmass Village","geo_score":0.408,"type":"Shake","full address":"CC Townhomes-325 SM Club Circle, Snowmass Village CO","color":"Mountain Shake","id":"a6k57i3p63kz","geo_precision":"street","address":"CC Townhomes-325 SM Club Circle"},"type":"Feature","geometry":{"type":"Point","coordinates":[-106.85489,39.208332]}},{"properties":{"city":"Arrowhead","geo_score":0.0,"type":"Shake","full address":"64 Wildflower, Arrowhead CO","color":"Mountian Blend","id":"a6k57i1lsaor","geo_precision":"unmatched","address":"64 Wildflower"},"type":"Feature","geometry":null},{"properties":{"city":"Edwards","geo_score":0.902,"type":"Shake","full address":"658 Homestead Drive, Edwards CO","color":"Mountian Blend","id":"a6k57hv2vdf7","geo_precision":"range","address":"658 Homestead Drive"},"type":"Feature","geometry":{"type":"Point","coordinates":[-106.601644,39.636535]}},{"properties":{"city":"Vail","geo_score":0.504,"type":"Shake","full address":"1285 West Haven, Vail CO","color":"Mountian Blend","id":"a6k57i0xdjey","geo_precision":"city","address":"1285 West Haven"},"type":"Feature","geometry":{"type":"Point","coordinates":[-106.44873,39.5824]}},{"properties":{"city":"Boulder","geo_score":0.902,"type":"Shake","full address":"1336 North Teal Court, Boulder CO","color":"Moutain Blend","id":"a6k57i1xey9q","geo_precision":"range","address":"1336 North Teal Court"},"type":"Feature","geometry":{"type":"Point","coordinates":[-105.210462,40.010306]}},{"properties":{"city":"Carbondale","geo_score":0.851,"type":"Shake","full address":"3847 Crystal Bridge Drive, Carbondale CO","color":"New Cedar","id":"a6k57hs3z7ss","geo_precision":"range","address":"3847 Crystal Bridge Drive"},"type":"Feature","geometry":{"type":"Point","coordinates":[-107.221236,39.389468]}},{"properties":{"city":"Colorado Springs","geo_score":0.746,"type":"Shake","full address":"65 Erequa Ridge Drive, Colorado Springs CO","color":"New Cedar","id":"a6k57huc0fxo","geo_precision":"range","address":"65 Erequa Ridge Drive"},"type":"Feature","geometry":{"type":"Point","coordinates":[-104.881443,38.857148]}},{"properties":{"city":"Boulder","geo_score":0.902,"type":"Shake","full address":"1590 Blue Sage Court, Boulder CO","color":"New Cedar","id":"a6k57i5mdq8w","geo_precision":"range","address":"1590 Blue Sage Court"},"type":"Feature","geometry":{"type":"Point","coordinates":[-105.265218,39.972372]}},{"properties":{"city":"Boulder","geo_score":0.902,"type":"Shake","full address":"630 Northstar Court, Boulder CO","color":"New Cedar","id":"a6k57hzhax6u","geo_precision":"range","address":"630 Northstar Court"},"type":"Feature","geometry":{"type":"Point","coordinates":[-105.288581,40.044461]}},{"properties":{"city":"Breckenridge","geo_score":0.389,"type":"Shake","full address":"349 American Way, Breckenridge CO","color":"New Cedar","id":"a6k57i35imut","geo_precision":"street","address":"349 American Way"},"type":"Feature","geometry":{"type":"Point","coordinates":[-105.271619,39.506426]}},{"properties":{"city":"Arrowhead","geo_score":0.0,"type":"Shake","full address":"12 McCoy Creek Drive, Arrowhead CO","color":"Tahoe Blend","id":"a6k57i2jiokj","geo_precision":"unmatched","address":"12 McCoy Creek Drive"},"type":"Feature","geometry":null},{"properties":{"city":"Arrowhead","geo_score":0.0,"type":"Shake","full address":"2555 Cresta Drive, Arrowhead CO","color":"Tahoe Blend","id":"a6k57hz68173","geo_precision":"unmatched","address":"2555 Cresta Drive"},"type":"Feature","geometry":null},{"properties":{"city":"Arvada","geo_score":0.902,"type":"Shake","full address":"7535 Taft Street, Arvada CO","color":"Tahoe Blend","id":"a6k57i0xppd4","geo_precision":"range","address":"7535 Taft Street"},"type":"Feature","geometry":{"type":"Point","coordinates":[-105.132994,39.83406]}},{"properties":{"city":"Aspen","geo_score":0.902,"type":"Shake","full address":"0156 Maroon Drive, Aspen CO","color":"Tahoe Blend","id":"a6k57i4jhjce","geo_precision":"range","address":"0156 Maroon Drive"},"type":"Feature","geometry":{"type":"Point","coordinates":[-106.847861,39.199259]}},{"properties":{"city":"Aspen","geo_score":0.722,"type":"Shake","full address":"10080 Castle Creek, Aspen CO","color":"Tahoe Blend","id":"a6k57hz3pzci","geo_precision":"street","address":"10080 Castle Creek"},"type":"Feature","geometry":{"type":"Point","coordinates":[-106.845763,39.132699]}},{"properties":{"city":"Aspen","geo_score":0.505,"type":"Shake","full address":"1099 Wiloughby Way, Aspen CO","color":"Tahoe Blend","id":"a6k57hwaws6m","geo_precision":"city","address":"1099 Wiloughby Way"},"type":"Feature","geometry":{"type":"Point","coordinates":[-106.776744,39.169324]}},{"properties":{"city":"Aspen","geo_score":0.547,"type":"Shake","full address":"12 McCoy Creek Drive, Aspen CO","color":"Tahoe Blend","id":"a6k57hx89zpv","geo_precision":"street","address":"12 McCoy Creek Drive"},"type":"Feature","geometry":{"type":"Point","coordinates":[-106.95462,39.202992]}},{"properties":{"city":"Aspen","geo_score":0.876,"type":"Shake","full address":"219 Buchanan Drive, Aspen CO","color":"Tahoe Blend","id":"a6k57i6osq94","geo_precision":"range","address":"219 Buchanan Drive"},"type":"Feature","geometry":{"type":"Point","coordinates":[-106.848183,39.236156]}},{"properties":{"city":"Aspen","geo_score":0.902,"type":"Shake","full address":"281 North Star Drive, Aspen CO","color":"Tahoe Blend","id":"a6k57i3yebpl","geo_precision":"range","address":"281 North Star Drive"},"type":"Feature","geometry":{"type":"Point","coordinates":[-106.800841,39.176152]}},{"properties":{"city":"Aspen","geo_score":0.902,"type":"Shake","full address":"351 Glen Eagle Drive, Aspen CO","color":"Tahoe Blend","id":"a6k57i7ae4vz","geo_precision":"range","address":"351 Glen Eagle Drive"},"type":"Feature","geometry":{"type":"Point","coordinates":[-106.850746,39.184298]}},{"properties":{"city":"Aspen","geo_score":0.829,"type":"Shake","full address":"614 N 4th Street, Aspen CO","color":"Tahoe Blend","id":"a6k57hz4x4ay","geo_precision":"range","address":"614 N 4th Street"},"type":"Feature","geometry":{"type":"Point","coordinates":[-106.826224,39.196824]}},{"properties":{"city":"Aspen","geo_score":0.501,"type":"Shake","full address":"625 SW End-Clariton Condos, Aspen CO","color":"Tahoe Blend","id":"a6k57i5ap4p4","geo_precision":"city","address":"625 SW End-Clariton Condos"},"type":"Feature","geometry":{"type":"Point","coordinates":[-106.776744,39.169324]}},{"properties":{"city":"Aspen","geo_score":0.587,"type":"Shake","full address":"756 Mt Laurel Drive, Aspen CO","color":"Tahoe Blend","id":"a6k57i5t19ak","geo_precision":"street","address":"756 Mt Laurel Drive"},"type":"Feature","geometry":{"type":"Point","coordinates":[-106.842093,39.187165]}},{"properties":{"city":"Aspen","geo_score":0.805,"type":"Shake","full address":"830 E Durant, Aspen CO","color":"Tahoe Blend","id":"a6k57i4c72db","geo_precision":"range","address":"830 E Durant"},"type":"Feature","geometry":{"type":"Point","coordinates":[-106.81525,39.186543]}},{"properties":{"city":"Bachelor Gulch","geo_score":0.0,"type":"Shake","full address":"1211 Daybreak Ridge, Bachelor Gulch CO","color":"Tahoe Blend","id":"a6k57i47xkbe","geo_precision":"unmatched","address":"1211 Daybreak Ridge"},"type":"Feature","geometry":null},{"properties":{"city":"Basalt","geo_score":0.505,"type":"Shake","full address":"200 Wingo Junction Road, Basalt CO","color":"Tahoe Blend","id":"a6k57i51u9vf","geo_precision":"city","address":"200 Wingo Junction Road"},"type":"Feature","geometry":{"type":"Point","coordinates":[-106.804842,39.495223]}},{"properties":{"city":"Beaver Creek","geo_score":0.244,"type":"Shake","full address":"120 Holden Road, Beaver Creek CO","color":"Tahoe Blend","id":"a6k57i6iqzgv","geo_precision":"street","address":"120 Holden Road"},"type":"Feature","geometry":{"type":"Point","coordinates":[-107.56978,40.485029]}},{"properties":{"city":"Beaver Creek","geo_score":0.392,"type":"Shake","full address":"17 Borders Road, Beaver Creek CO","color":"Tahoe Blend","id":"a6k57i2cwxmj","geo_precision":"street","address":"17 Borders Road"},"type":"Feature","geometry":{"type":"Point","coordinates":[-107.56978,40.485029]}},{"properties":{"city":"Beaver Creek","geo_score":0.392,"type":"Shake","full address":"415 Borders Road, Beaver Creek CO","color":"Tahoe Blend","id":"a6k57huj5vh6","geo_precision":"street","address":"415 Borders Road"},"type":"Feature","geometry":{"type":"Point","coordinates":[-107.56978,40.485029]}},{"properties":{"city":"Beaver Creek","geo_score":0.48,"type":"Shake","full address":"73 South Fairway Drive, Beaver Creek CO","color":"Tahoe Blend","id":"a6k57i0n2fnm","geo_precision":"street","address":"73 South Fairway Drive"},"type":"Feature","geometry":{"type":"Point","coordinates":[-107.534255,40.520019]}},{"properties":{"city":"Beaver Creek","geo_score":0.36,"type":"Shake","full address":"79 Wayne Creek, Beaver Creek CO","color":"Tahoe Blend","id":"a6k57hxds3y4","geo_precision":"street","address":"79 Wayne Creek"},"type":"Feature","geometry":{"type":"Point","coordinates":[-107.56978,40.485029]}},{"properties":{"city":"Boulder","geo_score":0.51,"type":"Shake","full address":"3470 Lovington Road, Boulder CO","color":"Tahoe Blend","id":"a6k57hwcirl3","geo_precision":"city","address":"3470 Lovington Road"},"type":"Feature","geometry":{"type":"Point","coordinates":[-105.278083,40.094787]}},{"properties":{"city":"Boulder","geo_score":0.819,"type":"Shake","full address":"625 14th Street, Boulder CO","color":"Tahoe Blend","id":"a6k57i822xjt","geo_precision":"range","address":"625 14th Street"},"type":"Feature","geometry":{"type":"Point","coordinates":[-105.275018,39.999834]}},{"properties":{"city":"Breckenridge","geo_score":0.428,"type":"Shake","full address":"33 Iron Mask, Breckenridge CO","color":"Tahoe Blend","id":"a6k57hstaklo","geo_precision":"street","address":"33 Iron Mask"},"type":"Feature","geometry":{"type":"Point","coordinates":[-105.271619,39.506426]}},{"properties":{"city":"Carbondale","geo_score":0.565,"type":"Shake","full address":"413 Diamond A Ranch, Carbondale CO","color":"Tahoe Blend","id":"a6k57i6gggd5","geo_precision":"street","address":"413 Diamond A Ranch"},"type":"Feature","geometry":{"type":"Point","coordinates":[-107.251281,39.430219]}},{"properties":{"city":"Carbondale","geo_score":0.707,"type":"Shake","full address":"8888 Hwy 133 , Carbondale CO","color":"Tahoe Blend","id":"a6k57i35t683","geo_precision":"street","address":"8888 Hwy 133"},"type":"Feature","geometry":{"type":"Point","coordinates":[-107.203223,39.365987]}},{"properties":{"city":"Centennial","geo_score":0.601,"type":"Shake","full address":"7167 S. Willow Street, Centennial CO","color":"Tahoe Blend","id":"a6k57hzbuai9","geo_precision":"street","address":"7167 S. Willow Street"},"type":"Feature","geometry":{"type":"Point","coordinates":[-105.070258,39.910779]}},{"properties":{"city":"Cherry Hills Village","geo_score":0.72,"type":"Shake","full address":"26 Cherry Hills Farm Drive, Cherry Hills Village  CO","color":"Tahoe Blend","id":"a6k57htfsxmd","geo_precision":"street","address":"26 Cherry Hills Farm Drive"},"type":"Feature","geometry":{"type":"Point","coordinates":[-104.956717,39.629695]}},{"properties":{"city":"Colorado Springs","geo_score":0.902,"type":"Shake","full address":"715 Popes Valley Drive, Colorado Springs CO","color":"Tahoe Blend","id":"a6k57i41fn8z","geo_precision":"range","address":"715 Popes Valley Drive"},"type":"Feature","geometry":{"type":"Point","coordinates":[-104.8409,38.909119]}},{"properties":{"city":"Cordillera","geo_score":0.0,"type":"Shake","full address":"133 Kimberwick Way, Cordillera CO","color":"Tahoe Blend","id":"a6k57hx8iabe","geo_precision":"unmatched","address":"133 Kimberwick Way"},"type":"Feature","geometry":null},{"properties":{"city":"Cordillera","geo_score":0.0,"type":"Shake","full address":"34 Granite Way, Cordillera CO","color":"Tahoe Blend","id":"a6k57ht2itk9","geo_precision":"unmatched","address":"34 Granite Way"},"type":"Feature","geometry":null},{"properties":{"city":"Cordillera","geo_score":0.0,"type":"Shake","full address":"348 Red Draw, Cordillera CO","color":"Tahoe Blend","id":"a6k57hunim8v","geo_precision":"unmatched","address":"348 Red Draw"},"type":"Feature","geometry":null},{"properties":{"city":"Cordillera","geo_score":0.0,"type":"Shake","full address":"447 Granite Springs, Cordillera CO","color":"Tahoe Blend","id":"a6k57i10p5ny","geo_precision":"unmatched","address":"447 Granite Springs"},"type":"Feature","geometry":null},{"properties":{"city":"Cordillera","geo_score":0.0,"type":"Shake","full address":"940 Summit Trail, Cordillera CO","color":"Tahoe Blend","id":"a6k57i2bjnxh","geo_precision":"unmatched","address":"940 Summit Trail"},"type":"Feature","geometry":null},{"properties":{"city":"Debeque","geo_score":0.376,"type":"Shake","full address":"2075 County Road 222, Debeque CO","color":"Tahoe Blend","id":"a6k57i5yxrst","geo_precision":"street","address":"2075 County Road 222"},"type":"Feature","geometry":{"type":"Point","coordinates":[-108.786586,40.084447]}},{"properties":{"city":"Denver","geo_score":0.902,"type":"Shake","full address":"851 S. Josephine Street, Denver CO","color":"Tahoe Blend","id":"a6k57hwnlxwj","geo_precision":"range","address":"851 S. Josephine Street"},"type":"Feature","geometry":{"type":"Point","coordinates":[-104.958127,39.701591]}},{"properties":{"city":"Englewood","geo_score":0.517,"type":"Shake","full address":"11858 E.Ida Place, Englewood CO","color":"Tahoe Blend","id":"a6k57hts92c8","geo_precision":"city","address":"11858 E.Ida Place"},"type":"Feature","geometry":{"type":"Point","coordinates":[-104.973852,39.648958]}},{"properties":{"city":"Englewood","geo_score":0.61,"type":"Shake","full address":"4790 E Bellview, Englewood CO","color":"Tahoe Blend","id":"a6k57i84pdaj","geo_precision":"street","address":"4790 E Bellview"},"type":"Feature","geometry":{"type":"Point","coordinates":[-104.919272,39.624077]}},{"properties":{"city":"Evergreen","geo_score":0.724,"type":"Shake","full address":"2288 Eldorado Lane, Evergreen CO","color":"Tahoe Blend","id":"a6k57i84t2sc","geo_precision":"street","address":"2288 Eldorado Lane"},"type":"Feature","geometry":{"type":"Point","coordinates":[-105.358078,39.671269]}},{"properties":{"city":"Evergreen","geo_score":0.863,"type":"Shake","full address":"446 Meadow Vista Drive, Evergreen  CO","color":"Tahoe Blend","id":"a6k57hv9sd3h","geo_precision":"range","address":"446 Meadow Vista Drive"},"type":"Feature","geometry":{"type":"Point","coordinates":[-105.376713,39.707225]}},{"properties":{"city":"Grand Junction","geo_score":0.793,"type":"Shake","full address":"2040 W 1st Street, Grand Junction CO","color":"Tahoe Blend","id":"a6k57hvb9h2x","geo_precision":"range","address":"2040 W 1st Street"},"type":"Feature","geometry":{"type":"Point","coordinates":[-108.570848,39.08569]}},{"properties":{"city":"Grand Junction","geo_score":0.634,"type":"Shake","full address":"3010 Teton Lane , Grand Junction CO","color":"Tahoe Blend","id":"a6k57i67es6s","geo_precision":"street","address":"3010 Teton Lane"},"type":"Feature","geometry":{"type":"Point","coordinates":[-108.658705,39.095175]}},{"properties":{"city":"Greenwood Village","geo_score":0.535,"type":"Shake","full address":"1405 E Green Willow Lane, Greenwood Village CO","color":"Tahoe Blend","id":"a6k57i4sq03v","geo_precision":"street","address":"1405 E Green Willow Lane"},"type":"Feature","geometry":{"type":"Point","coordinates":[-105.026194,39.649324]}},{"properties":{"city":"Lakewood","geo_score":0.782,"type":"Shake","full address":"1700 Viewpoint Road, Lakewood CO","color":"Tahoe Blend","id":"a6k57hwcxvqw","geo_precision":"street","address":"1700 Viewpoint Road"},"type":"Feature","geometry":{"type":"Point","coordinates":[-105.135344,39.741946]}},{"properties":{"city":"Littleton","geo_score":0.902,"type":"Shake","full address":"4965 W. Maplewood Place, Littleton CO","color":"Tahoe Blend","id":"a6k57hynk9at","geo_precision":"range","address":"4965 W. Maplewood Place"},"type":"Feature","geometry":{"type":"Point","coordinates":[-105.050008,39.60473]}},{"properties":{"city":"Loveland","geo_score":0.662,"type":"Shake","full address":"4471 Wellington Road, Loveland CO","color":"Tahoe Blend","id":"a6k57htlq7ia","geo_precision":"street","address":"4471 Wellington Road"},"type":"Feature","geometry":{"type":"Point","coordinates":[-105.046507,40.409503]}},{"properties":{"city":"Loveland","geo_score":0.669,"type":"Shake","full address":"5809 Willow Vista Court, Loveland CO","color":"Tahoe Blend","id":"a6k57hsaoepk","geo_precision":"street","address":"5809 Willow Vista Court"},"type":"Feature","geometry":{"type":"Point","coordinates":[-105.17508,40.388078]}},{"properties":{"city":"Morrison","geo_score":0.902,"type":"Shake","full address":"5349 Willow Springs Drive, Morrison CO","color":"Tahoe Blend","id":"a6k57hz12hjz","geo_precision":"range","address":"5349 Willow Springs Drive"},"type":"Feature","geometry":{"type":"Point","coordinates":[-105.181899,39.614186]}},{"properties":{"city":"Old Snowmass","geo_score":0.63,"type":"Shake","full address":"1301 Shield O Mesa Road, Old Snowmass CO","color":"Tahoe Blend","id":"a6k57i31fi5h","geo_precision":"range","address":"1301 Shield O Mesa Road"},"type":"Feature","geometry":{"type":"Point","coordinates":[-106.984348,39.263451]}},{"properties":{"city":"Snowmass","geo_score":0.584,"type":"Shake","full address":"483 Maple Ridge Road, Snowmass CO","color":"Tahoe Blend","id":"a6k57i4d50qr","geo_precision":"street","address":"483 Maple Ridge Road"},"type":"Feature","geometry":{"type":"Point","coordinates":[-107.002593,39.341954]}},{"properties":{"city":"Snowmass Village","geo_score":0.854,"type":"Shake","full address":"157 Katydid Lane, Snowmass Village CO","color":"Tahoe Blend","id":"a6k57hzyb4vg","geo_precision":"range","address":"157 Katydid Lane"},"type":"Feature","geometry":{"type":"Point","coordinates":[-107.005185,39.297028]}},{"properties":{"city":"Vail","geo_score":0.709,"type":"Shake","full address":"11 Gore Creek Drive, Vail CO","color":"Tahoe Blend","id":"a6k57i79a575","geo_precision":"street","address":"11 Gore Creek Drive"},"type":"Feature","geometry":{"type":"Point","coordinates":[-106.375445,39.6406]}},{"properties":{"city":"Vail","geo_score":0.798,"type":"Shake","full address":"1100 Horn Silver, Vail CO","color":"Tahoe Blend","id":"a6k57hygj06f","geo_precision":"range","address":"1100 Horn Silver"},"type":"Feature","geometry":{"type":"Point","coordinates":[-106.356618,39.639675]}},{"properties":{"city":"Vail","geo_score":0.861,"type":"Shake","full address":"1460 B Greenhill Ct., Vail CO","color":"Tahoe Blend","id":"a6k57hudpdvu","geo_precision":"range","address":"1460 B Greenhill Ct."},"type":"Feature","geometry":{"type":"Point","coordinates":[-106.404575,39.634384]}},{"properties":{"city":"Vail","geo_score":0.61,"type":"Shake","full address":"3145 Booth Falls, East Vail, Vail CO","color":"Tahoe Blend","id":"a6k57i2i38km","geo_precision":"range","address":"3145 Booth Falls, East Vail"},"type":"Feature","geometry":{"type":"Point","coordinates":[-106.320122,39.64983]}},{"properties":{"city":"Vail","geo_score":0.902,"type":"Shake","full address":"325 Mill Creek Circle, Vail CO","color":"Tahoe Blend","id":"a6k57hw64eqz","geo_precision":"range","address":"325 Mill Creek Circle"},"type":"Feature","geometry":{"type":"Point","coordinates":[-106.37263,39.638435]}},{"properties":{"city":"Vail","geo_score":0.835,"type":"Shake","full address":"454 Beaver Dam, Vail CO","color":"Tahoe Blend","id":"a6k57hyybje2","geo_precision":"range","address":"454 Beaver Dam"},"type":"Feature","geometry":{"type":"Point","coordinates":[-106.385221,39.641215]}},{"properties":{"city":"Vail","geo_score":0.902,"type":"Shake","full address":"62 West Meadow Drive, Talisman Condo, Vail CO","color":"Tahoe Blend","id":"a6k57hukbx2n","geo_precision":"range","address":"62 West Meadow Drive, Talisman Condo"},"type":"Feature","geometry":{"type":"Point","coordinates":[-106.379485,39.642455]}},{"properties":{"city":"Vail","geo_score":0.902,"type":"Shake","full address":"874 Spruce Court, Vail CO","color":"Tahoe Blend","id":"a6k57ht4nlqh","geo_precision":"range","address":"874 Spruce Court"},"type":"Feature","geometry":{"type":"Point","coordinates":[-106.395239,39.64412]}},{"properties":{"city":"Vail","geo_score":0.902,"type":"Shake","full address":"896 Red Sandstone Road, Vail CO","color":"Tahoe Blend","id":"a6k57i4q3c5p","geo_precision":"range","address":"896 Red Sandstone Road"},"type":"Feature","geometry":{"type":"Point","coordinates":[-106.395358,39.643477]}},{"properties":{"city":"Vail","geo_score":0.765,"type":"Shake","full address":"Talisman Condos - 62 W. Meadow Drive, Vail CO","color":"Tahoe Blend","id":"a6k57i7s0qxs","geo_precision":"street","address":"Talisman Condos - 62 W. Meadow Drive"},"type":"Feature","geometry":{"type":"Point","coordinates":[-106.379184,39.642434]}},{"properties":{"city":"Woody Creek","geo_score":0.391,"type":"Shake","full address":"300 Sadie Lane, Woody Creek CO","color":"Tahoe Blend","id":"a6k57hximwkz","geo_precision":"street","address":"300 Sadie Lane"},"type":"Feature","geometry":{"type":"Point","coordinates":[-106.834189,39.648942]}},{"properties":{"city":"Arvada","geo_score":0.837,"type":"Shake","full address":"11766 W 53rd Place, Arvada CO","color":"Tahoe Blend","id":"a6k57huxlfcd","geo_precision":"range","address":"11766 W 53rd Place"},"type":"Feature","geometry":{"type":"Point","coordinates":[-105.130005,39.794171]}},{"properties":{"city":"Centennial","geo_score":0.516,"type":"Shake","full address":"6262 S Netherlad Way, Centennial CO","color":"Tahoe Blend","id":"a6k57hur16sp","geo_precision":"city","address":"6262 S Netherlad Way"},"type":"Feature","geometry":{"type":"Point","coordinates":[-104.876923,39.579155]}},{"properties":{"city":"Cherry Hills Village","geo_score":0.805,"type":"Shake","full address":"3 Tenaya Lane, Cherry Hills Village  CO","color":"Tahoe Blend","id":"a6k57i7hj277","geo_precision":"range","address":"3 Tenaya Lane"},"type":"Feature","geometry":{"type":"Point","coordinates":[-104.930474,39.635559]}},{"properties":{"city":"Evergreen","geo_score":0.883,"type":"Shake","full address":"6461 Kinney Creek Drive, Evergreen CO","color":"Tahoe Blend","id":"a6k57hydy17e","geo_precision":"range","address":"6461 Kinney Creek Drive"},"type":"Feature","geometry":{"type":"Point","coordinates":[-105.31007,39.606818]}},{"properties":{"city":"Lakewood","geo_score":0.645,"type":"Shake","full address":"2632 South Brentwood Ct, Lakewood CO","color":"Tahoe Blend","id":"a6k57i051i0w","geo_precision":"street","address":"2632 South Brentwood Ct"},"type":"Feature","geometry":{"type":"Point","coordinates":[-105.089432,39.726732]}},{"properties":{"city":"Littleton","geo_score":0.902,"type":"Shake","full address":"5900 W Bowles Avenue, Littleton CO","color":"Tahoe Blend","id":"a6k57i0b38y9","geo_precision":"range","address":"5900 W Bowles Avenue"},"type":"Feature","geometry":{"type":"Point","coordinates":[-105.064196,39.609801]}},{"properties":{"city":"Littleton","geo_score":0.902,"type":"Shake","full address":"6949 W. Nova Drive, Littleton CO","color":"Tahoe Blend","id":"a6k57i8gzm7i","geo_precision":"range","address":"6949 W. Nova Drive"},"type":"Feature","geometry":{"type":"Point","coordinates":[-105.074191,39.577277]}},{"properties":{"city":"Littleton","geo_score":0.711,"type":"Shake","full address":"7762 S Yukon St. (Rear of house only), Littleton CO","color":"Tahoe Blend","id":"a6k57i2yyum4","geo_precision":"range","address":"7762 S Yukon St. (Rear of house only)"},"type":"Feature","geometry":{"type":"Point","coordinates":[-105.083388,39.57728]}},{"properties":{"city":"Montrose","geo_score":0.379,"type":"Shake","full address":"Cornerstone Golf Cabins, Montrose CO","color":"Tahoe Blend","id":"a6k57hyhwgil","geo_precision":"street","address":"Cornerstone Golf Cabins"},"type":"Feature","geometry":{"type":"Point","coordinates":[-107.845291,37.923542]}},{"properties":{"city":"Wheat Ridge","geo_score":0.854,"type":"Shake","full address":"4050 N Allison Street, Wheat Ridge CO","color":"Valore Custom Blend","id":"a6k57hsq58gc","geo_precision":"range","address":"4050 N Allison Street"},"type":"Feature","geometry":{"type":"Point","coordinates":[-105.086042,39.772132]}},{"properties":{"city":"Arvada","geo_score":0.902,"type":"Shake","full address":"8210  Reed Court, Arvada CO","color":"Valore Espresso Shake","id":"a6k57i6o8xug","geo_precision":"range","address":"8210  Reed Court"},"type":"Feature","geometry":{"type":"Point","coordinates":[-105.075924,39.845572]}},{"properties":{"city":"Bennet","geo_score":0.56,"type":"Shake","full address":"4180 Converse Road, Bennet CO","color":"Valore Expresso Shake","id":"a6k57i0fzi6g","geo_precision":"street","address":"4180 Converse Road"},"type":"Feature","geometry":{"type":"Point","coordinates":[-104.428369,39.752801]}},{"properties":{"city":"Evergreen","geo_score":0.866,"type":"Shake","full address":"2522 Thunderbird Lane, Evergreen CO","color":"Valore Expresso Shake","id":"a6k57hzi31ge","geo_precision":"range","address":"2522 Thunderbird Lane"},"type":"Feature","geometry":{"type":"Point","coordinates":[-105.354187,39.669322]}},{"properties":{"city":"Highlands Ranch","geo_score":0.0,"type":"Shake","full address":"9140 S Princton Street, Highlands Ranch CO","color":"Valore Expresso Shake","id":"a6k57hxzr9p1","geo_precision":"unmatched","address":"9140 S Princton Street"},"type":"Feature","geometry":null},{"properties":{"city":"Arvada","geo_score":0.837,"type":"Shake","full address":"13980 W 59th Drive, Arvada CO","color":"Valore Tuscano Shake","id":"a6k57hyz3wow","geo_precision":"range","address":"13980 W 59th Drive"},"type":"Feature","geometry":{"type":"Point","coordinates":[-105.155242,39.804224]}},{"properties":{"city":"Arvada","geo_score":0.746,"type":"Shake","full address":"6981 Orchard Place, Arvada CO","color":"Valore Tuscano Shake","id":"a6k57i7q9mmr","geo_precision":"street","address":"6981 Orchard Place"},"type":"Feature","geometry":{"type":"Point","coordinates":[-105.179619,39.822148]}},{"properties":{"city":"Aurora","geo_score":0.62,"type":"Shake","full address":"15758 E. Grand , Aurora CO","color":"Valore Tuscano Shake","id":"a6k57i4k7dmr","geo_precision":"street","address":"15758 E. Grand"},"type":"Feature","geometry":{"type":"Point","coordinates":[-104.812842,39.625555]}},{"properties":{"city":"Aurora","geo_score":0.902,"type":"Shake","full address":"5495 S Helena Street, Aurora CO","color":"Valore Tuscano Shake","id":"a6k57i6a6uzo","geo_precision":"range","address":"5495 S Helena Street"},"type":"Feature","geometry":{"type":"Point","coordinates":[-104.808223,39.619546]}},{"properties":{"city":"Golden","geo_score":0.902,"type":"Shake","full address":"24082 Jerome Court, Golden CO","color":"Valore Tuscano Shake","id":"a6k57i0cqzzr","geo_precision":"range","address":"24082 Jerome Court"},"type":"Feature","geometry":{"type":"Point","coordinates":[-105.273207,39.693414]}},{"properties":{"city":"Aspen","geo_score":0.78,"type":"Shake","full address":"40 Northstar Circle, Aspen CO","color":"Weathered Cedar Shake","id":"a6k57hysavx6","geo_precision":"range","address":"40 Northstar Circle"},"type":"Feature","geometry":{"type":"Point","coordinates":[-106.801549,39.176781]}},{"properties":{"city":"Aspen","geo_score":0.829,"type":"Shake","full address":"40 Northstar, Aspen CO","color":"Weathered Gray","id":"a6k57hvdvc6k","geo_precision":"range","address":"40 Northstar"},"type":"Feature","geometry":{"type":"Point","coordinates":[-106.798253,39.177198]}},{"properties":{"city":"Aspen","geo_score":0.805,"type":"Shake","full address":"0176 Eppley, Starwood, Aspen CO","color":"Weathered Gray Shake","id":"a6k57i3h8r1s","geo_precision":"range","address":"0176 Eppley, Starwood"},"type":"Feature","geometry":{"type":"Point","coordinates":[-106.842446,39.227033]}},{"properties":{"city":"Aspen","geo_score":0.649,"type":"Shake","full address":"386 Ridge Lane, Aspen CO","color":"Weathered Gray Shake","id":"a6k57hwgc6k3","geo_precision":"street","address":"386 Ridge Lane"},"type":"Feature","geometry":{"type":"Point","coordinates":[-106.932884,39.20697]}},{"properties":{"city":"Aspen","geo_score":0.835,"type":"Shake","full address":"437 W. Smuggler, Aspen CO","color":"Weathered Gray Shake","id":"a6k57i5rgwlb","geo_precision":"range","address":"437 W. Smuggler"},"type":"Feature","geometry":{"type":"Point","coordinates":[-106.826085,39.195413]}},{"properties":{"city":"Aspen","geo_score":0.902,"type":"Shake","full address":"825 E Reds Road, Aspen CO","color":"Weathered Gray Shake","id":"a6k57hzjhd64","geo_precision":"range","address":"825 E Reds Road"},"type":"Feature","geometry":{"type":"Point","coordinates":[-106.810555,39.20403]}},{"properties":{"city":"Aspen","geo_score":0.849,"type":"Shake","full address":"93 Lupine Drive, Aspen CO","color":"Weathered Gray Shake","id":"a6k57hy96fvs","geo_precision":"range","address":"93 Lupine Drive"},"type":"Feature","geometry":{"type":"Point","coordinates":[-106.800337,39.180368]}},{"properties":{"city":"Basalt","geo_score":0.857,"type":"Shake","full address":"118 E Hillside Drive, Basalt CO","color":"Weathered Gray Shake","id":"a6k57i4zghss","geo_precision":"range","address":"118 E Hillside Drive"},"type":"Feature","geometry":{"type":"Point","coordinates":[-107.035166,39.371178]}},{"properties":{"city":"Basalt","geo_score":0.902,"type":"Shake","full address":"748 Fryingpan Rd, Basalt CO","color":"Weathered Gray Shake","id":"a6k57i413r9s","geo_precision":"range","address":"748 Fryingpan Rd"},"type":"Feature","geometry":{"type":"Point","coordinates":[-107.024839,39.372219]}},{"properties":{"city":"Burlington","geo_score":0.829,"type":"Shake","full address":"111 Hollowell, Burlington CO","color":"Weathered Gray Shake","id":"a6k57hxfy8bv","geo_precision":"range","address":"111 Hollowell"},"type":"Feature","geometry":{"type":"Point","coordinates":[-102.285456,39.30218]}},{"properties":{"city":"Crested Butte","geo_score":0.55,"type":"Shake","full address":"522 Larkspur Loop, Crested Butte CO","color":"Weathered Gray Shake","id":"a6k57hv3ed65","geo_precision":"street","address":"522 Larkspur Loop"},"type":"Feature","geometry":{"type":"Point","coordinates":[-105.316748,38.09645]}},{"properties":{"city":"Denver","geo_score":0.902,"type":"Shake","full address":"3740 S Monaco Parkway, Denver CO","color":"Weathered Gray Shake","id":"a6k57hy74ueu","geo_precision":"range","address":"3740 S Monaco Parkway"},"type":"Feature","geometry":{"type":"Point","coordinates":[-104.912858,39.64907]}},{"properties":{"city":"Edwards","geo_score":0.622,"type":"Shake","full address":"0319 Granads Glenn Road, Edwards CO","color":"Weathered Gray Shake","id":"a6k57hybqqp9","geo_precision":"range","address":"0319 Granads Glenn Road"},"type":"Feature","geometry":{"type":"Point","coordinates":[-106.818688,39.188698]}},{"properties":{"city":"Edwards","geo_score":0.902,"type":"Shake","full address":"105 Forest Trail, Edwards CO","color":"Weathered Gray Shake","id":"a6k57hw7gdqa","geo_precision":"range","address":"105 Forest Trail"},"type":"Feature","geometry":{"type":"Point","coordinates":[-106.674292,39.622683]}},{"properties":{"city":"Glenwood Springs","geo_score":0.902,"type":"Shake","full address":"5445 County Road 154, Glenwood Springs CO","color":"Weathered Gray Shake","id":"a6k57i34qysw","geo_precision":"range","address":"5445 County Road 154"},"type":"Feature","geometry":{"type":"Point","coordinates":[-107.271951,39.473817]}},{"properties":{"city":"Old Snowmass","geo_score":0.626,"type":"Shake","full address":"111 Little Elk Creek, Old Snowmass CO","color":"Weathered Gray Shake","id":"a6k57i5gigow","geo_precision":"range","address":"111 Little Elk Creek"},"type":"Feature","geometry":{"type":"Point","coordinates":[-107.009167,39.293956]}},{"properties":{"city":"Parker","geo_score":0.61,"type":"Shake","full address":"17745 E Jamison Avenue, Parker CO","color":"Weathered Gray Shake","id":"a6k57i06tqrm","geo_precision":"street","address":"17745 E Jamison Avenue"},"type":"Feature","geometry":{"type":"Point","coordinates":[-104.889601,39.579042]}},{"properties":{"city":"Snowmass Village","geo_score":0.902,"type":"Shake","full address":"1550 Faraway Road, Snowmass Village CO","color":"Weathered Gray Shake","id":"a6k57hzc45ak","geo_precision":"range","address":"1550 Faraway Road"},"type":"Feature","geometry":{"type":"Point","coordinates":[-106.932884,39.20697]}},{"properties":{"city":"Vail","geo_score":0.876,"type":"Shake","full address":"1403 Moraine Drive, Vail CO","color":"Weathered Gray Shake","id":"a6k57hs7md93","geo_precision":"range","address":"1403 Moraine Drive"},"type":"Feature","geometry":{"type":"Point","coordinates":[-106.408896,39.637917]}},{"properties":{"city":"Vail","geo_score":0.902,"type":"Shake","full address":"4868 Meadow Drive, Vail CO","color":"Weathered Gray Shake","id":"a6k57hw4fwkl","geo_precision":"range","address":"4868 Meadow Drive"},"type":"Feature","geometry":{"type":"Point","coordinates":[-106.286868,39.625899]}},{"properties":{"city":"Wheat Ridge","geo_score":0.61,"type":"Shake","full address":"4724-36 Routt Street, Wheat Ridge CO","color":"Weathered Gray Shake","id":"a6k57i238ig9","geo_precision":"street","address":"4724-36 Routt Street"},"type":"Feature","geometry":{"type":"Point","coordinates":[-105.127185,39.763667]}},{"properties":{"city":"Montrose","geo_score":0.379,"type":"Shake","full address":"Cornerstone Golf Cabins, Montrose CO","color":"Weathered Gray Shake","id":"a6k57i7bj9v7","geo_precision":"street","address":"Cornerstone Golf Cabins"},"type":"Feature","geometry":{"type":"Point","coordinates":[-107.845291,37.923542]}},{"properties":{"city":"Dolores","geo_score":0.902,"type":"Shake","full address":"13627 County Road 29, Dolores CO","color":"Weathered Green","id":"a6k57i29rm19","geo_precision":"range","address":"13627 County Road 29"},"type":"Feature","geometry":{"type":"Point","coordinates":[-108.517614,37.409895]}},{"properties":{"city":"Vail","geo_score":0.902,"type":"Shake","full address":"85 forest road, Vail CO","color":"Mountain","id":"a6k57hwag0vc","geo_precision":"range","address":"85 forest road"},"type":"Feature","geometry":{"type":"Point","coordinates":[-106.383058,39.64043]}},{"properties":{"city":"Vail","geo_score":0.902,"type":"Shake","full address":"355 Forest Road, Vail CO","color":"Autumn","id":"a6k57i0i4aez","geo_precision":"range","address":"355 Forest Road"},"type":"Feature","geometry":{"type":"Point","coordinates":[-106.377452,39.640006]}},{"properties":{"city":"Vail","geo_score":0.902,"type":"Shake","full address":"405 Forest Road, Vail CO","color":"Mountain","id":"a6k57i71jvh0","geo_precision":"range","address":"405 Forest Road"},"type":"Feature","geometry":{"type":"Point","coordinates":[-106.386486,39.64031]}},{"properties":{"city":"Vail","geo_score":0.902,"type":"Shake","full address":"455 Beaver Dam Circle, Vail CO","color":"Tahoe","id":"a6k57i3sx0vg","geo_precision":"range","address":"455 Beaver Dam Circle"},"type":"Feature","geometry":{"type":"Point","coordinates":[-106.385843,39.641327]}},{"properties":{"city":"Vail","geo_score":0.605,"type":"Shake","full address":"Rams Horn Lodge 416 Vail Valley Dr., Vail CO","color":"Mountain","id":"a6k57i3bv9hm","geo_precision":"street","address":"Rams Horn Lodge 416 Vail Valley Dr."},"type":"Feature","geometry":{"type":"Point","coordinates":[-106.369367,39.639534]}},{"properties":{"city":"Vail","geo_score":0.902,"type":"Shake","full address":"925 Fairway Drive, Vail CO","color":"Autumn","id":"a6k57hudzg82","geo_precision":"range","address":"925 Fairway Drive"},"type":"Feature","geometry":{"type":"Point","coordinates":[-106.360418,39.6373]}},{"properties":{"city":"Vail","geo_score":0.902,"type":"Shake","full address":"1468 Vail Valley Drive, Vail CO","color":"Mountain","id":"a6k57i6387g2","geo_precision":"range","address":"1468 Vail Valley Drive"},"type":"Feature","geometry":{"type":"Point","coordinates":[-106.349513,39.640549]}},{"properties":{"city":"Beaver Creek","geo_score":0.26,"type":"Shake","full address":"60 Wayne Creek Road, Beaver Creek CO","color":"Tahoe","id":"a6k57i1i6b6v","geo_precision":"street","address":"60 Wayne Creek Road"},"type":"Feature","geometry":{"type":"Point","coordinates":[-107.56978,40.485029]}},{"properties":{"city":"Beaver Creek","geo_score":0.382,"type":"Shake","full address":"93 Wayne Creek Road, Beaver Creek CO","color":"Mountain","id":"a6k57hvoie3z","geo_precision":"street","address":"93 Wayne Creek Road"},"type":"Feature","geometry":{"type":"Point","coordinates":[-107.56978,40.485029]}},{"properties":{"city":"Beaver Creek","geo_score":0.36,"type":"Shake","full address":"369 N. Holden Road, Beaver Creek CO","color":"Mountain","id":"a6k57hy5puq0","geo_precision":"street","address":"369 N. Holden Road"},"type":"Feature","geometry":{"type":"Point","coordinates":[-107.56978,40.485029]}},{"properties":{"city":"Beaver Creek","geo_score":0.238,"type":"Shake","full address":"430 N. Holden Road, Beaver Creek CO","color":"Mountain","id":"a6k57i0uuu08","geo_precision":"street","address":"430 N. Holden Road"},"type":"Feature","geometry":{"type":"Point","coordinates":[-107.56978,40.485029]}},{"properties":{"city":"Beaver Creek","geo_score":0.238,"type":"Shake","full address":"446 N Holden Road, Beaver Creek CO","color":"Autumn","id":"a6k57hyh3naq","geo_precision":"street","address":"446 N Holden Road"},"type":"Feature","geometry":{"type":"Point","coordinates":[-107.56978,40.485029]}},{"properties":{"city":"Beaver Creek","geo_score":0.392,"type":"Shake","full address":"103 Borders Road, Beaver Creek CO","color":"Mountain","id":"a6k57hwrskkt","geo_precision":"street","address":"103 Borders Road"},"type":"Feature","geometry":{"type":"Point","coordinates":[-107.56978,40.485029]}},{"properties":{"city":"Beaver Creek","geo_score":0.48,"type":"Shake","full address":"179 S. Fairway Drive, Beaver Creek CO","color":"Tahoe","id":"a6k57ht5bqnp","geo_precision":"street","address":"179 S. Fairway Drive"},"type":"Feature","geometry":{"type":"Point","coordinates":[-107.534255,40.520019]}},{"properties":{"city":"Beaver Creek","geo_score":0.48,"type":"Shake","full address":"158 N. Fairway Drive, Beaver Creek CO","color":"Tahoe","id":"a6k57hu0tncd","geo_precision":"street","address":"158 N. Fairway Drive"},"type":"Feature","geometry":{"type":"Point","coordinates":[-107.534255,40.520019]}},{"properties":{"city":"Beaver Creek","geo_score":0.48,"type":"Shake","full address":"180 N. Fairway Drive, Beaver Creek CO","color":"Tahoe","id":"a6k57i6diesb","geo_precision":"street","address":"180 N. Fairway Drive"},"type":"Feature","geometry":{"type":"Point","coordinates":[-107.534255,40.520019]}},{"properties":{"city":"Beaver Creek","geo_score":0.48,"type":"Shake","full address":"238 N. Fairway Drive, Beaver Creek CO","color":"Tahoe","id":"a6k57hsvo16q","geo_precision":"street","address":"238 N. Fairway Drive"},"type":"Feature","geometry":{"type":"Point","coordinates":[-107.534255,40.520019]}},{"properties":{"city":"Beaver Creek","geo_score":0.48,"type":"Shake","full address":"244 N. Fairway Drive, Beaver Creek CO","color":"Tahoe","id":"a6k57hw3zgz4","geo_precision":"street","address":"244 N. Fairway Drive"},"type":"Feature","geometry":{"type":"Point","coordinates":[-107.534255,40.520019]}},{"properties":{"city":"Beaver Creek","geo_score":0.48,"type":"Shake","full address":"233 N. Fairway Drive, Beaver Creek CO","color":"Tahoe","id":"a6k57i4efl2v","geo_precision":"street","address":"233 N. Fairway Drive"},"type":"Feature","geometry":{"type":"Point","coordinates":[-107.534255,40.520019]}},{"properties":{"city":"Vail","geo_score":0.659,"type":"Shake","full address":"100 E. Meadow Drive La Bottega, Vail CO","color":"Mountain","id":"a6k57hunocpa","geo_precision":"street","address":"100 E. Meadow Drive La Bottega"},"type":"Feature","geometry":{"type":"Point","coordinates":[-106.374783,39.642116]}},{"properties":{"city":"Beaver Creek","geo_score":0.26,"type":"Shake","full address":"80 Wayne Creek Road, Beaver Creek CO","color":"Autumn","id":"a6k57i8md6hf","geo_precision":"street","address":"80 Wayne Creek Road"},"type":"Feature","geometry":{"type":"Point","coordinates":[-107.56978,40.485029]}},{"properties":{"city":"Beaver Creek","geo_score":0.36,"type":"Shake","full address":"377 N. Holden Road, Beaver Creek CO","color":"Mountain","id":"a6k57huk26y5","geo_precision":"street","address":"377 N. Holden Road"},"type":"Feature","geometry":{"type":"Point","coordinates":[-107.56978,40.485029]}},{"properties":{"city":"Basalt","geo_score":0.707,"type":"Shake F","full address":"9231 Frying Pan Road, Basalt CO","color":"FANCY Tahoe-Mountain Blend","id":"a6k57i82allu","geo_precision":"street","address":"9231 Frying Pan Road"},"type":"Feature","geometry":{"type":"Point","coordinates":[-106.845828,39.364277]}},{"properties":{"city":"Aspen","geo_score":0.772,"type":"Slate","full address":"294 Draw Line, Aspen CO","color":"Aberdeen","id":"a6k57hucmg9v","geo_precision":"range","address":"294 Draw Line"},"type":"Feature","geometry":{"type":"Point","coordinates":[-106.831544,39.209686]}},{"properties":{"city":"Aspen","geo_score":0.902,"type":"Slate","full address":"681 Mountain Laurel Dr, Aspen CO","color":"Aberdeen","id":"a6k57i6ic0h6","geo_precision":"range","address":"681 Mountain Laurel Dr"},"type":"Feature","geometry":{"type":"Point","coordinates":[-106.799925,39.184132]}},{"properties":{"city":"Basalt","geo_score":0.708,"type":"Slate","full address":"301 Stone Road, Basalt CO","color":"Aberdeen","id":"a6k57hz6f5n4","geo_precision":"street","address":"301 Stone Road"},"type":"Feature","geometry":{"type":"Point","coordinates":[-107.103623,39.340838]}},{"properties":{"city":"Beaver Creek","geo_score":0.333,"type":"Slate","full address":"5 Willis Place, Beaver Creek CO","color":"Aberdeen","id":"a6k57hvtjevf","geo_precision":"street","address":"5 Willis Place"},"type":"Feature","geometry":{"type":"Point","coordinates":[-107.56978,40.485029]}},{"properties":{"city":"Carbondale","geo_score":0.518,"type":"Slate","full address":"80 Alpenglow Lane, Carbondale CO","color":"Aberdeen","id":"a6k57i83kecq","geo_precision":"city","address":"80 Alpenglow Lane"},"type":"Feature","geometry":{"type":"Point","coordinates":[-107.38813,39.476857]}},{"properties":{"city":"Carbondale","geo_score":0.518,"type":"Slate","full address":"84 Alpenglow Lane, Carbondale CO","color":"Aberdeen","id":"a6k57i2pim8o","geo_precision":"city","address":"84 Alpenglow Lane"},"type":"Feature","geometry":{"type":"Point","coordinates":[-107.38813,39.476857]}},{"properties":{"city":"Carbondale","geo_score":0.482,"type":"Slate","full address":"Lot 24, High Aspen Ranch, Carbondale CO","color":"Aberdeen","id":"a6k57i3k973i","geo_precision":"street","address":"Lot 24, High Aspen Ranch"},"type":"Feature","geometry":{"type":"Point","coordinates":[-107.249287,39.16766]}},{"properties":{"city":"Castle Rock","geo_score":0.524,"type":"Slate","full address":"1122 Forest Hills, Castle Rock CO","color":"Aberdeen","id":"a6k57hvx1nz7","geo_precision":"street","address":"1122 Forest Hills"},"type":"Feature","geometry":{"type":"Point","coordinates":[-104.691796,39.521837]}},{"properties":{"city":"Cherry Hills Village","geo_score":0.539,"type":"Slate","full address":"1200 E. Oxford, Cherry Hills Village  CO","color":"Aberdeen","id":"a6k57i10qdoq","geo_precision":"city","address":"1200 E. Oxford"},"type":"Feature","geometry":{"type":"Point","coordinates":[-104.959425,39.641654]}},{"properties":{"city":"Colorado Springs","geo_score":0.878,"type":"Slate","full address":"1765 Oak Hills Road, Colorado Springs CO","color":"Aberdeen","id":"a6k57hvme2y3","geo_precision":"range","address":"1765 Oak Hills Road"},"type":"Feature","geometry":{"type":"Point","coordinates":[-104.864712,38.937347]}},{"properties":{"city":"Colorado Springs","geo_score":0.902,"type":"Slate","full address":"529 Bear Paw Lane South, Colorado Springs CO","color":"Aberdeen","id":"a6k57hyzg06z","geo_precision":"range","address":"529 Bear Paw Lane South"},"type":"Feature","geometry":{"type":"Point","coordinates":[-104.836829,38.800771]}},{"properties":{"city":"Denver","geo_score":0.509,"type":"Slate","full address":"1200 East Oxford , Denver CO","color":"Aberdeen","id":"a6k57i5miyzi","geo_precision":"city","address":"1200 East Oxford"},"type":"Feature","geometry":{"type":"Point","coordinates":[-104.856808,39.726303]}},{"properties":{"city":"Denver","geo_score":0.902,"type":"Slate","full address":"346 Madison Street, Denver CO","color":"Aberdeen","id":"a6k57i1uqe3n","geo_precision":"range","address":"346 Madison Street"},"type":"Feature","geometry":{"type":"Point","coordinates":[-104.946094,39.721801]}},{"properties":{"city":"Durango","geo_score":0.854,"type":"Slate","full address":"1 River Rim Road, Durango CO","color":"Aberdeen","id":"a6k57hu1o9zu","geo_precision":"range","address":"1 River Rim Road"},"type":"Feature","geometry":{"type":"Point","coordinates":[-107.880534,37.076029]}},{"properties":{"city":"Edwards","geo_score":0.902,"type":"Slate","full address":"217 Meadow Road, Lake Creek, Edwards CO","color":"Aberdeen","id":"a6k57i277kn6","geo_precision":"range","address":"217 Meadow Road, Lake Creek"},"type":"Feature","geometry":{"type":"Point","coordinates":[-106.615632,39.627918]}},{"properties":{"city":"Evergreen","geo_score":0.902,"type":"Slate","full address":"3774 Mountainside Trail, Evergreen CO","color":"Aberdeen","id":"a6k57hzxymdk","geo_precision":"range","address":"3774 Mountainside Trail"},"type":"Feature","geometry":{"type":"Point","coordinates":[-105.350414,39.648198]}},{"properties":{"city":"Genessee","geo_score":0.589,"type":"Slate","full address":"2250 Juniper Court, Genessee CO","color":"Aberdeen","id":"a6k57i4dpn4g","geo_precision":"street","address":"2250 Juniper Court"},"type":"Feature","geometry":{"type":"Point","coordinates":[-105.282793,39.698558]}},{"properties":{"city":"Golden","geo_score":0.902,"type":"Slate","full address":"15216 W. Maple Avenue, Golden CO","color":"Aberdeen","id":"a6k57hx0qlcv","geo_precision":"range","address":"15216 W. Maple Avenue"},"type":"Feature","geometry":{"type":"Point","coordinates":[-105.17026,39.713432]}},{"properties":{"city":"Grant","geo_score":0.61,"type":"Slate","full address":"3319 Beaver Lane, Grant CO","color":"Aberdeen","id":"a6k57i25r8ty","geo_precision":"street","address":"3319 Beaver Lane"},"type":"Feature","geometry":{"type":"Point","coordinates":[-105.406644,39.696512]}},{"properties":{"city":"Snowmass","geo_score":0.861,"type":"Slate","full address":"2557 Lower River Road, Snowmass CO","color":"Aberdeen","id":"a6k57hymh44q","geo_precision":"range","address":"2557 Lower River Road"},"type":"Feature","geometry":{"type":"Point","coordinates":[-106.944208,39.322948]}},{"properties":{"city":"Snowmass Village","geo_score":0.902,"type":"Slate","full address":"127 Forest Lane, Snowmass Village CO","color":"Aberdeen","id":"a6k57i3ca5hm","geo_precision":"range","address":"127 Forest Lane"},"type":"Feature","geometry":{"type":"Point","coordinates":[-106.947195,39.200651]}},{"properties":{"city":"South Fork","geo_score":0.484,"type":"Slate","full address":"330 Timberline Trail, South Fork CO","color":"Aberdeen","id":"a6k57i1vtazu","geo_precision":"street","address":"330 Timberline Trail"},"type":"Feature","geometry":{"type":"Point","coordinates":[-105.645534,37.926483]}},{"properties":{"city":"Arrowhead","geo_score":0.0,"type":"Slate","full address":"290 Windemere , Arrowhead CO","color":"Brownstone","id":"a6k57i61pggb","geo_precision":"unmatched","address":"290 Windemere"},"type":"Feature","geometry":null},{"properties":{"city":"Arrowhead","geo_score":0.0,"type":"Slate","full address":"336 Windemere, Arrowhead CO","color":"Brownstone","id":"a6k57hvnkehk","geo_precision":"unmatched","address":"336 Windemere"},"type":"Feature","geometry":null},{"properties":{"city":"Arrowhead","geo_score":0.0,"type":"Slate","full address":"57 Ambleside Pl, Arrowhead CO","color":"Brownstone","id":"a6k57i1y2jf6","geo_precision":"unmatched","address":"57 Ambleside Pl"},"type":"Feature","geometry":null},{"properties":{"city":"Arrowhead","geo_score":0.0,"type":"Slate","full address":"58 Ambleside Pl , Arrowhead CO","color":"Brownstone","id":"a6k57i4609cg","geo_precision":"unmatched","address":"58 Ambleside Pl"},"type":"Feature","geometry":null},{"properties":{"city":"Arrowhead","geo_score":0.0,"type":"Slate","full address":"68 Ambleside Pl, Arrowhead CO","color":"Brownstone","id":"a6k57hvsojp7","geo_precision":"unmatched","address":"68 Ambleside Pl"},"type":"Feature","geometry":null},{"properties":{"city":"Arvada","geo_score":0.837,"type":"Slate","full address":"13829 W 59th Drive, Arvada CO","color":"Brownstone","id":"a6k57htfyxhv","geo_precision":"range","address":"13829 W 59th Drive"},"type":"Feature","geometry":{"type":"Point","coordinates":[-105.15365,39.804426]}},{"properties":{"city":"Arvada","geo_score":0.87,"type":"Slate","full address":"5885 Zinna Ct., Arvada CO","color":"Brownstone","id":"a6k57i557ris","geo_precision":"range","address":"5885 Zinna Ct."},"type":"Feature","geometry":{"type":"Point","coordinates":[-105.146305,39.803546]}},{"properties":{"city":"Aspen","geo_score":0.902,"type":"Slate","full address":"0450 Owl Creek Ranch Road, Aspen CO","color":"Brownstone","id":"a6k57i5yrhct","geo_precision":"range","address":"0450 Owl Creek Ranch Road"},"type":"Feature","geometry":{"type":"Point","coordinates":[-106.890513,39.217164]}},{"properties":{"city":"Aspen","geo_score":0.902,"type":"Slate","full address":"0450 Owl Creek Ranch Road , Aspen CO","color":"Brownstone","id":"a6k57hsn495i","geo_precision":"range","address":"0450 Owl Creek Ranch Road"},"type":"Feature","geometry":{"type":"Point","coordinates":[-106.890513,39.217164]}},{"properties":{"city":"Aspen","geo_score":0.823,"type":"Slate","full address":"149 Larkspur, Aspen CO","color":"Brownstone","id":"a6k57i7a8mod","geo_precision":"range","address":"149 Larkspur"},"type":"Feature","geometry":{"type":"Point","coordinates":[-106.841506,39.186392]}},{"properties":{"city":"Aspen","geo_score":0.509,"type":"Slate","full address":"234 Magnifico, Aspen CO","color":"Brownstone","id":"a6k57i3ckljy","geo_precision":"city","address":"234 Magnifico"},"type":"Feature","geometry":{"type":"Point","coordinates":[-106.776744,39.169324]}},{"properties":{"city":"Aspen","geo_score":0.829,"type":"Slate","full address":"504 North 8th Street, Aspen CO","color":"Brownstone","id":"a6k57hskoypl","geo_precision":"range","address":"504 North 8th Street"},"type":"Feature","geometry":{"type":"Point","coordinates":[-106.830996,39.196811]}},{"properties":{"city":"Aspen","geo_score":0.722,"type":"Slate","full address":"674 Johnson Drive, Starwood, Aspen CO","color":"Brownstone","id":"a6k57hylwbum","geo_precision":"range","address":"674 Johnson Drive, Starwood"},"type":"Feature","geometry":{"type":"Point","coordinates":[-106.847895,39.22754]}},{"properties":{"city":"Aspen","geo_score":0.829,"type":"Slate","full address":"875 Star Mesa, Aspen CO","color":"Brownstone","id":"a6k57i4gmtdu","geo_precision":"range","address":"875 Star Mesa"},"type":"Feature","geometry":{"type":"Point","coordinates":[-106.870144,39.249506]}},{"properties":{"city":"Aurora","geo_score":0.668,"type":"Slate","full address":"15775 E Briarwood Circle, Aurora CO","color":"Brownstone","id":"a6k57hxet1fh","geo_precision":"street","address":"15775 E Briarwood Circle"},"type":"Feature","geometry":{"type":"Point","coordinates":[-104.766413,39.594059]}},{"properties":{"city":"Beaver Creek","geo_score":0.382,"type":"Slate","full address":"41 Bachelor's Gulch Road, Beaver Creek CO","color":"Brownstone","id":"a6k57hzqcrsb","geo_precision":"street","address":"41 Bachelor's Gulch Road"},"type":"Feature","geometry":{"type":"Point","coordinates":[-107.56978,40.485029]}},{"properties":{"city":"Breckenridge","geo_score":0.428,"type":"Slate","full address":"416 Peerless Drive, Breckenridge CO","color":"Brownstone","id":"a6k57hzsd1ot","geo_precision":"street","address":"416 Peerless Drive"},"type":"Feature","geometry":{"type":"Point","coordinates":[-105.271619,39.506426]}},{"properties":{"city":"Carbondale","geo_score":0.902,"type":"Slate","full address":"17694 Highway 82, Carbondale CO","color":"Brownstone","id":"a6k57i5pycy2","geo_precision":"range","address":"17694 Highway 82"},"type":"Feature","geometry":{"type":"Point","coordinates":[-107.115921,39.402638]}},{"properties":{"city":"Centennial","geo_score":0.708,"type":"Slate","full address":"6333 S Netherland Way, Centennial CO","color":"Brownstone","id":"a6k57i1qt6hu","geo_precision":"street","address":"6333 S Netherland Way"},"type":"Feature","geometry":{"type":"Point","coordinates":[-104.740138,39.620377]}},{"properties":{"city":"Centennial","geo_score":0.455,"type":"Slate","full address":"Cheddars Rest.-15775 E Arapahoe Rd, Centennial CO","color":"Brownstone","id":"a6k57i0fizrz","geo_precision":"street","address":"Cheddars Rest.-15775 E Arapahoe Rd"},"type":"Feature","geometry":{"type":"Point","coordinates":[-104.811256,39.594941]}},{"properties":{"city":"Cherry Hills Village","geo_score":0.732,"type":"Slate","full address":"18 Cherry Hills Farm Drive, Cherry Hills Village  CO","color":"Brownstone","id":"a6k57hylbm34","geo_precision":"street","address":"18 Cherry Hills Farm Drive"},"type":"Feature","geometry":{"type":"Point","coordinates":[-104.956717,39.629695]}},{"properties":{"city":"Cherry Hills Village","geo_score":0.727,"type":"Slate","full address":"20 Cherry Hills Farm Drive, Cherry Hills Village  CO","color":"Brownstone","id":"a6k57i1rprfg","geo_precision":"street","address":"20 Cherry Hills Farm Drive"},"type":"Feature","geometry":{"type":"Point","coordinates":[-104.956717,39.629695]}},{"properties":{"city":"Denver","geo_score":0.649,"type":"Slate","full address":"15775 E. Briarwood Circle, Denver CO","color":"Brownstone","id":"a6k57hyyui4p","geo_precision":"street","address":"15775 E. Briarwood Circle"},"type":"Feature","geometry":{"type":"Point","coordinates":[-105.126808,39.701156]}},{"properties":{"city":"Denver","geo_score":0.876,"type":"Slate","full address":"3425 Bellcaro Lane, Denver CO","color":"Brownstone","id":"a6k57i17fz5n","geo_precision":"range","address":"3425 Bellcaro Lane"},"type":"Feature","geometry":{"type":"Point","coordinates":[-104.947821,39.703196]}},{"properties":{"city":"Dillon","geo_score":0.902,"type":"Slate","full address":"487 Summerwood Drive, Dillon CO","color":"Brownstone","id":"a6k57i802ydl","geo_precision":"range","address":"487 Summerwood Drive"},"type":"Feature","geometry":{"type":"Point","coordinates":[-106.021383,39.606719]}},{"properties":{"city":"Durango","geo_score":0.805,"type":"Slate","full address":"7778 County Road 240, Durango CO","color":"Brownstone","id":"a6k57i1wf8ol","geo_precision":"street","address":"7778 County Road 240"},"type":"Feature","geometry":{"type":"Point","coordinates":[-107.753628,37.325763]}},{"properties":{"city":"Eagle","geo_score":0.51,"type":"Slate","full address":"34 Hollyhock, Eagle CO","color":"Brownstone","id":"a6k57hzqictj","geo_precision":"city","address":"34 Hollyhock"},"type":"Feature","geometry":{"type":"Point","coordinates":[-106.805111,39.607401]}},{"properties":{"city":"Englewood","geo_score":0.902,"type":"Slate","full address":"4245 S. Forest Circle, Englewood CO","color":"Brownstone","id":"a6k57hwrhkjw","geo_precision":"range","address":"4245 S. Forest Circle"},"type":"Feature","geometry":{"type":"Point","coordinates":[-104.92925,39.640761]}},{"properties":{"city":"Evergreen","geo_score":0.902,"type":"Slate","full address":"29633 Thimbleberry Lane, Evergreen CO","color":"Brownstone","id":"a6k57i1qyql7","geo_precision":"range","address":"29633 Thimbleberry Lane"},"type":"Feature","geometry":{"type":"Point","coordinates":[-105.33147,39.650928]}},{"properties":{"city":"Golden","geo_score":0.902,"type":"Slate","full address":"1874 Foothills Drive S, Golden CO","color":"Brownstone","id":"a6k57ht42fba","geo_precision":"range","address":"1874 Foothills Drive S"},"type":"Feature","geometry":{"type":"Point","coordinates":[-105.281297,39.685332]}},{"properties":{"city":"Greenwood Village","geo_score":0.732,"type":"Slate","full address":"11955 E. Ida Lane, Greenwood Village CO","color":"Brownstone","id":"a6k57hvmxyvw","geo_precision":"range","address":"11955 E. Ida Lane"},"type":"Feature","geometry":{"type":"Point","coordinates":[-104.850791,39.611514]}},{"properties":{"city":"Lakewood","geo_score":0.515,"type":"Slate","full address":"2450 S.Chase Lane, Lakewood CO","color":"Brownstone","id":"a6k57hw47czq","geo_precision":"city","address":"2450 S.Chase Lane"},"type":"Feature","geometry":{"type":"Point","coordinates":[-105.081373,39.70471]}},{"properties":{"city":"Snowmass Village","geo_score":0.902,"type":"Slate","full address":"121 Sinclair Lane, Snowmass Village CO","color":"Brownstone","id":"a6k57i3ac9d1","geo_precision":"range","address":"121 Sinclair Lane"},"type":"Feature","geometry":{"type":"Point","coordinates":[-106.937929,39.225251]}},{"properties":{"city":"Snowmass Village","geo_score":0.902,"type":"Slate","full address":"1668 Wood Road, Snowmass Village CO","color":"Brownstone","id":"a6k57i1vy7d2","geo_precision":"range","address":"1668 Wood Road"},"type":"Feature","geometry":{"type":"Point","coordinates":[-106.947107,39.200903]}},{"properties":{"city":"Snowmass Village","geo_score":0.902,"type":"Slate","full address":"1688 Wood Road, Snowmass Village CO","color":"Brownstone","id":"a6k57hwak4e3","geo_precision":"range","address":"1688 Wood Road"},"type":"Feature","geometry":{"type":"Point","coordinates":[-106.947275,39.200863]}},{"properties":{"city":"Vail","geo_score":0.78,"type":"Slate","full address":"1537 Spring Hill Lane, Vail CO","color":"Brownstone","id":"a6k57i3urp41","geo_precision":"range","address":"1537 Spring Hill Lane"},"type":"Feature","geometry":{"type":"Point","coordinates":[-106.350272,39.64007]}},{"properties":{"city":"Beaver Creek","geo_score":0.238,"type":"Slate","full address":"358 N. Holden Road, Beaver Creek CO","color":"Brownstone","id":"a6k57husd8nk","geo_precision":"street","address":"358 N. Holden Road"},"type":"Feature","geometry":{"type":"Point","coordinates":[-107.56978,40.485029]}},{"properties":{"city":"Snowmass","geo_score":0.805,"type":"Slate","full address":"1926 Faraway Road, Snowmass CO","color":"Brownstone","id":"a6k57i04pcl2","geo_precision":"range","address":"1926 Faraway Road"},"type":"Feature","geometry":{"type":"Point","coordinates":[-106.934128,39.205306]}},{"properties":{"city":"Aspen","geo_score":0.725,"type":"Slate","full address":"0012 Snow Owl Lane, Aspen CO","color":"Castle Gray","id":"a6k57i8lkx4i","geo_precision":"range","address":"0012 Snow Owl Lane"},"type":"Feature","geometry":{"type":"Point","coordinates":[-106.826815,39.644776]}},{"properties":{"city":"Aspen","geo_score":0.737,"type":"Slate","full address":"100 Red Mountain Drive, Aspen CO","color":"Castle Gray","id":"a6k57i8g6xqb","geo_precision":"street","address":"100 Red Mountain Drive"},"type":"Feature","geometry":{"type":"Point","coordinates":[-106.818359,39.197098]}},{"properties":{"city":"Aspen","geo_score":0.793,"type":"Slate","full address":"112 Park Street, Aspen CO","color":"Castle Gray","id":"a6k57i6385yk","geo_precision":"range","address":"112 Park Street"},"type":"Feature","geometry":{"type":"Point","coordinates":[-106.810049,39.18699]}},{"properties":{"city":"Aspen","geo_score":0.767,"type":"Slate","full address":"1169 Hopkins, Aspen CO","color":"Castle Gray","id":"a6k57i7egvxq","geo_precision":"range","address":"1169 Hopkins"},"type":"Feature","geometry":{"type":"Point","coordinates":[-106.81038,39.187968]}},{"properties":{"city":"Aspen","geo_score":0.634,"type":"Slate","full address":"1730 Twaining Flats, Aspen CO","color":"Castle Gray","id":"a6k57huhvfdo","geo_precision":"street","address":"1730 Twaining Flats"},"type":"Feature","geometry":{"type":"Point","coordinates":[-106.890806,39.272217]}},{"properties":{"city":"Aspen","geo_score":0.758,"type":"Slate","full address":"579 S. Starwood Drive, Aspen CO","color":"Castle Gray","id":"a6k57hsufd0e","geo_precision":"range","address":"579 S. Starwood Drive"},"type":"Feature","geometry":{"type":"Point","coordinates":[-106.845033,39.227687]}},{"properties":{"city":"Aspen","geo_score":0.902,"type":"Slate","full address":"96 Mountain Laurel Drive, Aspen CO","color":"Castle Gray","id":"a6k57i4qkk19","geo_precision":"range","address":"96 Mountain Laurel Drive"},"type":"Feature","geometry":{"type":"Point","coordinates":[-106.798468,39.179052]}},{"properties":{"city":"Aspen","geo_score":0.745,"type":"Slate","full address":"96 Ute Place Lot 10, Aspen CO","color":"Castle Gray","id":"a6k57huypuv3","geo_precision":"range","address":"96 Ute Place Lot 10"},"type":"Feature","geometry":{"type":"Point","coordinates":[-106.813899,39.183006]}},{"properties":{"city":"Carbondale","geo_score":0.58,"type":"Slate","full address":"150 Spring Park, Carbondale CO","color":"Castle Gray","id":"a6k57hxr1mvv","geo_precision":"street","address":"150 Spring Park"},"type":"Feature","geometry":{"type":"Point","coordinates":[-107.08584,39.455937]}},{"properties":{"city":"Carbondale","geo_score":0.49,"type":"Slate","full address":"Lot 14, Fox Run Meadows, Carbondale CO","color":"Castle Gray","id":"a6k57i20320t","geo_precision":"street","address":"Lot 14, Fox Run Meadows"},"type":"Feature","geometry":{"type":"Point","coordinates":[-107.104281,39.412003]}},{"properties":{"city":"Castle Rock","geo_score":0.902,"type":"Slate","full address":"335 Ovida Place, Castle Rock CO","color":"Castle Gray","id":"a6k57hxtvkoo","geo_precision":"range","address":"335 Ovida Place"},"type":"Feature","geometry":{"type":"Point","coordinates":[-104.887527,39.432536]}},{"properties":{"city":"Cordillera","geo_score":0.0,"type":"Slate","full address":"500 Red Draw, Cordillera CO","color":"Castle Gray","id":"a6k57i3bjwzp","geo_precision":"unmatched","address":"500 Red Draw"},"type":"Feature","geometry":null},{"properties":{"city":"Edwards","geo_score":0.857,"type":"Slate","full address":"86 Mierfield Way, Edwards CO","color":"Castle Gray","id":"a6k57i34kqe4","geo_precision":"range","address":"86 Mierfield Way"},"type":"Feature","geometry":{"type":"Point","coordinates":[-106.573897,39.635216]}},{"properties":{"city":"Ouray","geo_score":0.435,"type":"Slate","full address":"965 Sutter Creek, Ouray CO","color":"Castle Gray","id":"a6k57i7gltrm","geo_precision":"street","address":"965 Sutter Creek"},"type":"Feature","geometry":{"type":"Point","coordinates":[-107.875955,38.490787]}},{"properties":{"city":"Parker","geo_score":0.882,"type":"Slate","full address":"6466 E. Ponderosa Road, Parker CO","color":"Castle Gray","id":"a6k57hxsyo2c","geo_precision":"range","address":"6466 E. Ponderosa Road"},"type":"Feature","geometry":{"type":"Point","coordinates":[-104.763677,39.540269]}},{"properties":{"city":"Vail","geo_score":0.902,"type":"Slate","full address":"1314 Spraddle Creek Rd, Vail CO","color":"Castle Gray","id":"a6k57i7dblhs","geo_precision":"range","address":"1314 Spraddle Creek Rd"},"type":"Feature","geometry":{"type":"Point","coordinates":[-106.368688,39.643934]}},{"properties":{"city":"Vail","geo_score":0.707,"type":"Slate","full address":"292 Meadow Drive, Vail CO","color":"Castle Gray","id":"a6k57i3pg8b2","geo_precision":"street","address":"292 Meadow Drive"},"type":"Feature","geometry":{"type":"Point","coordinates":[-106.293135,39.633267]}},{"properties":{"city":"Vail","geo_score":0.479,"type":"Slate","full address":"Colorado Ski Museum -Parking Structure, Vail CO","color":"Castle Gray","id":"a6k57hy9iyel","geo_precision":"street","address":"Colorado Ski Museum -Parking Structure"},"type":"Feature","geometry":{"type":"Point","coordinates":[-106.411892,39.628476]}},{"properties":{"city":"Aspen","geo_score":0.882,"type":"Slate","full address":"189 McSkimming Road, Aspen CO","color":"Custom Blend Slate","id":"a6k57i3gew8a","geo_precision":"range","address":"189 McSkimming Road"},"type":"Feature","geometry":{"type":"Point","coordinates":[-106.805544,39.186201]}},{"properties":{"city":"Aspen","geo_score":0.88,"type":"Slate","full address":"200 N. Starwood Drive, Aspen CO","color":"Custom Blend Slate","id":"a6k57i3ryp60","geo_precision":"range","address":"200 N. Starwood Drive"},"type":"Feature","geometry":{"type":"Point","coordinates":[-106.848492,39.237609]}},{"properties":{"city":"Basalt","geo_score":0.524,"type":"Slate","full address":"Lot 52, Sopris Mountain Road, Basalt CO","color":"Custom Blend Slate","id":"a6k57i4hyow8","geo_precision":"street","address":"Lot 52, Sopris Mountain Road"},"type":"Feature","geometry":{"type":"Point","coordinates":[-107.034963,39.370763]}},{"properties":{"city":"Beaver Creek","geo_score":0.366,"type":"Slate","full address":"425 Holden Road, Beaver Creek CO","color":"Custom Blend Slate","id":"a6k57hxngjkg","geo_precision":"street","address":"425 Holden Road"},"type":"Feature","geometry":{"type":"Point","coordinates":[-107.56978,40.485029]}},{"properties":{"city":"Beaver Creek","geo_score":0.244,"type":"Slate","full address":"762 Holden Road, Beaver Creek CO","color":"Custom Blend Slate","id":"a6k57i03g2sf","geo_precision":"street","address":"762 Holden Road"},"type":"Feature","geometry":{"type":"Point","coordinates":[-107.56978,40.485029]}},{"properties":{"city":"Beaver Creek","geo_score":0.381,"type":"Slate","full address":"Beaver Creek Chapel - Elk Track Road, Beaver Creek CO","color":"Custom Blend Slate","id":"a6k57hyb8pdf","geo_precision":"street","address":"Beaver Creek Chapel - Elk Track Road"},"type":"Feature","geometry":{"type":"Point","coordinates":[-107.56854,40.48426]}},{"properties":{"city":"Beaver Creek","geo_score":0.381,"type":"Slate","full address":"Elk Track Condos.- Elk Track Road, Beaver Creek CO","color":"Custom Blend Slate","id":"a6k57i3ievl0","geo_precision":"street","address":"Elk Track Condos.- Elk Track Road"},"type":"Feature","geometry":{"type":"Point","coordinates":[-107.56854,40.48426]}},{"properties":{"city":"Centennial","geo_score":0.902,"type":"Slate","full address":"6211 S. Picadilly Street, Centennial CO","color":"Custom Blend Slate","id":"a6k57hzlrgf2","geo_precision":"range","address":"6211 S. Picadilly Street"},"type":"Feature","geometry":{"type":"Point","coordinates":[-104.744773,39.607913]}},{"properties":{"city":"Cotopaxi","geo_score":0.0,"type":"Slate","full address":"1075 Spruce Mountain Road, Cotopaxi CO","color":"Custom Blend Slate","id":"a6k57hy8btn2","geo_precision":"unmatched","address":"1075 Spruce Mountain Road"},"type":"Feature","geometry":null},{"properties":{"city":"Edwards","geo_score":0.861,"type":"Slate","full address":"159 Castle Peak Drive, Edwards CO","color":"Custom Blend Slate","id":"a6k57hu9nk51","geo_precision":"range","address":"159 Castle Peak Drive"},"type":"Feature","geometry":{"type":"Point","coordinates":[-106.600039,39.640571]}},{"properties":{"city":"Englewood","geo_score":0.805,"type":"Slate","full address":"5325 Sanford Circle East, Englewood CO","color":"Custom Blend Slate","id":"a6k57i3u7l7i","geo_precision":"street","address":"5325 Sanford Circle East"},"type":"Feature","geometry":{"type":"Point","coordinates":[-104.924819,39.644358]}},{"properties":{"city":"Evergreen","geo_score":0.707,"type":"Slate","full address":"3405 Squaw Pass Road, Evergreen CO","color":"Custom Blend Slate","id":"a6k57i3wo3bv","geo_precision":"street","address":"3405 Squaw Pass Road"},"type":"Feature","geometry":{"type":"Point","coordinates":[-105.444744,39.673877]}},{"properties":{"city":"Golden","geo_score":0.902,"type":"Slate","full address":"25724 Bristlecone Ct., Golden CO","color":"Custom Blend Slate","id":"a6k57i6n5g5g","geo_precision":"range","address":"25724 Bristlecone Ct."},"type":"Feature","geometry":{"type":"Point","coordinates":[-105.294667,39.684955]}},{"properties":{"city":"Greenwood Village","geo_score":0.805,"type":"Slate","full address":"2745 East Long Lane, Greenwood Village CO","color":"Custom Blend Slate","id":"a6k57i24l7e3","geo_precision":"range","address":"2745 East Long Lane"},"type":"Feature","geometry":{"type":"Point","coordinates":[-104.956657,39.611785]}},{"properties":{"city":"Littleton","geo_score":0.902,"type":"Slate","full address":"12 Robincrest Lane, Littleton CO","color":"Custom Blend Slate","id":"a6k57i5448j1","geo_precision":"range","address":"12 Robincrest Lane"},"type":"Feature","geometry":{"type":"Point","coordinates":[-105.048155,39.59546]}},{"properties":{"city":"Montrose","geo_score":0.451,"type":"Slate","full address":"62424 Highway 9, Montrose CO","color":"Custom Blend Slate","id":"a6k57i6otfno","geo_precision":"street","address":"62424 Highway 9"},"type":"Feature","geometry":{"type":"Point","coordinates":[-107.880128,38.489253]}},{"properties":{"city":"Snowmass","geo_score":0.902,"type":"Slate","full address":"5721 Snowmass Creek Road, Snowmass CO","color":"Custom Blend Slate","id":"a6k57hwf47ng","geo_precision":"range","address":"5721 Snowmass Creek Road"},"type":"Feature","geometry":{"type":"Point","coordinates":[-106.965822,39.25983]}},{"properties":{"city":"Snowmass Village","geo_score":0.595,"type":"Slate","full address":"0179 Divide Road, Snowmass Village CO","color":"Custom Blend Slate","id":"a6k57ht593sq","geo_precision":"street","address":"0179 Divide Road"},"type":"Feature","geometry":{"type":"Point","coordinates":[-106.957698,39.208028]}},{"properties":{"city":"Snowmass Village","geo_score":0.748,"type":"Slate","full address":"241 East Fork Lane, Snowmass Village CO","color":"Custom Blend Slate","id":"a6k57i19k78f","geo_precision":"range","address":"241 East Fork Lane"},"type":"Feature","geometry":{"type":"Point","coordinates":[-106.927378,39.205618]}},{"properties":{"city":"Vail","geo_score":0.553,"type":"Slate","full address":"The Willows Condos.-74 Willow Road, Vail CO","color":"Custom Blend Slate","id":"a6k57i5t3ahc","geo_precision":"street","address":"The Willows Condos.-74 Willow Road"},"type":"Feature","geometry":{"type":"Point","coordinates":[-106.37609,39.640265]}},{"properties":{"city":"Creede","geo_score":0.557,"type":"Slate","full address":"Wagon Wheel Gap Estates, Creede CO","color":"Custom Blend Slate","id":"a6k57i4n3hn8","geo_precision":"street","address":"Wagon Wheel Gap Estates"},"type":"Feature","geometry":{"type":"Point","coordinates":[-106.927038,37.852823]}},{"properties":{"city":"Timnath","geo_score":0.513,"type":"Slate","full address":"6463 Engh Place, Timnath CO","color":"Custom Blend Slate","id":"a6k57htm0oe7","geo_precision":"city","address":"6463 Engh Place"},"type":"Feature","geometry":{"type":"Point","coordinates":[-105.017539,40.708692]}},{"properties":{"city":"Carbondale","geo_score":0.473,"type":"Slate","full address":"421 Spring Park Drive, Carbondale CO","color":"Custom Blend Slate Brown","id":"a6k57i7it0kc","geo_precision":"street","address":"421 Spring Park Drive"},"type":"Feature","geometry":{"type":"Point","coordinates":[-107.086957,39.454967]}},{"properties":{"city":"Crested Butte","geo_score":0.708,"type":"Slate","full address":"2468 Trappers Way, Crested Butte CO","color":"Custom Blend Slate Brown","id":"a6k57i0eh6tm","geo_precision":"street","address":"2468 Trappers Way"},"type":"Feature","geometry":{"type":"Point","coordinates":[-107.017259,38.869509]}},{"properties":{"city":"Evergreen","geo_score":0.902,"type":"Slate","full address":"3864 Mountainside Trail , Evergreen CO","color":"Custom Blend Slate Brownstone","id":"a6k57i0vqz46","geo_precision":"range","address":"3864 Mountainside Trail"},"type":"Feature","geometry":{"type":"Point","coordinates":[-105.350572,39.647386]}},{"properties":{"city":"Golden","geo_score":0.902,"type":"Slate","full address":"1424 Silver Rock Lane, Golden CO","color":"Custom Blend Slate Brownstone","id":"a6k57hy7g8pc","geo_precision":"range","address":"1424 Silver Rock Lane"},"type":"Feature","geometry":{"type":"Point","coordinates":[-105.319101,39.693632]}},{"properties":{"city":"Franktown","geo_score":0.902,"type":"Slate","full address":"720 Russellville Road, Franktown CO","color":"Custom Blend Slate Dark Gray","id":"a6k57htol2cj","geo_precision":"range","address":"720 Russellville Road"},"type":"Feature","geometry":{"type":"Point","coordinates":[-104.74336,39.377188]}},{"properties":{"city":"Cordillera","geo_score":0.0,"type":"Slate","full address":"62 Settlers Loop, Cordillera CO","color":"Custom Blend Slate Dark Green, Gray","id":"a6k57hutmn9m","geo_precision":"unmatched","address":"62 Settlers Loop"},"type":"Feature","geometry":null},{"properties":{"city":"Aspen","geo_score":0.902,"type":"Slate","full address":"312 Ridge Road, Aspen CO","color":"Custom Blend Slate Dark Tan","id":"a6k57i6shhuf","geo_precision":"range","address":"312 Ridge Road"},"type":"Feature","geometry":{"type":"Point","coordinates":[-106.821477,39.203083]}},{"properties":{"city":"Aspen","geo_score":0.902,"type":"Slate","full address":"131 Popcorn Lane, Aspen CO","color":"Custom Blend Slate Dark Tan, Light Brown","id":"a6k57hswk8db","geo_precision":"range","address":"131 Popcorn Lane"},"type":"Feature","geometry":{"type":"Point","coordinates":[-106.783064,39.148717]}},{"properties":{"city":"Kremmling","geo_score":0.571,"type":"Slate","full address":"Lot 9 Grand River Ranch, Kremmling CO","color":"Custom Blend Slate European","id":"a6k57huvxxit","geo_precision":"street","address":"Lot 9 Grand River Ranch"},"type":"Feature","geometry":{"type":"Point","coordinates":[-106.392366,40.057058]}},{"properties":{"city":"Aspen","geo_score":0.78,"type":"Slate","full address":"2016 McLain Flats Road, Aspen CO","color":"Custom Blend Slate Evergreen","id":"a6k57i3ysdwb","geo_precision":"range","address":"2016 McLain Flats Road"},"type":"Feature","geometry":{"type":"Point","coordinates":[-106.870888,39.250318]}},{"properties":{"city":"Englewood","geo_score":0.902,"type":"Slate","full address":"1 Cantitoe Lane, Englewood CO","color":"Custom Blend Slate Gray","id":"a6k57i019yis","geo_precision":"range","address":"1 Cantitoe Lane"},"type":"Feature","geometry":{"type":"Point","coordinates":[-104.92734,39.632788]}},{"properties":{"city":"Arapahoe County","geo_score":0.571,"type":"Slate","full address":"The Preserve Pool House, Arapahoe County CO","color":"Custom Blend Slate Gray, Green","id":"a6k57hw9p1xh","geo_precision":"street","address":"The Preserve Pool House"},"type":"Feature","geometry":{"type":"Point","coordinates":[-105.059844,38.946372]}},{"properties":{"city":"Aspen","geo_score":0.686,"type":"Slate","full address":"1054 S. Starwood Drive, Aspen CO","color":"Custom Blend Slate Gray, Green","id":"a6k57i6cn5ap","geo_precision":"street","address":"1054 S. Starwood Drive"},"type":"Feature","geometry":{"type":"Point","coordinates":[-106.845381,39.227489]}},{"properties":{"city":"Tabernash","geo_score":0.439,"type":"Slate","full address":"19982 County Rd. 50, Tabernash CO","color":"Custom Blend Slate Gray, Green","id":"a6k57hud3jxs","geo_precision":"street","address":"19982 County Rd. 50"},"type":"Feature","geometry":{"type":"Point","coordinates":[-105.513421,39.802324]}},{"properties":{"city":"Aspen","geo_score":0.505,"type":"Slate","full address":"421 Willoughby Way, Aspen CO","color":"Custom Blend Slate Gray, Green, Brown","id":"a6k57i5vuckx","geo_precision":"city","address":"421 Willoughby Way"},"type":"Feature","geometry":{"type":"Point","coordinates":[-106.776744,39.169324]}},{"properties":{"city":"Aspen","geo_score":0.873,"type":"Slate","full address":"456 Kessler Drive, Aspen CO","color":"Custom Blend Slate Green","id":"a6k57htziw8g","geo_precision":"range","address":"456 Kessler Drive"},"type":"Feature","geometry":{"type":"Point","coordinates":[-106.852519,39.245426]}},{"properties":{"city":"Castle Pines","geo_score":0.0,"type":"Slate","full address":"389 Castle Pines Drive South, Castle Pines CO","color":"Custom Blend Slate Mountain","id":"a6k57i4gqstp","geo_precision":"unmatched","address":"389 Castle Pines Drive South"},"type":"Feature","geometry":null},{"properties":{"city":"Greenwood Village","geo_score":0.708,"type":"Slate","full address":"5301 S. University Blvd, Greenwood Village CO","color":"Custom Blend Slate Tan","id":"a6k57i4caxv7","geo_precision":"street","address":"5301 S. University Blvd"},"type":"Feature","geometry":{"type":"Point","coordinates":[-104.959683,39.633081]}},{"properties":{"city":"Cherry Hills Village","geo_score":0.805,"type":"Slate","full address":"6 Carriage Lane, Cherry Hills Village  CO","color":"Custom Blend Slate Tan, Gray","id":"a6k57i1hulw1","geo_precision":"range","address":"6 Carriage Lane"},"type":"Feature","geometry":{"type":"Point","coordinates":[-104.932368,39.626812]}},{"properties":{"city":"Aspen","geo_score":0.474,"type":"Slate","full address":"17 Homes at 565 Race Street, Aspen CO","color":"Custom Blend Slate Weathered Green","id":"a6k57hza55g7","geo_precision":"street","address":"17 Homes at 565 Race Street"},"type":"Feature","geometry":{"type":"Point","coordinates":[-106.812767,39.192814]}},{"properties":{"city":"Aspen","geo_score":0.681,"type":"Slate","full address":"150 Larson Drive, Aspen CO","color":"Custom Blend Slate Weathered Green","id":"a6k57hyh3r0g","geo_precision":"street","address":"150 Larson Drive"},"type":"Feature","geometry":{"type":"Point","coordinates":[-106.841232,39.223482]}},{"properties":{"city":"Snowmass","geo_score":0.902,"type":"Slate","full address":"7508 Capitol Creek Road, Snowmass CO","color":"Custom Blend Slate Weathered Green","id":"a6k57huszms7","geo_precision":"range","address":"7508 Capitol Creek Road"},"type":"Feature","geometry":{"type":"Point","coordinates":[-107.061421,39.239253]}},{"properties":{"city":"Fort Collins","geo_score":0.902,"type":"Slate","full address":"5100 Abbey Road, Fort Collins CO","color":"Custom Blend-Light Brown Slate","id":"a6k57i2m3fyo","geo_precision":"range","address":"5100 Abbey Road"},"type":"Feature","geometry":{"type":"Point","coordinates":[-105.089971,40.515791]}},{"properties":{"city":"Evergreen","geo_score":0.902,"type":"Slate","full address":"34507 Squaw Pass Road, Evergreen CO","color":"Darkstone","id":"a6k57i2zaemn","geo_precision":"range","address":"34507 Squaw Pass Road"},"type":"Feature","geometry":{"type":"Point","coordinates":[-105.394764,39.684697]}},{"properties":{"city":"Denver","geo_score":0.902,"type":"Slate","full address":"400 Cook Street, Denver CO","color":"European","id":"a6k57huue0pw","geo_precision":"range","address":"400 Cook Street"},"type":"Feature","geometry":{"type":"Point","coordinates":[-104.947379,39.72412]}},{"properties":{"city":"Arvada","geo_score":0.902,"type":"Slate","full address":"5611 Kendall Court, Arvada CO","color":"European","id":"a6k57i6e4l69","geo_precision":"range","address":"5611 Kendall Court"},"type":"Feature","geometry":{"type":"Point","coordinates":[-105.066064,39.799544]}},{"properties":{"city":"Aspen","geo_score":0.504,"type":"Slate","full address":"1033 Willoughby Lane, Aspen CO","color":"European","id":"a6k57hupn39z","geo_precision":"city","address":"1033 Willoughby Lane"},"type":"Feature","geometry":{"type":"Point","coordinates":[-106.776744,39.169324]}},{"properties":{"city":"Aspen","geo_score":0.709,"type":"Slate","full address":"1400 Owl Creek Ranch Road, Aspen CO","color":"European","id":"a6k57hyxhi1a","geo_precision":"street","address":"1400 Owl Creek Ranch Road"},"type":"Feature","geometry":{"type":"Point","coordinates":[-106.890513,39.217164]}},{"properties":{"city":"Aspen","geo_score":0.848,"type":"Slate","full address":"151 Herron Hollow, Aspen CO","color":"European","id":"a6k57i3whkb9","geo_precision":"range","address":"151 Herron Hollow"},"type":"Feature","geometry":{"type":"Point","coordinates":[-106.829643,39.206146]}},{"properties":{"city":"Aspen","geo_score":0.708,"type":"Slate","full address":"250 Shady Lane, Aspen CO","color":"European","id":"a6k57hzbpzi1","geo_precision":"street","address":"250 Shady Lane"},"type":"Feature","geometry":{"type":"Point","coordinates":[-106.818547,39.19635]}},{"properties":{"city":"Aspen","geo_score":0.861,"type":"Slate","full address":"600 Eagle Mount Drive, Aspen CO","color":"European","id":"a6k57huhs5ab","geo_precision":"range","address":"600 Eagle Mount Drive"},"type":"Feature","geometry":{"type":"Point","coordinates":[-106.832498,39.127083]}},{"properties":{"city":"Breckenridge","geo_score":0.408,"type":"Slate","full address":"108 Preston Way, Breckenridge CO","color":"European","id":"a6k57i0bf295","geo_precision":"street","address":"108 Preston Way"},"type":"Feature","geometry":{"type":"Point","coordinates":[-105.271619,39.506426]}},{"properties":{"city":"Carbondale","geo_score":0.504,"type":"Slate","full address":"160 River Glen Road, Carbondale CO","color":"European","id":"a6k57i3pu0bt","geo_precision":"street","address":"160 River Glen Road"},"type":"Feature","geometry":{"type":"Point","coordinates":[-106.372018,39.645295]}},{"properties":{"city":"Cordillera","geo_score":0.0,"type":"Slate","full address":"0319 Renalta Glenn, Cordillera CO","color":"European","id":"a6k57i0ta4ha","geo_precision":"unmatched","address":"0319 Renalta Glenn"},"type":"Feature","geometry":null},{"properties":{"city":"Greenwood Village","geo_score":0.805,"type":"Slate","full address":"6 Greenridge Road, Greenwood Village CO","color":"European","id":"a6k57hwof86l","geo_precision":"range","address":"6 Greenridge Road"},"type":"Feature","geometry":{"type":"Point","coordinates":[-104.919107,39.621284]}},{"properties":{"city":"Lakewood","geo_score":0.518,"type":"Slate","full address":"9501 W Colfax, Lakewood CO","color":"European","id":"a6k57i5snjqc","geo_precision":"city","address":"9501 W Colfax"},"type":"Feature","geometry":{"type":"Point","coordinates":[-105.081373,39.70471]}},{"properties":{"city":"Littleton","geo_score":0.502,"type":"Slate","full address":"22 Red Fox Lane, Littleton CO","color":"European","id":"a6k57hs8ry8r","geo_precision":"street","address":"22 Red Fox Lane"},"type":"Feature","geometry":{"type":"Point","coordinates":[-105.075331,39.602081]}},{"properties":{"city":"Littleton","geo_score":0.902,"type":"Slate","full address":"5021 W Portland Drive, Littleton CO","color":"European","id":"a6k57i05rwq1","geo_precision":"range","address":"5021 W Portland Drive"},"type":"Feature","geometry":{"type":"Point","coordinates":[-105.054194,39.590176]}},{"properties":{"city":"Loveland","geo_score":0.709,"type":"Slate","full address":"5585 Cedar Valley Drive, Loveland CO","color":"European","id":"a6k57hzz1j3b","geo_precision":"street","address":"5585 Cedar Valley Drive"},"type":"Feature","geometry":{"type":"Point","coordinates":[-105.151021,40.401281]}},{"properties":{"city":"New Castle","geo_score":0.902,"type":"Slate","full address":"3901 County Road 241, New Castle CO","color":"European","id":"a6k57i37562b","geo_precision":"range","address":"3901 County Road 241"},"type":"Feature","geometry":{"type":"Point","coordinates":[-107.540641,39.628543]}},{"properties":{"city":"Aspen","geo_score":0.504,"type":"Slate","full address":"0711 Willoughby Road, Aspen CO","color":"Evergreen","id":"a6k57i2nmhwn","geo_precision":"city","address":"0711 Willoughby Road"},"type":"Feature","geometry":{"type":"Point","coordinates":[-106.776744,39.169324]}},{"properties":{"city":"Aspen","geo_score":0.902,"type":"Slate","full address":"1518 W. Buttermilk Road, Aspen CO","color":"Evergreen","id":"a6k57i555w5o","geo_precision":"range","address":"1518 W. Buttermilk Road"},"type":"Feature","geometry":{"type":"Point","coordinates":[-106.871631,39.208096]}},{"properties":{"city":"Aspen","geo_score":0.722,"type":"Slate","full address":"560 Eppley St, Starwood, Aspen CO","color":"Evergreen","id":"a6k57i2prw2g","geo_precision":"range","address":"560 Eppley St, Starwood"},"type":"Feature","geometry":{"type":"Point","coordinates":[-106.845457,39.227548]}},{"properties":{"city":"Boulder","geo_score":0.886,"type":"Slate","full address":"5107 Sunshine Canyon Road, Boulder CO","color":"Evergreen","id":"a6k57i55tjt4","geo_precision":"range","address":"5107 Sunshine Canyon Road"},"type":"Feature","geometry":{"type":"Point","coordinates":[-105.346644,40.051185]}},{"properties":{"city":"Edwards","geo_score":0.902,"type":"Slate","full address":"57 Elk Place, Lake Creek, Edwards CO","color":"Evergreen","id":"a6k57i66h85o","geo_precision":"range","address":"57 Elk Place, Lake Creek"},"type":"Feature","geometry":{"type":"Point","coordinates":[-106.619879,39.614343]}},{"properties":{"city":"Durango","geo_score":0.747,"type":"Slate","full address":"144 Grouding Creek Road, Durango CO","color":"Gray","id":"a6k57hwuvufb","geo_precision":"range","address":"144 Grouding Creek Road"},"type":"Feature","geometry":{"type":"Point","coordinates":[-107.553011,37.446666]}},{"properties":{"city":"Vail","geo_score":0.902,"type":"Slate","full address":"303 Gore Creek Drive, Vail CO","color":"Gray","id":"a6k57htmjki7","geo_precision":"range","address":"303 Gore Creek Drive"},"type":"Feature","geometry":{"type":"Point","coordinates":[-106.373018,39.640713]}},{"properties":{"city":"Denver","geo_score":0.902,"type":"Slate","full address":"456 Emerson Street, Denver CO","color":"New Cedar","id":"a6k57i3n2epz","geo_precision":"range","address":"456 Emerson Street"},"type":"Feature","geometry":{"type":"Point","coordinates":[-104.976315,39.723167]}},{"properties":{"city":"Arvada","geo_score":0.837,"type":"Slate","full address":"13854 W 58th Place, Arvada CO","color":"Slate Black","id":"a6k57i7f7xma","geo_precision":"range","address":"13854 W 58th Place"},"type":"Feature","geometry":{"type":"Point","coordinates":[-105.154666,39.802856]}},{"properties":{"city":"Aspen","geo_score":0.708,"type":"Slate","full address":"1113 Mountain Laurel Ct., Aspen CO","color":"Slate Black","id":"a6k57hvmljxk","geo_precision":"street","address":"1113 Mountain Laurel Ct."},"type":"Feature","geometry":{"type":"Point","coordinates":[-106.79772,39.180053]}},{"properties":{"city":"Aspen","geo_score":0.902,"type":"Slate","full address":"120 W Francis Street, Aspen CO","color":"Slate Black","id":"a6k57htrnzav","geo_precision":"range","address":"120 W Francis Street"},"type":"Feature","geometry":{"type":"Point","coordinates":[-106.82295,39.194069]}},{"properties":{"city":"Aspen","geo_score":0.506,"type":"Slate","full address":"1540 Tiehack Road, Aspen CO","color":"Slate Black","id":"a6k57hzt8cj3","geo_precision":"city","address":"1540 Tiehack Road"},"type":"Feature","geometry":{"type":"Point","coordinates":[-106.776744,39.169324]}},{"properties":{"city":"Aspen","geo_score":0.767,"type":"Slate","full address":"210 Hopkins, Aspen CO","color":"Slate Black","id":"a6k57i1p8j2u","geo_precision":"range","address":"210 Hopkins"},"type":"Feature","geometry":{"type":"Point","coordinates":[-106.825362,39.191138]}},{"properties":{"city":"Aspen","geo_score":0.767,"type":"Slate","full address":"218 Hopkins, Aspen CO","color":"Slate Black","id":"a6k57i8fygt2","geo_precision":"range","address":"218 Hopkins"},"type":"Feature","geometry":{"type":"Point","coordinates":[-106.825242,39.191118]}},{"properties":{"city":"Aspen","geo_score":0.546,"type":"Slate","full address":"2250 Maroon Creek Ranch, Aspen CO","color":"Slate Black","id":"a6k57hvosn48","geo_precision":"street","address":"2250 Maroon Creek Ranch"},"type":"Feature","geometry":{"type":"Point","coordinates":[-106.864285,39.178453]}},{"properties":{"city":"Aspen","geo_score":0.805,"type":"Slate","full address":"415 Lacet Way, Aspen CO","color":"Slate Black","id":"a6k57i86mc92","geo_precision":"range","address":"415 Lacet Way"},"type":"Feature","geometry":{"type":"Point","coordinates":[-106.809576,39.185856]}},{"properties":{"city":"Aspen","geo_score":0.536,"type":"Slate","full address":"Five Trees, Aspen CO","color":"Slate Black","id":"a6k57i241ok8","geo_precision":"street","address":"Five Trees"},"type":"Feature","geometry":{"type":"Point","coordinates":[-106.82873,39.192637]}},{"properties":{"city":"Breckenridge","geo_score":0.447,"type":"Slate","full address":"9022 Coyne Valley Road, Breckenridge CO","color":"Slate Black","id":"a6k57ht5w6wb","geo_precision":"street","address":"9022 Coyne Valley Road"},"type":"Feature","geometry":{"type":"Point","coordinates":[-105.271619,39.506426]}},{"properties":{"city":"Carbondale","geo_score":0.902,"type":"Slate","full address":"16478 Highway 82, Carbondale CO","color":"Slate Black","id":"a6k57hy8qt7p","geo_precision":"range","address":"16478 Highway 82"},"type":"Feature","geometry":{"type":"Point","coordinates":[-107.137035,39.405633]}},{"properties":{"city":"Denver","geo_score":0.902,"type":"Slate","full address":"2233 S. Madison Street, Denver CO","color":"Slate Black","id":"a6k57i0p2msp","geo_precision":"range","address":"2233 S. Madison Street"},"type":"Feature","geometry":{"type":"Point","coordinates":[-104.946647,39.675407]}},{"properties":{"city":"Denver","geo_score":0.902,"type":"Slate","full address":"3 Polo Field Lane, Denver CO","color":"Slate Black","id":"a6k57hsys5bh","geo_precision":"range","address":"3 Polo Field Lane"},"type":"Feature","geometry":{"type":"Point","coordinates":[-104.955453,39.709915]}},{"properties":{"city":"Denver","geo_score":0.635,"type":"Slate","full address":"3714 S Niagra Drive, Denver CO","color":"Slate Black","id":"a6k57hs83h72","geo_precision":"street","address":"3714 S Niagra Drive"},"type":"Feature","geometry":{"type":"Point","coordinates":[-104.909747,39.658159]}},{"properties":{"city":"Denver","geo_score":0.88,"type":"Slate","full address":"3714 S. Niagra Way, Denver CO","color":"Slate Black","id":"a6k57i4jg18s","geo_precision":"range","address":"3714 S. Niagra Way"},"type":"Feature","geometry":{"type":"Point","coordinates":[-104.910218,39.648968]}},{"properties":{"city":"Denver","geo_score":0.671,"type":"Slate","full address":"9808 Bonny Brae Blvd., Denver CO","color":"Slate Black","id":"a6k57i88zc83","geo_precision":"street","address":"9808 Bonny Brae Blvd."},"type":"Feature","geometry":{"type":"Point","coordinates":[-104.951382,39.697487]}},{"properties":{"city":"Eagle","geo_score":0.707,"type":"Slate","full address":"3241 Castle Peak Ranch Road, Eagle CO","color":"Slate Black","id":"a6k57hzh53mz","geo_precision":"street","address":"3241 Castle Peak Ranch Road"},"type":"Feature","geometry":{"type":"Point","coordinates":[-106.806871,39.685036]}},{"properties":{"city":"Englewood","geo_score":0.863,"type":"Slate","full address":"3350 S. Columbine Circle, Englewood CO","color":"Slate Black","id":"a6k57i3dbova","geo_precision":"range","address":"3350 S. Columbine Circle"},"type":"Feature","geometry":{"type":"Point","coordinates":[-104.958361,39.655195]}},{"properties":{"city":"Tabernash","geo_score":0.746,"type":"Slate","full address":"1474 W. County Road 57, Tabernash CO","color":"Slate Black","id":"a6k57i82dmp1","geo_precision":"range","address":"1474 W. County Road 57"},"type":"Feature","geometry":{"type":"Point","coordinates":[-105.987045,40.096014]}},{"properties":{"city":"Telluride","geo_score":0.514,"type":"Slate","full address":"Lot 1, Sunnyside Ranch Road, Telluride CO","color":"Slate Black","id":"a6k57i6ony4n","geo_precision":"street","address":"Lot 1, Sunnyside Ranch Road"},"type":"Feature","geometry":{"type":"Point","coordinates":[-107.878514,37.926242]}},{"properties":{"city":"Vail","geo_score":0.902,"type":"Slate","full address":"2270 Alpine Drive, Vail CO","color":"Slate Black","id":"a6k57i1yjnuj","geo_precision":"range","address":"2270 Alpine Drive"},"type":"Feature","geometry":{"type":"Point","coordinates":[-106.410354,39.629517]}},{"properties":{"city":"Vail","geo_score":0.708,"type":"Slate","full address":"3021 Katsos Ranch Road, Vail CO","color":"Slate Black","id":"a6k57i7w7k1v","geo_precision":"street","address":"3021 Katsos Ranch Road"},"type":"Feature","geometry":{"type":"Point","coordinates":[-106.318006,39.648734]}},{"properties":{"city":"Arvada","geo_score":0.837,"type":"Slate","full address":"12027 W. 54th Drive, Arvada CO","color":"Slate Gray","id":"a6k57huqb4ig","geo_precision":"range","address":"12027 W. 54th Drive"},"type":"Feature","geometry":{"type":"Point","coordinates":[-105.133523,39.79555]}},{"properties":{"city":"Arvada","geo_score":0.837,"type":"Slate","full address":"13727 W 59th Place, Arvada CO","color":"Slate Gray","id":"a6k57hxcyql2","geo_precision":"range","address":"13727 W 59th Place"},"type":"Feature","geometry":{"type":"Point","coordinates":[-105.156091,39.80485]}},{"properties":{"city":"Aspen","geo_score":0.902,"type":"Slate","full address":"111 Park Avenue, Aspen CO","color":"Slate Gray","id":"a6k57i5dblpj","geo_precision":"range","address":"111 Park Avenue"},"type":"Feature","geometry":{"type":"Point","coordinates":[-106.810186,39.186689]}},{"properties":{"city":"Aspen","geo_score":0.902,"type":"Slate","full address":"115 Park Avenue, Aspen CO","color":"Slate Gray","id":"a6k57hwquodo","geo_precision":"range","address":"115 Park Avenue"},"type":"Feature","geometry":{"type":"Point","coordinates":[-106.810194,39.186869]}},{"properties":{"city":"Aspen","geo_score":0.488,"type":"Slate","full address":"1200 Tiehack Way, Lot 7, Aspen CO","color":"Slate Gray","id":"a6k57i061lol","geo_precision":"street","address":"1200 Tiehack Way, Lot 7"},"type":"Feature","geometry":{"type":"Point","coordinates":[-106.830547,39.194736]}},{"properties":{"city":"Aspen","geo_score":0.88,"type":"Slate","full address":"1395 Snowbunny Lane, Aspen CO","color":"Slate Gray","id":"a6k57hvcn7ai","geo_precision":"range","address":"1395 Snowbunny Lane"},"type":"Feature","geometry":{"type":"Point","coordinates":[-106.836686,39.203171]}},{"properties":{"city":"Aspen","geo_score":0.505,"type":"Slate","full address":"1500 W. Tiehack Road, Aspen CO","color":"Slate Gray","id":"a6k57hyqbh8y","geo_precision":"city","address":"1500 W. Tiehack Road"},"type":"Feature","geometry":{"type":"Point","coordinates":[-106.776744,39.169324]}},{"properties":{"city":"Aspen","geo_score":0.829,"type":"Slate","full address":"205 North 6th Street , Aspen CO","color":"Slate Gray","id":"a6k57hy0onuc","geo_precision":"range","address":"205 North 6th Street"},"type":"Feature","geometry":{"type":"Point","coordinates":[-106.82958,39.194071]}},{"properties":{"city":"Aspen","geo_score":0.732,"type":"Slate","full address":"209 AABC Suite C, Aspen CO","color":"Slate Gray","id":"a6k57hxc9fpg","geo_precision":"range","address":"209 AABC Suite C"},"type":"Feature","geometry":{"type":"Point","coordinates":[-106.858327,39.219631]}},{"properties":{"city":"Aspen","geo_score":0.829,"type":"Slate","full address":"210 S 7th Street, Aspen CO","color":"Slate Gray","id":"a6k57i1flwtz","geo_precision":"range","address":"210 S 7th Street"},"type":"Feature","geometry":{"type":"Point","coordinates":[-106.831354,39.192234]}},{"properties":{"city":"Aspen","geo_score":0.873,"type":"Slate","full address":"215 N. Starwood, Aspen CO","color":"Slate Gray","id":"a6k57hww03cl","geo_precision":"range","address":"215 N. Starwood"},"type":"Feature","geometry":{"type":"Point","coordinates":[-106.845846,39.227428]}},{"properties":{"city":"Aspen","geo_score":0.504,"type":"Slate","full address":"35 Widget Street, #502, Aspen CO","color":"Slate Gray","id":"a6k57i2xfyxw","geo_precision":"city","address":"35 Widget Street, #502"},"type":"Feature","geometry":{"type":"Point","coordinates":[-106.776744,39.169324]}},{"properties":{"city":"Aspen","geo_score":0.844,"type":"Slate","full address":"922 Castle Creek, Aspen CO","color":"Slate Gray","id":"a6k57i5va5rs","geo_precision":"range","address":"922 Castle Creek"},"type":"Feature","geometry":{"type":"Point","coordinates":[-106.83702,39.182737]}},{"properties":{"city":"Boulder","geo_score":0.902,"type":"Slate","full address":"2280 Kohler Drive, Boulder CO","color":"Slate Gray","id":"a6k57i7sqekm","geo_precision":"range","address":"2280 Kohler Drive"},"type":"Feature","geometry":{"type":"Point","coordinates":[-105.262761,39.986319]}},{"properties":{"city":"Breckenridge","geo_score":0.447,"type":"Slate","full address":"658 River Bank Drive, Breckenridge CO","color":"Slate Gray","id":"a6k57hzgim34","geo_precision":"street","address":"658 River Bank Drive"},"type":"Feature","geometry":{"type":"Point","coordinates":[-105.271619,39.506426]}},{"properties":{"city":"Carbondale","geo_score":0.707,"type":"Slate","full address":"5342 Highway 133, Carbondale CO","color":"Slate Gray","id":"a6k57huqtd09","geo_precision":"street","address":"5342 Highway 133"},"type":"Feature","geometry":{"type":"Point","coordinates":[-107.203223,39.365987]}},{"properties":{"city":"Centennial","geo_score":0.707,"type":"Slate","full address":"6446 S Netherland Way, Centennial CO","color":"Slate Gray","id":"a6k57i3jdzdn","geo_precision":"street","address":"6446 S Netherland Way"},"type":"Feature","geometry":{"type":"Point","coordinates":[-104.740138,39.620377]}},{"properties":{"city":"Colorado Springs","geo_score":0.709,"type":"Slate","full address":"4325 South Club Drive, Colorado Springs CO","color":"Slate Gray","id":"a6k57i3ajlmi","geo_precision":"street","address":"4325 South Club Drive"},"type":"Feature","geometry":{"type":"Point","coordinates":[-104.844879,38.774205]}},{"properties":{"city":"Cordillera","geo_score":0.0,"type":"Slate","full address":"2411 Fenno Drive, Cordillera CO","color":"Slate Gray","id":"a6k57i33nwgh","geo_precision":"unmatched","address":"2411 Fenno Drive"},"type":"Feature","geometry":null},{"properties":{"city":"Cordillera","geo_score":0.0,"type":"Slate","full address":"950 Cordillera Way, Cordillera CO","color":"Slate Gray","id":"a6k57i3nt3af","geo_precision":"unmatched","address":"950 Cordillera Way"},"type":"Feature","geometry":null},{"properties":{"city":"Denver","geo_score":0.902,"type":"Slate","full address":"205 Jasmine Street, Denver CO","color":"Slate Gray","id":"a6k57htlx362","geo_precision":"range","address":"205 Jasmine Street"},"type":"Feature","geometry":{"type":"Point","coordinates":[-104.918374,39.71954]}},{"properties":{"city":"Denver","geo_score":0.902,"type":"Slate","full address":"3520 Newton Street, 38th and Federal, Denver CO","color":"Slate Gray","id":"a6k57i47c1g2","geo_precision":"range","address":"3520 Newton Street, 38th and Federal"},"type":"Feature","geometry":{"type":"Point","coordinates":[-105.036895,39.767466]}},{"properties":{"city":"Denver","geo_score":0.902,"type":"Slate","full address":"4535 Montview Blvd., Denver CO","color":"Slate Gray","id":"a6k57i8gmsf2","geo_precision":"range","address":"4535 Montview Blvd."},"type":"Feature","geometry":{"type":"Point","coordinates":[-104.934293,39.747473]}},{"properties":{"city":"Edwards","geo_score":0.793,"type":"Slate","full address":"34965 Hwy 6, Unit 2, Edwards CO","color":"Slate Gray","id":"a6k57ht1nsbl","geo_precision":"range","address":"34965 Hwy 6, Unit 2"},"type":"Feature","geometry":{"type":"Point","coordinates":[-106.58284,39.638781]}},{"properties":{"city":"Evergreen","geo_score":0.488,"type":"Slate","full address":"600 Chateau V Road, Evergreen CO","color":"Slate Gray","id":"a6k57hxjmklt","geo_precision":"street","address":"600 Chateau V Road"},"type":"Feature","geometry":{"type":"Point","coordinates":[-105.298523,39.656369]}},{"properties":{"city":"Golden","geo_score":0.902,"type":"Slate","full address":"15988 W Ellsworth Drive, Golden CO","color":"Slate Gray","id":"a6k57hwjcksa","geo_precision":"range","address":"15988 W Ellsworth Drive"},"type":"Feature","geometry":{"type":"Point","coordinates":[-105.180249,39.715606]}},{"properties":{"city":"Grand Junction","geo_score":0.902,"type":"Slate","full address":"2020 Baseline Drive, Grand Junction CO","color":"Slate Gray","id":"a6k57i83os0j","geo_precision":"range","address":"2020 Baseline Drive"},"type":"Feature","geometry":{"type":"Point","coordinates":[-108.679763,39.105805]}},{"properties":{"city":"Greenwood Village","geo_score":0.805,"type":"Slate","full address":"7 Windover Rd, Greenwood Village CO","color":"Slate Gray","id":"a6k57hzpujr9","geo_precision":"range","address":"7 Windover Rd"},"type":"Feature","geometry":{"type":"Point","coordinates":[-104.97605,39.619428]}},{"properties":{"city":"Lakewood","geo_score":0.708,"type":"Slate","full address":"305 Carr Street, Lakewood CO","color":"Slate Gray","id":"a6k57i5tolji","geo_precision":"street","address":"305 Carr Street"},"type":"Feature","geometry":{"type":"Point","coordinates":[-105.090872,39.725314]}},{"properties":{"city":"Old Snowmass","geo_score":0.632,"type":"Slate","full address":"2500 Capital Creek Road, Old Snowmass CO","color":"Slate Gray","id":"a6k57htkyys5","geo_precision":"range","address":"2500 Capital Creek Road"},"type":"Feature","geometry":{"type":"Point","coordinates":[-106.994236,39.300155]}},{"properties":{"city":"Pueblo","geo_score":0.686,"type":"Slate","full address":"Pueblo CO Train Depot - 132 West B St, Pueblo CO","color":"Slate Gray","id":"a6k57i1sfftg","geo_precision":"street","address":"Pueblo CO Train Depot - 132 West B St"},"type":"Feature","geometry":{"type":"Point","coordinates":[-104.615961,38.262468]}},{"properties":{"city":"Snowmass Village","geo_score":0.902,"type":"Slate","full address":"340 Divide Drive, Snowmass Village CO","color":"Slate Gray","id":"a6k57hu51398","geo_precision":"range","address":"340 Divide Drive"},"type":"Feature","geometry":{"type":"Point","coordinates":[-106.969789,39.204878]}},{"properties":{"city":"Vail","geo_score":0.902,"type":"Slate","full address":"1944 Sunburst Drive, Vail CO","color":"Slate Gray","id":"a6k57hvjb0ja","geo_precision":"range","address":"1944 Sunburst Drive"},"type":"Feature","geometry":{"type":"Point","coordinates":[-106.34153,39.64184]}},{"properties":{"city":"Winter Park","geo_score":0.472,"type":"Slate","full address":"153 County Road 711, Winter Park CO","color":"Slate Gray","id":"a6k57hz2vpdf","geo_precision":"street","address":"153 County Road 711"},"type":"Feature","geometry":{"type":"Point","coordinates":[-105.843797,40.249577]}},{"properties":{"city":"Aspen","geo_score":0.902,"type":"Slate","full address":"1001 Brush Creek Road, Aspen CO","color":"Tahoe Blend","id":"a6k57hws8chk","geo_precision":"range","address":"1001 Brush Creek Road"},"type":"Feature","geometry":{"type":"Point","coordinates":[-106.898385,39.238371]}},{"properties":{"city":"Golden","geo_score":0.902,"type":"Slate","full address":"22674 Anasazi Way, Golden CO","color":"Valore Slate Black","id":"a6k57i6a9f70","geo_precision":"range","address":"22674 Anasazi Way"},"type":"Feature","geometry":{"type":"Point","coordinates":[-105.251894,39.701172]}},{"properties":{"city":"Colorado Springs","geo_score":0.902,"type":"Slate","full address":"3630 Camels View, Colorado Springs CO","color":"Valore Slate Gray","id":"a6k57i5xb5a5","geo_precision":"range","address":"3630 Camels View"},"type":"Feature","geometry":{"type":"Point","coordinates":[-104.862905,38.88382]}},{"properties":{"city":"Lakewood","geo_score":0.708,"type":"Slate","full address":"305 Carr Street, Lakewood CO","color":"Valore Slate Gray","id":"a6k57ht1irqm","geo_precision":"street","address":"305 Carr Street"},"type":"Feature","geometry":{"type":"Point","coordinates":[-105.090872,39.725314]}},{"properties":{"city":"Winter Park","geo_score":0.472,"type":"Slate","full address":"153 County Road 711, Winter Park CO","color":"Valore Slate Gray","id":"a6k57hzfhrvs","geo_precision":"street","address":"153 County Road 711"},"type":"Feature","geometry":{"type":"Point","coordinates":[-105.843797,40.249577]}},{"properties":{"city":"Aspen","geo_score":0.509,"type":"Slate","full address":"144 Magnifico, Aspen CO","color":"Vineyard","id":"a6k57i1qmhtw","geo_precision":"city","address":"144 Magnifico"},"type":"Feature","geometry":{"type":"Point","coordinates":[-106.776744,39.169324]}},{"properties":{"city":"Fort Collins","geo_score":0.849,"type":"Slate","full address":"800 Pitkin Street, Fort Collins CO","color":"Vineyard","id":"a6k57hwmzm8k","geo_precision":"range","address":"800 Pitkin Street"},"type":"Feature","geometry":{"type":"Point","coordinates":[-105.064775,40.570855]}},{"properties":{"city":"Fort Collins","geo_score":0.468,"type":"Slate","full address":"CSU, Various Dormatories, 800 W Pitkin, Fort Collins CO","color":"Vineyard","id":"a6k57i51mqri","geo_precision":"street","address":"CSU, Various Dormatories, 800 W Pitkin"},"type":"Feature","geometry":{"type":"Point","coordinates":[-105.075637,40.570991]}},{"properties":{"city":"Lakewood","geo_score":0.87,"type":"Slate","full address":"2872 Xennon Street, Lakewood CO","color":"Vineyard","id":"a6k57hsnqa4v","geo_precision":"range","address":"2872 Xennon Street"},"type":"Feature","geometry":{"type":"Point","coordinates":[-105.140486,39.758103]}},{"properties":{"city":"Old Snowmass","geo_score":0.626,"type":"Slate","full address":"477 Elk Creek Drive, Old Snowmass CO","color":"Vineyard","id":"a6k57huk4ur8","geo_precision":"range","address":"477 Elk Creek Drive"},"type":"Feature","geometry":{"type":"Point","coordinates":[-107.013151,39.294159]}},{"properties":{"city":"Westminister","geo_score":0.616,"type":"Slate","full address":"2443 Country Club Loop, Westminister CO","color":"Vineyard","id":"a6k57hzmgn2d","geo_precision":"street","address":"2443 Country Club Loop"},"type":"Feature","geometry":{"type":"Point","coordinates":[-105.030744,39.830405]}},{"properties":{"city":"Niwot","geo_score":0.675,"type":"Slate","full address":"7431 73rd Street, Niwot CO","color":"Weatherd Green","id":"a6k57hz06pxy","geo_precision":"range","address":"7431 73rd Street"},"type":"Feature","geometry":{"type":"Point","coordinates":[-105.183311,40.112161]}},{"properties":{"city":"Arrowhead","geo_score":0.0,"type":"Slate","full address":"80 Ambleside, Arrowhead CO","color":"Weathered Green","id":"a6k57hu9x6t8","geo_precision":"unmatched","address":"80 Ambleside"},"type":"Feature","geometry":null},{"properties":{"city":"Aspen","geo_score":0.873,"type":"Slate","full address":"1200 Kessler Drive, Aspen CO","color":"Weathered Green","id":"a6k57i818pcq","geo_precision":"range","address":"1200 Kessler Drive"},"type":"Feature","geometry":{"type":"Point","coordinates":[-106.852571,39.245272]}},{"properties":{"city":"Aspen","geo_score":0.78,"type":"Slate","full address":"1990 McLain Flats Road, Aspen CO","color":"Weathered Green","id":"a6k57i5e76so","geo_precision":"range","address":"1990 McLain Flats Road"},"type":"Feature","geometry":{"type":"Point","coordinates":[-106.870974,39.250489]}},{"properties":{"city":"Aspen","geo_score":0.823,"type":"Slate","full address":"51 Westview, Aspen CO","color":"Weathered Green","id":"a6k57htk1dmw","geo_precision":"range","address":"51 Westview"},"type":"Feature","geometry":{"type":"Point","coordinates":[-106.803358,39.183712]}},{"properties":{"city":"Cherry Hills","geo_score":0.605,"type":"Slate","full address":"4350 S. Franklin, Cherry Hills CO","color":"Weathered Green","id":"a6k57i7i6vjh","geo_precision":"street","address":"4350 S. Franklin"},"type":"Feature","geometry":{"type":"Point","coordinates":[-104.969031,39.635044]}},{"properties":{"city":"Eagle","geo_score":0.598,"type":"Slate","full address":"21350 Hwy 6, Eagle CO","color":"Weathered Green","id":"a6k57i6aceks","geo_precision":"street","address":"21350 Hwy 6"},"type":"Feature","geometry":{"type":"Point","coordinates":[-106.844326,39.645807]}},{"properties":{"city":"Edwards","geo_score":0.659,"type":"Slate","full address":"34965 Hwy 6 Unit 1, Edwards CO","color":"Weathered Green","id":"a6k57ht5f21m","geo_precision":"range","address":"34965 Hwy 6 Unit 1"},"type":"Feature","geometry":{"type":"Point","coordinates":[-106.58284,39.638781]}},{"properties":{"city":"Golden","geo_score":0.902,"type":"Slate","full address":"759 Kachina Circle, Golden CO","color":"Weathered Green","id":"a6k57hxh5ls1","geo_precision":"range","address":"759 Kachina Circle"},"type":"Feature","geometry":{"type":"Point","coordinates":[-105.25463,39.701754]}},{"properties":{"city":"Longmont","geo_score":0.902,"type":"Slate","full address":"1254 Winslow Circle, Longmont CO","color":"Weathered Green","id":"a6k57i6ajb01","geo_precision":"range","address":"1254 Winslow Circle"},"type":"Feature","geometry":{"type":"Point","coordinates":[-105.072294,40.169313]}},{"properties":{"city":"Montrose","geo_score":0.902,"type":"Slate","full address":"62509 Hwy 90, Montrose CO","color":"Weathered Green","id":"a6k57hzqrght","geo_precision":"range","address":"62509 Hwy 90"},"type":"Feature","geometry":{"type":"Point","coordinates":[-107.921228,38.460284]}},{"properties":{"city":"Niwot","geo_score":0.74,"type":"Slate","full address":"7430 North 73rd Street, Niwot CO","color":"Weathered Green","id":"a6k57hxk2rmb","geo_precision":"range","address":"7430 North 73rd Street"},"type":"Feature","geometry":{"type":"Point","coordinates":[-105.183161,40.112163]}},{"properties":{"city":"Ridgway","geo_score":0.51,"type":"Slate","full address":"678 Catamount Drive, Ridgway CO","color":"Weathered Green","id":"a6k57hzey1q5","geo_precision":"city","address":"678 Catamount Drive"},"type":"Feature","geometry":{"type":"Point","coordinates":[-107.72736,38.177464]}},{"properties":{"city":"South Fork","geo_score":0.592,"type":"Slate","full address":"0174 Iron Bridge Place, South Fork CO","color":"Weathered Green","id":"a6k57hzlqy6x","geo_precision":"range","address":"0174 Iron Bridge Place"},"type":"Feature","geometry":{"type":"Point","coordinates":[-107.098499,37.252148]}},{"properties":{"city":"Steamboat Springs","geo_score":0.715,"type":"Slate","full address":"2860 Laurel Lane \"The Cliff House\", Steamboat Springs CO","color":"Weathered Green","id":"a6k57i4hui56","geo_precision":"range","address":"2860 Laurel Lane \"The Cliff House\""},"type":"Feature","geometry":{"type":"Point","coordinates":[-106.793879,40.449764]}},{"properties":{"city":"Vail","geo_score":0.902,"type":"Slate","full address":"2605 Davos Trail, Vail CO","color":"Weathered Green","id":"a6k57hypvxpo","geo_precision":"range","address":"2605 Davos Trail"},"type":"Feature","geometry":{"type":"Point","coordinates":[-106.42901,39.624721]}},{"properties":{"city":"Vail","geo_score":0.709,"type":"Slate","full address":"154 Beaver Dam Circle, Vail CO","color":"Slate Gray","id":"a6k57i4vrlnj","geo_precision":"street","address":"154 Beaver Dam Circle"},"type":"Feature","geometry":{"type":"Point","coordinates":[-106.384588,39.642204]}},{"properties":{"city":"Vail","geo_score":0.708,"type":"Slate","full address":"54 Beaver Dam Circle, Vail CO","color":"Aberdeen","id":"a6k57i2m9dtw","geo_precision":"street","address":"54 Beaver Dam Circle"},"type":"Feature","geometry":{"type":"Point","coordinates":[-106.384588,39.642204]}},{"properties":{"city":"Beaver Creek","geo_score":0.36,"type":"Slate","full address":"569 N. Holden Road, Beaver Creek CO","color":"Brownstone","id":"a6k57i3v3hr3","geo_precision":"street","address":"569 N. Holden Road"},"type":"Feature","geometry":{"type":"Point","coordinates":[-107.56978,40.485029]}},{"properties":{"city":"Avon","geo_score":0.805,"type":"Valore Shake","full address":"278 Windermere Circle, Avon CO","color":"Variblend Abruzzo Classic","id":"a6k57i85m4rt","geo_precision":"range","address":"278 Windermere Circle"},"type":"Feature","geometry":{"type":"Point","coordinates":[-106.566474,39.636061]}},{"properties":{"city":"Centennial","geo_score":0.601,"type":"Valore Shake","full address":"7983 S. Willow Court, Centennial CO","color":"Variblend Abruzzo Classic","id":"a6k57hs496s4","geo_precision":"street","address":"7983 S. Willow Court"},"type":"Feature","geometry":{"type":"Point","coordinates":[-105.070258,39.910779]}},{"properties":{"city":"Cherry Hills","geo_score":0.659,"type":"Valore Shake","full address":"49 Charlou Circle, Cherry Hills CO","color":"Variblend Abruzzo Classic","id":"a6k57hskq1v5","geo_precision":"range","address":"49 Charlou Circle"},"type":"Feature","geometry":{"type":"Point","coordinates":[-104.951901,39.630216]}},{"properties":{"city":"Colorado Springs","geo_score":0.812,"type":"Valore Shake","full address":"840 Gold Hills Road, Colorado Springs CO","color":"Variblend Espresso Classic","id":"a6k57hymtl7u","geo_precision":"range","address":"840 Gold Hills Road"},"type":"Feature","geometry":{"type":"Point","coordinates":[-104.782302,38.845369]}},{"properties":{"city":"Colorado Springs","geo_score":0.812,"type":"Valore Shake","full address":"840 Gold Hills Road, Colorado Springs CO","color":"Variblend Espresso Classic","id":"a6k57i05y866","geo_precision":"range","address":"840 Gold Hills Road"},"type":"Feature","geometry":{"type":"Point","coordinates":[-104.782302,38.845369]}},{"properties":{"city":"Edwards","geo_score":0.511,"type":"Valore Shake","full address":"37 Kimber Wick Way, Edwards CO","color":"Variblend Espresso Classic","id":"a6k57i1wiuxj","geo_precision":"city","address":"37 Kimber Wick Way"},"type":"Feature","geometry":{"type":"Point","coordinates":[-106.620644,39.638166]}},{"properties":{"city":"Edwards","geo_score":0.511,"type":"Valore Shake","full address":"37 Kimber Wick Way, Edwards CO","color":"Variblend Espresso Classic","id":"a6k57hs8v7z9","geo_precision":"city","address":"37 Kimber Wick Way"},"type":"Feature","geometry":{"type":"Point","coordinates":[-106.620644,39.638166]}},{"properties":{"city":"Boulder","geo_score":0.707,"type":"Valore Shake","full address":"1889 Spring Lane, Boulder CO","color":"Variblend Tuscano Classic","id":"a6k57i3p28ey","geo_precision":"street","address":"1889 Spring Lane"},"type":"Feature","geometry":{"type":"Point","coordinates":[-105.328605,40.079093]}},{"properties":{"city":"Boulder","geo_score":0.902,"type":"Valore Shake","full address":"189 Spring Lane, Boulder CO","color":"Variblend Tuscano Classic","id":"a6k57htvvtm4","geo_precision":"range","address":"189 Spring Lane"},"type":"Feature","geometry":{"type":"Point","coordinates":[-105.328898,40.078976]}},{"properties":{"city":"Beaver Creek","geo_score":0.381,"type":"Valore Slate","full address":"XL Energy Building , Beaver Creek CO","color":"FB 12\" Custom","id":"a6k57htaas2y","geo_precision":"street","address":"XL Energy Building"},"type":"Feature","geometry":{"type":"Point","coordinates":[-107.56854,40.48426]}},{"properties":{"city":"Arvada","geo_score":0.837,"type":"Valore Slate","full address":"15965 W 67th Place, Arvada CO","color":"Variblend Slate Black","id":"a6k57hu7wmlw","geo_precision":"range","address":"15965 W 67th Place"},"type":"Feature","geometry":{"type":"Point","coordinates":[-105.176456,39.81942]}},{"properties":{"city":"Fort Collins","geo_score":0.617,"type":"Valore Slate","full address":"Colorado State University, Fort Collins CO","color":"Vineyard Blend","id":"a6k57i8m9i8b","geo_precision":"street","address":"Colorado State University"},"type":"Feature","geometry":{"type":"Point","coordinates":[-105.063824,40.578711]}}],"is_temporal":false,"author":{"url":"","metadata":"","contact_name":"","contact_address":"","source":"","contact_phone":""},"source":"","pagination":{"sort":null,"start":0,"total":571,"limit":1000000},"state":"complete","tags":"","published":"2012-06-20T16:00:00Z","id":253605}