{"type":"FeatureCollection","data_type":"Dataset","url_type":null,"permissions":[{"permissions":{"download":true,"view":true},"group_id":"everyone"}],"classification":null,"title":"worker_coops_heatmap_file","count":19,"stream_id":254054,"contributor":{"url":"http://geocommons.com/users/4175","name":"moondream31"},"data_attributes":null,"calculation_params":null,"icon_link":null,"link":"http://geocommons.com/overlays/254054.json","extent":[-111.852,34.11,-4.23,51.3834],"geometry_types":["point"],"unique_name":null,"name":"worker_coops_heatmap_file","feature_count":19,"description":"","next_feature":null,"is_raster":false,"short_classification":"Y","stats":{"count":{"max":9,"variance":3.65497076023392,"mean":1.89473684210526,"stdev":1.91179778225468,"min":1,"median":1}},"features":[{"properties":{"city":"Asbury Park","country":"USA","geo_score":0.0,"count":1,"id":"a6kpr3bylpt2","geo_precision":"unmatched","state":"NJ"},"type":"Feature","geometry":null},{"properties":{"city":"Anburn Hills","country":"USA","geo_score":0.0,"count":1,"id":"a6kpr3maxt35","geo_precision":"unmatched","state":"MI"},"type":"Feature","geometry":null},{"properties":{"city":"Boston","country":"USA","geo_score":0.857,"count":4,"id":"a6kpr3dybu50","geo_precision":"zip","state":"MA"},"type":"Feature","geometry":{"type":"Point","coordinates":[-4.23,34.11]}},{"properties":{"city":"Chicago","country":"USA","geo_score":0.0,"count":2,"id":"a6kpr3ghqo8q","geo_precision":"unmatched","state":"IL"},"type":"Feature","geometry":null},{"properties":{"city":"Concord","country":"USA","geo_score":0.857,"count":1,"id":"a6kpr3qaa407","geo_precision":"zip","state":"CA"},"type":"Feature","geometry":{"type":"Point","coordinates":[-79.482908819,43.800112901]}},{"properties":{"city":"Denver","country":"USA","geo_score":0.0,"count":1,"id":"a6kpr3ddhgnk","geo_precision":"unmatched","state":"CO"},"type":"Feature","geometry":null},{"properties":{"city":"Hempstead","country":"USA","geo_score":0.0,"count":2,"id":"a6kpr3m50r85","geo_precision":"unmatched","state":"NY"},"type":"Feature","geometry":null},{"properties":{"city":"Hendersonville","country":"USA","geo_score":0.0,"count":1,"id":"a6kpr3lr6fje","geo_precision":"unmatched","state":"NC"},"type":"Feature","geometry":null},{"properties":{"city":"Los Altos","country":"USA","geo_score":0.857,"count":1,"id":"a6kpr3lr0gd1","geo_precision":"zip","state":"CA"},"type":"Feature","geometry":{"type":"Point","coordinates":[-73.734174418,46.256476309]}},{"properties":{"city":"Morgan Hills","country":"USA","geo_score":0.857,"count":1,"id":"a6kpr3h2z9ee","geo_precision":"zip","state":"CA"},"type":"Feature","geometry":{"type":"Point","coordinates":[-83.166488288,47.716815065]}},{"properties":{"city":"Morganton","country":"USA","geo_score":0.0,"count":1,"id":"a6kpr3rtjyea","geo_precision":"unmatched","state":"NC"},"type":"Feature","geometry":null},{"properties":{"city":"New York","country":"USA","geo_score":0.0,"count":9,"id":"a6kpr3phfbr7","geo_precision":"unmatched","state":"NY"},"type":"Feature","geometry":null},{"properties":{"city":"Oakland","country":"USA","geo_score":0.857,"count":2,"id":"a6kpr3pxf3zw","geo_precision":"zip","state":"CA"},"type":"Feature","geometry":{"type":"Point","coordinates":[-111.851794128,51.383417908]}},{"properties":{"city":"Pasadena","country":"USA","geo_score":0.857,"count":1,"id":"a6kpr3idhrt9","geo_precision":"zip","state":"CA"},"type":"Feature","geometry":{"type":"Point","coordinates":[-57.598368708,49.016714544]}},{"properties":{"city":"Providence","country":"USA","geo_score":0.0,"count":1,"id":"a6kpr3r0ze4r","geo_precision":"unmatched","state":"RI"},"type":"Feature","geometry":null},{"properties":{"city":"Raleigh","country":"USA","geo_score":0.0,"count":2,"id":"a6kpr3bjluil","geo_precision":"unmatched","state":"NC"},"type":"Feature","geometry":null},{"properties":{"city":"Red Wood City","country":"USA","geo_score":0.857,"count":1,"id":"a6kpr3lnkhli","geo_precision":"zip","state":"CA"},"type":"Feature","geometry":{"type":"Point","coordinates":[-104.367781471,50.433379972]}},{"properties":{"city":"San Francisco","country":"USA","geo_score":0.857,"count":3,"id":"a6kpr3gia4ya","geo_precision":"zip","state":"CA"},"type":"Feature","geometry":{"type":"Point","coordinates":[-80.466445516,48.350174128]}},{"properties":{"city":"Washington DC","country":"USA","geo_score":0.0,"count":1,"id":"a6kpr3g26ps5","geo_precision":"unmatched","state":"DC"},"type":"Feature","geometry":null}],"is_temporal":false,"author":{"url":"","metadata":null,"contact_name":null,"contact_address":null,"source":null,"contact_phone":null},"source":"","pagination":{"sort":null,"start":0,"total":19,"limit":1000000},"state":"complete","tags":"","published":"2014-08-14T20:17:04-04:00","id":254054}