{"type":"FeatureCollection","data_type":"Dataset","url_type":null,"permissions":[{"permissions":{"download":true,"view":true},"group_id":"everyone"}],"classification":null,"title":"Stroke NoShow FY12-07Jul-17May","count":103,"stream_id":254825,"contributor":{"url":"http://geocommons.com/users/47950","name":"neuro.finance"},"data_attributes":null,"calculation_params":null,"icon_link":null,"link":"http://geocommons.com/overlays/254825.json","extent":[-91.9832,35.2435,-83.6977,43.0206],"geometry_types":["point"],"unique_name":null,"name":"Stroke NoShow FY12-07Jul-17May","feature_count":103,"description":"","next_feature":null,"is_raster":false,"short_classification":"Y","stats":{"no-show":{"max":16,"variance":6.07233961545784,"mean":2.07766990291262,"stdev":2.46421176351746,"min":1,"median":1}},"features":[{"properties":{"zip":"37052","no-show":1,"geo_score":0.714,"id":"a6lzsgb11zae","geo_precision":"zip"},"type":"Feature","geometry":{"type":"Point","coordinates":[-87.376496,36.398614]}},{"properties":{"zip":"38127","no-show":1,"geo_score":0.714,"id":"a6lzsg8ms5y7","geo_precision":"zip"},"type":"Feature","geometry":{"type":"Point","coordinates":[-90.011979,35.24346]}},{"properties":{"zip":"48504","no-show":1,"geo_score":0.714,"id":"a6lzsgbbtwqh","geo_precision":"zip"},"type":"Feature","geometry":{"type":"Point","coordinates":[-83.697666,43.020626]}},{"properties":{"zip":"61820","no-show":1,"geo_score":0.714,"id":"a6lzsg3sksoh","geo_precision":"zip"},"type":"Feature","geometry":{"type":"Point","coordinates":[-88.235605,40.142532]}},{"properties":{"zip":"62002","no-show":1,"geo_score":0.714,"id":"a6lzsgeulyqj","geo_precision":"zip"},"type":"Feature","geometry":{"type":"Point","coordinates":[-90.075107,38.971713]}},{"properties":{"zip":"62010","no-show":1,"geo_score":0.714,"id":"a6lzsgezrye1","geo_precision":"zip"},"type":"Feature","geometry":{"type":"Point","coordinates":[-90.054615,38.923994]}},{"properties":{"zip":"62012","no-show":1,"geo_score":0.714,"id":"a6lzsg8u9l6f","geo_precision":"zip"},"type":"Feature","geometry":{"type":"Point","coordinates":[-90.254596,39.07267]}},{"properties":{"zip":"62016","no-show":2,"geo_score":0.714,"id":"a6lzsgdmzydj","geo_precision":"zip"},"type":"Feature","geometry":{"type":"Point","coordinates":[-90.395398,39.365047]}},{"properties":{"zip":"62018","no-show":1,"geo_score":0.714,"id":"a6lzsg10856r","geo_precision":"zip"},"type":"Feature","geometry":{"type":"Point","coordinates":[-90.064279,38.909971]}},{"properties":{"zip":"62025","no-show":1,"geo_score":0.714,"id":"a6lzsgfu3lrz","geo_precision":"zip"},"type":"Feature","geometry":{"type":"Point","coordinates":[-90.038716,38.834492]}},{"properties":{"zip":"62035","no-show":2,"geo_score":0.714,"id":"a6lzsg272gkv","geo_precision":"zip"},"type":"Feature","geometry":{"type":"Point","coordinates":[-90.245945,38.936992]}},{"properties":{"zip":"62040","no-show":6,"geo_score":0.714,"id":"a6lzsg58i643","geo_precision":"zip"},"type":"Feature","geometry":{"type":"Point","coordinates":[-90.127886,38.731716]}},{"properties":{"zip":"62052","no-show":3,"geo_score":0.714,"id":"a6lzsg1jx7ah","geo_precision":"zip"},"type":"Feature","geometry":{"type":"Point","coordinates":[-90.255946,39.045325]}},{"properties":{"zip":"62054","no-show":1,"geo_score":0.714,"id":"a6lzsg9t30vo","geo_precision":"zip"},"type":"Feature","geometry":{"type":"Point","coordinates":[-90.352339,39.191892]}},{"properties":{"zip":"62059","no-show":1,"geo_score":0.714,"id":"a6lzsgd2myvx","geo_precision":"zip"},"type":"Feature","geometry":{"type":"Point","coordinates":[-90.165943,38.658662]}},{"properties":{"zip":"62082","no-show":1,"geo_score":0.714,"id":"a6lzsg0ygaub","geo_precision":"zip"},"type":"Feature","geometry":{"type":"Point","coordinates":[-90.401512,39.506159]}},{"properties":{"zip":"62095","no-show":1,"geo_score":0.714,"id":"a6lzsgbn6exi","geo_precision":"zip"},"type":"Feature","geometry":{"type":"Point","coordinates":[-90.085657,38.861597]}},{"properties":{"zip":"62204","no-show":1,"geo_score":0.714,"id":"a6lzsgd7bqzi","geo_precision":"zip"},"type":"Feature","geometry":{"type":"Point","coordinates":[-90.095007,38.6308]}},{"properties":{"zip":"62205","no-show":2,"geo_score":0.714,"id":"a6lzsg42fhxf","geo_precision":"zip"},"type":"Feature","geometry":{"type":"Point","coordinates":[-90.124308,38.6123]}},{"properties":{"zip":"62206","no-show":1,"geo_score":0.714,"id":"a6lzsg55k5gw","geo_precision":"zip"},"type":"Feature","geometry":{"type":"Point","coordinates":[-90.15441,38.551401]}},{"properties":{"zip":"62207","no-show":1,"geo_score":0.714,"id":"a6lzsg1a4i24","geo_precision":"zip"},"type":"Feature","geometry":{"type":"Point","coordinates":[-90.127808,38.58705]}},{"properties":{"zip":"62208","no-show":1,"geo_score":0.714,"id":"a6lzsg5ocoo4","geo_precision":"zip"},"type":"Feature","geometry":{"type":"Point","coordinates":[-90.050106,38.600328]}},{"properties":{"zip":"62220","no-show":1,"geo_score":0.714,"id":"a6lzsg7dzs25","geo_precision":"zip"},"type":"Feature","geometry":{"type":"Point","coordinates":[-89.973877,38.46435]}},{"properties":{"zip":"62221","no-show":1,"geo_score":0.714,"id":"a6lzsg4znq06","geo_precision":"zip"},"type":"Feature","geometry":{"type":"Point","coordinates":[-89.911601,38.523569]}},{"properties":{"zip":"62223","no-show":1,"geo_score":0.714,"id":"a6lzsgf0v33s","geo_precision":"zip"},"type":"Feature","geometry":{"type":"Point","coordinates":[-90.076357,38.55025]}},{"properties":{"zip":"62225","no-show":1,"geo_score":0.714,"id":"a6lzsg22yjlf","geo_precision":"zip"},"type":"Feature","geometry":{"type":"Point","coordinates":[-89.85902,38.543201]}},{"properties":{"zip":"62226","no-show":2,"geo_score":0.714,"id":"a6lzsgemczyr","geo_precision":"zip"},"type":"Feature","geometry":{"type":"Point","coordinates":[-89.998685,38.509999]}},{"properties":{"zip":"62232","no-show":1,"geo_score":0.714,"id":"a6lzsgcvo0dj","geo_precision":"zip"},"type":"Feature","geometry":{"type":"Point","coordinates":[-90.012477,38.630199]}},{"properties":{"zip":"62234","no-show":2,"geo_score":0.714,"id":"a6lzsgfd7dvk","geo_precision":"zip"},"type":"Feature","geometry":{"type":"Point","coordinates":[-89.908644,38.733747]}},{"properties":{"zip":"62239","no-show":1,"geo_score":0.714,"id":"a6lzsgepzshj","geo_precision":"zip"},"type":"Feature","geometry":{"type":"Point","coordinates":[-90.181561,38.519424]}},{"properties":{"zip":"62243","no-show":1,"geo_score":0.714,"id":"a6lzsg8xfvtl","geo_precision":"zip"},"type":"Feature","geometry":{"type":"Point","coordinates":[-89.895886,38.428067]}},{"properties":{"zip":"62246","no-show":1,"geo_score":0.714,"id":"a6lzsg4t4j0x","geo_precision":"zip"},"type":"Feature","geometry":{"type":"Point","coordinates":[-89.423032,38.884421]}},{"properties":{"zip":"62269","no-show":2,"geo_score":0.714,"id":"a6lzsg2nm6f4","geo_precision":"zip"},"type":"Feature","geometry":{"type":"Point","coordinates":[-89.937325,38.586994]}},{"properties":{"zip":"62293","no-show":1,"geo_score":0.714,"id":"a6lzsgcp9ssl","geo_precision":"zip"},"type":"Feature","geometry":{"type":"Point","coordinates":[-89.569004,38.620028]}},{"properties":{"zip":"62294","no-show":1,"geo_score":0.714,"id":"a6lzsgea6fwk","geo_precision":"zip"},"type":"Feature","geometry":{"type":"Point","coordinates":[-89.895817,38.721612]}},{"properties":{"zip":"62323","no-show":1,"geo_score":0.714,"id":"a6lzsgb1z7vj","geo_precision":"zip"},"type":"Feature","geometry":{"type":"Point","coordinates":[-90.749883,39.782477]}},{"properties":{"zip":"62401","no-show":1,"geo_score":0.714,"id":"a6lzsg8mf8kd","geo_precision":"zip"},"type":"Feature","geometry":{"type":"Point","coordinates":[-88.523383,39.202818]}},{"properties":{"zip":"62471","no-show":1,"geo_score":0.714,"id":"a6lzsg3px232","geo_precision":"zip"},"type":"Feature","geometry":{"type":"Point","coordinates":[-89.046454,38.963934]}},{"properties":{"zip":"62801","no-show":2,"geo_score":0.714,"id":"a6lzsgcgobqw","geo_precision":"zip"},"type":"Feature","geometry":{"type":"Point","coordinates":[-89.140627,38.508938]}},{"properties":{"zip":"62816","no-show":1,"geo_score":0.714,"id":"a6lzsg7lxzm5","geo_precision":"zip"},"type":"Feature","geometry":{"type":"Point","coordinates":[-88.936697,38.20359]}},{"properties":{"zip":"62821","no-show":1,"geo_score":0.714,"id":"a6lzsge7yd9g","geo_precision":"zip"},"type":"Feature","geometry":{"type":"Point","coordinates":[-88.028087,38.000324]}},{"properties":{"zip":"62832","no-show":1,"geo_score":0.714,"id":"a6lzsgf5d9ki","geo_precision":"zip"},"type":"Feature","geometry":{"type":"Point","coordinates":[-89.253006,38.044645]}},{"properties":{"zip":"62899","no-show":1,"geo_score":0.714,"id":"a6lzsg61o2og","geo_precision":"zip"},"type":"Feature","geometry":{"type":"Point","coordinates":[-88.664186,38.710776]}},{"properties":{"zip":"62902","no-show":1,"geo_score":0.714,"id":"a6lzsgcex6xe","geo_precision":"zip"},"type":"Feature","geometry":{"type":"Point","coordinates":[-89.415831,37.758646]}},{"properties":{"zip":"62939","no-show":1,"geo_score":0.714,"id":"a6lzsg5g6i8y","geo_precision":"zip"},"type":"Feature","geometry":{"type":"Point","coordinates":[-88.971292,37.534099]}},{"properties":{"zip":"62948","no-show":1,"geo_score":0.714,"id":"a6lzsg83k2un","geo_precision":"zip"},"type":"Feature","geometry":{"type":"Point","coordinates":[-89.027852,37.829494]}},{"properties":{"zip":"62959","no-show":1,"geo_score":0.714,"id":"a6lzsg5f8mud","geo_precision":"zip"},"type":"Feature","geometry":{"type":"Point","coordinates":[-88.803953,37.763938]}},{"properties":{"zip":"63010","no-show":1,"geo_score":0.714,"id":"a6lzsg3czgug","geo_precision":"zip"},"type":"Feature","geometry":{"type":"Point","coordinates":[-90.382897,38.411721]}},{"properties":{"zip":"63020","no-show":1,"geo_score":0.714,"id":"a6lzsg38mqua","geo_precision":"zip"},"type":"Feature","geometry":{"type":"Point","coordinates":[-90.569571,38.010052]}},{"properties":{"zip":"63021","no-show":2,"geo_score":0.714,"id":"a6lzsg0qfi0e","geo_precision":"zip"},"type":"Feature","geometry":{"type":"Point","coordinates":[-90.49651,38.564776]}},{"properties":{"zip":"63026","no-show":1,"geo_score":0.714,"id":"a6lzsg5mblha","geo_precision":"zip"},"type":"Feature","geometry":{"type":"Point","coordinates":[-90.487066,38.490332]}},{"properties":{"zip":"63028","no-show":2,"geo_score":0.714,"id":"a6lzsgfimb5i","geo_precision":"zip"},"type":"Feature","geometry":{"type":"Point","coordinates":[-90.341509,38.149776]}},{"properties":{"zip":"63031","no-show":1,"geo_score":0.714,"id":"a6lzsgdwr2kv","geo_precision":"zip"},"type":"Feature","geometry":{"type":"Point","coordinates":[-90.242056,38.83616]}},{"properties":{"zip":"63033","no-show":4,"geo_score":0.714,"id":"a6lzsg56kn6m","geo_precision":"zip"},"type":"Feature","geometry":{"type":"Point","coordinates":[-90.267335,38.793383]}},{"properties":{"zip":"63034","no-show":1,"geo_score":0.714,"id":"a6lzsg3rakih","geo_precision":"zip"},"type":"Feature","geometry":{"type":"Point","coordinates":[-90.338448,38.861438]}},{"properties":{"zip":"63042","no-show":1,"geo_score":0.714,"id":"a6lzsgbslxeh","geo_precision":"zip"},"type":"Feature","geometry":{"type":"Point","coordinates":[-90.399166,38.7844]}},{"properties":{"zip":"63050","no-show":1,"geo_score":0.714,"id":"a6lzsg79jywr","geo_precision":"zip"},"type":"Feature","geometry":{"type":"Point","coordinates":[-90.566792,38.299221]}},{"properties":{"zip":"63080","no-show":1,"geo_score":0.714,"id":"a6lzsgbh38u9","geo_precision":"zip"},"type":"Feature","geometry":{"type":"Point","coordinates":[-91.068752,38.238939]}},{"properties":{"zip":"63102","no-show":1,"geo_score":0.714,"id":"a6lzsg2jb0du","geo_precision":"zip"},"type":"Feature","geometry":{"type":"Point","coordinates":[-90.191221,38.6336]}},{"properties":{"zip":"63104","no-show":1,"geo_score":0.714,"id":"a6lzsg9ec2lp","geo_precision":"zip"},"type":"Feature","geometry":{"type":"Point","coordinates":[-90.214461,38.611401]}},{"properties":{"zip":"63106","no-show":5,"geo_score":0.714,"id":"a6lzsg398slo","geo_precision":"zip"},"type":"Feature","geometry":{"type":"Point","coordinates":[-90.208361,38.644501]}},{"properties":{"zip":"63107","no-show":3,"geo_score":0.714,"id":"a6lzsg7f6zrt","geo_precision":"zip"},"type":"Feature","geometry":{"type":"Point","coordinates":[-90.212561,38.66535]}},{"properties":{"zip":"63108","no-show":3,"geo_score":0.714,"id":"a6lzsgerkljx","geo_precision":"zip"},"type":"Feature","geometry":{"type":"Point","coordinates":[-90.251962,38.644801]}},{"properties":{"zip":"63109","no-show":3,"geo_score":0.714,"id":"a6lzsg8vmpiu","geo_precision":"zip"},"type":"Feature","geometry":{"type":"Point","coordinates":[-90.294714,38.581652]}},{"properties":{"zip":"63111","no-show":3,"geo_score":0.714,"id":"a6lzsg6g68pt","geo_precision":"zip"},"type":"Feature","geometry":{"type":"Point","coordinates":[-90.265947,38.556164]}},{"properties":{"zip":"63112","no-show":14,"geo_score":0.714,"id":"a6lzsg0fu7de","geo_precision":"zip"},"type":"Feature","geometry":{"type":"Point","coordinates":[-90.281813,38.663851]}},{"properties":{"zip":"63113","no-show":6,"geo_score":0.714,"id":"a6lzsgb9olqs","geo_precision":"zip"},"type":"Feature","geometry":{"type":"Point","coordinates":[-90.253212,38.630051]}},{"properties":{"zip":"63114","no-show":3,"geo_score":0.714,"id":"a6lzsg0280xi","geo_precision":"zip"},"type":"Feature","geometry":{"type":"Point","coordinates":[-90.367338,38.714496]}},{"properties":{"zip":"63115","no-show":16,"geo_score":0.714,"id":"a6lzsgazsue7","geo_precision":"zip"},"type":"Feature","geometry":{"type":"Point","coordinates":[-90.241962,38.6772]}},{"properties":{"zip":"63116","no-show":7,"geo_score":0.714,"id":"a6lzsg6tb0ad","geo_precision":"zip"},"type":"Feature","geometry":{"type":"Point","coordinates":[-90.268563,38.581401]}},{"properties":{"zip":"63117","no-show":1,"geo_score":0.714,"id":"a6lzsg21bkos","geo_precision":"zip"},"type":"Feature","geometry":{"type":"Point","coordinates":[-90.31956,38.628663]}},{"properties":{"zip":"63118","no-show":1,"geo_score":0.714,"id":"a6lzsg7edctq","geo_precision":"zip"},"type":"Feature","geometry":{"type":"Point","coordinates":[-90.222012,38.593751]}},{"properties":{"zip":"63119","no-show":3,"geo_score":0.714,"id":"a6lzsgclk3t4","geo_precision":"zip"},"type":"Feature","geometry":{"type":"Point","coordinates":[-90.348116,38.589302]}},{"properties":{"zip":"63120","no-show":9,"geo_score":0.714,"id":"a6lzsg23al7b","geo_precision":"zip"},"type":"Feature","geometry":{"type":"Point","coordinates":[-90.275113,38.695884]}},{"properties":{"zip":"63121","no-show":7,"geo_score":0.714,"id":"a6lzsg51hsog","geo_precision":"zip"},"type":"Feature","geometry":{"type":"Point","coordinates":[-90.298169,38.710607]}},{"properties":{"zip":"63123","no-show":2,"geo_score":0.714,"id":"a6lzsg1aowf5","geo_precision":"zip"},"type":"Feature","geometry":{"type":"Point","coordinates":[-90.30956,38.553108]}},{"properties":{"zip":"63124","no-show":1,"geo_score":0.714,"id":"a6lzsg7baiom","geo_precision":"zip"},"type":"Feature","geometry":{"type":"Point","coordinates":[-90.377566,38.637201]}},{"properties":{"zip":"63128","no-show":2,"geo_score":0.714,"id":"a6lzsg9to020","geo_precision":"zip"},"type":"Feature","geometry":{"type":"Point","coordinates":[-90.35734,38.524498]}},{"properties":{"zip":"63129","no-show":1,"geo_score":0.714,"id":"a6lzsgfpyxv0","geo_precision":"zip"},"type":"Feature","geometry":{"type":"Point","coordinates":[-90.348728,38.485609]}},{"properties":{"zip":"63130","no-show":4,"geo_score":0.714,"id":"a6lzsg5dxqdr","geo_precision":"zip"},"type":"Feature","geometry":{"type":"Point","coordinates":[-90.309281,38.655885]}},{"properties":{"zip":"63131","no-show":2,"geo_score":0.714,"id":"a6lzsg3do0rw","geo_precision":"zip"},"type":"Feature","geometry":{"type":"Point","coordinates":[-90.463453,38.612275]}},{"properties":{"zip":"63132","no-show":2,"geo_score":0.714,"id":"a6lzsg078obl","geo_precision":"zip"},"type":"Feature","geometry":{"type":"Point","coordinates":[-90.374716,38.674601]}},{"properties":{"zip":"63133","no-show":4,"geo_score":0.714,"id":"a6lzsgapqp95","geo_precision":"zip"},"type":"Feature","geometry":{"type":"Point","coordinates":[-90.284003,38.683385]}},{"properties":{"zip":"63134","no-show":1,"geo_score":0.714,"id":"a6lzsgdxhgyx","geo_precision":"zip"},"type":"Feature","geometry":{"type":"Point","coordinates":[-90.358449,38.725051]}},{"properties":{"zip":"63135","no-show":1,"geo_score":0.714,"id":"a6lzsgfn7wkm","geo_precision":"zip"},"type":"Feature","geometry":{"type":"Point","coordinates":[-90.305392,38.744218]}},{"properties":{"zip":"63136","no-show":8,"geo_score":0.714,"id":"a6lzsgdjc700","geo_precision":"zip"},"type":"Feature","geometry":{"type":"Point","coordinates":[-90.26039,38.719218]}},{"properties":{"zip":"63137","no-show":1,"geo_score":0.714,"id":"a6lzsg5ej3oz","geo_precision":"zip"},"type":"Feature","geometry":{"type":"Point","coordinates":[-90.198443,38.753661]}},{"properties":{"zip":"63138","no-show":1,"geo_score":0.714,"id":"a6lzsfzljojq","geo_precision":"zip"},"type":"Feature","geometry":{"type":"Point","coordinates":[-90.215944,38.787828]}},{"properties":{"zip":"63139","no-show":1,"geo_score":0.714,"id":"a6lzsg4wofko","geo_precision":"zip"},"type":"Feature","geometry":{"type":"Point","coordinates":[-90.291814,38.613501]}},{"properties":{"zip":"63147","no-show":6,"geo_score":0.714,"id":"a6lzsg3z9xcq","geo_precision":"zip"},"type":"Feature","geometry":{"type":"Point","coordinates":[-90.21968,38.6774]}},{"properties":{"zip":"63353","no-show":1,"geo_score":0.714,"id":"a6lzsg550st3","geo_precision":"zip"},"type":"Feature","geometry":{"type":"Point","coordinates":[-91.024858,39.372546]}},{"properties":{"zip":"63401","no-show":2,"geo_score":0.714,"id":"a6lzsg8n66sd","geo_precision":"zip"},"type":"Feature","geometry":{"type":"Point","coordinates":[-91.301257,39.672268]}},{"properties":{"zip":"63628","no-show":1,"geo_score":0.714,"id":"a6lzsg1bmhkf","geo_precision":"zip"},"type":"Feature","geometry":{"type":"Point","coordinates":[-90.46568,37.946997]}},{"properties":{"zip":"63630","no-show":1,"geo_score":0.714,"id":"a6lzsgaggyts","geo_precision":"zip"},"type":"Feature","geometry":{"type":"Point","coordinates":[-90.705408,38.005606]}},{"properties":{"zip":"63640","no-show":1,"geo_score":0.714,"id":"a6lzsgdj4efh","geo_precision":"zip"},"type":"Feature","geometry":{"type":"Point","coordinates":[-90.288176,37.703663]}},{"properties":{"zip":"63645","no-show":1,"geo_score":0.714,"id":"a6lzsg918c3f","geo_precision":"zip"},"type":"Feature","geometry":{"type":"Point","coordinates":[-90.288174,37.576442]}},{"properties":{"zip":"63834","no-show":1,"geo_score":0.714,"id":"a6lzsgefhsz6","geo_precision":"zip"},"type":"Feature","geometry":{"type":"Point","coordinates":[-89.381745,37.032272]}},{"properties":{"zip":"63866","no-show":1,"geo_score":0.714,"id":"a6lzsgbsbx1c","geo_precision":"zip"},"type":"Feature","geometry":{"type":"Point","coordinates":[-89.646396,36.518643]}},{"properties":{"zip":"65069","no-show":1,"geo_score":0.714,"id":"a6lzsg35yk09","geo_precision":"zip"},"type":"Feature","geometry":{"type":"Point","coordinates":[-91.552112,38.735877]}},{"properties":{"zip":"65401","no-show":1,"geo_score":0.714,"id":"a6lzsgdwj096","geo_precision":"zip"},"type":"Feature","geometry":{"type":"Point","coordinates":[-91.755714,37.975042]}},{"properties":{"zip":"65529","no-show":1,"geo_score":0.714,"id":"a6lzsg2jwjip","geo_precision":"zip"},"type":"Feature","geometry":{"type":"Point","coordinates":[-91.983231,37.924112]}},{"properties":{"zip":"65559","no-show":1,"geo_score":0.714,"id":"a6lzsg47gpbv","geo_precision":"zip"},"type":"Feature","geometry":{"type":"Point","coordinates":[-91.652103,38.088377]}},{"properties":{"zip":"65565","no-show":1,"geo_score":0.714,"id":"a6lzsfzq5fjt","geo_precision":"zip"},"type":"Feature","geometry":{"type":"Point","coordinates":[-91.389035,37.875322]}}],"is_temporal":false,"author":{"url":"","metadata":"","contact_name":"","contact_address":"","source":"","contact_phone":""},"source":"","pagination":{"sort":null,"start":0,"total":103,"limit":1000000},"state":"complete","tags":"","published":"2012-06-22T16:00:00Z","id":254825}