{"type":"FeatureCollection","data_type":"Dataset","url_type":null,"permissions":[{"permissions":{"download":true,"view":true},"group_id":"everyone"}],"classification":null,"title":"2010_Mulch_Orders_Fixed_CSV","count":162,"stream_id":254960,"contributor":{"url":"http://geocommons.com/users/18511","name":"Ymerej"},"data_attributes":null,"calculation_params":null,"icon_link":null,"link":"http://geocommons.com/overlays/254960.json","extent":[-77.4372,37.2063,-77.1211,38.918],"geometry_types":["point"],"unique_name":null,"name":"2010_Mulch_Orders_Fixed_CSV","feature_count":162,"description":"","next_feature":null,"is_raster":false,"short_classification":"Y","stats":{"numbags":{"max":70,"variance":174.516064718964,"mean":18.2345679012346,"stdev":13.210452858209,"min":0,"median":15}},"features":[{"properties":{"city":"Falls Church","zip":"22043","geo_score":1.0,"numbags":20,"id":"a6mcmqke3lww","address":"7603 Bent Oak Ct","geo_precision":"range","state":"VA"},"type":"Feature","geometry":{"type":"Point","coordinates":[-77.207732,38.886609]}},{"properties":{"city":"Falls Church","zip":"22043","geo_score":1.0,"numbags":10,"id":"a6mcmqpj1lmk","address":"7303 Gordons Rd","geo_precision":"range","state":"VA"},"type":"Feature","geometry":{"type":"Point","coordinates":[-77.197651,38.895203]}},{"properties":{"city":"Falls Church","zip":"22046","geo_score":1.0,"numbags":50,"id":"a6mcmqp1tpve","address":"7237 Allan Ave","geo_precision":"range","state":"VA"},"type":"Feature","geometry":{"type":"Point","coordinates":[-77.196044,38.88678]}},{"properties":{"city":"Falls Church","zip":"22046","geo_score":1.0,"numbags":10,"id":"a6mcmqp7xaq7","address":"6700 Fisher Ave","geo_precision":"range","state":"VA"},"type":"Feature","geometry":{"type":"Point","coordinates":[-77.177561,38.898638]}},{"properties":{"city":"Arlington","zip":"22046","geo_score":0.762,"numbags":5,"id":"a6mcmqng2i0y","address":"6411 11th St North","geo_precision":"range","state":"VA"},"type":"Feature","geometry":{"type":"Point","coordinates":[-77.154788,38.87968]}},{"properties":{"city":"Arlington","zip":null,"geo_score":0.581,"numbags":30,"id":"a6mcmqnn9y5j","address":"4952 Terrell St","geo_precision":"street","state":"VA"},"type":"Feature","geometry":{"type":"Point","coordinates":[-77.437176,37.206275]}},{"properties":{"city":"Arlington","zip":"22207","geo_score":0.619,"numbags":7,"id":"a6mcmqi1ljvk","address":"4940 N. 35th St","geo_precision":"street","state":"VA"},"type":"Feature","geometry":{"type":"Point","coordinates":[-77.121062,38.917975]}},{"properties":{"city":"Falls Church","zip":"22042","geo_score":1.0,"numbags":6,"id":"a6mcmqjyyh64","address":"2806 Prince Albert Ct","geo_precision":"range","state":"VA"},"type":"Feature","geometry":{"type":"Point","coordinates":[-77.175524,38.8768]}},{"properties":{"city":"Falls Church","zip":"22042","geo_score":0.973,"numbags":10,"id":"a6mcmqqxojwm","address":"2753 Marshal St","geo_precision":"range","state":"VA"},"type":"Feature","geometry":{"type":"Point","coordinates":[-77.184338,38.877954]}},{"properties":{"city":"Falls Church","zip":"22044","geo_score":0.732,"numbags":10,"id":"a6mcmqj7jp31","address":"2602 Faber Ct","geo_precision":"street","state":"VA"},"type":"Feature","geometry":{"type":"Point","coordinates":[-77.160462,38.86481]}},{"properties":{"city":"Falls Church","zip":"22046","geo_score":1.0,"numbags":25,"id":"a6mcmqnz1gnp","address":"2532 Stuart Place","geo_precision":"range","state":"VA"},"type":"Feature","geometry":{"type":"Point","coordinates":[-77.196368,38.887729]}},{"properties":{"city":"Falls Church","zip":"22046","geo_score":1.0,"numbags":12,"id":"a6mcmqlsqhmz","address":"2323 Grove Ave","geo_precision":"range","state":"VA"},"type":"Feature","geometry":{"type":"Point","coordinates":[-77.185752,38.898575]}},{"properties":{"city":"Falls Church","zip":"22046","geo_score":1.0,"numbags":20,"id":"a6mcmqqjh3n8","address":"2238 Casemont Dr","geo_precision":"range","state":"VA"},"type":"Feature","geometry":{"type":"Point","coordinates":[-77.17756,38.899967]}},{"properties":{"city":"Falls Church","zip":"22043","geo_score":1.0,"numbags":20,"id":"a6mcmqh0vh5r","address":"2119 Natahoa Ct","geo_precision":"range","state":"VA"},"type":"Feature","geometry":{"type":"Point","coordinates":[-77.163396,38.90525]}},{"properties":{"city":"Arlington","zip":"22205","geo_score":0.602,"numbags":4,"id":"a6mcmqi0qnxo","address":"1915 N. Van Buren","geo_precision":"street","state":"VA"},"type":"Feature","geometry":{"type":"Point","coordinates":[-77.159101,38.883311]}},{"properties":{"city":"Falls Church","zip":"22043","geo_score":1.0,"numbags":30,"id":"a6mcmqo5zb24","address":"1842 Griffith Rd","geo_precision":"range","state":"VA"},"type":"Feature","geometry":{"type":"Point","coordinates":[-77.206632,38.91704]}},{"properties":{"city":"Falls Church","zip":"22046","geo_score":1.0,"numbags":45,"id":"a6mcmqv2ef0s","address":"1508 Crane St","geo_precision":"range","state":"VA"},"type":"Feature","geometry":{"type":"Point","coordinates":[-77.192629,38.888934]}},{"properties":{"city":"Falls Church","zip":"22046","geo_score":1.0,"numbags":10,"id":"a6mcmqozqy6s","address":"1306 Gibson Pl","geo_precision":"range","state":"VA"},"type":"Feature","geometry":{"type":"Point","coordinates":[-77.189434,38.879555]}},{"properties":{"city":"Falls Church","zip":"22046","geo_score":1.0,"numbags":10,"id":"a6mcmqskcvmp","address":"1304 Robinson Pl.","geo_precision":"range","state":"VA"},"type":"Feature","geometry":{"type":"Point","coordinates":[-77.190102,38.881308]}},{"properties":{"city":"Falls Church","zip":"22046","geo_score":1.0,"numbags":12,"id":"a6mcmqry0b6f","address":"1215 Ellison St","geo_precision":"range","state":"VA"},"type":"Feature","geometry":{"type":"Point","coordinates":[-77.187732,38.891223]}},{"properties":{"city":"Falls Church","zip":"22046","geo_score":0.967,"numbags":30,"id":"a6mcmqwcfrp1","address":"1208 Seaton La","geo_precision":"range","state":"VA"},"type":"Feature","geometry":{"type":"Point","coordinates":[-77.188037,38.88287]}},{"properties":{"city":"Falls Church","zip":"22046","geo_score":1.0,"numbags":15,"id":"a6mcmqmls9i2","address":"1113 Lincoln Ave","geo_precision":"range","state":"VA"},"type":"Feature","geometry":{"type":"Point","coordinates":[-77.182459,38.89322]}},{"properties":{"city":"Falls Church","zip":"22046","geo_score":0.967,"numbags":30,"id":"a6mcmqwddhq0","address":"1110 Seaton La","geo_precision":"range","state":"VA"},"type":"Feature","geometry":{"type":"Point","coordinates":[-77.186712,38.883041]}},{"properties":{"city":"Falls Church","zip":"22046","geo_score":0.585,"numbags":6,"id":"a6mcmqqn6ars","address":"1108 Jackson Ct.","geo_precision":"zip","state":"VA"},"type":"Feature","geometry":{"type":"Point","coordinates":[-77.200259,38.884278]}},{"properties":{"city":"Falls Church","zip":"22046","geo_score":0.967,"numbags":0,"id":"a6mcmqqlpril","address":"1104 Seaton La","geo_precision":"range","state":"VA"},"type":"Feature","geometry":{"type":"Point","coordinates":[-77.186833,38.883031]}},{"properties":{"city":"Falls Church","zip":"22046","geo_score":0.857,"numbags":40,"id":"a6mcmqkajmbf","address":"1100 N. Tuckahoe St","geo_precision":"zip","state":"VA"},"type":"Feature","geometry":{"type":"Point","coordinates":[-77.200259,38.884278]}},{"properties":{"city":"Falls Church","zip":"22046","geo_score":1.0,"numbags":10,"id":"a6mcmqs6o123","address":"1020 Spruce St","geo_precision":"range","state":"VA"},"type":"Feature","geometry":{"type":"Point","coordinates":[-77.186125,38.894584]}},{"properties":{"city":"Falls Church","zip":"22046","geo_score":1.0,"numbags":15,"id":"a6mcmqj5ar8j","address":"1020 Ellison Sq","geo_precision":"range","state":"VA"},"type":"Feature","geometry":{"type":"Point","coordinates":[-77.185358,38.894307]}},{"properties":{"city":"Falls Church","zip":"22046","geo_score":1.0,"numbags":10,"id":"a6mcmqnsm9c8","address":"1016 Ellison Sq","geo_precision":"range","state":"VA"},"type":"Feature","geometry":{"type":"Point","coordinates":[-77.185358,38.894276]}},{"properties":{"city":"Falls Church","zip":"22046","geo_score":1.0,"numbags":20,"id":"a6mcmqunuwog","address":"1012 Parker St","geo_precision":"range","state":"VA"},"type":"Feature","geometry":{"type":"Point","coordinates":[-77.189105,38.890195]}},{"properties":{"city":"Falls Church","zip":"22046","geo_score":0.857,"numbags":20,"id":"a6mcmqv02x1a","address":"1011 N. Tuckahoe St","geo_precision":"zip","state":"VA"},"type":"Feature","geometry":{"type":"Point","coordinates":[-77.200259,38.884278]}},{"properties":{"city":"Falls Church","zip":"22046","geo_score":0.971,"numbags":2,"id":"a6mcmquh90zp","address":"1010 Madison La","geo_precision":"range","state":"VA"},"type":"Feature","geometry":{"type":"Point","coordinates":[-77.190646,38.890379]}},{"properties":{"city":"Falls Church","zip":"22046","geo_score":1.0,"numbags":10,"id":"a6mcmqt48k0s","address":"920 Park Ave","geo_precision":"range","state":"VA"},"type":"Feature","geometry":{"type":"Point","coordinates":[-77.182366,38.891129]}},{"properties":{"city":"Falls Church","zip":"22046","geo_score":0.805,"numbags":10,"id":"a6mcmqgk4hx0","address":"915 Hillwood Ave","geo_precision":"street","state":"VA"},"type":"Feature","geometry":{"type":"Point","coordinates":[-77.168116,38.877445]}},{"properties":{"city":"Falls Church","zip":"22046","geo_score":1.0,"numbags":10,"id":"a6mcmqkp20y6","address":"910 Park Ave","geo_precision":"range","state":"VA"},"type":"Feature","geometry":{"type":"Point","coordinates":[-77.182558,38.891286]}},{"properties":{"city":"Falls Church","zip":"22046","geo_score":1.0,"numbags":4,"id":"a6mcmqhbxvds","address":"910 Lincoln Ave","geo_precision":"range","state":"VA"},"type":"Feature","geometry":{"type":"Point","coordinates":[-77.181174,38.89214]}},{"properties":{"city":"Falls Church","zip":"22046","geo_score":1.0,"numbags":25,"id":"a6mcmqn20cky","address":"819 Fulton Ave","geo_precision":"range","state":"VA"},"type":"Feature","geometry":{"type":"Point","coordinates":[-77.179386,38.890705]}},{"properties":{"city":"Falls Church","zip":"22046","geo_score":1.0,"numbags":15,"id":"a6mcmqvp7tcs","address":"813 Fulton Ave","geo_precision":"range","state":"VA"},"type":"Feature","geometry":{"type":"Point","coordinates":[-77.179457,38.890765]}},{"properties":{"city":"Falls Church","zip":"22046","geo_score":1.0,"numbags":20,"id":"a6mcmqj6fq99","address":"807 Lincoln Ave","geo_precision":"range","state":"VA"},"type":"Feature","geometry":{"type":"Point","coordinates":[-77.179305,38.891681]}},{"properties":{"city":"Falls Church","zip":"22046","geo_score":0.805,"numbags":6,"id":"a6mcmqujzo9u","address":"802 Berry St","geo_precision":"range","state":"VA"},"type":"Feature","geometry":{"type":"Point","coordinates":[-77.162683,38.876112]}},{"properties":{"city":"Falls Church","zip":"22046","geo_score":1.0,"numbags":60,"id":"a6mcmqv2nshw","address":"709 Parker Ave","geo_precision":"range","state":"VA"},"type":"Feature","geometry":{"type":"Point","coordinates":[-77.185361,38.886303]}},{"properties":{"city":"Falls Church","zip":"22046","geo_score":1.0,"numbags":6,"id":"a6mcmqjlrxmo","address":"709 Poplar Dr","geo_precision":"range","state":"VA"},"type":"Feature","geometry":{"type":"Point","coordinates":[-77.192452,38.88715]}},{"properties":{"city":"Falls Church","zip":"22046","geo_score":1.0,"numbags":70,"id":"a6mcmqkdt2ik","address":"707 Poplar Dr","geo_precision":"range","state":"VA"},"type":"Feature","geometry":{"type":"Point","coordinates":[-77.192455,38.887161]}},{"properties":{"city":"Falls Church","zip":"22046","geo_score":1.0,"numbags":40,"id":"a6mcmqldi5rv","address":"704 Park Ave","geo_precision":"range","state":"VA"},"type":"Feature","geometry":{"type":"Point","coordinates":[-77.179008,38.889046]}},{"properties":{"city":"Falls Church","zip":"22046","geo_score":1.0,"numbags":30,"id":"a6mcmqw0iy41","address":"704 Lincoln Ave","geo_precision":"range","state":"VA"},"type":"Feature","geometry":{"type":"Point","coordinates":[-77.177386,38.891521]}},{"properties":{"city":"Falls Church","zip":"22046","geo_score":1.0,"numbags":10,"id":"a6mcmqk91b83","address":"703 Randolph St","geo_precision":"range","state":"VA"},"type":"Feature","geometry":{"type":"Point","coordinates":[-77.19006,38.886805]}},{"properties":{"city":"Falls Church","zip":"22046","geo_score":1.0,"numbags":15,"id":"a6mcmqpoirui","address":"702 Lincoln Ave","geo_precision":"range","state":"VA"},"type":"Feature","geometry":{"type":"Point","coordinates":[-77.177413,38.891527]}},{"properties":{"city":"Falls Church","zip":"22046","geo_score":0.967,"numbags":30,"id":"a6mcmquyjf5v","address":"701 Timber La","geo_precision":"range","state":"VA"},"type":"Feature","geometry":{"type":"Point","coordinates":[-77.192579,38.883123]}},{"properties":{"city":"Falls Church","zip":"22046","geo_score":1.0,"numbags":30,"id":"a6mcmqpv2z7s","address":"701 Poplar Dr","geo_precision":"range","state":"VA"},"type":"Feature","geometry":{"type":"Point","coordinates":[-77.192394,38.887215]}},{"properties":{"city":"Falls Church","zip":"22046","geo_score":0.973,"numbags":10,"id":"a6mcmqtpexgj","address":"610 Langston La","geo_precision":"range","state":"VA"},"type":"Feature","geometry":{"type":"Point","coordinates":[-77.172978,38.892622]}},{"properties":{"city":"Falls Church","zip":"22046","geo_score":0.619,"numbags":10,"id":"a6mcmqiekpne","address":"609 N. West St","geo_precision":"street","state":"VA"},"type":"Feature","geometry":{"type":"Point","coordinates":[-77.183852,38.891403]}},{"properties":{"city":"Falls Church","zip":"22046","geo_score":1.0,"numbags":20,"id":"a6mcmqlh392s","address":"607 Lincoln Ave","geo_precision":"range","state":"VA"},"type":"Feature","geometry":{"type":"Point","coordinates":[-77.175684,38.891093]}},{"properties":{"city":"Falls Church","zip":"22046","geo_score":0.973,"numbags":30,"id":"a6mcmqtkdmwv","address":"606 Langston La","geo_precision":"range","state":"VA"},"type":"Feature","geometry":{"type":"Point","coordinates":[-77.172978,38.892663]}},{"properties":{"city":"Falls Church","zip":"22046","geo_score":1.0,"numbags":25,"id":"a6mcmqm990tf","address":"606 Greenwich St","geo_precision":"range","state":"VA"},"type":"Feature","geometry":{"type":"Point","coordinates":[-77.178204,38.894327]}},{"properties":{"city":"Falls Church","zip":"22046","geo_score":0.614,"numbags":10,"id":"a6mcmqkefucx","address":"604 E. Broad St","geo_precision":"street","state":"VA"},"type":"Feature","geometry":{"type":"Point","coordinates":[-77.17011,38.881592]}},{"properties":{"city":"Falls Church","zip":"22046","geo_score":1.0,"numbags":30,"id":"a6mcmql8nefd","address":"603 Dorchester Rd","geo_precision":"range","state":"VA"},"type":"Feature","geometry":{"type":"Point","coordinates":[-77.174061,38.891421]}},{"properties":{"city":"Falls Church","zip":"22046","geo_score":0.614,"numbags":4,"id":"a6mcmqtno88u","address":"602 E. Broad St","geo_precision":"street","state":"VA"},"type":"Feature","geometry":{"type":"Point","coordinates":[-77.17011,38.881592]}},{"properties":{"city":"Falls Church","zip":"22046","geo_score":1.0,"numbags":10,"id":"a6mcmqpxtgdk","address":"601 Lincoln Ave","geo_precision":"range","state":"VA"},"type":"Feature","geometry":{"type":"Point","coordinates":[-77.17576,38.891188]}},{"properties":{"city":"Falls Church","zip":"22046","geo_score":1.0,"numbags":4,"id":"a6mcmqjbrpe5","address":"527 Great Falls St","geo_precision":"range","state":"VA"},"type":"Feature","geometry":{"type":"Point","coordinates":[-77.174586,38.891972]}},{"properties":{"city":"Falls Church","zip":"22046","geo_score":1.0,"numbags":20,"id":"a6mcmqlipy8i","address":"523 Poplar Dr","geo_precision":"range","state":"VA"},"type":"Feature","geometry":{"type":"Point","coordinates":[-77.190984,38.883143]}},{"properties":{"city":"Falls Church","zip":"22046","geo_score":0.967,"numbags":12,"id":"a6mcmqp8ztqy","address":"521 Timber La","geo_precision":"range","state":"VA"},"type":"Feature","geometry":{"type":"Point","coordinates":[-77.189239,38.883535]}},{"properties":{"city":"Falls Church","zip":"22046","geo_score":1.0,"numbags":20,"id":"a6mcmqjy8mb3","address":"515 Greenwich St","geo_precision":"range","state":"VA"},"type":"Feature","geometry":{"type":"Point","coordinates":[-77.177005,38.893106]}},{"properties":{"city":"Falls Church","zip":"22046","geo_score":1.0,"numbags":12,"id":"a6mcmqp2jyqx","address":"515 Great Falls St","geo_precision":"range","state":"VA"},"type":"Feature","geometry":{"type":"Point","coordinates":[-77.174447,38.891684]}},{"properties":{"city":"Falls Church","zip":"22046","geo_score":1.0,"numbags":20,"id":"a6mcmqqffv0d","address":"508 Greenwich St","geo_precision":"range","state":"VA"},"type":"Feature","geometry":{"type":"Point","coordinates":[-77.176935,38.893309]}},{"properties":{"city":"Falls Church","zip":"22046","geo_score":1.0,"numbags":60,"id":"a6mcmqof3r65","address":"503 Dorchester Rd","geo_precision":"range","state":"VA"},"type":"Feature","geometry":{"type":"Point","coordinates":[-77.173011,38.891649]}},{"properties":{"city":"Falls Church","zip":"22046","geo_score":0.604,"numbags":20,"id":"a6mcmqqojrpl","address":"503 E. Columbia St","geo_precision":"street","state":"VA"},"type":"Feature","geometry":{"type":"Point","coordinates":[-77.166497,38.884966]}},{"properties":{"city":"Falls Church","zip":"22046","geo_score":0.619,"numbags":40,"id":"a6mcmqst75t1","address":"503 N. West St","geo_precision":"street","state":"VA"},"type":"Feature","geometry":{"type":"Point","coordinates":[-77.183852,38.891403]}},{"properties":{"city":"Falls Church","zip":"22046","geo_score":1.0,"numbags":40,"id":"a6mcmqqktxmh","address":"501 Dorchester Rd","geo_precision":"range","state":"VA"},"type":"Feature","geometry":{"type":"Point","coordinates":[-77.173034,38.891723]}},{"properties":{"city":"Falls Church","zip":"22046","geo_score":1.0,"numbags":6,"id":"a6mcmqme25d9","address":"501 Great Falls St","geo_precision":"range","state":"VA"},"type":"Feature","geometry":{"type":"Point","coordinates":[-77.173104,38.8896]}},{"properties":{"city":"Falls Church","zip":"22046","geo_score":0.6,"numbags":10,"id":"a6mcmqpnlvjg","address":"501 W. Westmoreland Rd","geo_precision":"street","state":"VA"},"type":"Feature","geometry":{"type":"Point","coordinates":[-77.1694,38.899808]}},{"properties":{"city":"Falls Church","zip":"22046","geo_score":0.604,"numbags":35,"id":"a6mcmqttavf8","address":"500 E. Columbia St","geo_precision":"street","state":"VA"},"type":"Feature","geometry":{"type":"Point","coordinates":[-77.166497,38.884966]}},{"properties":{"city":"Falls Church","zip":"22046","geo_score":1.0,"numbags":16,"id":"a6mcmqrdfvyq","address":"422 Sherrow Ave","geo_precision":"range","state":"VA"},"type":"Feature","geometry":{"type":"Point","coordinates":[-77.181065,38.883499]}},{"properties":{"city":"Falls Church","zip":"22046","geo_score":1.0,"numbags":20,"id":"a6mcmqhv5367","address":"421 Poplar Dr","geo_precision":"range","state":"VA"},"type":"Feature","geometry":{"type":"Point","coordinates":[-77.190607,38.882173]}},{"properties":{"city":"Falls Church","zip":"22046","geo_score":1.0,"numbags":3,"id":"a6mcmqgwt3yg","address":"419 Rollins St","geo_precision":"range","state":"VA"},"type":"Feature","geometry":{"type":"Point","coordinates":[-77.180201,38.883757]}},{"properties":{"city":"Falls Church","zip":"22046","geo_score":0.602,"numbags":20,"id":"a6mcmqg1h0lj","address":"415 E. Jefferson St","geo_precision":"street","state":"VA"},"type":"Feature","geometry":{"type":"Point","coordinates":[-77.164746,38.885629]}},{"properties":{"city":"Falls Church","zip":"22046","geo_score":1.0,"numbags":8,"id":"a6mcmqsp3jmw","address":"414 Lincoln Ave","geo_precision":"range","state":"VA"},"type":"Feature","geometry":{"type":"Point","coordinates":[-77.171707,38.890333]}},{"properties":{"city":"Falls Church","zip":"22046","geo_score":0.61,"numbags":10,"id":"a6mcmqoo7mvh","address":"412 N. Cherry St","geo_precision":"street","state":"VA"},"type":"Feature","geometry":{"type":"Point","coordinates":[-77.165816,38.879497]}},{"properties":{"city":"Falls Church","zip":"22046","geo_score":0.633,"numbags":60,"id":"a6mcmqjgdvt5","address":"412 S. West St.","geo_precision":"street","state":"VA"},"type":"Feature","geometry":{"type":"Point","coordinates":[-77.19434,38.886064]}},{"properties":{"city":"Falls Church","zip":"22046","geo_score":1.0,"numbags":36,"id":"a6mcmqprabqm","address":"411 Midvale St","geo_precision":"range","state":"VA"},"type":"Feature","geometry":{"type":"Point","coordinates":[-77.164239,38.87956]}},{"properties":{"city":"Falls Church","zip":"22046","geo_score":0.967,"numbags":20,"id":"a6mcmqgvhqks","address":"401 Timber La","geo_precision":"range","state":"VA"},"type":"Feature","geometry":{"type":"Point","coordinates":[-77.186453,38.884177]}},{"properties":{"city":"Falls Church","zip":"22046","geo_score":1.0,"numbags":10,"id":"a6mcmqgwqxmz","address":"347 James St","geo_precision":"range","state":"VA"},"type":"Feature","geometry":{"type":"Point","coordinates":[-77.176524,38.883262]}},{"properties":{"city":"Falls Church","zip":"22046","geo_score":1.0,"numbags":15,"id":"a6mcmqgk5m79","address":"345 Little Falls St","geo_precision":"range","state":"VA"},"type":"Feature","geometry":{"type":"Point","coordinates":[-77.168029,38.887456]}},{"properties":{"city":"Falls Church","zip":"22046","geo_score":1.0,"numbags":6,"id":"a6mcmqkmo2eg","address":"341 James St.","geo_precision":"range","state":"VA"},"type":"Feature","geometry":{"type":"Point","coordinates":[-77.176515,38.883393]}},{"properties":{"city":"Falls Church","zip":"22046","geo_score":0.958,"numbags":20,"id":"a6mcmqsp4pvv","address":"324 Van Buren St","geo_precision":"range","state":"VA"},"type":"Feature","geometry":{"type":"Point","coordinates":[-77.158591,38.880834]}},{"properties":{"city":"Falls Church","zip":"22046","geo_score":0.958,"numbags":25,"id":"a6mcmqlcluk1","address":"322 Van Buren St","geo_precision":"range","state":"VA"},"type":"Feature","geometry":{"type":"Point","coordinates":[-77.158584,38.880876]}},{"properties":{"city":"Falls Church","zip":"22046","geo_score":1.0,"numbags":20,"id":"a6mcmqje0pgn","address":"320 Wrens Way","geo_precision":"range","state":"VA"},"type":"Feature","geometry":{"type":"Point","coordinates":[-77.167107,38.878966]}},{"properties":{"city":"Falls Church","zip":"22046","geo_score":1.0,"numbags":25,"id":"a6mcmqtsppgp","address":"319 Grove Ave","geo_precision":"range","state":"VA"},"type":"Feature","geometry":{"type":"Point","coordinates":[-77.184176,38.894036]}},{"properties":{"city":"Falls Church","zip":"22046","geo_score":0.958,"numbags":20,"id":"a6mcmqk4fdph","address":"318 Van Buren St","geo_precision":"range","state":"VA"},"type":"Feature","geometry":{"type":"Point","coordinates":[-77.158574,38.880972]}},{"properties":{"city":"Falls Church","zip":"22046","geo_score":0.602,"numbags":10,"id":"a6mcmqrhg9f2","address":"317 N. Van Buren St","geo_precision":"street","state":"VA"},"type":"Feature","geometry":{"type":"Point","coordinates":[-77.158649,38.87929]}},{"properties":{"city":"Falls Church","zip":"22046","geo_score":0.602,"numbags":20,"id":"a6mcmqtptces","address":"315 N. Underwood St","geo_precision":"street","state":"VA"},"type":"Feature","geometry":{"type":"Point","coordinates":[-77.157491,38.879383]}},{"properties":{"city":"Falls Church","zip":"22046","geo_score":1.0,"numbags":40,"id":"a6mcmqm58kcp","address":"312 Grove Ave","geo_precision":"range","state":"VA"},"type":"Feature","geometry":{"type":"Point","coordinates":[-77.184255,38.893747]}},{"properties":{"city":"Falls Church","zip":"22046","geo_score":0.325,"numbags":5,"id":"a6mcmqr7fkgi","address":"311 N. Virginia Ave.","geo_precision":"street","state":"VA"},"type":"Feature","geometry":{"type":"Point","coordinates":[-77.321885,38.577317]}},{"properties":{"city":"Falls Church","zip":"22046","geo_score":0.585,"numbags":20,"id":"a6mcmqhf2s15","address":"309 Buxton Rd","geo_precision":"zip","state":"VA"},"type":"Feature","geometry":{"type":"Point","coordinates":[-77.200259,38.884278]}},{"properties":{"city":"Falls Church","zip":"22046","geo_score":1.0,"numbags":20,"id":"a6mcmqw6sgl5","address":"309 Sycamore St","geo_precision":"range","state":"VA"},"type":"Feature","geometry":{"type":"Point","coordinates":[-77.18236,38.895065]}},{"properties":{"city":"Falls Church","zip":"22046","geo_score":0.325,"numbags":10,"id":"a6mcmqgp9d1q","address":"308 N. Virginia Ave","geo_precision":"street","state":"VA"},"type":"Feature","geometry":{"type":"Point","coordinates":[-77.321885,38.577317]}},{"properties":{"city":"Falls Church","zip":"22046","geo_score":1.0,"numbags":5,"id":"a6mcmr4j0wuz","address":"307 Walnut St","geo_precision":"range","state":"VA"},"type":"Feature","geometry":{"type":"Point","coordinates":[-77.181089,38.894561]}},{"properties":{"city":"Falls Church","zip":"22046","geo_score":1.0,"numbags":20,"id":"a6mcmrb4959o","address":"306 Rollins St","geo_precision":"range","state":"VA"},"type":"Feature","geometry":{"type":"Point","coordinates":[-77.178777,38.882275]}},{"properties":{"city":"Falls Church","zip":"22046","geo_score":0.602,"numbags":20,"id":"a6mcmr7kbu4s","address":"306 N. Underwood St","geo_precision":"street","state":"VA"},"type":"Feature","geometry":{"type":"Point","coordinates":[-77.157491,38.879383]}},{"properties":{"city":"Falls Church","zip":"22046","geo_score":1.0,"numbags":12,"id":"a6mcmr25blpg","address":"305 Pine St","geo_precision":"range","state":"VA"},"type":"Feature","geometry":{"type":"Point","coordinates":[-77.180495,38.893723]}},{"properties":{"city":"Falls Church","zip":"22046","geo_score":1.0,"numbags":30,"id":"a6mcmqxhrbqt","address":"305 Fellows Ct","geo_precision":"range","state":"VA"},"type":"Feature","geometry":{"type":"Point","coordinates":[-77.185358,38.883358]}},{"properties":{"city":"Falls Church","zip":"22046","geo_score":1.0,"numbags":12,"id":"a6mcmr2s0x6v","address":"304 Gundry Dr","geo_precision":"range","state":"VA"},"type":"Feature","geometry":{"type":"Point","coordinates":[-77.176684,38.882544]}},{"properties":{"city":"Falls Church","zip":"22046","geo_score":1.0,"numbags":5,"id":"a6mcmr2ou7l6","address":"301 Parker Ave","geo_precision":"range","state":"VA"},"type":"Feature","geometry":{"type":"Point","coordinates":[-77.185249,38.884858]}},{"properties":{"city":"Falls Church","zip":"22046","geo_score":1.0,"numbags":10,"id":"a6mcmqz55dnx","address":"301 Sycamore St","geo_precision":"range","state":"VA"},"type":"Feature","geometry":{"type":"Point","coordinates":[-77.182221,38.895059]}},{"properties":{"city":"Falls Church","zip":"22046","geo_score":0.633,"numbags":40,"id":"a6mcmqwkukr1","address":"300 S. West St","geo_precision":"street","state":"VA"},"type":"Feature","geometry":{"type":"Point","coordinates":[-77.19434,38.886064]}},{"properties":{"city":"Falls Church","zip":"22046","geo_score":1.0,"numbags":20,"id":"a6mcmr9akyoh","address":"300 Sycamore St","geo_precision":"range","state":"VA"},"type":"Feature","geometry":{"type":"Point","coordinates":[-77.182221,38.895059]}},{"properties":{"city":"Falls Church","zip":"22046","geo_score":1.0,"numbags":50,"id":"a6mcmr0arrns","address":"300 Poplar Dr","geo_precision":"range","state":"VA"},"type":"Feature","geometry":{"type":"Point","coordinates":[-77.190163,38.881226]}},{"properties":{"city":"Falls Church","zip":"22046","geo_score":1.0,"numbags":20,"id":"a6mcmqz96p3o","address":"300 Grove Ave","geo_precision":"range","state":"VA"},"type":"Feature","geometry":{"type":"Point","coordinates":[-77.184067,38.892716]}},{"properties":{"city":"Falls Church","zip":"22046","geo_score":1.0,"numbags":10,"id":"a6mcmqwt9m4a","address":"255 Gundry Dr","geo_precision":"range","state":"VA"},"type":"Feature","geometry":{"type":"Point","coordinates":[-77.17544,38.882968]}},{"properties":{"city":"Falls Church","zip":"22046","geo_score":1.0,"numbags":12,"id":"a6mcmr1elf2h","address":"232 Kent St","geo_precision":"range","state":"VA"},"type":"Feature","geometry":{"type":"Point","coordinates":[-77.186195,38.88884]}},{"properties":{"city":"Falls Church","zip":"22046","geo_score":1.0,"numbags":13,"id":"a6mcmr0k8f41","address":"226 Noland St","geo_precision":"range","state":"VA"},"type":"Feature","geometry":{"type":"Point","coordinates":[-77.16136,38.881429]}},{"properties":{"city":"Falls Church","zip":"22046","geo_score":0.325,"numbags":10,"id":"a6mcmra0e12q","address":"226 S. Virginia Ave.","geo_precision":"street","state":"VA"},"type":"Feature","geometry":{"type":"Point","coordinates":[-77.295009,38.84417]}},{"properties":{"city":"Falls Church","zip":"22046","geo_score":0.607,"numbags":25,"id":"a6mcmqx5ztz0","address":"221 W. Cameron Rd","geo_precision":"street","state":"VA"},"type":"Feature","geometry":{"type":"Point","coordinates":[-77.18132,38.879079]}},{"properties":{"city":"Falls Church","zip":"22046","geo_score":1.0,"numbags":3,"id":"a6mcmrcwciw4","address":"219 James Thurber Ct","geo_precision":"range","state":"VA"},"type":"Feature","geometry":{"type":"Point","coordinates":[-77.168516,38.886364]}},{"properties":{"city":"Falls Church","zip":"22046","geo_score":1.0,"numbags":10,"id":"a6mcmr0op9uo","address":"218 James Thurber Ct","geo_precision":"range","state":"VA"},"type":"Feature","geometry":{"type":"Point","coordinates":[-77.16838,38.886427]}},{"properties":{"city":"Falls Church","zip":"22046","geo_score":0.6,"numbags":6,"id":"a6mcmqz5blyi","address":"218 W. Greenway Blvd","geo_precision":"street","state":"VA"},"type":"Feature","geometry":{"type":"Point","coordinates":[-77.182487,38.879023]}},{"properties":{"city":"Falls Church","zip":"22046","geo_score":0.602,"numbags":30,"id":"a6mcmr2ph1ml","address":"215 N. Van Buren St","geo_precision":"street","state":"VA"},"type":"Feature","geometry":{"type":"Point","coordinates":[-77.158649,38.87929]}},{"properties":{"city":"Falls Church","zip":"22046","geo_score":1.0,"numbags":10,"id":"a6mcmr1xrmjd","address":"214 Midvale St","geo_precision":"range","state":"VA"},"type":"Feature","geometry":{"type":"Point","coordinates":[-77.16259,38.880779]}},{"properties":{"city":"Falls Church","zip":"22046","geo_score":1.0,"numbags":30,"id":"a6mcmrbz0j0o","address":"214 Lawton St","geo_precision":"range","state":"VA"},"type":"Feature","geometry":{"type":"Point","coordinates":[-77.168532,38.88156]}},{"properties":{"city":"Falls Church","zip":"22046","geo_score":0.604,"numbags":3,"id":"a6mcmr518yu3","address":"213 W. Columbia St","geo_precision":"street","state":"VA"},"type":"Feature","geometry":{"type":"Point","coordinates":[-77.166497,38.884966]}},{"properties":{"city":"Falls Church","zip":"22046","geo_score":1.0,"numbags":4,"id":"a6mcmqz4ywne","address":"213 Gundry Dr","geo_precision":"range","state":"VA"},"type":"Feature","geometry":{"type":"Point","coordinates":[-77.175268,38.883053]}},{"properties":{"city":"Falls Church","zip":"22046","geo_score":1.0,"numbags":50,"id":"a6mcmr6e4fgy","address":"212 Midvale St","geo_precision":"range","state":"VA"},"type":"Feature","geometry":{"type":"Point","coordinates":[-77.162518,38.880736]}},{"properties":{"city":"Falls Church","zip":"22046","geo_score":0.633,"numbags":8,"id":"a6mcmqx22r9u","address":"210 S. West St.","geo_precision":"street","state":"VA"},"type":"Feature","geometry":{"type":"Point","coordinates":[-77.19434,38.886064]}},{"properties":{"city":"Falls Church","zip":"22046","geo_score":1.0,"numbags":35,"id":"a6mcmr7zf73q","address":"210 Noland St","geo_precision":"range","state":"VA"},"type":"Feature","geometry":{"type":"Point","coordinates":[-77.162449,38.87976]}},{"properties":{"city":"Falls Church","zip":"22046","geo_score":0.597,"numbags":4,"id":"a6mcmr40mmzu","address":"209 W. George Mason Rd","geo_precision":"street","state":"VA"},"type":"Feature","geometry":{"type":"Point","coordinates":[-77.183863,38.882534]}},{"properties":{"city":"Falls Church","zip":"22046","geo_score":0.633,"numbags":10,"id":"a6mcmr25hvpq","address":"208 S. West St","geo_precision":"street","state":"VA"},"type":"Feature","geometry":{"type":"Point","coordinates":[-77.19434,38.886064]}},{"properties":{"city":"Falls Church","zip":"22046","geo_score":0.6,"numbags":10,"id":"a6mcmqykb1h4","address":"208 W. Greenway Blvd","geo_precision":"street","state":"VA"},"type":"Feature","geometry":{"type":"Point","coordinates":[-77.182487,38.879023]}},{"properties":{"city":"Falls Church","zip":"22046","geo_score":1.0,"numbags":3,"id":"a6mcmr4b02vj","address":"207 Gundry Dr","geo_precision":"range","state":"VA"},"type":"Feature","geometry":{"type":"Point","coordinates":[-77.175337,38.882975]}},{"properties":{"city":"Falls Church","zip":"22046","geo_score":0.585,"numbags":15,"id":"a6mcmra99vvg","address":"207 Buxton Rd","geo_precision":"zip","state":"VA"},"type":"Feature","geometry":{"type":"Point","coordinates":[-77.200259,38.884278]}},{"properties":{"city":"Falls Church","zip":"22046","geo_score":0.6,"numbags":40,"id":"a6mcmrczizxg","address":"206 W. Greenway Blvd","geo_precision":"street","state":"VA"},"type":"Feature","geometry":{"type":"Point","coordinates":[-77.182487,38.879023]}},{"properties":{"city":"Falls Church","zip":"22046","geo_score":1.0,"numbags":10,"id":"a6mcmr3srd1n","address":"206 Forest Dr","geo_precision":"range","state":"VA"},"type":"Feature","geometry":{"type":"Point","coordinates":[-77.159922,38.880221]}},{"properties":{"city":"Falls Church","zip":"22046","geo_score":0.625,"numbags":25,"id":"a6mcmr2vjfgu","address":"205 N. Lee St","geo_precision":"street","state":"VA"},"type":"Feature","geometry":{"type":"Point","coordinates":[-77.178942,38.887295]}},{"properties":{"city":"Falls Church","zip":"22046","geo_score":0.625,"numbags":10,"id":"a6mcmr5r43bl","address":"205 S. Oak St","geo_precision":"street","state":"VA"},"type":"Feature","geometry":{"type":"Point","coordinates":[-77.179909,38.887921]}},{"properties":{"city":"Falls Church","zip":"22046","geo_score":0.597,"numbags":3,"id":"a6mcmr1tyovg","address":"204 W. George Mason Rd","geo_precision":"street","state":"VA"},"type":"Feature","geometry":{"type":"Point","coordinates":[-77.183863,38.882534]}},{"properties":{"city":"Falls Church","zip":"22046","geo_score":0.597,"numbags":20,"id":"a6mcmr34lcau","address":"204 W. George Mason Rd","geo_precision":"street","state":"VA"},"type":"Feature","geometry":{"type":"Point","coordinates":[-77.183863,38.882534]}},{"properties":{"city":"Falls Church","zip":"22046","geo_score":0.805,"numbags":20,"id":"a6mcmr5kdofi","address":"202 Brook Dr","geo_precision":"range","state":"VA"},"type":"Feature","geometry":{"type":"Point","coordinates":[-77.164719,38.877081]}},{"properties":{"city":"Falls Church","zip":"22046","geo_score":0.607,"numbags":12,"id":"a6mcmqztyajr","address":"201 W. Cameron Rd","geo_precision":"street","state":"VA"},"type":"Feature","geometry":{"type":"Point","coordinates":[-77.18132,38.879079]}},{"properties":{"city":"Falls Church","zip":"22046","geo_score":0.585,"numbags":6,"id":"a6mcmr5vmw0h","address":"201 Buxton Rd","geo_precision":"zip","state":"VA"},"type":"Feature","geometry":{"type":"Point","coordinates":[-77.200259,38.884278]}},{"properties":{"city":"Falls Church","zip":"22046","geo_score":0.625,"numbags":30,"id":"a6mcmqyfvck6","address":"200 S. Oak St","geo_precision":"street","state":"VA"},"type":"Feature","geometry":{"type":"Point","coordinates":[-77.179909,38.887921]}},{"properties":{"city":"Falls Church","zip":"22046","geo_score":0.604,"numbags":30,"id":"a6mcmr1cr4yq","address":"200 W. Rosemary La","geo_precision":"street","state":"VA"},"type":"Feature","geometry":{"type":"Point","coordinates":[-77.187558,38.878761]}},{"properties":{"city":"Falls Church","zip":"22046","geo_score":0.597,"numbags":10,"id":"a6mcmr2jathr","address":"200 W. George Mason Rd","geo_precision":"street","state":"VA"},"type":"Feature","geometry":{"type":"Point","coordinates":[-77.183863,38.882534]}},{"properties":{"city":"Falls Church","zip":"22046","geo_score":0.625,"numbags":5,"id":"a6mcmr4631xc","address":"198 S. Lee St.","geo_precision":"street","state":"VA"},"type":"Feature","geometry":{"type":"Point","coordinates":[-77.178942,38.887295]}},{"properties":{"city":"Falls Church","zip":"22046","geo_score":0.619,"numbags":20,"id":"a6mcmraa4svj","address":"149 S. Spring St","geo_precision":"street","state":"VA"},"type":"Feature","geometry":{"type":"Point","coordinates":[-77.184147,38.886278]}},{"properties":{"city":"Falls Church","zip":"22046","geo_score":0.857,"numbags":20,"id":"a6mcmr9stpwk","address":"134 N. Fairfax St.","geo_precision":"zip","state":"VA"},"type":"Feature","geometry":{"type":"Point","coordinates":[-77.200259,38.884278]}},{"properties":{"city":"Falls Church","zip":"22046","geo_score":0.857,"numbags":20,"id":"a6mcmr1pbfaw","address":"131 N. Fairfax St","geo_precision":"zip","state":"VA"},"type":"Feature","geometry":{"type":"Point","coordinates":[-77.200259,38.884278]}},{"properties":{"city":"Falls Church","zip":"22046","geo_score":0.625,"numbags":30,"id":"a6mcmr0smqr4","address":"124 S. Oak St","geo_precision":"street","state":"VA"},"type":"Feature","geometry":{"type":"Point","coordinates":[-77.179909,38.887921]}},{"properties":{"city":"Falls Church","zip":"22046","geo_score":0.604,"numbags":30,"id":"a6mcmrca0xo5","address":"124 W. Marshall St","geo_precision":"street","state":"VA"},"type":"Feature","geometry":{"type":"Point","coordinates":[-77.184632,38.878903]}},{"properties":{"city":"Falls Church","zip":"22046","geo_score":0.607,"numbags":25,"id":"a6mcmr0e4n94","address":"120 W. Cameron Rd","geo_precision":"street","state":"VA"},"type":"Feature","geometry":{"type":"Point","coordinates":[-77.18132,38.879079]}},{"properties":{"city":"Falls Church","zip":"22046","geo_score":0.857,"numbags":15,"id":"a6mcmr5b8sn3","address":"120 N. Fairfax St","geo_precision":"zip","state":"VA"},"type":"Feature","geometry":{"type":"Point","coordinates":[-77.200259,38.884278]}},{"properties":{"city":"Falls Church","zip":"22046","geo_score":0.625,"numbags":20,"id":"a6mcmr9uajuo","address":"119 S. Oak St.","geo_precision":"street","state":"VA"},"type":"Feature","geometry":{"type":"Point","coordinates":[-77.179909,38.887921]}},{"properties":{"city":"Falls Church","zip":"22046","geo_score":0.602,"numbags":15,"id":"a6mcmr6zioih","address":"118 E. Jefferson St","geo_precision":"street","state":"VA"},"type":"Feature","geometry":{"type":"Point","coordinates":[-77.164746,38.885629]}},{"properties":{"city":"Falls Church","zip":"22046","geo_score":0.602,"numbags":8,"id":"a6mcmqx9yizb","address":"117 W. Annandale Rd","geo_precision":"street","state":"VA"},"type":"Feature","geometry":{"type":"Point","coordinates":[-77.174989,38.884753]}},{"properties":{"city":"Falls Church","zip":"22046","geo_score":0.607,"numbags":6,"id":"a6mcmr2727m0","address":"115 W. Cameron Rd","geo_precision":"street","state":"VA"},"type":"Feature","geometry":{"type":"Point","coordinates":[-77.18132,38.879079]}},{"properties":{"city":"Falls Church","zip":"22046","geo_score":0.6,"numbags":40,"id":"a6mcmr6g548f","address":"115 W. Greenway Blvd","geo_precision":"street","state":"VA"},"type":"Feature","geometry":{"type":"Point","coordinates":[-77.182487,38.879023]}},{"properties":{"city":"Falls Church","zip":"22046","geo_score":0.619,"numbags":10,"id":"a6mcmrcorxec","address":"112 S. Spring St","geo_precision":"street","state":"VA"},"type":"Feature","geometry":{"type":"Point","coordinates":[-77.184147,38.886278]}},{"properties":{"city":"Falls Church","zip":"22046","geo_score":0.602,"numbags":20,"id":"a6mcmrabsrix","address":"110 E. Jefferson St","geo_precision":"street","state":"VA"},"type":"Feature","geometry":{"type":"Point","coordinates":[-77.164746,38.885629]}},{"properties":{"city":"Falls Church","zip":"22046","geo_score":0.619,"numbags":5,"id":"a6mcmqwgzo3f","address":"108 S. Spring St","geo_precision":"street","state":"VA"},"type":"Feature","geometry":{"type":"Point","coordinates":[-77.184147,38.886278]}},{"properties":{"city":"Falls Church","zip":"22046","geo_score":1.0,"numbags":5,"id":"a6mcmr23sexc","address":"106 Dulany Pl","geo_precision":"range","state":"VA"},"type":"Feature","geometry":{"type":"Point","coordinates":[-77.185826,38.881554]}},{"properties":{"city":"Falls Church","zip":"22046","geo_score":0.963,"numbags":2,"id":"a6mcmr9zpkhk","address":"106 Grace La","geo_precision":"range","state":"VA"},"type":"Feature","geometry":{"type":"Point","coordinates":[-77.169781,38.87865]}},{"properties":{"city":"Falls Church","zip":"22046","geo_score":0.6,"numbags":5,"id":"a6mcmr7rbnlq","address":"105 W. Greenway Blvd","geo_precision":"street","state":"VA"},"type":"Feature","geometry":{"type":"Point","coordinates":[-77.182487,38.879023]}},{"properties":{"city":"Falls Church","zip":"22046","geo_score":0.625,"numbags":20,"id":"a6mcmratvgkz","address":"105 S. Lee St.","geo_precision":"street","state":"VA"},"type":"Feature","geometry":{"type":"Point","coordinates":[-77.178942,38.887295]}},{"properties":{"city":"Falls Church","zip":"22046","geo_score":0.604,"numbags":10,"id":"a6mcmr8qtyuy","address":"102 W. Rosemary La","geo_precision":"street","state":"VA"},"type":"Feature","geometry":{"type":"Point","coordinates":[-77.187558,38.878761]}},{"properties":{"city":"Falls Church","zip":"22046","geo_score":1.0,"numbags":20,"id":"a6mcmr7q3n7z","address":"101 Poplar Dr","geo_precision":"range","state":"VA"},"type":"Feature","geometry":{"type":"Point","coordinates":[-77.189516,38.879473]}}],"is_temporal":false,"author":{"url":"","metadata":null,"contact_name":null,"contact_address":null,"source":null,"contact_phone":null},"source":"","pagination":{"sort":null,"start":0,"total":162,"limit":1000000},"state":"complete","tags":"","published":"2014-08-14T21:33:13-04:00","id":254960}