{"type":"FeatureCollection","data_type":"Dataset","url_type":null,"permissions":[{"permissions":{"download":true,"view":true},"group_id":"everyone"}],"classification":null,"title":"geocode_filter2","count":7,"stream_id":255077,"contributor":{"url":"http://geocommons.com/users/47986","name":"tu120623a"},"data_attributes":null,"calculation_params":null,"icon_link":null,"link":"http://geocommons.com/overlays/255077.json","extent":[-106.263,28.6235,-73.987,40.7405],"geometry_types":["point"],"unique_name":null,"name":"geocode_filter2","feature_count":7,"description":"","next_feature":null,"is_raster":false,"short_classification":"Y","stats":{"number":{"max":7,"variance":4.66666666666667,"mean":4.0,"stdev":2.16024689946929,"min":1,"median":4}},"features":[{"properties":{"city":"New York","zip":"10010","text":" abc?'*def ","number":1,"geo_score":0.958,"id":"a6mtg282q8pv","address":"60 W 23rd St","geo_precision":"range","state":"NY"},"type":"Feature","geometry":{"type":"Point","coordinates":[-73.987018,40.740466]}},{"properties":{"city":"City","zip":"Zip","text":"abc","number":2,"geo_score":0.589,"id":"a6mtg22pjdai","address":"Address","geo_precision":"street","state":"State"},"type":"Feature","geometry":{"type":"Point","coordinates":[-91.885508,29.938685]}},{"properties":{"city":"abc","zip":"abc","text":"def","number":3,"geo_score":0.571,"id":"a6mtg1y7jep7","address":"abc","geo_precision":"city","state":"abc"},"type":"Feature","geometry":{"type":"Point","coordinates":[-106.262778,36.219921]}},{"properties":{"city":"Chicago","zip":"32767","text":"?'*","number":4,"geo_score":0.571,"id":"a6mtg20phbm1","address":"8900 S Lafayette Ave","geo_precision":"street","state":"IL"},"type":"Feature","geometry":{"type":"Point","coordinates":[-81.334617,28.623514]}},{"properties":{"city":"Aberdeen","zip":"28315","text":"","number":5,"geo_score":0.947,"id":"a6mtg1tbl7zk","address":"11088 N US Hwy 15","geo_precision":"range","state":"NC"},"type":"Feature","geometry":{"type":"Point","coordinates":[-79.418206,35.156118]}},{"properties":{"city":"def","zip":"def","text":"abc","number":6,"geo_score":0.337,"id":"a6mtg283vwph","address":"def","geo_precision":"street","state":"def"},"type":"Feature","geometry":{"type":"Point","coordinates":[-84.054031,36.454916]}},{"properties":{"city":"Abilene","zip":"32767","text":"abc def","number":7,"geo_score":0.526,"id":"a6mtg269ag3g","address":"4312 Buffalo Gap Rd","geo_precision":"street","state":"TX"},"type":"Feature","geometry":{"type":"Point","coordinates":[-80.82279,28.62447]}}],"is_temporal":false,"author":{"url":"","metadata":null,"contact_name":null,"contact_address":null,"source":null,"contact_phone":null},"source":"","pagination":{"sort":null,"start":0,"total":7,"limit":1000000},"state":"complete","tags":"","published":"2014-08-14T21:35:39-04:00","id":255077}