{"type":"FeatureCollection","data_type":"Dataset","url_type":null,"permissions":[{"permissions":{"download":true,"view":true},"group_id":"everyone"}],"classification":null,"title":"sex offender registry - louisville, KY","count":101,"stream_id":255171,"contributor":{"url":"http://geocommons.com/users/47748","name":"kippvale"},"data_attributes":null,"calculation_params":null,"icon_link":null,"link":"http://geocommons.com/overlays/255171.json","extent":[-85.79,38.2347,-85.7407,38.2653],"geometry_types":["point"],"unique_name":null,"name":"sex offender registry - louisville, KY","feature_count":101,"description":"Credit: Kentucky State Police ","next_feature":null,"is_raster":false,"short_classification":"Y","stats":{"latitude":{"max":38.265301,"variance":3.84966117396072e-05,"mean":38.253160980198,"stdev":0.0062045637831847,"min":38.234741,"median":38.256001},"category":{"max":2,"variance":0.147722772277228,"mean":1.14851485148515,"stdev":0.384347202770135,"min":0,"median":1},"id":{"max":40460,"variance":161032094.365347,"mean":12270.5841584158,"stdev":12689.8421725941,"min":0,"median":5920},"longitude":{"max":-85.740654,"variance":0.000204907252409901,"mean":-85.773345990099,"stdev":0.0143145818105141,"min":-85.789978,"median":-85.781113},"distance":{"max":1.45681,"variance":0.096550222866693,"mean":0.922634257425743,"stdev":0.310725317389319,"min":0.0,"median":0.94733}},"features":[{"properties":{"name":"Center of Your Search","city":null,"imagepath":null,"detaillink":"http://www.yourmapper.com/","permalink":"http://www.yourmapper.com/map/110/sex-offenders/all-registered-sex-offenders-in-","descriptio":"&lt;strong&gt;Sex Offenders&lt;/strong&gt;&lt;br&gt;All registered sex offenders","category":0,"address2":null,"zip":null,"latitude":38.254845,"date":null,"url":null,"id":"a6npfsqcr68w","longitude":-85.766373,"address":null,"location":null,"state":null,"distance":0.0},"type":"Feature","geometry":{"type":"Point","coordinates":[-85.766373,38.254845]}},{"properties":{"name":"DARRELL LEE BOOKER","city":"louisville","imagepath":"http://kspsor.state.ky.us/sor/photos/thumbs/10271.jpg","detaillink":"http://kspsor.state.ky.us/sor/servlet/SOR?id=10271","permalink":"http://www.yourmapper.com/details/110/10271/darrell-lee-booker.htm","descriptio":"Date of Birth:&lt;br&gt; 1959-03-06","category":1,"address2":null,"zip":"40203","latitude":38.261589,"date":null,"url":null,"id":"a6npfss0dyyg","longitude":-85.780693,"address":"223 n 19th st","location":null,"state":"KY","distance":0.91124},"type":"Feature","geometry":{"type":"Point","coordinates":[-85.780693,38.261589]}},{"properties":{"name":"WILLIAM S JR MOORE","city":"louisville","imagepath":"http://kspsor.state.ky.us/sor/photos/thumbs/10654.jpg","detaillink":"http://kspsor.state.ky.us/sor/servlet/SOR?id=10654","permalink":"http://www.yourmapper.com/details/110/10654/william-s-jr-moore.htm","descriptio":"Date of Birth:&lt;br&gt; 1980-02-07","category":1,"address2":null,"zip":"40203","latitude":38.256706,"date":null,"url":null,"id":"a6npfsj01rv2","longitude":-85.783569,"address":"1934 w jefferson st","location":null,"state":"KY","distance":0.94733},"type":"Feature","geometry":{"type":"Point","coordinates":[-85.783569,38.256706]}},{"properties":{"name":"ERIC MANDRELL LAWRENCE","city":"louisville","imagepath":"http://kspsor.state.ky.us/sor/photos/thumbs/10659.jpg","detaillink":"http://kspsor.state.ky.us/sor/servlet/SOR?id=10659","permalink":"http://www.yourmapper.com/details/110/10659/eric-mandrell-lawrence.htm","descriptio":"Date of Birth:&lt;br&gt; 1982-12-15","category":1,"address2":null,"zip":"40210","latitude":38.247288,"date":null,"url":null,"id":"a6npfse8171y","longitude":-85.777161,"address":"1517 anderson st","location":null,"state":"KY","distance":0.78897},"type":"Feature","geometry":{"type":"Point","coordinates":[-85.777161,38.247288]}},{"properties":{"name":"JAMES F BATES","city":"louisville","imagepath":"http://kspsor.state.ky.us/sor/photos/thumbs/1114.jpg","detaillink":"http://kspsor.state.ky.us/sor/servlet/SOR?id=1114","permalink":"http://www.yourmapper.com/details/110/1114/james-f-bates.htm","descriptio":"Date of Birth:&lt;br&gt; 1950-01-22","category":1,"address2":null,"zip":"40203","latitude":38.239731,"date":null,"url":null,"id":"a6npfsozjcwa","longitude":-85.755974,"address":"963 s 2nd st 10","location":null,"state":"KY","distance":1.19393},"type":"Feature","geometry":{"type":"Point","coordinates":[-85.755974,38.239731]}},{"properties":{"name":"DANIEL LEE PHILLIPS","city":"louisville","imagepath":"http://kspsor.state.ky.us/sor/photos/thumbs/11311.jpg","detaillink":"http://kspsor.state.ky.us/sor/servlet/SOR?id=11311","permalink":"http://www.yourmapper.com/details/110/11311/daniel-lee-phillips.htm","descriptio":"Date of Birth:&lt;br&gt; 1987-12-10","category":1,"address2":null,"zip":"40203","latitude":38.256706,"date":null,"url":null,"id":"a6npfsg6o3i1","longitude":-85.783569,"address":"1934 w jefferson st","location":null,"state":"KY","distance":0.94733},"type":"Feature","geometry":{"type":"Point","coordinates":[-85.783569,38.256706]}},{"properties":{"name":"RODNEY EUGENE JOHNSON","city":"louisville","imagepath":"http://kspsor.state.ky.us/sor/photos/thumbs/1282.jpg","detaillink":"http://kspsor.state.ky.us/sor/servlet/SOR?id=1282","permalink":"http://www.yourmapper.com/details/110/1282/rodney-eugene-johnson.htm","descriptio":"Date of Birth:&lt;br&gt; 1963-01-20","category":1,"address2":null,"zip":"40203","latitude":38.24995,"date":null,"url":null,"id":"a6npfsdzm7iu","longitude":-85.785286,"address":"655 s 20th st","location":null,"state":"KY","distance":1.08679},"type":"Feature","geometry":{"type":"Point","coordinates":[-85.785286,38.24995]}},{"properties":{"name":"TODD LAWRENCE HAZELIP","city":"louisville","imagepath":"http://kspsor.state.ky.us/sor/photos/thumbs/1320.jpg","detaillink":"http://kspsor.state.ky.us/sor/servlet/SOR?id=1320","permalink":"http://www.yourmapper.com/details/110/1320/todd-lawrence-hazelip.htm","descriptio":"Date of Birth:&lt;br&gt; 1971-05-20","category":1,"address2":null,"zip":"40203","latitude":38.256001,"date":null,"url":null,"id":"a6npfsk7hlor","longitude":-85.767487,"address":"1020 w market st","location":null,"state":"KY","distance":0.10071},"type":"Feature","geometry":{"type":"Point","coordinates":[-85.767487,38.256001]}},{"properties":{"name":"ALEXANDER JOSEPH LUFT","city":"louisville","imagepath":"http://kspsor.state.ky.us/sor/photos/thumbs/13371.jpg","detaillink":"http://kspsor.state.ky.us/sor/servlet/SOR?id=13371","permalink":"http://www.yourmapper.com/details/110/13371/alexander-joseph-luft.htm","descriptio":"Date of Birth:&lt;br&gt; 1956-02-21","category":1,"address2":null,"zip":"40211","latitude":38.250092,"date":null,"url":null,"id":"a6npfse8pxxi","longitude":-85.789421,"address":"659 s 23rd st","location":null,"state":"KY","distance":1.30052},"type":"Feature","geometry":{"type":"Point","coordinates":[-85.789421,38.250092]}},{"properties":{"name":"ROY ANTONIO PEDEN","city":"louisville","imagepath":"http://kspsor.state.ky.us/sor/photos/thumbs/1466.jpg","detaillink":"http://kspsor.state.ky.us/sor/servlet/SOR?id=1466","permalink":"http://www.yourmapper.com/details/110/1466/roy-antonio-peden.htm","descriptio":"Date of Birth:&lt;br&gt; 1962-06-04","category":2,"address2":null,"zip":"40202","latitude":38.254002,"date":null,"url":null,"id":"a6npfssmr2qa","longitude":-85.75,"address":"0 metro dept of corr","location":null,"state":"KY","distance":0.89546},"type":"Feature","geometry":{"type":"Point","coordinates":[-85.75,38.254002]}},{"properties":{"name":"CARA MICHELLE SPENCER","city":"louisville","imagepath":"http://kspsor.state.ky.us/sor/photos/thumbs/1586.jpg","detaillink":"http://kspsor.state.ky.us/sor/servlet/SOR?id=1586","permalink":"http://www.yourmapper.com/details/110/1586/cara-michelle-spencer.htm","descriptio":"Date of Birth:&lt;br&gt; 1968-09-24","category":1,"address2":null,"zip":"40203","latitude":38.256523,"date":null,"url":null,"id":"a6npfsofrkfk","longitude":-85.782295,"address":"1922 west jefferson st apt 2","location":null,"state":"KY","distance":0.87672},"type":"Feature","geometry":{"type":"Point","coordinates":[-85.782295,38.256523]}},{"properties":{"name":"PLEAZ LEE WAGERS","city":"louisville","imagepath":"http://kspsor.state.ky.us/sor/photos/thumbs/1629.jpg","detaillink":"http://kspsor.state.ky.us/sor/servlet/SOR?id=1629","permalink":"http://www.yourmapper.com/details/110/1629/pleaz-lee-wagers.htm","descriptio":"Date of Birth:&lt;br&gt; 1967-05-18","category":1,"address2":null,"zip":"40203","latitude":38.256706,"date":null,"url":null,"id":"a6npfslsb5j4","longitude":-85.783569,"address":"1934 w jefferson st","location":null,"state":"KY","distance":0.94733},"type":"Feature","geometry":{"type":"Point","coordinates":[-85.783569,38.256706]}},{"properties":{"name":"ROBERT LEE WOOLSEY","city":"louisville","imagepath":"http://kspsor.state.ky.us/sor/photos/thumbs/16292.jpg","detaillink":"http://kspsor.state.ky.us/sor/servlet/SOR?id=16292","permalink":"http://www.yourmapper.com/details/110/16292/robert-lee-woolsey.htm","descriptio":"Date of Birth:&lt;br&gt; 1957-03-29","category":2,"address2":null,"zip":"40212","latitude":38.252701,"date":null,"url":null,"id":"a6npfshzpikl","longitude":-85.750298,"address":"0metro corrections","location":null,"state":"KY","distance":0.88988},"type":"Feature","geometry":{"type":"Point","coordinates":[-85.750298,38.252701]}},{"properties":{"name":"JAMES BRADLEY DEAVER","city":"louisville","imagepath":"http://kspsor.state.ky.us/sor/photos/thumbs/1642.jpg","detaillink":"http://kspsor.state.ky.us/sor/servlet/SOR?id=1642","permalink":"http://www.yourmapper.com/details/110/1642/james-bradley-deaver.htm","descriptio":"Date of Birth:&lt;br&gt; 1968-05-17","category":1,"address2":null,"zip":"40202","latitude":38.256542,"date":null,"url":null,"id":"a6npfsstwjq7","longitude":-85.782494,"address":"1936 w jefferson st","location":null,"state":"KY","distance":0.88762},"type":"Feature","geometry":{"type":"Point","coordinates":[-85.782494,38.256542]}},{"properties":{"name":"TIMOTHY WAYNE WITHROW","city":"louisville","imagepath":"http://kspsor.state.ky.us/sor/photos/thumbs/1652.jpg","detaillink":"http://kspsor.state.ky.us/sor/servlet/SOR?id=1652","permalink":"http://www.yourmapper.com/details/110/1652/timothy-wayne-withrow.htm","descriptio":"Date of Birth:&lt;br&gt; 1965-02-03","category":1,"address2":null,"zip":"40203","latitude":38.25769,"date":null,"url":null,"id":"a6npfso2t932","longitude":-85.780258,"address":"1808 w market street","location":null,"state":"KY","distance":0.78313},"type":"Feature","geometry":{"type":"Point","coordinates":[-85.780258,38.25769]}},{"properties":{"name":"SAM S GLOVER","city":"louisville","imagepath":"http://kspsor.state.ky.us/sor/photos/thumbs/16552.jpg","detaillink":"http://kspsor.state.ky.us/sor/servlet/SOR?id=16552","permalink":"http://www.yourmapper.com/details/110/16552/sam-s-glover.htm","descriptio":"Date of Birth:&lt;br&gt; 1974-12-17","category":1,"address2":null,"zip":"40203","latitude":38.256664,"date":null,"url":null,"id":"a6npfsghhruc","longitude":-85.783684,"address":"1936 west jefferson","location":null,"state":"KY","distance":0.95313},"type":"Feature","geometry":{"type":"Point","coordinates":[-85.783684,38.256664]}},{"properties":{"name":"MICHAEL ANTHONY NICKLEN","city":"louisville","imagepath":"http://kspsor.state.ky.us/sor/photos/thumbs/1803.jpg","detaillink":"http://kspsor.state.ky.us/sor/servlet/SOR?id=1803","permalink":"http://www.yourmapper.com/details/110/1803/michael-anthony-nicklen.htm","descriptio":"Date of Birth:&lt;br&gt; 1951-04-04","category":1,"address2":null,"zip":"40203","latitude":38.256542,"date":null,"url":null,"id":"a6npfsjvynno","longitude":-85.782494,"address":"1936 w jefferson st","location":null,"state":"KY","distance":0.88762},"type":"Feature","geometry":{"type":"Point","coordinates":[-85.782494,38.256542]}},{"properties":{"name":"RONALD L DUNCAN","city":"louisville","imagepath":"http://kspsor.state.ky.us/sor/photos/thumbs/18472.jpg","detaillink":"http://kspsor.state.ky.us/sor/servlet/SOR?id=18472","permalink":"http://www.yourmapper.com/details/110/18472/ronald-l-duncan.htm","descriptio":"Date of Birth:&lt;br&gt; 1967-09-20","category":1,"address2":null,"zip":"40203","latitude":38.256542,"date":null,"url":null,"id":"a6npfsf4ois7","longitude":-85.782494,"address":"1936 w jefferson st","location":null,"state":"KY","distance":0.88762},"type":"Feature","geometry":{"type":"Point","coordinates":[-85.782494,38.256542]}},{"properties":{"name":"PAUL ALVIE SPICER","city":"louisville","imagepath":"http://kspsor.state.ky.us/sor/photos/thumbs/18754.jpg","detaillink":"http://kspsor.state.ky.us/sor/servlet/SOR?id=18754","permalink":"http://www.yourmapper.com/details/110/18754/paul-alvie-spicer.htm","descriptio":"Date of Birth:&lt;br&gt; 1983-03-02","category":2,"address2":null,"zip":"40202","latitude":38.254002,"date":null,"url":null,"id":"a6npfsq7fv9t","longitude":-85.75,"address":"0 metro dept of corr","location":null,"state":"KY","distance":0.89546},"type":"Feature","geometry":{"type":"Point","coordinates":[-85.75,38.254002]}},{"properties":{"name":"LEBRON THOMAS III JACKSON","city":"louisville","imagepath":"http://kspsor.state.ky.us/sor/photos/thumbs/1923.jpg","detaillink":"http://kspsor.state.ky.us/sor/servlet/SOR?id=1923","permalink":"http://www.yourmapper.com/details/110/1923/lebron-thomas-iii-jackson.htm","descriptio":"Date of Birth:&lt;br&gt; 1977-10-02","category":1,"address2":null,"zip":"40203","latitude":38.256664,"date":null,"url":null,"id":"a6npfseadflb","longitude":-85.783684,"address":"1936 west jefferson","location":null,"state":"KY","distance":0.95313},"type":"Feature","geometry":{"type":"Point","coordinates":[-85.783684,38.256664]}},{"properties":{"name":"CARL D SPENCER","city":"louisville","imagepath":"http://kspsor.state.ky.us/sor/photos/thumbs/19839.jpg","detaillink":"http://kspsor.state.ky.us/sor/servlet/SOR?id=19839","permalink":"http://www.yourmapper.com/details/110/19839/carl-d-spencer.htm","descriptio":"Date of Birth:&lt;br&gt; 1974-04-04","category":1,"address2":null,"zip":"40203","latitude":38.262383,"date":null,"url":null,"id":"a6npfsm1ddp1","longitude":-85.780991,"address":"308 north 19th street","location":null,"state":"KY","distance":0.95432},"type":"Feature","geometry":{"type":"Point","coordinates":[-85.780991,38.262383]}},{"properties":{"name":"DAVID THOMAS HICKEY","city":"louisville","imagepath":"http://kspsor.state.ky.us/sor/photos/thumbs/19857.jpg","detaillink":"http://kspsor.state.ky.us/sor/servlet/SOR?id=19857","permalink":"http://www.yourmapper.com/details/110/19857/david-thomas-hickey.htm","descriptio":"Date of Birth:&lt;br&gt; 1956-10-02","category":1,"address2":null,"zip":"40203","latitude":38.256706,"date":null,"url":null,"id":"a6npfsg1e5ym","longitude":-85.783569,"address":"1934 west jefferson","location":null,"state":"KY","distance":0.94733},"type":"Feature","geometry":{"type":"Point","coordinates":[-85.783569,38.256706]}},{"properties":{"name":"MICHAEL JUAN MARTINEZ","city":"louisville","imagepath":"http://kspsor.state.ky.us/sor/photos/thumbs/2112.jpg","detaillink":"http://kspsor.state.ky.us/sor/servlet/SOR?id=2112","permalink":"http://www.yourmapper.com/details/110/2112/michael-juan-martinez.htm","descriptio":"Date of Birth:&lt;br&gt; 1974-09-20","category":1,"address2":null,"zip":"40212","latitude":38.264889,"date":null,"url":null,"id":"a6npfsd2360o","longitude":-85.789413,"address":"2423 slevin st","location":null,"state":"KY","distance":1.43808},"type":"Feature","geometry":{"type":"Point","coordinates":[-85.789413,38.264889]}},{"properties":{"name":"BRYANT BROWN","city":"louisville","imagepath":"http://kspsor.state.ky.us/sor/photos/thumbs/2135.jpg","detaillink":"http://kspsor.state.ky.us/sor/servlet/SOR?id=2135","permalink":"http://www.yourmapper.com/details/110/2135/bryant-brown.htm","descriptio":"Date of Birth:&lt;br&gt; 1962-04-01","category":2,"address2":null,"zip":"40202","latitude":38.254002,"date":null,"url":null,"id":"a6npfskfpqeu","longitude":-85.75,"address":"0 metro dept of corr","location":null,"state":"KY","distance":0.89546},"type":"Feature","geometry":{"type":"Point","coordinates":[-85.75,38.254002]}},{"properties":{"name":"DAVID JOHNSON SOUTHARD","city":"louisville","imagepath":"http://kspsor.state.ky.us/sor/photos/thumbs/21657.jpg","detaillink":"http://kspsor.state.ky.us/sor/servlet/SOR?id=21657","permalink":"http://www.yourmapper.com/details/110/21657/david-johnson-southard.htm","descriptio":"Date of Birth:&lt;br&gt; 1974-05-21","category":1,"address2":null,"zip":"40211","latitude":38.250092,"date":null,"url":null,"id":"a6npfsllhq8t","longitude":-85.789421,"address":"659 s 23rd st","location":null,"state":"KY","distance":1.30052},"type":"Feature","geometry":{"type":"Point","coordinates":[-85.789421,38.250092]}},{"properties":{"name":"DAVID OLIVER HINTZ","city":"louisville","imagepath":"http://kspsor.state.ky.us/sor/photos/thumbs/21857.jpg","detaillink":"http://kspsor.state.ky.us/sor/servlet/SOR?id=21857","permalink":"http://www.yourmapper.com/details/110/21857/david-oliver-hintz.htm","descriptio":"Date of Birth:&lt;br&gt; 1938-04-03","category":2,"address2":null,"zip":"40202","latitude":38.252552,"date":null,"url":null,"id":"a6npfso6eixq","longitude":-85.751404,"address":"0 metro dept corrections","location":null,"state":"KY","distance":0.83233},"type":"Feature","geometry":{"type":"Point","coordinates":[-85.751404,38.252552]}},{"properties":{"name":"KENNETH M MCBRIDE","city":"louisville","imagepath":"http://kspsor.state.ky.us/sor/photos/thumbs/2375.jpg","detaillink":"http://kspsor.state.ky.us/sor/servlet/SOR?id=2375","permalink":"http://www.yourmapper.com/details/110/2375/kenneth-m-mcbride.htm","descriptio":"Date of Birth:&lt;br&gt; 1970-08-27","category":1,"address2":null,"zip":"40203","latitude":38.256542,"date":null,"url":null,"id":"a6npfsowbxeb","longitude":-85.782494,"address":"1936 w jefferson st","location":null,"state":"KY","distance":0.88762},"type":"Feature","geometry":{"type":"Point","coordinates":[-85.782494,38.256542]}},{"properties":{"name":"ROBERT RAY DUNCAN","city":"louisville","imagepath":"http://kspsor.state.ky.us/sor/photos/thumbs/23818.jpg","detaillink":"http://kspsor.state.ky.us/sor/servlet/SOR?id=23818","permalink":"http://www.yourmapper.com/details/110/23818/robert-ray-duncan.htm","descriptio":"Date of Birth:&lt;br&gt; 1967-07-27","category":1,"address2":null,"zip":"40203","latitude":38.24892,"date":null,"url":null,"id":"a6npfsduvdln","longitude":-85.78035,"address":"1729 west broadway 2","location":null,"state":"KY","distance":0.86682},"type":"Feature","geometry":{"type":"Point","coordinates":[-85.78035,38.24892]}},{"properties":{"name":"PAUL MARTIN BUSH","city":"louisville","imagepath":"http://kspsor.state.ky.us/sor/photos/thumbs/2384.jpg","detaillink":"http://kspsor.state.ky.us/sor/servlet/SOR?id=2384","permalink":"http://www.yourmapper.com/details/110/2384/paul-martin-bush.htm","descriptio":"Date of Birth:&lt;br&gt; 1966-02-08","category":2,"address2":null,"zip":"40202","latitude":38.254002,"date":null,"url":null,"id":"a6npfshlyokg","longitude":-85.75,"address":"0 metro dept of corr","location":null,"state":"KY","distance":0.89546},"type":"Feature","geometry":{"type":"Point","coordinates":[-85.75,38.254002]}},{"properties":{"name":"WILLIAM LEE BAXTER","city":"louisville","imagepath":"http://kspsor.state.ky.us/sor/photos/thumbs/2511.jpg","detaillink":"http://kspsor.state.ky.us/sor/servlet/SOR?id=2511","permalink":"http://www.yourmapper.com/details/110/2511/william-lee-baxter.htm","descriptio":"Date of Birth:&lt;br&gt; 1957-09-26","category":2,"address2":null,"zip":"40202","latitude":38.254002,"date":null,"url":null,"id":"a6npfsphi3g6","longitude":-85.75,"address":"0 metro dept of corr","location":null,"state":"KY","distance":0.89546},"type":"Feature","geometry":{"type":"Point","coordinates":[-85.75,38.254002]}},{"properties":{"name":"TERRY JONES","city":"louisville","imagepath":"http://kspsor.state.ky.us/sor/photos/thumbs/25137.jpg","detaillink":"http://kspsor.state.ky.us/sor/servlet/SOR?id=25137","permalink":"http://www.yourmapper.com/details/110/25137/terry-jones.htm","descriptio":"Date of Birth:&lt;br&gt; 1982-11-10","category":1,"address2":null,"zip":"40203","latitude":38.256706,"date":null,"url":null,"id":"a6npfsl3ila6","longitude":-85.783569,"address":"1934 west jefferson","location":null,"state":"KY","distance":0.94733},"type":"Feature","geometry":{"type":"Point","coordinates":[-85.783569,38.256706]}},{"properties":{"name":"ROBERT NATHAN WATSON","city":"louisville","imagepath":"http://kspsor.state.ky.us/sor/photos/thumbs/26358.jpg","detaillink":"http://kspsor.state.ky.us/sor/servlet/SOR?id=26358","permalink":"http://www.yourmapper.com/details/110/26358/robert-nathan-watson.htm","descriptio":"Date of Birth:&lt;br&gt; 1983-12-12","category":1,"address2":null,"zip":"40203","latitude":38.253334,"date":null,"url":null,"id":"a6npfskiy3er","longitude":-85.764015,"address":"400 s 8th st apt 309","location":null,"state":"KY","distance":0.16608},"type":"Feature","geometry":{"type":"Point","coordinates":[-85.764015,38.253334]}},{"properties":{"name":"JAMES EARL GHOLSTON","city":"louisville","imagepath":"http://kspsor.state.ky.us/sor/photos/thumbs/2686.jpg","detaillink":"http://kspsor.state.ky.us/sor/servlet/SOR?id=2686","permalink":"http://www.yourmapper.com/details/110/2686/james-earl-gholston.htm","descriptio":"Date of Birth:&lt;br&gt; 1962-06-21","category":1,"address2":null,"zip":"40203","latitude":38.256706,"date":null,"url":null,"id":"a6npfsklr0nc","longitude":-85.783569,"address":"1934 west jefferson apth","location":null,"state":"KY","distance":0.94733},"type":"Feature","geometry":{"type":"Point","coordinates":[-85.783569,38.256706]}},{"properties":{"name":"BYRON STEWARD HAMILTON","city":"louisville","imagepath":"http://kspsor.state.ky.us/sor/photos/thumbs/26978.jpg","detaillink":"http://kspsor.state.ky.us/sor/servlet/SOR?id=26978","permalink":"http://www.yourmapper.com/details/110/26978/byron-steward-hamilton.htm","descriptio":"Date of Birth:&lt;br&gt; 1956-01-19","category":1,"address2":null,"zip":"40210","latitude":38.237804,"date":null,"url":null,"id":"a6npfsktulfj","longitude":-85.781113,"address":"1601 hale street","location":null,"state":"KY","distance":1.43168},"type":"Feature","geometry":{"type":"Point","coordinates":[-85.781113,38.237804]}},{"properties":{"name":"GRANT BOL","city":"louisville","imagepath":"http://kspsor.state.ky.us/sor/photos/thumbs/27278.jpg","detaillink":"http://kspsor.state.ky.us/sor/servlet/SOR?id=27278","permalink":"http://www.yourmapper.com/details/110/27278/grant-bol.htm","descriptio":"Date of Birth:&lt;br&gt; 1961-05-19","category":1,"address2":null,"zip":"40203","latitude":38.256706,"date":null,"url":null,"id":"a6npfst3rbpf","longitude":-85.783569,"address":"1934 west jefferson","location":null,"state":"KY","distance":0.94733},"type":"Feature","geometry":{"type":"Point","coordinates":[-85.783569,38.256706]}},{"properties":{"name":"DONALD JAMES ALLYN BAUM","city":"louisville","imagepath":"http://kspsor.state.ky.us/sor/photos/thumbs/27579.jpg","detaillink":"http://kspsor.state.ky.us/sor/servlet/SOR?id=27579","permalink":"http://www.yourmapper.com/details/110/27579/donald-james-allyn-baum.htm","descriptio":"Date of Birth:&lt;br&gt; 1969-09-13","category":1,"address2":null,"zip":"40202","latitude":38.25634,"date":null,"url":null,"id":"a6npfsq4zcd8","longitude":-85.767601,"address":"1020 west market street","location":null,"state":"KY","distance":0.12364},"type":"Feature","geometry":{"type":"Point","coordinates":[-85.767601,38.25634]}},{"properties":{"name":"RODERICK SLOAN","city":"louisville","imagepath":"http://kspsor.state.ky.us/sor/photos/thumbs/2834.jpg","detaillink":"http://kspsor.state.ky.us/sor/servlet/SOR?id=2834","permalink":"http://www.yourmapper.com/details/110/2834/roderick-sloan.htm","descriptio":"Date of Birth:&lt;br&gt; 1953-11-26","category":1,"address2":null,"zip":"40203","latitude":38.243958,"date":null,"url":null,"id":"a6npfsquzjav","longitude":-85.755569,"address":"201 york st 608","location":null,"state":"KY","distance":0.95926},"type":"Feature","geometry":{"type":"Point","coordinates":[-85.755569,38.243958]}},{"properties":{"name":"HOWARD MICHAEL WEST","city":"louisville","imagepath":"http://kspsor.state.ky.us/sor/photos/thumbs/2881.jpg","detaillink":"http://kspsor.state.ky.us/sor/servlet/SOR?id=2881","permalink":"http://www.yourmapper.com/details/110/2881/howard-michael-west.htm","descriptio":"Date of Birth:&lt;br&gt; 1972-12-29","category":1,"address2":null,"zip":"40203","latitude":38.265301,"date":null,"url":null,"id":"a6npfsm6cgpf","longitude":-85.779068,"address":"1846 portland ave","location":null,"state":"KY","distance":1.00396},"type":"Feature","geometry":{"type":"Point","coordinates":[-85.779068,38.265301]}},{"properties":{"name":"LONDEAN TURNER","city":"louisville","imagepath":"http://kspsor.state.ky.us/sor/photos/thumbs/2952.jpg","detaillink":"http://kspsor.state.ky.us/sor/servlet/SOR?id=2952","permalink":"http://www.yourmapper.com/details/110/2952/londean-turner.htm","descriptio":"Date of Birth:&lt;br&gt; 1952-09-18","category":1,"address2":null,"zip":"40203","latitude":38.256001,"date":null,"url":null,"id":"a6npfsfuf25t","longitude":-85.767487,"address":"1020 w market st","location":null,"state":"KY","distance":0.10071},"type":"Feature","geometry":{"type":"Point","coordinates":[-85.767487,38.256001]}},{"properties":{"name":"JAMES DERRICK HODGE","city":"louisville","imagepath":"http://kspsor.state.ky.us/sor/photos/thumbs/2990.jpg","detaillink":"http://kspsor.state.ky.us/sor/servlet/SOR?id=2990","permalink":"http://www.yourmapper.com/details/110/2990/james-derrick-hodge.htm","descriptio":"Date of Birth:&lt;br&gt; 1976-06-20","category":1,"address2":null,"zip":"40203","latitude":38.256706,"date":null,"url":null,"id":"a6npfst3flk2","longitude":-85.783569,"address":"1934 west jefferson st","location":null,"state":"KY","distance":0.94733},"type":"Feature","geometry":{"type":"Point","coordinates":[-85.783569,38.256706]}},{"properties":{"name":"CRAIG ANSON DUNN","city":"louisville","imagepath":"http://kspsor.state.ky.us/sor/photos/thumbs/3168.jpg","detaillink":"http://kspsor.state.ky.us/sor/servlet/SOR?id=3168","permalink":"http://www.yourmapper.com/details/110/3168/craig-anson-dunn.htm","descriptio":"Date of Birth:&lt;br&gt; 1956-11-16","category":2,"address2":null,"zip":"40202","latitude":38.254002,"date":null,"url":null,"id":"a6npfsh3dzen","longitude":-85.75,"address":"0 metro dept of corr","location":null,"state":"KY","distance":0.89546},"type":"Feature","geometry":{"type":"Point","coordinates":[-85.75,38.254002]}},{"properties":{"name":"CHARLES RAY BUMPUS","city":"louisville","imagepath":"http://kspsor.state.ky.us/sor/photos/thumbs/32039.jpg","detaillink":"http://kspsor.state.ky.us/sor/servlet/SOR?id=32039","permalink":"http://www.yourmapper.com/details/110/32039/charles-ray-bumpus.htm","descriptio":"Date of Birth:&lt;br&gt; 1963-02-15","category":1,"address2":null,"zip":"40203","latitude":38.256542,"date":null,"url":null,"id":"a6npfsp9xxiq","longitude":-85.782494,"address":"1936 w jefferson st","location":null,"state":"KY","distance":0.88762},"type":"Feature","geometry":{"type":"Point","coordinates":[-85.782494,38.256542]}},{"properties":{"name":"JOHN KEVIN DUNN","city":"louisville","imagepath":"http://kspsor.state.ky.us/sor/photos/thumbs/3230.jpg","detaillink":"http://kspsor.state.ky.us/sor/servlet/SOR?id=3230","permalink":"http://www.yourmapper.com/details/110/3230/john-kevin-dunn.htm","descriptio":"Date of Birth:&lt;br&gt; 1972-06-10","category":2,"address2":null,"zip":"40202","latitude":38.254002,"date":null,"url":null,"id":"a6npfslsa83u","longitude":-85.75,"address":"0 metro dept of corr","location":null,"state":"KY","distance":0.89546},"type":"Feature","geometry":{"type":"Point","coordinates":[-85.75,38.254002]}},{"properties":{"name":"JAMES EUGENE JR BONDS","city":"louisville","imagepath":"http://kspsor.state.ky.us/sor/photos/thumbs/3257.jpg","detaillink":"http://kspsor.state.ky.us/sor/servlet/SOR?id=3257","permalink":"http://www.yourmapper.com/details/110/3257/james-eugene-jr-bonds.htm","descriptio":"Date of Birth:&lt;br&gt; 1972-01-23","category":2,"address2":null,"zip":"40202","latitude":38.254002,"date":null,"url":null,"id":"a6npfsmn9gwi","longitude":-85.75,"address":"0 metro dept of corr","location":null,"state":"KY","distance":0.89546},"type":"Feature","geometry":{"type":"Point","coordinates":[-85.75,38.254002]}},{"properties":{"name":"KEITH MIKULKA","city":"louisville","imagepath":"http://kspsor.state.ky.us/sor/photos/thumbs/3329.jpg","detaillink":"http://kspsor.state.ky.us/sor/servlet/SOR?id=3329","permalink":"http://www.yourmapper.com/details/110/3329/keith-mikulka.htm","descriptio":"Date of Birth:&lt;br&gt; 1965-11-13","category":1,"address2":null,"zip":"40203","latitude":38.237026,"date":null,"url":null,"id":"a6npfsdba8bg","longitude":-85.766541,"address":"1125 s 8th st 2","location":null,"state":"KY","distance":1.23839},"type":"Feature","geometry":{"type":"Point","coordinates":[-85.766541,38.237026]}},{"properties":{"name":"CRAIG ANDREW ARMSTRONG","city":"louisville","imagepath":"http://kspsor.state.ky.us/sor/photos/thumbs/33379.jpg","detaillink":"http://kspsor.state.ky.us/sor/servlet/SOR?id=33379","permalink":"http://www.yourmapper.com/details/110/33379/craig-andrew-armstrong.htm","descriptio":"Date of Birth:&lt;br&gt; 1985-11-07","category":1,"address2":null,"zip":"40203","latitude":38.256542,"date":null,"url":null,"id":"a6npfsecqjvg","longitude":-85.782494,"address":"1936 west jefferson street","location":null,"state":"KY","distance":0.88762},"type":"Feature","geometry":{"type":"Point","coordinates":[-85.782494,38.256542]}},{"properties":{"name":"ANNA-MAY LYNN VERSCHUEREN","city":"louisville","imagepath":"http://kspsor.state.ky.us/sor/photos/thumbs/33460.jpg","detaillink":"http://kspsor.state.ky.us/sor/servlet/SOR?id=33460","permalink":"http://www.yourmapper.com/details/110/33460/annamay-lynn-verschueren.htm","descriptio":"Date of Birth:&lt;br&gt; 1987-04-29","category":1,"address2":null,"zip":"40211","latitude":38.250481,"date":null,"url":null,"id":"a6npfsmwve30","longitude":-85.789978,"address":"648 s 23rd st","location":null,"state":"KY","distance":1.32348},"type":"Feature","geometry":{"type":"Point","coordinates":[-85.789978,38.250481]}},{"properties":{"name":"DANNY S KUHL","city":"louisville","imagepath":"http://kspsor.state.ky.us/sor/photos/thumbs/3376.jpg","detaillink":"http://kspsor.state.ky.us/sor/servlet/SOR?id=3376","permalink":"http://www.yourmapper.com/details/110/3376/danny-s-kuhl.htm","descriptio":"Date of Birth:&lt;br&gt; 1960-04-18","category":1,"address2":null,"zip":"40211","latitude":38.252129,"date":null,"url":null,"id":"a6npfsrv5wds","longitude":-85.78804,"address":"2208 w chestnut 2","location":null,"state":"KY","distance":1.19745},"type":"Feature","geometry":{"type":"Point","coordinates":[-85.78804,38.252129]}},{"properties":{"name":"GEOFFREY JUSTIN RYDER","city":"louisville","imagepath":"http://kspsor.state.ky.us/sor/photos/thumbs/3405.jpg","detaillink":"http://kspsor.state.ky.us/sor/servlet/SOR?id=3405","permalink":"http://www.yourmapper.com/details/110/3405/geoffrey-justin-ryder.htm","descriptio":"Date of Birth:&lt;br&gt; 1983-05-04","category":1,"address2":null,"zip":"40203","latitude":38.256706,"date":null,"url":null,"id":"a6npfsdr5ju2","longitude":-85.783569,"address":"1934 west jefferson st","location":null,"state":"KY","distance":0.94733},"type":"Feature","geometry":{"type":"Point","coordinates":[-85.783569,38.256706]}},{"properties":{"name":"MELVIN SHAFTON JR WARREN","city":"louisville","imagepath":"http://kspsor.state.ky.us/sor/photos/thumbs/3459.jpg","detaillink":"http://kspsor.state.ky.us/sor/servlet/SOR?id=3459","permalink":"http://www.yourmapper.com/details/110/3459/melvin-shafton-jr-warren.htm","descriptio":"Date of Birth:&lt;br&gt; 1968-12-07","category":1,"address2":null,"zip":"40203","latitude":38.256706,"date":null,"url":null,"id":"a6npfsq9glnt","longitude":-85.783569,"address":"1934 w jefferson st","location":null,"state":"KY","distance":0.94733},"type":"Feature","geometry":{"type":"Point","coordinates":[-85.783569,38.256706]}},{"properties":{"name":"DONALD LEWIS MITCHELL","city":"louisville","imagepath":"http://kspsor.state.ky.us/sor/photos/thumbs/35040.jpg","detaillink":"http://kspsor.state.ky.us/sor/servlet/SOR?id=35040","permalink":"http://www.yourmapper.com/details/110/35040/donald-lewis-mitchell.htm","descriptio":"Date of Birth:&lt;br&gt; 1951-07-30","category":1,"address2":null,"zip":"40203","latitude":38.256542,"date":null,"url":null,"id":"a6npfsf8hw6y","longitude":-85.782494,"address":"1936 w jefferson st","location":null,"state":"KY","distance":0.88762},"type":"Feature","geometry":{"type":"Point","coordinates":[-85.782494,38.256542]}},{"properties":{"name":"KENNETH R HANCOCK","city":"louisville","imagepath":"http://kspsor.state.ky.us/sor/photos/thumbs/3505.jpg","detaillink":"http://kspsor.state.ky.us/sor/servlet/SOR?id=3505","permalink":"http://www.yourmapper.com/details/110/3505/kenneth-r-hancock.htm","descriptio":"Date of Birth:&lt;br&gt; 1956-07-09","category":1,"address2":null,"zip":"40203","latitude":38.25634,"date":null,"url":null,"id":"a6npfsggae6h","longitude":-85.767601,"address":"1020 w market","location":null,"state":"KY","distance":0.12364},"type":"Feature","geometry":{"type":"Point","coordinates":[-85.767601,38.25634]}},{"properties":{"name":"KEITH CARNEY","city":"louisville","imagepath":"http://kspsor.state.ky.us/sor/photos/thumbs/36259.jpg","detaillink":"http://kspsor.state.ky.us/sor/servlet/SOR?id=36259","permalink":"http://www.yourmapper.com/details/110/36259/keith-carney.htm","descriptio":"Date of Birth:&lt;br&gt; 1964-03-06","category":1,"address2":null,"zip":"40203","latitude":38.234741,"date":null,"url":null,"id":"a6npfsczvxxu","longitude":-85.76358,"address":"1219 south 6th street a4","location":null,"state":"KY","distance":1.40545},"type":"Feature","geometry":{"type":"Point","coordinates":[-85.76358,38.234741]}},{"properties":{"name":"TIMOTHY ALAN TURNER","city":"louisville","imagepath":"http://kspsor.state.ky.us/sor/photos/thumbs/3626.jpg","detaillink":"http://kspsor.state.ky.us/sor/servlet/SOR?id=3626","permalink":"http://www.yourmapper.com/details/110/3626/timothy-alan-turner.htm","descriptio":"Date of Birth:&lt;br&gt; 1964-07-01","category":2,"address2":null,"zip":"40202","latitude":38.254002,"date":null,"url":null,"id":"a6npfsjqrzme","longitude":-85.75,"address":"0 metro dept of corr","location":null,"state":"KY","distance":0.89546},"type":"Feature","geometry":{"type":"Point","coordinates":[-85.75,38.254002]}},{"properties":{"name":"KERMIT LAMONT HOLLAND","city":"louisville","imagepath":"http://kspsor.state.ky.us/sor/photos/thumbs/3636.jpg","detaillink":"http://kspsor.state.ky.us/sor/servlet/SOR?id=3636","permalink":"http://www.yourmapper.com/details/110/3636/kermit-lamont-holland.htm","descriptio":"Date of Birth:&lt;br&gt; 1961-07-14","category":1,"address2":null,"zip":"40203","latitude":38.256695,"date":null,"url":null,"id":"a6npfsiyln2r","longitude":-85.783592,"address":"1936 west jefferson st 1","location":null,"state":"KY","distance":0.94846},"type":"Feature","geometry":{"type":"Point","coordinates":[-85.783592,38.256695]}},{"properties":{"name":"EDDIE L RAINBOLT","city":"louisville","imagepath":"http://kspsor.state.ky.us/sor/photos/thumbs/36859.jpg","detaillink":"http://kspsor.state.ky.us/sor/servlet/SOR?id=36859","permalink":"http://www.yourmapper.com/details/110/36859/eddie-l-rainbolt.htm","descriptio":"Date of Birth:&lt;br&gt; 1964-08-28","category":1,"address2":null,"zip":"40211","latitude":38.250271,"date":null,"url":null,"id":"a6npfshgrjxk","longitude":-85.78952,"address":"659 s 23rd street","location":null,"state":"KY","distance":1.30266},"type":"Feature","geometry":{"type":"Point","coordinates":[-85.78952,38.250271]}},{"properties":{"name":"VINCENT-DAVID CRUZ CRISOSTOMO","city":"louisville","imagepath":"http://kspsor.state.ky.us/sor/photos/thumbs/36880.jpg","detaillink":"http://kspsor.state.ky.us/sor/servlet/SOR?id=36880","permalink":"http://www.yourmapper.com/details/110/36880/vincentdavid-cruz-crisostomo.htm","descriptio":"Date of Birth:&lt;br&gt; 1985-04-01","category":1,"address2":null,"zip":"40202","latitude":38.252316,"date":null,"url":null,"id":"a6npfsfxo7fe","longitude":-85.744049,"address":"506 e jefferson st 301","location":null,"state":"KY","distance":1.23094},"type":"Feature","geometry":{"type":"Point","coordinates":[-85.744049,38.252316]}},{"properties":{"name":"ANDRE LIN WATKINS","city":"louisville","imagepath":"http://kspsor.state.ky.us/sor/photos/thumbs/3725.jpg","detaillink":"http://kspsor.state.ky.us/sor/servlet/SOR?id=3725","permalink":"http://www.yourmapper.com/details/110/3725/andre-lin-watkins.htm","descriptio":"Date of Birth:&lt;br&gt; 1960-08-13","category":1,"address2":null,"zip":"40210","latitude":38.247162,"date":null,"url":null,"id":"a6npfskg5vv1","longitude":-85.779823,"address":"733 s 17th st","location":null,"state":"KY","distance":0.90773},"type":"Feature","geometry":{"type":"Point","coordinates":[-85.779823,38.247162]}},{"properties":{"name":"ANTHONY MCGEE","city":"louisville","imagepath":"http://kspsor.state.ky.us/sor/photos/thumbs/37619.jpg","detaillink":"http://kspsor.state.ky.us/sor/servlet/SOR?id=37619","permalink":"http://www.yourmapper.com/details/110/37619/anthony-mcgee.htm","descriptio":"Date of Birth:&lt;br&gt; 1966-06-03","category":1,"address2":null,"zip":"40211","latitude":38.250271,"date":null,"url":null,"id":"a6npfsfkjt87","longitude":-85.78952,"address":"659 s 23rd street","location":null,"state":"KY","distance":1.30266},"type":"Feature","geometry":{"type":"Point","coordinates":[-85.78952,38.250271]}},{"properties":{"name":"JAMES RAY BOREL","city":"louisville","imagepath":"http://kspsor.state.ky.us/sor/photos/thumbs/37659.jpg","detaillink":"http://kspsor.state.ky.us/sor/servlet/SOR?id=37659","permalink":"http://www.yourmapper.com/details/110/37659/james-ray-borel.htm","descriptio":"Date of Birth:&lt;br&gt; 1963-10-24","category":1,"address2":null,"zip":"40203","latitude":38.256664,"date":null,"url":null,"id":"a6npfsirof7v","longitude":-85.783684,"address":"1936 w jefferson","location":null,"state":"KY","distance":0.95313},"type":"Feature","geometry":{"type":"Point","coordinates":[-85.783684,38.256664]}},{"properties":{"name":"CHARLES LEW POSPISIL","city":"louisville","imagepath":"http://kspsor.state.ky.us/sor/photos/thumbs/37739.jpg","detaillink":"http://kspsor.state.ky.us/sor/servlet/SOR?id=37739","permalink":"http://www.yourmapper.com/details/110/37739/charles-lew-pospisil.htm","descriptio":"Date of Birth:&lt;br&gt; 1949-02-07","category":1,"address2":null,"zip":"40203","latitude":38.244034,"date":null,"url":null,"id":"a6npfso9jfn3","longitude":-85.758896,"address":"800 4th ave 404","location":null,"state":"KY","distance":0.85502},"type":"Feature","geometry":{"type":"Point","coordinates":[-85.758896,38.244034]}},{"properties":{"name":"WILLIAM JASON RENO DOTSON","city":"louisville","imagepath":"http://kspsor.state.ky.us/sor/photos/thumbs/38024.jpg","detaillink":"http://kspsor.state.ky.us/sor/servlet/SOR?id=38024","permalink":"http://www.yourmapper.com/details/110/38024/william-jason-reno-dotson.htm","descriptio":"Date of Birth:&lt;br&gt; 1972-04-06","category":1,"address2":null,"zip":"40211","latitude":38.250092,"date":null,"url":null,"id":"a6npfsojn1oy","longitude":-85.789421,"address":"659 s 23rd st","location":null,"state":"KY","distance":1.30052},"type":"Feature","geometry":{"type":"Point","coordinates":[-85.789421,38.250092]}},{"properties":{"name":"KAM LUY","city":"louisville","imagepath":"http://kspsor.state.ky.us/sor/photos/thumbs/38140.jpg","detaillink":"http://kspsor.state.ky.us/sor/servlet/SOR?id=38140","permalink":"http://www.yourmapper.com/details/110/38140/kam-luy.htm","descriptio":"Date of Birth:&lt;br&gt; 1979-11-05","category":1,"address2":null,"zip":"40203","latitude":38.256542,"date":null,"url":null,"id":"a6npfspfe8df","longitude":-85.782494,"address":"1936 west jefferson st","location":null,"state":"KY","distance":0.88762},"type":"Feature","geometry":{"type":"Point","coordinates":[-85.782494,38.256542]}},{"properties":{"name":"MICHAEL MABREY","city":"louisville","imagepath":"http://kspsor.state.ky.us/sor/photos/thumbs/39159.jpg","detaillink":"http://kspsor.state.ky.us/sor/servlet/SOR?id=39159","permalink":"http://www.yourmapper.com/details/110/39159/michael-mabrey.htm","descriptio":"Date of Birth:&lt;br&gt; 1959-09-07","category":1,"address2":null,"zip":"40211","latitude":38.250092,"date":null,"url":null,"id":"a6npfsgul4sl","longitude":-85.789421,"address":"659 s 23rd st","location":null,"state":"KY","distance":1.30052},"type":"Feature","geometry":{"type":"Point","coordinates":[-85.789421,38.250092]}},{"properties":{"name":"STEPHEN CHARLES DUZAN","city":"louisville","imagepath":"http://kspsor.state.ky.us/sor/photos/thumbs/39699.jpg","detaillink":"http://kspsor.state.ky.us/sor/servlet/SOR?id=39699","permalink":"http://www.yourmapper.com/details/110/39699/stephen-charles-duzan.htm","descriptio":"Date of Birth:&lt;br&gt; 1970-08-28","category":1,"address2":null,"zip":"40203","latitude":38.256706,"date":null,"url":null,"id":"a6npfskq4tvt","longitude":-85.783569,"address":"1934 w jefferson st","location":null,"state":"KY","distance":0.94733},"type":"Feature","geometry":{"type":"Point","coordinates":[-85.783569,38.256706]}},{"properties":{"name":"JASON ROSS ADA","city":"louisville","imagepath":null,"detaillink":"http://kspsor.state.ky.us/sor/servlet/SOR?id=40239","permalink":"http://www.yourmapper.com/details/110/40239/jason-ross-ada.htm","descriptio":"Date of Birth:&lt;br&gt; 1975-12-25","category":1,"address2":null,"zip":"40203","latitude":38.256542,"date":null,"url":null,"id":"a6npfsoj4ocs","longitude":-85.782494,"address":"1936 west jefferson street","location":null,"state":"KY","distance":0.88762},"type":"Feature","geometry":{"type":"Point","coordinates":[-85.782494,38.256542]}},{"properties":{"name":"DAVID K LONGO","city":"louisville","imagepath":"http://kspsor.state.ky.us/sor/photos/thumbs/40460.jpg","detaillink":"http://kspsor.state.ky.us/sor/servlet/SOR?id=40460","permalink":"http://www.yourmapper.com/details/110/40460/david-k-longo.htm","descriptio":"Date of Birth:&lt;br&gt; 1962-11-24","category":1,"address2":null,"zip":"40203","latitude":38.256706,"date":null,"url":null,"id":"a6npfsghp48y","longitude":-85.783569,"address":"1934 w jefferson st","location":null,"state":"KY","distance":0.94733},"type":"Feature","geometry":{"type":"Point","coordinates":[-85.783569,38.256706]}},{"properties":{"name":"BILLY RAY COOK","city":"louisville","imagepath":"http://kspsor.state.ky.us/sor/photos/thumbs/4146.jpg","detaillink":"http://kspsor.state.ky.us/sor/servlet/SOR?id=4146","permalink":"http://www.yourmapper.com/details/110/4146/billy-ray-cook.htm","descriptio":"Date of Birth:&lt;br&gt; 1966-06-11","category":1,"address2":null,"zip":"40202","latitude":38.256001,"date":null,"url":null,"id":"a6npfso1d30g","longitude":-85.767487,"address":"1020 w market st","location":null,"state":"KY","distance":0.10071},"type":"Feature","geometry":{"type":"Point","coordinates":[-85.767487,38.256001]}},{"properties":{"name":"DANNY RAY MATTHEWS","city":"louisville","imagepath":"http://kspsor.state.ky.us/sor/photos/thumbs/4234.jpg","detaillink":"http://kspsor.state.ky.us/sor/servlet/SOR?id=4234","permalink":"http://www.yourmapper.com/details/110/4234/danny-ray-matthews.htm","descriptio":"Date of Birth:&lt;br&gt; 1967-02-19","category":1,"address2":null,"zip":"40202","latitude":38.25634,"date":null,"url":null,"id":"a6npfsotnpx6","longitude":-85.767601,"address":"1020 w market 24 upper","location":null,"state":"KY","distance":0.12364},"type":"Feature","geometry":{"type":"Point","coordinates":[-85.767601,38.25634]}},{"properties":{"name":"SERGIO JOSE ROCA","city":"louisville","imagepath":"http://kspsor.state.ky.us/sor/photos/thumbs/4451.jpg","detaillink":"http://kspsor.state.ky.us/sor/servlet/SOR?id=4451","permalink":"http://www.yourmapper.com/details/110/4451/sergio-jose-roca.htm","descriptio":"Date of Birth:&lt;br&gt; 1956-10-03","category":2,"address2":null,"zip":"40202","latitude":38.254002,"date":null,"url":null,"id":"a6npfsdn8kwd","longitude":-85.75,"address":"0 metro dept of corr","location":null,"state":"KY","distance":0.89546},"type":"Feature","geometry":{"type":"Point","coordinates":[-85.75,38.254002]}},{"properties":{"name":"KEVIN LEE WILSON","city":"louisville","imagepath":"http://kspsor.state.ky.us/sor/photos/thumbs/4487.jpg","detaillink":"http://kspsor.state.ky.us/sor/servlet/SOR?id=4487","permalink":"http://www.yourmapper.com/details/110/4487/kevin-lee-wilson.htm","descriptio":"Date of Birth:&lt;br&gt; 1972-07-06","category":1,"address2":null,"zip":"40203","latitude":38.256542,"date":null,"url":null,"id":"a6npfsq5melq","longitude":-85.782494,"address":"1936 w jefferson st","location":null,"state":"KY","distance":0.88762},"type":"Feature","geometry":{"type":"Point","coordinates":[-85.782494,38.256542]}},{"properties":{"name":"JAMES L JR COLEMAN","city":"louisville","imagepath":"http://kspsor.state.ky.us/sor/photos/thumbs/5080.jpg","detaillink":"http://kspsor.state.ky.us/sor/servlet/SOR?id=5080","permalink":"http://www.yourmapper.com/details/110/5080/james-l-jr-coleman.htm","descriptio":"Date of Birth:&lt;br&gt; 1955-03-31","category":1,"address2":null,"zip":"40210","latitude":38.242558,"date":null,"url":null,"id":"a6npfsrkdz9g","longitude":-85.778633,"address":"1546 garland avenue","location":null,"state":"KY","distance":1.08488},"type":"Feature","geometry":{"type":"Point","coordinates":[-85.778633,38.242558]}},{"properties":{"name":"THOMAS MAIN","city":"louisville","imagepath":"http://kspsor.state.ky.us/sor/photos/thumbs/5224.jpg","detaillink":"http://kspsor.state.ky.us/sor/servlet/SOR?id=5224","permalink":"http://www.yourmapper.com/details/110/5224/thomas-main.htm","descriptio":"Date of Birth:&lt;br&gt; 1958-12-28","category":1,"address2":null,"zip":"40203","latitude":38.256706,"date":null,"url":null,"id":"a6npfsi65gd1","longitude":-85.783569,"address":"1934 w jefferson street","location":null,"state":"KY","distance":0.94733},"type":"Feature","geometry":{"type":"Point","coordinates":[-85.783569,38.256706]}},{"properties":{"name":"SERGIO ENRIQUEZ","city":"louisville","imagepath":"http://kspsor.state.ky.us/sor/photos/thumbs/5236.jpg","detaillink":"http://kspsor.state.ky.us/sor/servlet/SOR?id=5236","permalink":"http://www.yourmapper.com/details/110/5236/sergio-enriquez.htm","descriptio":"Date of Birth:&lt;br&gt; 1962-11-30","category":1,"address2":null,"zip":"40203","latitude":38.239571,"date":null,"url":null,"id":"a6npfslzsttv","longitude":-85.758018,"address":"976 south 3rd st apt 102","location":null,"state":"KY","distance":1.15532},"type":"Feature","geometry":{"type":"Point","coordinates":[-85.758018,38.239571]}},{"properties":{"name":"JAMES LEE WHITNEY","city":"louisville","imagepath":"http://kspsor.state.ky.us/sor/photos/thumbs/5252.jpg","detaillink":"http://kspsor.state.ky.us/sor/servlet/SOR?id=5252","permalink":"http://www.yourmapper.com/details/110/5252/james-lee-whitney.htm","descriptio":"Date of Birth:&lt;br&gt; 1947-10-05","category":1,"address2":null,"zip":"40211","latitude":38.250092,"date":null,"url":null,"id":"a6npfsktybks","longitude":-85.789421,"address":"659 s 23rd st","location":null,"state":"KY","distance":1.30052},"type":"Feature","geometry":{"type":"Point","coordinates":[-85.789421,38.250092]}},{"properties":{"name":"CARL WINSTON ADCOCK","city":"louisville","imagepath":"http://kspsor.state.ky.us/sor/photos/thumbs/5327.jpg","detaillink":"http://kspsor.state.ky.us/sor/servlet/SOR?id=5327","permalink":"http://www.yourmapper.com/details/110/5327/carl-winston-adcock.htm","descriptio":"Date of Birth:&lt;br&gt; 1977-12-09","category":1,"address2":null,"zip":"40203","latitude":38.262207,"date":null,"url":null,"id":"a6npfsdnqmt7","longitude":-85.781334,"address":"1923 duncan sst","location":null,"state":"KY","distance":0.9635},"type":"Feature","geometry":{"type":"Point","coordinates":[-85.781334,38.262207]}},{"properties":{"name":"TERRY EUGENE BANKS","city":"louisville","imagepath":"http://kspsor.state.ky.us/sor/photos/thumbs/5356.jpg","detaillink":"http://kspsor.state.ky.us/sor/servlet/SOR?id=5356","permalink":"http://www.yourmapper.com/details/110/5356/terry-eugene-banks.htm","descriptio":"Date of Birth:&lt;br&gt; 1968-07-02","category":2,"address2":null,"zip":"40202","latitude":38.254002,"date":null,"url":null,"id":"a6npfsdlodx6","longitude":-85.75,"address":"0 metro dept of corr","location":null,"state":"KY","distance":0.89546},"type":"Feature","geometry":{"type":"Point","coordinates":[-85.75,38.254002]}},{"properties":{"name":"DARRELL WINKLER","city":"louisville","imagepath":"http://kspsor.state.ky.us/sor/photos/thumbs/5357.jpg","detaillink":"http://kspsor.state.ky.us/sor/servlet/SOR?id=5357","permalink":"http://www.yourmapper.com/details/110/5357/darrell-winkler.htm","descriptio":"Date of Birth:&lt;br&gt; 1971-01-29","category":1,"address2":null,"zip":"40203","latitude":38.259148,"date":null,"url":null,"id":"a6npfseze9gj","longitude":-85.784874,"address":"114 dr wj hodge st","location":null,"state":"KY","distance":1.05299},"type":"Feature","geometry":{"type":"Point","coordinates":[-85.784874,38.259148]}},{"properties":{"name":"JOHN KENNETH MALCOLM","city":"louisville","imagepath":"http://kspsor.state.ky.us/sor/photos/thumbs/5468.jpg","detaillink":"http://kspsor.state.ky.us/sor/servlet/SOR?id=5468","permalink":"http://www.yourmapper.com/details/110/5468/john-kenneth-malcolm.htm","descriptio":"Date of Birth:&lt;br&gt; 1966-10-26","category":1,"address2":null,"zip":"40203","latitude":38.242565,"date":null,"url":null,"id":"a6npfseblxs9","longitude":-85.755821,"address":"848 s 2nd 2","location":null,"state":"KY","distance":1.02955},"type":"Feature","geometry":{"type":"Point","coordinates":[-85.755821,38.242565]}},{"properties":{"name":"DARRELL ROBERT SHEA","city":"louisville","imagepath":"http://kspsor.state.ky.us/sor/photos/thumbs/5547.jpg","detaillink":"http://kspsor.state.ky.us/sor/servlet/SOR?id=5547","permalink":"http://www.yourmapper.com/details/110/5547/darrell-robert-shea.htm","descriptio":"Date of Birth:&lt;br&gt; 1960-01-20","category":1,"address2":null,"zip":"40203","latitude":38.234867,"date":null,"url":null,"id":"a6npfsejiu6h","longitude":-85.76886,"address":"925 dumesnil st","location":null,"state":"KY","distance":1.39503},"type":"Feature","geometry":{"type":"Point","coordinates":[-85.76886,38.234867]}},{"properties":{"name":"WILLIAM ANTHONY SCHAROLD","city":"louisville","imagepath":"http://kspsor.state.ky.us/sor/photos/thumbs/5611.jpg","detaillink":"http://kspsor.state.ky.us/sor/servlet/SOR?id=5611","permalink":"http://www.yourmapper.com/details/110/5611/william-anthony-scharold.htm","descriptio":"Date of Birth:&lt;br&gt; 1964-10-13","category":1,"address2":null,"zip":"40203","latitude":38.256542,"date":null,"url":null,"id":"a6npfst14n4p","longitude":-85.782494,"address":"1936 w jefferson st","location":null,"state":"KY","distance":0.88762},"type":"Feature","geometry":{"type":"Point","coordinates":[-85.782494,38.256542]}},{"properties":{"name":"THOMAS MENSER","city":"louisville","imagepath":"http://kspsor.state.ky.us/sor/photos/thumbs/5690.jpg","detaillink":"http://kspsor.state.ky.us/sor/servlet/SOR?id=5690","permalink":"http://www.yourmapper.com/details/110/5690/thomas-menser.htm","descriptio":"Date of Birth:&lt;br&gt; 1951-07-31","category":1,"address2":null,"zip":"40203","latitude":38.258316,"date":null,"url":null,"id":"a6npfssiac7b","longitude":-85.783424,"address":"2003 w market 1","location":null,"state":"KY","distance":0.96129},"type":"Feature","geometry":{"type":"Point","coordinates":[-85.783424,38.258316]}},{"properties":{"name":"MICHAEL LAMONT FOUNTAIN","city":"louisville","imagepath":"http://kspsor.state.ky.us/sor/photos/thumbs/5912.jpg","detaillink":"http://kspsor.state.ky.us/sor/servlet/SOR?id=5912","permalink":"http://www.yourmapper.com/details/110/5912/michael-lamont-fountain.htm","descriptio":"Date of Birth:&lt;br&gt; 1975-06-15","category":1,"address2":null,"zip":"40203","latitude":38.257133,"date":null,"url":null,"id":"a6npfslkhstz","longitude":-85.775276,"address":"1506 w market st 3","location":null,"state":"KY","distance":0.51124},"type":"Feature","geometry":{"type":"Point","coordinates":[-85.775276,38.257133]}},{"properties":{"name":"RANDALL LYNN JONES","city":"louisville","imagepath":"http://kspsor.state.ky.us/sor/photos/thumbs/5920.jpg","detaillink":"http://kspsor.state.ky.us/sor/servlet/SOR?id=5920","permalink":"http://www.yourmapper.com/details/110/5920/randall-lynn-jones.htm","descriptio":"Date of Birth:&lt;br&gt; 1966-10-02","category":1,"address2":null,"zip":"40202","latitude":38.249233,"date":null,"url":null,"id":"a6npfsf7mru5","longitude":-85.740654,"address":"700 e muhammad ali","location":null,"state":"KY","distance":1.45681},"type":"Feature","geometry":{"type":"Point","coordinates":[-85.740654,38.249233]}},{"properties":{"name":"DEWAYNE LAMONT BOYD","city":"louisville","imagepath":"http://kspsor.state.ky.us/sor/photos/thumbs/5950.jpg","detaillink":"http://kspsor.state.ky.us/sor/servlet/SOR?id=5950","permalink":"http://www.yourmapper.com/details/110/5950/dewayne-lamont-boyd.htm","descriptio":"Date of Birth:&lt;br&gt; 1973-08-17","category":2,"address2":null,"zip":"40202","latitude":38.254002,"date":null,"url":null,"id":"a6npfsjm0ug9","longitude":-85.75,"address":"0 metro dept of corr","location":null,"state":"KY","distance":0.89546},"type":"Feature","geometry":{"type":"Point","coordinates":[-85.75,38.254002]}},{"properties":{"name":"SHERMAN ANTHONY WILLIAMS","city":"louisville","imagepath":"http://kspsor.state.ky.us/sor/photos/thumbs/6113.jpg","detaillink":"http://kspsor.state.ky.us/sor/servlet/SOR?id=6113","permalink":"http://www.yourmapper.com/details/110/6113/sherman-anthony-williams.htm","descriptio":"Date of Birth:&lt;br&gt; 1980-04-27","category":1,"address2":null,"zip":"40203","latitude":38.256706,"date":null,"url":null,"id":"a6npfsnmbk0k","longitude":-85.783569,"address":"1934 w jefferson st","location":null,"state":"KY","distance":0.94733},"type":"Feature","geometry":{"type":"Point","coordinates":[-85.783569,38.256706]}},{"properties":{"name":"SHANTA R BROWN","city":"louisville","imagepath":"http://kspsor.state.ky.us/sor/photos/thumbs/6227.jpg","detaillink":"http://kspsor.state.ky.us/sor/servlet/SOR?id=6227","permalink":"http://www.yourmapper.com/details/110/6227/shanta-r-brown.htm","descriptio":"Date of Birth:&lt;br&gt; 1977-04-19","category":1,"address2":null,"zip":"40202","latitude":38.25201,"date":null,"url":null,"id":"a6npfsrpme9o","longitude":-85.745079,"address":"432 e jefferson st","location":null,"state":"KY","distance":1.17869},"type":"Feature","geometry":{"type":"Point","coordinates":[-85.745079,38.25201]}},{"properties":{"name":"ROBERT WAYNE WRIGHT","city":"louisville","imagepath":"http://kspsor.state.ky.us/sor/photos/thumbs/6554.jpg","detaillink":"http://kspsor.state.ky.us/sor/servlet/SOR?id=6554","permalink":"http://www.yourmapper.com/details/110/6554/robert-wayne-wright.htm","descriptio":"Date of Birth:&lt;br&gt; 1971-07-09","category":1,"address2":null,"zip":"40203","latitude":38.256706,"date":null,"url":null,"id":"a6npfsjiyvqs","longitude":-85.783569,"address":"1934 west jefferson st","location":null,"state":"KY","distance":0.94733},"type":"Feature","geometry":{"type":"Point","coordinates":[-85.783569,38.256706]}},{"properties":{"name":"JOHN PRESTON HENDERSON","city":"louisville","imagepath":"http://kspsor.state.ky.us/sor/photos/thumbs/6621.jpg","detaillink":"http://kspsor.state.ky.us/sor/servlet/SOR?id=6621","permalink":"http://www.yourmapper.com/details/110/6621/john-preston-henderson.htm","descriptio":"Date of Birth:&lt;br&gt; 1974-01-16","category":1,"address2":null,"zip":"40210","latitude":38.247742,"date":null,"url":null,"id":"a6npfsslt5sp","longitude":-85.787216,"address":"736 dr w j hodge st","location":null,"state":"KY","distance":1.24005},"type":"Feature","geometry":{"type":"Point","coordinates":[-85.787216,38.247742]}},{"properties":{"name":"ANTHONY MIKE SALSBURY","city":"louisville","imagepath":"http://kspsor.state.ky.us/sor/photos/thumbs/6913.jpg","detaillink":"http://kspsor.state.ky.us/sor/servlet/SOR?id=6913","permalink":"http://www.yourmapper.com/details/110/6913/anthony-mike-salsbury.htm","descriptio":"Date of Birth:&lt;br&gt; 1974-04-05","category":1,"address2":null,"zip":"40203","latitude":38.256706,"date":null,"url":null,"id":"a6npfspfxks3","longitude":-85.783569,"address":"1934 west jefferson","location":null,"state":"KY","distance":0.94733},"type":"Feature","geometry":{"type":"Point","coordinates":[-85.783569,38.256706]}},{"properties":{"name":"RICHARD LEE SMITH","city":"louisville","imagepath":"http://kspsor.state.ky.us/sor/photos/thumbs/7037.jpg","detaillink":"http://kspsor.state.ky.us/sor/servlet/SOR?id=7037","permalink":"http://www.yourmapper.com/details/110/7037/richard-lee-smith.htm","descriptio":"Date of Birth:&lt;br&gt; 1971-08-26","category":1,"address2":null,"zip":"40203","latitude":38.2575,"date":null,"url":null,"id":"a6npfsfhnh64","longitude":-85.780792,"address":"1816 w market st","location":null,"state":"KY","distance":0.80824},"type":"Feature","geometry":{"type":"Point","coordinates":[-85.780792,38.2575]}},{"properties":{"name":"JAMES DAVID MCINTIRE","city":"louisville","imagepath":"http://kspsor.state.ky.us/sor/photos/thumbs/704.jpg","detaillink":"http://kspsor.state.ky.us/sor/servlet/SOR?id=704","permalink":"http://www.yourmapper.com/details/110/704/james-david-mcintire.htm","descriptio":"Date of Birth:&lt;br&gt; 1972-03-10","category":1,"address2":null,"zip":"40203","latitude":38.242367,"date":null,"url":null,"id":"a6npfsqrtjhy","longitude":-85.752113,"address":"831 brook st","location":null,"state":"KY","distance":1.16522},"type":"Feature","geometry":{"type":"Point","coordinates":[-85.752113,38.242367]}},{"properties":{"name":"THEODORE ARTHUR DRURY","city":"louisville","imagepath":"http://kspsor.state.ky.us/sor/photos/thumbs/7101.jpg","detaillink":"http://kspsor.state.ky.us/sor/servlet/SOR?id=7101","permalink":"http://www.yourmapper.com/details/110/7101/theodore-arthur-drury.htm","descriptio":"Date of Birth:&lt;br&gt; 1962-01-01","category":2,"address2":null,"zip":"40202","latitude":38.254002,"date":null,"url":null,"id":"a6npfsof8tg5","longitude":-85.75,"address":"0 metro dept of corr","location":null,"state":"KY","distance":0.89546},"type":"Feature","geometry":{"type":"Point","coordinates":[-85.75,38.254002]}},{"properties":{"name":"HERMAN LESLIE DUKE","city":"louisville","imagepath":"http://kspsor.state.ky.us/sor/photos/thumbs/721.jpg","detaillink":"http://kspsor.state.ky.us/sor/servlet/SOR?id=721","permalink":"http://www.yourmapper.com/details/110/721/herman-leslie-duke.htm","descriptio":"Date of Birth:&lt;br&gt; 1973-08-03","category":1,"address2":null,"zip":"40203","latitude":38.26302,"date":null,"url":null,"id":"a6npfspgtm6n","longitude":-85.777412,"address":"1731 lytle st","location":null,"state":"KY","distance":0.82805},"type":"Feature","geometry":{"type":"Point","coordinates":[-85.777412,38.26302]}},{"properties":{"name":"TERRY L PRATHER","city":"louisville","imagepath":"http://kspsor.state.ky.us/sor/photos/thumbs/7378.jpg","detaillink":"http://kspsor.state.ky.us/sor/servlet/SOR?id=7378","permalink":"http://www.yourmapper.com/details/110/7378/terry-l-prather.htm","descriptio":"Date of Birth:&lt;br&gt; 1959-08-14","category":1,"address2":null,"zip":"40211","latitude":38.248386,"date":null,"url":null,"id":"a6npfss69in6","longitude":-85.786949,"address":"2112 anderson avenue","location":null,"state":"KY","distance":1.20935},"type":"Feature","geometry":{"type":"Point","coordinates":[-85.786949,38.248386]}},{"properties":{"name":"EDWARD GILBERT RICHARDS","city":"louisville","imagepath":"http://kspsor.state.ky.us/sor/photos/thumbs/7379.jpg","detaillink":"http://kspsor.state.ky.us/sor/servlet/SOR?id=7379","permalink":"http://www.yourmapper.com/details/110/7379/edward-gilbert-richards.htm","descriptio":"Date of Birth:&lt;br&gt; 1978-06-22","category":1,"address2":null,"zip":"40203","latitude":38.235687,"date":null,"url":null,"id":"a6npfsq109ri","longitude":-85.765701,"address":"729 west oak street apt 8","location":null,"state":"KY","distance":1.33192},"type":"Feature","geometry":{"type":"Point","coordinates":[-85.765701,38.235687]}},{"properties":{"name":"MARK AUBREY II CISSELL","city":"louisville","imagepath":"http://kspsor.state.ky.us/sor/photos/thumbs/7513.jpg","detaillink":"http://kspsor.state.ky.us/sor/servlet/SOR?id=7513","permalink":"http://www.yourmapper.com/details/110/7513/mark-aubrey-ii-cissell.htm","descriptio":"Date of Birth:&lt;br&gt; 1981-06-29","category":1,"address2":null,"zip":"40203","latitude":38.256706,"date":null,"url":null,"id":"a6npfsg3esvv","longitude":-85.783569,"address":"1934 w jefferson st","location":null,"state":"KY","distance":0.94733},"type":"Feature","geometry":{"type":"Point","coordinates":[-85.783569,38.256706]}},{"properties":{"name":"KENNETH R FISHER","city":"louisville","imagepath":"http://kspsor.state.ky.us/sor/photos/thumbs/7839.jpg","detaillink":"http://kspsor.state.ky.us/sor/servlet/SOR?id=7839","permalink":"http://www.yourmapper.com/details/110/7839/kenneth-r-fisher.htm","descriptio":"Date of Birth:&lt;br&gt; 1968-08-29","category":1,"address2":null,"zip":"40203","latitude":38.248569,"date":null,"url":null,"id":"a6npfsgdfqrm","longitude":-85.765373,"address":"428 east ormsbyfront apt","location":null,"state":"KY","distance":0.43953},"type":"Feature","geometry":{"type":"Point","coordinates":[-85.765373,38.248569]}},{"properties":{"name":"RICKY HOWELL","city":"louisville","imagepath":"http://kspsor.state.ky.us/sor/photos/thumbs/9411.jpg","detaillink":"http://kspsor.state.ky.us/sor/servlet/SOR?id=9411","permalink":"http://www.yourmapper.com/details/110/9411/ricky-howell.htm","descriptio":"Date of Birth:&lt;br&gt; 1985-05-18","category":2,"address2":null,"zip":"40203","latitude":38.248569,"date":null,"url":null,"id":"a6npfsontorv","longitude":-85.765373,"address":"0 dismas house of portland","location":null,"state":"KY","distance":0.43953},"type":"Feature","geometry":{"type":"Point","coordinates":[-85.765373,38.248569]}},{"properties":{"name":"CRAIG JAMES COLLINS","city":"louisville","imagepath":"http://kspsor.state.ky.us/sor/photos/thumbs/9514.jpg","detaillink":"http://kspsor.state.ky.us/sor/servlet/SOR?id=9514","permalink":"http://www.yourmapper.com/details/110/9514/craig-james-collins.htm","descriptio":"Date of Birth:&lt;br&gt; 1965-07-08","category":1,"address2":null,"zip":"40203","latitude":38.256706,"date":null,"url":null,"id":"a6npfsq8peyt","longitude":-85.783569,"address":"1934 west jefferson street","location":null,"state":"KY","distance":0.94733},"type":"Feature","geometry":{"type":"Point","coordinates":[-85.783569,38.256706]}},{"properties":{"name":"RAYSHAWN D BELL","city":"louisville","imagepath":"http://kspsor.state.ky.us/sor/photos/thumbs/9715.jpg","detaillink":"http://kspsor.state.ky.us/sor/servlet/SOR?id=9715","permalink":"http://www.yourmapper.com/details/110/9715/rayshawn-d-bell.htm","descriptio":"Date of Birth:&lt;br&gt; 1981-02-01","category":1,"address2":null,"zip":"40203","latitude":38.253056,"date":null,"url":null,"id":"a6npfski15s1","longitude":-85.776146,"address":"1518 w muhammad ali blvd 1","location":null,"state":"KY","distance":0.54766},"type":"Feature","geometry":{"type":"Point","coordinates":[-85.776146,38.253056]}}],"is_temporal":false,"author":{"url":"","metadata":"","contact_name":"","contact_address":"","source":"geocommons","contact_phone":""},"source":"","pagination":{"sort":null,"start":0,"total":101,"limit":1000000},"state":"complete","tags":"","published":"2014-08-14T21:44:37-04:00","id":255171}