{"type":"FeatureCollection","data_type":"Dataset","url_type":null,"permissions":[{"permissions":{"download":true,"view":true},"group_id":"everyone"}],"classification":null,"title":"Northern Michigan Account Map","count":499,"stream_id":255759,"contributor":{"url":"http://geocommons.com/users/48046","name":"S_K_I_"},"data_attributes":null,"calculation_params":null,"icon_link":null,"link":"http://geocommons.com/overlays/255759.json","extent":[-88.6607,41.9778,-83.033,47.1944],"geometry_types":["point"],"unique_name":null,"name":"Northern Michigan Account Map","feature_count":499,"description":"","next_feature":null,"is_raster":false,"short_classification":"Y","stats":{"postal code/zip code":{"max":49868,"variance":35443.2413340738,"mean":49649.74749499,"stdev":188.263754700882,"min":48621,"median":49686}},"features":[{"properties":{"steet address":"1215 MAPLE ST","city":"BIG RAPIDS","company name":"JONES CONSTRUCTION * STEVE","geo_score":0.714,"postal code/zip code":49307,"id":"a6oh64q1bioj","geo_precision":"city","state":"MI"},"type":"Feature","geometry":{"type":"Point","coordinates":[-85.3518,43.683493]}},{"properties":{"steet address":"269","city":"Traverse City","company name":"4 M MANAGEMENT COMPANY","geo_score":0.714,"postal code/zip code":49685,"id":"a6oh64wy6mll","geo_precision":"city","state":"MI"},"type":"Feature","geometry":{"type":"Point","coordinates":[-88.234001,47.194369]}},{"properties":{"steet address":"6842 BRUTUS RD","city":"BRUTUS","company name":"4 STAR BUILDERS","geo_score":0.714,"postal code/zip code":49716,"id":"a6oh64r9ny6z","geo_precision":"city","state":"MI"},"type":"Feature","geometry":{"type":"Point","coordinates":[-84.781713,45.493067]}},{"properties":{"steet address":"970","city":"TRAVERSE CITY","company name":"A B I MECHANICAL CONTR","geo_score":0.714,"postal code/zip code":49685,"id":"a6oh64n4pcae","geo_precision":"city","state":"MI"},"type":"Feature","geometry":{"type":"Point","coordinates":[-88.234001,47.194369]}},{"properties":{"steet address":"6186 S RAILWAY COMMON","city":"WILLIAMSBURG","company name":"A F P","geo_score":0.714,"postal code/zip code":49690,"id":"a6oh64n8bjl8","geo_precision":"city","state":"MI"},"type":"Feature","geometry":{"type":"Point","coordinates":[-85.427605,44.767181]}},{"properties":{"steet address":"16842 STATE HIGHWAY M28","city":"NEWBERRY","company name":"A PLUS INDUSTRIES  INC","geo_score":0.714,"postal code/zip code":49868,"id":"a6oh64vr00yt","geo_precision":"city","state":"MI"},"type":"Feature","geometry":{"type":"Point","coordinates":[-85.515605,46.460159]}},{"properties":{"steet address":"6336 GREENWOOD RD","city":"PETOSKEY","company name":"A SHAW &amp; ASS0CIATES LLC","geo_score":0.714,"postal code/zip code":49770,"id":"a6oh64wz2oo6","geo_precision":"city","state":"MI"},"type":"Feature","geometry":{"type":"Point","coordinates":[-84.913255,45.355915]}},{"properties":{"steet address":"2866 S CASS","city":"TRAVERSE CITY","company name":"ACTRON STEEL INC","geo_score":0.714,"postal code/zip code":49684,"id":"a6oh64vsndug","geo_precision":"city","state":"MI"},"type":"Feature","geometry":{"type":"Point","coordinates":[-88.234001,47.194369]}},{"properties":{"steet address":"223 Lake Ave","city":"Traverse City","company name":"ADT SECURITY SERVICES INC","geo_score":0.714,"postal code/zip code":49684,"id":"a6oh64w5x0v4","geo_precision":"city","state":"MI"},"type":"Feature","geometry":{"type":"Point","coordinates":[-88.234001,47.194369]}},{"properties":{"steet address":"6094 E TRAVERSE HWY","city":"TRAVERSE CITY","company name":"ADVANCED INSULATION SYSTEMS","geo_score":0.714,"postal code/zip code":49684,"id":"a6oh64qv74gi","geo_precision":"city","state":"MI"},"type":"Feature","geometry":{"type":"Point","coordinates":[-88.234001,47.194369]}},{"properties":{"steet address":"5119","city":"TRAVERSE CITY","company name":"ADVANTAGE ELECTRIC SVCS","geo_score":0.714,"postal code/zip code":49696,"id":"a6oh64r88voc","geo_precision":"city","state":"MI"},"type":"Feature","geometry":{"type":"Point","coordinates":[-88.234001,47.194369]}},{"properties":{"steet address":"2268 INDUSTRIAL DR","city":"GRAYLING","company name":"AIR WAY AUTOMATION","geo_score":0.714,"postal code/zip code":49738,"id":"a6oh64moi69h","geo_precision":"city","state":"MI"},"type":"Feature","geometry":{"type":"Point","coordinates":[-84.612941,44.691777]}},{"properties":{"steet address":"9146 CHASE BRIDGE RD","city":"ROSCOMMON","company name":"AL BECKER","geo_score":0.714,"postal code/zip code":48653,"id":"a6oh64um9gyy","geo_precision":"city","state":"MI"},"type":"Feature","geometry":{"type":"Point","coordinates":[-84.611194,44.394517]}},{"properties":{"steet address":"11963 S HOMESTEAD","city":"SAULT STE MARIE","company name":"ALBERT HEATING AND COOLING","geo_score":0.714,"postal code/zip code":49783,"id":"a6oh650c6nm3","geo_precision":"city","state":"MI"},"type":"Feature","geometry":{"type":"Point","coordinates":[-84.900482,43.046851]}},{"properties":{"steet address":"12753 N MACKINAW HWY","city":"MACKINAW CITY","company name":"ALEXANDER ELECTRIC","geo_score":0.714,"postal code/zip code":49701,"id":"a6oh64up3gmf","geo_precision":"city","state":"MI"},"type":"Feature","geometry":{"type":"Point","coordinates":[-83.868275,42.066432]}},{"properties":{"steet address":"8603 AMVET DR","city":"ROSCOMMON","company name":"ALMA PAINTING INC","geo_score":0.714,"postal code/zip code":48653,"id":"a6oh64xfgx8o","geo_precision":"city","state":"MI"},"type":"Feature","geometry":{"type":"Point","coordinates":[-84.611194,44.394517]}},{"properties":{"steet address":"1581 M 32 W","city":"ALPENA","company name":"ALPENA ELECTRIC MOTOR","geo_score":0.714,"postal code/zip code":49707,"id":"a6oh64ntyslm","geo_precision":"city","state":"MI"},"type":"Feature","geometry":{"type":"Point","coordinates":[-83.495091,45.033143]}},{"properties":{"steet address":"1501 W Chisholm St","city":"Alpena","company name":"ALPENA GENERAL HOSPITAL","geo_score":0.714,"postal code/zip code":49707,"id":"a6oh64sbbivh","geo_precision":"city","state":"MI"},"type":"Feature","geometry":{"type":"Point","coordinates":[-83.495091,45.033143]}},{"properties":{"steet address":"410 11TH AVENUE","city":"ALPENA","company name":"ALPENA SUPPLY CO","geo_score":0.714,"postal code/zip code":49707,"id":"a6oh64yort5k","geo_precision":"city","state":"MI"},"type":"Feature","geometry":{"type":"Point","coordinates":[-83.495091,45.033143]}},{"properties":{"steet address":"345 E WELCH CT STE B","city":"TRAVERSE CITY","company name":"ALPERS INSULATION LLC","geo_score":0.714,"postal code/zip code":49686,"id":"a6oh64xnwvst","geo_precision":"city","state":"MI"},"type":"Feature","geometry":{"type":"Point","coordinates":[-88.234001,47.194369]}},{"properties":{"steet address":"1670 BARLOW ST","city":"TRAVERSE CITY","company name":"ALPINE ELECTRIC CORP","geo_score":0.714,"postal code/zip code":49686,"id":"a6oh64p0x1yt","geo_precision":"city","state":"MI"},"type":"Feature","geometry":{"type":"Point","coordinates":[-88.234001,47.194369]}},{"properties":{"steet address":"732 Hannah Ave","city":"Traverse City","company name":"AMERICAN CELLULAR CORPORATION","geo_score":0.714,"postal code/zip code":49686,"id":"a6oh64lqta0x","geo_precision":"city","state":"MI"},"type":"Feature","geometry":{"type":"Point","coordinates":[-88.234001,47.194369]}},{"properties":{"steet address":"12200 S Songbird Ln","city":"Empire","company name":"AMERICAN TIMBERCRAFT LTD","geo_score":0.714,"postal code/zip code":49630,"id":"a6oh64lf6ziy","geo_precision":"city","state":"MI"},"type":"Feature","geometry":{"type":"Point","coordinates":[-85.976477,44.837888]}},{"properties":{"steet address":"610 Arbutus Dr","city":"Cadillac","company name":"ANDERSON BUILDERS","geo_score":0.714,"postal code/zip code":49601,"id":"a6oh64pc31q1","geo_precision":"city","state":"MI"},"type":"Feature","geometry":{"type":"Point","coordinates":[-85.549093,44.335278]}},{"properties":{"steet address":"8766 W BRIAR HILL DR","city":"MAPLE CITY","company name":"ANDERSON BUILDERS * JAMES","geo_score":0.714,"postal code/zip code":49664,"id":"a6oh64y7cwzk","geo_precision":"city","state":"MI"},"type":"Feature","geometry":{"type":"Point","coordinates":[-85.902284,44.869321]}},{"properties":{"steet address":"6075 M 32","city":"East Jordan","company name":"ANDRE M POINEAU WOODWORKER","geo_score":0.714,"postal code/zip code":49727,"id":"a6oh64v1gpcw","geo_precision":"city","state":"MI"},"type":"Feature","geometry":{"type":"Point","coordinates":[-85.102843,45.203995]}},{"properties":{"steet address":"11731 N 17 Rd","city":"Buckley","company name":"ANNETTES FINAL TOUCH","geo_score":0.714,"postal code/zip code":49620,"id":"a6oh64po2qte","geo_precision":"city","state":"MI"},"type":"Feature","geometry":{"type":"Point","coordinates":[-87.575677,45.551358]}},{"properties":{"steet address":"121 Munson Ave","city":"Traverse City","company name":"APEX CONSTRUCTION MGMT SRVS","geo_score":0.714,"postal code/zip code":49686,"id":"a6oh64x7q8tt","geo_precision":"city","state":"MI"},"type":"Feature","geometry":{"type":"Point","coordinates":[-88.234001,47.194369]}},{"properties":{"steet address":"11566 Richardson Rd","city":"Traverse City","company name":"APEX ENGINEERING &amp; MANAGEMENT","geo_score":0.714,"postal code/zip code":49684,"id":"a6oh64u5a9np","geo_precision":"city","state":"MI"},"type":"Feature","geometry":{"type":"Point","coordinates":[-88.234001,47.194369]}},{"properties":{"steet address":"857 Duell Rd","city":"Traverse City","company name":"ARCHER CONTRACTING COMPANY","geo_score":0.714,"postal code/zip code":49686,"id":"a6oh64y0p9wb","geo_precision":"city","state":"MI"},"type":"Feature","geometry":{"type":"Point","coordinates":[-88.234001,47.194369]}},{"properties":{"steet address":"301 S JAMES ST","city":"LUDINGTON","company name":"ARGUE COMMUNICATIONS LLC","geo_score":0.714,"postal code/zip code":49431,"id":"a6oh64rep1lm","geo_precision":"city","state":"MI"},"type":"Feature","geometry":{"type":"Point","coordinates":[-86.349439,43.998926]}},{"properties":{"steet address":"1207 MAPLE ST STE A","city":"BIG RAPIDS","company name":"ARMATO ELECTRIC INC","geo_score":0.714,"postal code/zip code":49307,"id":"a6oh64utjjf6","geo_precision":"city","state":"MI"},"type":"Feature","geometry":{"type":"Point","coordinates":[-85.3518,43.683493]}},{"properties":{"steet address":"24091 S WEGWAS DR","city":"TROUT LAKE","company name":"ARMSTRONG ALDEN","geo_score":0.714,"postal code/zip code":49793,"id":"a6oh64scuvvy","geo_precision":"city","state":"MI"},"type":"Feature","geometry":{"type":"Point","coordinates":[-87.830413,46.509102]}},{"properties":{"steet address":"126","city":"ACME","company name":"ASCOMNORTH","geo_score":0.714,"postal code/zip code":49610,"id":"a6oh64yi50h1","geo_precision":"city","state":"MI"},"type":"Feature","geometry":{"type":"Point","coordinates":[-85.488449,44.789382]}},{"properties":{"steet address":"5590 M-32","city":"EAST JORDAN","company name":"ATLAS ELECTRIC INC","geo_score":0.714,"postal code/zip code":49727,"id":"a6oh64xv8izn","geo_precision":"city","state":"MI"},"type":"Feature","geometry":{"type":"Point","coordinates":[-85.102843,45.203995]}},{"properties":{"steet address":"1230 M37 SOUTH","city":"TRAVERSE CITY","company name":"ATTITUDE &amp; EXPERIENCE INC","geo_score":0.714,"postal code/zip code":49684,"id":"a6oh64pfsgdd","geo_precision":"city","state":"MI"},"type":"Feature","geometry":{"type":"Point","coordinates":[-88.234001,47.194369]}},{"properties":{"steet address":"1857 S OTSEGO AVE","city":"GAYLORD","company name":"AUTO GLASS SPECIALISTS","geo_score":0.714,"postal code/zip code":49735,"id":"a6oh64w6n620","geo_precision":"city","state":"MI"},"type":"Feature","geometry":{"type":"Point","coordinates":[-84.612207,45.028411]}},{"properties":{"steet address":"8509 S WEST BAY SHORE DR","city":"TRAVERSE CITY","company name":"AWREY CORPORATION","geo_score":0.714,"postal code/zip code":49684,"id":"a6oh64m43w5a","geo_precision":"city","state":"MI"},"type":"Feature","geometry":{"type":"Point","coordinates":[-88.234001,47.194369]}},{"properties":{"steet address":"3403 NOWAK RD","city":"GAYLORD","company name":"B &amp; B CONSTRUCTION INC","geo_score":0.714,"postal code/zip code":49735,"id":"a6oh64qts1p1","geo_precision":"city","state":"MI"},"type":"Feature","geometry":{"type":"Point","coordinates":[-84.612207,45.028411]}},{"properties":{"steet address":"1523 Keystone Dr","city":"Traverse City","company name":"B &amp; B MECHANICAL","geo_score":0.714,"postal code/zip code":49686,"id":"a6oh64uj4vv7","geo_precision":"city","state":"MI"},"type":"Feature","geometry":{"type":"Point","coordinates":[-88.234001,47.194369]}},{"properties":{"steet address":"5822 Mabel Rd","city":"Williamsburg","company name":"B I L D DRYWALL","geo_score":0.714,"postal code/zip code":49690,"id":"a6oh64onpqp9","geo_precision":"city","state":"MI"},"type":"Feature","geometry":{"type":"Point","coordinates":[-85.427605,44.767181]}},{"properties":{"steet address":"970 Shamrock Ln","city":"Traverse City","company name":"BAESCH CONSTRUCTION LLC","geo_score":0.714,"postal code/zip code":49686,"id":"a6oh64vd10w5","geo_precision":"city","state":"MI"},"type":"Feature","geometry":{"type":"Point","coordinates":[-88.234001,47.194369]}},{"properties":{"steet address":"9670 BURNETT RD","city":"CHARLEVOIX","company name":"BAJOS BUILDING INC","geo_score":0.0,"postal code/zip code":49720,"id":"a6oh64s7xyyr","geo_precision":"unmatched","state":"MI"},"type":"Feature","geometry":null},{"properties":{"steet address":"7404 M 68","city":"ALANSON","company name":"BAKER MASONRY INC * SID","geo_score":0.714,"postal code/zip code":49706,"id":"a6oh64yclx7e","geo_precision":"city","state":"MI"},"type":"Feature","geometry":{"type":"Point","coordinates":[-84.805792,45.539802]}},{"properties":{"steet address":"2759 ASHMUN ST","city":"SAULT SAINTE MARIE","company name":"BARIL PLUMB &amp; HEAT * JIM","geo_score":0.714,"postal code/zip code":49783,"id":"a6oh64qxpr4i","geo_precision":"city","state":"MI"},"type":"Feature","geometry":{"type":"Point","coordinates":[-84.900482,43.046851]}},{"properties":{"steet address":"12061 W LAKESHORE DR","city":"BRIMLEY","company name":"BAY MILLS PUBLIC WORKS DEPT","geo_score":0.714,"postal code/zip code":49715,"id":"a6oh64u36o5e","geo_precision":"city","state":"MI"},"type":"Feature","geometry":{"type":"Point","coordinates":[-84.698136,46.389131]}},{"properties":{"steet address":"6336 US HIGHWAY 31 N","city":"CHARLEVOIX","company name":"BAY SHORE STEEL, INC.","geo_score":0.0,"postal code/zip code":49720,"id":"a6oh64vy198p","geo_precision":"unmatched","state":"MI"},"type":"Feature","geometry":null},{"properties":{"steet address":"33336 Piper Rd","city":"A[pena","company name":"Bay View Insulation","geo_score":0.0,"postal code/zip code":49707,"id":"a6oh64qn0vak","geo_precision":"unmatched","state":"MI"},"type":"Feature","geometry":null},{"properties":{"steet address":"5480 JONES LNDG","city":"PETOSKEY","company name":"BEAR RIVER ELECTRIC INC","geo_score":0.714,"postal code/zip code":49770,"id":"a6oh64sxgzdi","geo_precision":"city","state":"MI"},"type":"Feature","geometry":{"type":"Point","coordinates":[-84.913255,45.355915]}},{"properties":{"steet address":"11209 HERKELRATH RD","city":"BEAR LAKE","company name":"BEEMAN BERRY FARM LLC","geo_score":0.714,"postal code/zip code":49614,"id":"a6oh6505ncba","geo_precision":"city","state":"MI"},"type":"Feature","geometry":{"type":"Point","coordinates":[-85.902261,42.921413]}},{"properties":{"steet address":"12273 US 31","city":"BEAR LAKE","company name":"BELLA VISTA INN","geo_score":0.714,"postal code/zip code":49614,"id":"a6oh64tt2nbb","geo_precision":"city","state":"MI"},"type":"Feature","geometry":{"type":"Point","coordinates":[-85.902261,42.921413]}},{"properties":{"steet address":"115 ELLIOTT ST","city":"SAINT IGNACE","company name":"BELONGA PLUMBING&amp;HEATING","geo_score":0.0,"postal code/zip code":49781,"id":"a6oh64plnv89","geo_precision":"unmatched","state":"MI"},"type":"Feature","geometry":null},{"properties":{"steet address":"822 N Meyers Rd","city":"Ludington","company name":"BEN F PFEFFERLE","geo_score":0.714,"postal code/zip code":49431,"id":"a6oh64xpy3fe","geo_precision":"city","state":"MI"},"type":"Feature","geometry":{"type":"Point","coordinates":[-86.349439,43.998926]}},{"properties":{"steet address":"1055 SHARKEY RD","city":"TRAVERSE CITY","company name":"BENGHAUSER BUILDERS","geo_score":0.714,"postal code/zip code":49696,"id":"a6oh64xtl9hk","geo_precision":"city","state":"MI"},"type":"Feature","geometry":{"type":"Point","coordinates":[-88.234001,47.194369]}},{"properties":{"steet address":"1375 VIC WAY","city":"TRAVERSE CITY","company name":"BERG ELECTRIC","geo_score":0.714,"postal code/zip code":49686,"id":"a6oh64wfcgdi","geo_precision":"city","state":"MI"},"type":"Feature","geometry":{"type":"Point","coordinates":[-88.234001,47.194369]}},{"properties":{"steet address":"801 JOHNSON ST","city":"ALPENA","company name":"BESSER COMPANY","geo_score":0.714,"postal code/zip code":49707,"id":"a6oh64yzqs5z","geo_precision":"city","state":"MI"},"type":"Feature","geometry":{"type":"Point","coordinates":[-83.495091,45.033143]}},{"properties":{"steet address":"343 W Main St","city":"Lake Leelanau","company name":"BIGGS CONSTRUCTION INC","geo_score":0.714,"postal code/zip code":49653,"id":"a6oh64mgd61w","geo_precision":"city","state":"MI"},"type":"Feature","geometry":{"type":"Point","coordinates":[-84.867626,43.914196]}},{"properties":{"steet address":"1721 Resort Pike Rd","city":"Petoskey","company name":"BILL'S GUN SHOP","geo_score":0.714,"postal code/zip code":49770,"id":"a6oh64sn0do7","geo_precision":"city","state":"MI"},"type":"Feature","geometry":{"type":"Point","coordinates":[-84.913255,45.355915]}},{"properties":{"steet address":"8920 MOELLER DR","city":"HARBOR SPRINGS","company name":"BIRCHWOOD CONSTRUCTION","geo_score":0.714,"postal code/zip code":49740,"id":"a6oh64q42w75","geo_precision":"city","state":"MI"},"type":"Feature","geometry":{"type":"Point","coordinates":[-86.19538,43.076609]}},{"properties":{"steet address":"4800 QUARTERLINE RD","city":"KEWADIN","company name":"BLUE FLAME HEATING &amp; AIR","geo_score":0.714,"postal code/zip code":49648,"id":"a6oh64rfh29g","geo_precision":"city","state":"MI"},"type":"Feature","geometry":{"type":"Point","coordinates":[-85.355394,45.006971]}},{"properties":{"steet address":"5861 W Sanborn Rd","city":"Lake City","company name":"BOB FLINT PLUMBING","geo_score":0.714,"postal code/zip code":49651,"id":"a6oh64x6dow8","geo_precision":"city","state":"MI"},"type":"Feature","geometry":{"type":"Point","coordinates":[-83.706618,42.835861]}},{"properties":{"steet address":"2282 Cass Rd","city":"Traverse City","company name":"BOBS FURNACE SERVICE INC","geo_score":0.714,"postal code/zip code":49684,"id":"a6oh64oev5cn","geo_precision":"city","state":"MI"},"type":"Feature","geometry":{"type":"Point","coordinates":[-88.234001,47.194369]}},{"properties":{"steet address":"9919 22 MILE RD","city":"MARION","company name":"BODE CONSTRUCTION","geo_score":0.714,"postal code/zip code":49665,"id":"a6oh64l05p1v","geo_precision":"city","state":"MI"},"type":"Feature","geometry":{"type":"Point","coordinates":[-85.844039,43.023673]}},{"properties":{"steet address":"3314 Sun Glo Dr","city":"Sault Sainte Marie","company name":"BONACCI CONTRACTING","geo_score":0.714,"postal code/zip code":49783,"id":"a6oh64vp58g2","geo_precision":"city","state":"MI"},"type":"Feature","geometry":{"type":"Point","coordinates":[-84.900482,43.046851]}},{"properties":{"steet address":"1933 NORTHERN STAR DR","city":"TRAVERSE CITY","company name":"BOUMA CORPORATION","geo_score":0.714,"postal code/zip code":49686,"id":"a6oh64u460ok","geo_precision":"city","state":"MI"},"type":"Feature","geometry":{"type":"Point","coordinates":[-88.234001,47.194369]}},{"properties":{"steet address":"1000 ALEXANDER RD","city":"BOYNE FALLS","company name":"BOYNE COUNTRY HTG &amp; COOLING","geo_score":0.714,"postal code/zip code":49713,"id":"a6oh64rhapu9","geo_precision":"city","state":"MI"},"type":"Feature","geometry":{"type":"Point","coordinates":[-84.848126,45.203875]}},{"properties":{"steet address":"2322 Cass Rd","city":"Traverse City","company name":"BRITTEN BANNERS INC","geo_score":0.714,"postal code/zip code":49684,"id":"a6oh64om0uae","geo_precision":"city","state":"MI"},"type":"Feature","geometry":{"type":"Point","coordinates":[-88.234001,47.194369]}},{"properties":{"steet address":"11927 IVY RD","city":"ROSCOMMON","company name":"BRYAN COSTELLO","geo_score":0.714,"postal code/zip code":48653,"id":"a6oh64psy2rz","geo_precision":"city","state":"MI"},"type":"Feature","geometry":{"type":"Point","coordinates":[-84.611194,44.394517]}},{"properties":{"steet address":"1535 S NORVICK RD","city":"SUTTONS BAY","company name":"BUHR ELECTRIC","geo_score":0.714,"postal code/zip code":49682,"id":"a6oh64pv7b7t","geo_precision":"city","state":"MI"},"type":"Feature","geometry":{"type":"Point","coordinates":[-85.644068,44.988569]}},{"properties":{"steet address":"1501 W 12TH ST","city":"SAULT SAINTE MARIE","company name":"BUNKER MANUFACTURING INC","geo_score":0.714,"postal code/zip code":49783,"id":"a6oh64luec64","geo_precision":"city","state":"MI"},"type":"Feature","geometry":{"type":"Point","coordinates":[-84.900482,43.046851]}},{"properties":{"steet address":"1222 VETERANS DR  STE A","city":"TRAVERSE CITY","company name":"BURDCO INC","geo_score":0.714,"postal code/zip code":49684,"id":"a6oh64yb41nc","geo_precision":"city","state":"MI"},"type":"Feature","geometry":{"type":"Point","coordinates":[-88.234001,47.194369]}},{"properties":{"steet address":"2206 CASS RD","city":"TRAVERSE CITY","company name":"BURKHOLDER CONSTRUCTION","geo_score":0.714,"postal code/zip code":49684,"id":"a6oh64qy6hm7","geo_precision":"city","state":"MI"},"type":"Feature","geometry":{"type":"Point","coordinates":[-88.234001,47.194369]}},{"properties":{"steet address":"405 E ESTERDAY AVE UNIT 1","city":"SAULT SAINTE MARIE","company name":"BURTON EXCAVATING INC","geo_score":0.714,"postal code/zip code":49783,"id":"a6oh64wife5k","geo_precision":"city","state":"MI"},"type":"Feature","geometry":{"type":"Point","coordinates":[-84.900482,43.046851]}},{"properties":{"steet address":"2676 Cass Rd STE C","city":"Traverse City","company name":"BY THE BAY GLASS LLC","geo_score":0.714,"postal code/zip code":49684,"id":"a6oh64rhsr9f","geo_precision":"city","state":"MI"},"type":"Feature","geometry":{"type":"Point","coordinates":[-88.234001,47.194369]}},{"properties":{"steet address":"815 1ST ST","city":"LUDINGTON","company name":"C &amp; I ELECTRIC","geo_score":0.714,"postal code/zip code":49431,"id":"a6oh64l18cjh","geo_precision":"city","state":"MI"},"type":"Feature","geometry":{"type":"Point","coordinates":[-86.349439,43.998926]}},{"properties":{"steet address":"4892 Whitetail Dr Se","city":"Kalkaska","company name":"C C S","geo_score":0.714,"postal code/zip code":49646,"id":"a6oh64msvpni","geo_precision":"city","state":"MI"},"type":"Feature","geometry":{"type":"Point","coordinates":[-85.092905,44.697144]}},{"properties":{"steet address":"8278 S Rosinski Rd","city":"Cedar","company name":"C M R HEATING &amp; COOLING","geo_score":0.714,"postal code/zip code":49621,"id":"a6oh64l2vy2l","geo_precision":"city","state":"MI"},"type":"Feature","geometry":{"type":"Point","coordinates":[-85.813768,44.860517]}},{"properties":{"steet address":"2143 Lake Dr","city":"Fairview","company name":"CADENCE COMMUNICATIONS INC","geo_score":0.714,"postal code/zip code":48621,"id":"a6oh64udst53","geo_precision":"city","state":"MI"},"type":"Feature","geometry":{"type":"Point","coordinates":[-84.011959,44.689286]}},{"properties":{"steet address":"1500 4TH AVE","city":"CADILLAC","company name":"CADILLAC CASTING INC","geo_score":0.714,"postal code/zip code":49601,"id":"a6oh64yvxp0v","geo_precision":"city","state":"MI"},"type":"Feature","geometry":{"type":"Point","coordinates":[-85.549093,44.335278]}},{"properties":{"steet address":"1104 W 13th St","city":"Cadillac","company name":"CADILLAC INDUSTRIAL SUPPLY CO","geo_score":0.714,"postal code/zip code":49601,"id":"a6oh65080jt9","geo_precision":"city","state":"MI"},"type":"Feature","geometry":{"type":"Point","coordinates":[-85.549093,44.335278]}},{"properties":{"steet address":"1056 Webster St","city":"Traverse City","company name":"CAL STEINORTH","geo_score":0.714,"postal code/zip code":49686,"id":"a6oh64rqn0p0","geo_precision":"city","state":"MI"},"type":"Feature","geometry":{"type":"Point","coordinates":[-88.234001,47.194369]}},{"properties":{"steet address":"2310 SCHRAM RD","city":"INDIAN RIVER","company name":"CAMPBELL ELEC INC","geo_score":0.714,"postal code/zip code":49749,"id":"a6oh64mvmqof","geo_precision":"city","state":"MI"},"type":"Feature","geometry":{"type":"Point","coordinates":[-84.578019,45.447209]}},{"properties":{"steet address":"6650 1ST","city":"BRANCH","company name":"CARR CREEK CONST.","geo_score":0.714,"postal code/zip code":49402,"id":"a6oh64myijry","geo_precision":"city","state":"MI"},"type":"Feature","geometry":{"type":"Point","coordinates":[-85.980028,43.967633]}},{"properties":{"steet address":"1600 BELLS BAY RD","city":"CHARLEVOIX","company name":"CEMEX CEMENT, INC.","geo_score":0.0,"postal code/zip code":49720,"id":"a6oh64wrxt6f","geo_precision":"unmatched","state":"MI"},"type":"Feature","geometry":null},{"properties":{"steet address":"110 W MAIN ST","city":"KINGLSEY","company name":"CENTURYTEL","geo_score":0.0,"postal code/zip code":49649,"id":"a6oh64yrj951","geo_precision":"unmatched","state":"MI"},"type":"Feature","geometry":null},{"properties":{"steet address":"04730 US 131 NORTH","city":"WALLOON LAKE","company name":"CHARBONNEAU ENTERPRISES INC","geo_score":0.714,"postal code/zip code":49796,"id":"a6oh64k7ebhe","geo_precision":"city","state":"MI"},"type":"Feature","geometry":{"type":"Point","coordinates":[-84.938228,45.245371]}},{"properties":{"steet address":"14700 Lake Shore Dr","city":"Charlevoix","company name":"CHARLEVOIX AREA HOSPITAL","geo_score":0.0,"postal code/zip code":49720,"id":"a6oh64s6klv1","geo_precision":"unmatched","state":"MI"},"type":"Feature","geometry":null},{"properties":{"steet address":"702 LAFAYETTE","city":"CHEBOYGAN","company name":"CHEBOYGAN CEMENT PROD INC","geo_score":0.714,"postal code/zip code":49721,"id":"a6oh64z7uthc","geo_precision":"city","state":"MI"},"type":"Feature","geometry":{"type":"Point","coordinates":[-84.468639,45.592842]}},{"properties":{"steet address":"870 S MAIN ST","city":"CHEBOYGAN","company name":"CHEBOYGAN COUNTY SHERIFF DEPT","geo_score":0.714,"postal code/zip code":49721,"id":"a6oh64mhougn","geo_precision":"city","state":"MI"},"type":"Feature","geometry":{"type":"Point","coordinates":[-84.468639,45.592842]}},{"properties":{"steet address":"829 N HURON ST","city":"CHEBOYGAN","company name":"CHEBOYGAN LUMBER CO","geo_score":0.714,"postal code/zip code":49721,"id":"a6oh64xtxgqf","geo_precision":"city","state":"MI"},"type":"Feature","geometry":{"type":"Point","coordinates":[-84.468639,45.592842]}},{"properties":{"steet address":"10341 E CHERRY BEND RD","city":"TRAVERSE CITY","company name":"CHESS CONSTRUCTION INC","geo_score":0.714,"postal code/zip code":49684,"id":"a6oh64p15pla","geo_precision":"city","state":"MI"},"type":"Feature","geometry":{"type":"Point","coordinates":[-88.234001,47.194369]}},{"properties":{"steet address":"3949 S Mackinac Trl","city":"Sault Sainte Marie","company name":"CHIPPEWA COUNTY ROAD COMM","geo_score":0.714,"postal code/zip code":49783,"id":"a6oh64wyp3uj","geo_precision":"city","state":"MI"},"type":"Feature","geometry":{"type":"Point","coordinates":[-84.900482,43.046851]}},{"properties":{"steet address":"4951 Blair Townhall Rd","city":"Traverse City","company name":"CHOUINARD BROS BLDG &amp; RMDLG","geo_score":0.714,"postal code/zip code":49684,"id":"a6oh64kotdvz","geo_precision":"city","state":"MI"},"type":"Feature","geometry":{"type":"Point","coordinates":[-88.234001,47.194369]}},{"properties":{"steet address":"5515 MICK RD","city":"BENZONIA","company name":"CHURCH * WILL","geo_score":0.714,"postal code/zip code":49616,"id":"a6oh64stypr8","geo_precision":"city","state":"MI"},"type":"Feature","geometry":{"type":"Point","coordinates":[-86.07937,44.574478]}},{"properties":{"steet address":"9121 S Hinkley Rd","city":"Mc Bain","company name":"CIRCLE M WELDING","geo_score":0.714,"postal code/zip code":49657,"id":"a6oh64o0euhx","geo_precision":"city","state":"MI"},"type":"Feature","geometry":{"type":"Point","coordinates":[-85.154382,44.258292]}},{"properties":{"steet address":"106 LOCUST ST","city":"BIG RAPIDS","company name":"CIVIL INFRASTRUCTURE INC","geo_score":0.714,"postal code/zip code":49307,"id":"a6oh64w80p0g","geo_precision":"city","state":"MI"},"type":"Feature","geometry":{"type":"Point","coordinates":[-85.3518,43.683493]}},{"properties":{"steet address":"914 S LAKE ST","city":"BOYNE CITY","company name":"CJ CUSTOMS","geo_score":0.714,"postal code/zip code":49712,"id":"a6oh64shu9f5","geo_precision":"city","state":"MI"},"type":"Feature","geometry":{"type":"Point","coordinates":[-85.675458,44.289721]}},{"properties":{"steet address":"10109 S MACKINAC TRL","city":"DAFTER","company name":"CLEMENT BROS. LTD.","geo_score":0.714,"postal code/zip code":49724,"id":"a6oh64t3unw1","geo_precision":"city","state":"MI"},"type":"Feature","geometry":{"type":"Point","coordinates":[-84.617131,46.311604]}},{"properties":{"steet address":"3055 Cass Rd Ste 108","city":"Traverse City","company name":"CLIMATRON HEATING &amp; AC INC","geo_score":0.714,"postal code/zip code":49684,"id":"a6oh64p656rb","geo_precision":"city","state":"MI"},"type":"Feature","geometry":{"type":"Point","coordinates":[-88.234001,47.194369]}},{"properties":{"steet address":"6410 CENTER RD","city":"TRAVERSE CITY","company name":"CLUFF WELL DRILLING","geo_score":0.714,"postal code/zip code":49686,"id":"a6oh64umisay","geo_precision":"city","state":"MI"},"type":"Feature","geometry":{"type":"Point","coordinates":[-88.234001,47.194369]}},{"properties":{"steet address":"6565 County Rd","city":"Kalkaska","company name":"COLDSPRINGS FIRE AND RESCUE","geo_score":0.714,"postal code/zip code":49646,"id":"a6oh64vqe8pg","geo_precision":"city","state":"MI"},"type":"Feature","geometry":{"type":"Point","coordinates":[-85.092905,44.697144]}},{"properties":{"steet address":"7090 S 45 RD","city":"CADILLAC","company name":"COLE INC * ROBERT T","geo_score":0.714,"postal code/zip code":49601,"id":"a6oh64w70yon","geo_precision":"city","state":"MI"},"type":"Feature","geometry":{"type":"Point","coordinates":[-85.549093,44.335278]}},{"properties":{"steet address":"7991 Marion Dr","city":"Harbor Springs","company name":"COLLIE CONSTRUCTION INC","geo_score":0.714,"postal code/zip code":49740,"id":"a6oh64kupkv5","geo_precision":"city","state":"MI"},"type":"Feature","geometry":{"type":"Point","coordinates":[-86.19538,43.076609]}},{"properties":{"steet address":"740 CENTRE","city":"TRAVERSE CITY","company name":"COMSTOCK CONSTRUCTION CO","geo_score":0.714,"postal code/zip code":49685,"id":"a6oh64z48g6p","geo_precision":"city","state":"MI"},"type":"Feature","geometry":{"type":"Point","coordinates":[-88.234001,47.194369]}},{"properties":{"steet address":"3525 SOUTH LAKESHORE DR","city":"LUDINGTON","company name":"CONSUMERS ENERGY","geo_score":0.714,"postal code/zip code":49431,"id":"a6oh650dwp7t","geo_precision":"city","state":"MI"},"type":"Feature","geometry":{"type":"Point","coordinates":[-86.349439,43.998926]}},{"properties":{"steet address":"2682 GARFIELD RD N STE 21","city":"TRAVERSE CITY","company name":"CONVERGED SOLUTIONS LLC","geo_score":0.714,"postal code/zip code":49686,"id":"a6oh64nzxjqa","geo_precision":"city","state":"MI"},"type":"Feature","geometry":{"type":"Point","coordinates":[-88.234001,47.194369]}},{"properties":{"steet address":"338","city":"KALKASKA","company name":"COOKE SHEET METAL","geo_score":0.714,"postal code/zip code":49646,"id":"a6oh64qq6vda","geo_precision":"city","state":"MI"},"type":"Feature","geometry":{"type":"Point","coordinates":[-85.092905,44.697144]}},{"properties":{"steet address":"609 Bjornson St","city":"Big Rapids","company name":"COOLEY * JACK","geo_score":0.714,"postal code/zip code":49307,"id":"a6oh64wup23t","geo_precision":"city","state":"MI"},"type":"Feature","geometry":{"type":"Point","coordinates":[-85.3518,43.683493]}},{"properties":{"steet address":"704 E PROGRESS ST","city":"HILLMAN","company name":"CORDES EXCAVATING, INC.","geo_score":0.714,"postal code/zip code":49746,"id":"a6oh64p19ru7","geo_precision":"city","state":"MI"},"type":"Feature","geometry":{"type":"Point","coordinates":[-84.022691,45.05958]}},{"properties":{"steet address":"9141 N Cut River Rd","city":"Roscommon","company name":"CORNERSTONE CONSTRUCTION CORP","geo_score":0.714,"postal code/zip code":48653,"id":"a6oh64xa6m0b","geo_precision":"city","state":"MI"},"type":"Feature","geometry":{"type":"Point","coordinates":[-84.611194,44.394517]}},{"properties":{"steet address":"4200 Maxwell Rd","city":"Petoskey","company name":"CORNWELL CONTRACTING","geo_score":0.714,"postal code/zip code":49770,"id":"a6oh64kl60by","geo_precision":"city","state":"MI"},"type":"Feature","geometry":{"type":"Point","coordinates":[-84.913255,45.355915]}},{"properties":{"steet address":"3001 NEWBERRY AVE","city":"NEWBERRY","company name":"CORRECTIONS DEPT","geo_score":0.714,"postal code/zip code":49868,"id":"a6oh64z26p3u","geo_precision":"city","state":"MI"},"type":"Feature","geometry":{"type":"Point","coordinates":[-85.515605,46.460159]}},{"properties":{"steet address":"505 S Michigan Ave","city":"Beulah","company name":"COUNTY OF BENZIE","geo_score":0.714,"postal code/zip code":49617,"id":"a6oh64nk65ky","geo_precision":"city","state":"MI"},"type":"Feature","geometry":{"type":"Point","coordinates":[-83.432756,45.249737]}},{"properties":{"steet address":"1000 Grant St","city":"Charlevoix","company name":"COUNTY OF CHARLEVOIX","geo_score":0.0,"postal code/zip code":49720,"id":"a6oh64mrjih4","geo_precision":"unmatched","state":"MI"},"type":"Feature","geometry":null},{"properties":{"steet address":"320 Washington St","city":"Traverse City","company name":"COUNTY OF GRAND TRAVERSE","geo_score":0.714,"postal code/zip code":49684,"id":"a6oh64qqiniy","geo_precision":"city","state":"MI"},"type":"Feature","geometry":{"type":"Point","coordinates":[-88.234001,47.194369]}},{"properties":{"steet address":"605 N BIRCH ST","city":"KALKASKA","company name":"COUNTY OF KALKASKA","geo_score":0.714,"postal code/zip code":49646,"id":"a6oh64ptvebm","geo_precision":"city","state":"MI"},"type":"Feature","geometry":{"type":"Point","coordinates":[-85.092905,44.697144]}},{"properties":{"steet address":"1153 Michigan Ave","city":"Baldwin","company name":"COUNTY OF LAKE","geo_score":0.714,"postal code/zip code":49304,"id":"a6oh64mt7hn8","geo_precision":"city","state":"MI"},"type":"Feature","geometry":{"type":"Point","coordinates":[-85.840774,43.929225]}},{"properties":{"steet address":"1525 E PARKDALE AVE","city":"MANISTEE","company name":"COUNTY OF MANISTEE","geo_score":0.714,"postal code/zip code":49660,"id":"a6oh64ww79qa","geo_precision":"city","state":"MI"},"type":"Feature","geometry":{"type":"Point","coordinates":[-86.182473,44.263534]}},{"properties":{"steet address":"11445 M 32","city":"Atlanta","company name":"COUNTY OF MONTMORENCY","geo_score":0.714,"postal code/zip code":49709,"id":"a6oh64vsxowr","geo_precision":"city","state":"MI"},"type":"Feature","geometry":{"type":"Point","coordinates":[-88.634939,47.072716]}},{"properties":{"steet address":"500 Huron St","city":"Grayling","company name":"CRAWFORD COUNTY ROAD COMM","geo_score":0.714,"postal code/zip code":49738,"id":"a6oh64v8rw3d","geo_precision":"city","state":"MI"},"type":"Feature","geometry":{"type":"Point","coordinates":[-84.612941,44.691777]}},{"properties":{"steet address":"3890 Charlevoix Ave 360","city":"Petoskey","company name":"CREATIVE CARPENTRY SERVICE","geo_score":0.714,"postal code/zip code":49770,"id":"a6oh64np19ny","geo_precision":"city","state":"MI"},"type":"Feature","geometry":{"type":"Point","coordinates":[-84.913255,45.355915]}},{"properties":{"steet address":"12500 CRYSTAL MOUNTAIN DR","city":"THOMPSONVILLE","company name":"CRYSTAL ENTERPRISES  INC","geo_score":0.714,"postal code/zip code":49683,"id":"a6oh64mwg5vg","geo_precision":"city","state":"MI"},"type":"Feature","geometry":{"type":"Point","coordinates":[-86.330419,45.904974]}},{"properties":{"steet address":"248","city":"GLEN ARBOR","company name":"CRYSTAL RIVER CORP","geo_score":0.714,"postal code/zip code":49636,"id":"a6oh64o390wf","geo_precision":"city","state":"MI"},"type":"Feature","geometry":{"type":"Point","coordinates":[-85.351074,41.977796]}},{"properties":{"steet address":"863 S AIRPORT RD","city":"TRAVERSE CITY","company name":"CUMMINS BRIDGEWAY/+","geo_score":0.714,"postal code/zip code":49686,"id":"a6oh64r5hfdd","geo_precision":"city","state":"MI"},"type":"Feature","geometry":{"type":"Point","coordinates":[-88.234001,47.194369]}},{"properties":{"steet address":"8688 S BLACK RIVER RD","city":"ONAWAY","company name":"CUSTOM QUALITY BUILDERS","geo_score":0.714,"postal code/zip code":49765,"id":"a6oh64quvaa6","geo_precision":"city","state":"MI"},"type":"Feature","geometry":{"type":"Point","coordinates":[-83.871571,45.363283]}},{"properties":{"steet address":"1266 INDUSTRY DR STE A","city":"Traverse City","company name":"D &amp; W MECHANICAL","geo_score":0.714,"postal code/zip code":49686,"id":"a6oh64xdga4d","geo_precision":"city","state":"MI"},"type":"Feature","geometry":{"type":"Point","coordinates":[-88.234001,47.194369]}},{"properties":{"steet address":"17708 18 MILE RD","city":"LEROY","company name":"D J MCQUESTION &amp; SONS  INC","geo_score":0.714,"postal code/zip code":49655,"id":"a6oh64senh3i","geo_precision":"city","state":"MI"},"type":"Feature","geometry":{"type":"Point","coordinates":[-85.32548,44.013375]}},{"properties":{"steet address":"22505 15 Mile Rd","city":"Big Rapids","company name":"DEFEVER CONSTRUCTION CO","geo_score":0.714,"postal code/zip code":49307,"id":"a6oh64vg8vd7","geo_precision":"city","state":"MI"},"type":"Feature","geometry":{"type":"Point","coordinates":[-85.3518,43.683493]}},{"properties":{"steet address":"625 Woodmere Ave","city":"Traverse City","company name":"DEPARTMENT OF PUBLIC SERVICE","geo_score":0.714,"postal code/zip code":49686,"id":"a6oh64lnsc3m","geo_precision":"city","state":"MI"},"type":"Feature","geometry":{"type":"Point","coordinates":[-88.234001,47.194369]}},{"properties":{"steet address":"199 W MCCOY RD","city":"GAYLORD","company name":"DEPENDABLE CONCRETE","geo_score":0.714,"postal code/zip code":49735,"id":"a6oh64lx0lh9","geo_precision":"city","state":"MI"},"type":"Feature","geometry":{"type":"Point","coordinates":[-84.612207,45.028411]}},{"properties":{"steet address":"12272 US 23 SOUTH","city":"OSSINEKE","company name":"DEROCHER MASONRY","geo_score":0.714,"postal code/zip code":49766,"id":"a6oh64leruzn","geo_precision":"city","state":"MI"},"type":"Feature","geometry":{"type":"Point","coordinates":[-83.53661,45.028249]}},{"properties":{"steet address":"1030 DE VERE DR","city":"ALPENA","company name":"DEVERE CONSTRUCTION INC","geo_score":0.714,"postal code/zip code":49707,"id":"a6oh64nrhwwx","geo_precision":"city","state":"MI"},"type":"Feature","geometry":{"type":"Point","coordinates":[-83.495091,45.033143]}},{"properties":{"steet address":"409 DUCHARME","city":"MACKINAW CITY","company name":"DOCS PLUMBING &amp; HTG INC","geo_score":0.714,"postal code/zip code":49701,"id":"a6oh64t0qee7","geo_precision":"city","state":"MI"},"type":"Feature","geometry":{"type":"Point","coordinates":[-83.868275,42.066432]}},{"properties":{"steet address":"1600 SOUTH MADISON ST","city":"LUDINGTON","company name":"DOW CHEMICAL COMPANY","geo_score":0.714,"postal code/zip code":49431,"id":"a6oh64s9i9zi","geo_precision":"city","state":"MI"},"type":"Feature","geometry":{"type":"Point","coordinates":[-86.349439,43.998926]}},{"properties":{"steet address":"3850 E U S 23","city":"CHEBOYGAN","company name":"DOYLE INC","geo_score":0.714,"postal code/zip code":49721,"id":"a6oh64td1aa9","geo_precision":"city","state":"MI"},"type":"Feature","geometry":{"type":"Point","coordinates":[-84.468639,45.592842]}},{"properties":{"steet address":"10029 E Cherry Bend Rd","city":"Traverse City","company name":"DRYWALL DYNAMICS INC","geo_score":0.714,"postal code/zip code":49684,"id":"a6oh64mas22r","geo_precision":"city","state":"MI"},"type":"Feature","geometry":{"type":"Point","coordinates":[-88.234001,47.194369]}},{"properties":{"steet address":"5537 W 4 RD","city":"BUCKLEY","company name":"E &amp; M MECHANICAL INC","geo_score":0.714,"postal code/zip code":49620,"id":"a6oh64k9h6t3","geo_precision":"city","state":"MI"},"type":"Feature","geometry":{"type":"Point","coordinates":[-87.575677,45.551358]}},{"properties":{"steet address":"5584 M-32 E","city":"GAYLORD","company name":"EARTHWORKS ENTERPRISES INC","geo_score":0.714,"postal code/zip code":49735,"id":"a6oh64t65izo","geo_precision":"city","state":"MI"},"type":"Feature","geometry":{"type":"Point","coordinates":[-84.612207,45.028411]}},{"properties":{"steet address":"5711 N MANITOU TRAIL","city":"LELAND","company name":"EASLING CONSTRUCTION COMPANY","geo_score":0.714,"postal code/zip code":49654,"id":"a6oh64um4gz1","geo_precision":"city","state":"MI"},"type":"Feature","geometry":{"type":"Point","coordinates":[-85.770227,44.989416]}},{"properties":{"steet address":"3600 RENNIE SCHOOL RD","city":"TRAVERSE CITY","company name":"ELMERS CRANE &amp; DOZER INC","geo_score":0.714,"postal code/zip code":49684,"id":"a6oh64qyvkqb","geo_precision":"city","state":"MI"},"type":"Feature","geometry":{"type":"Point","coordinates":[-88.234001,47.194369]}},{"properties":{"steet address":"8737 M 119","city":"PETOSKEY","company name":"EMMET BRICK &amp; BLOCK","geo_score":0.714,"postal code/zip code":49770,"id":"a6oh64nvuphj","geo_precision":"city","state":"MI"},"type":"Feature","geometry":{"type":"Point","coordinates":[-84.913255,45.355915]}},{"properties":{"steet address":"1426 Trade Center Dr","city":"Traverse City","company name":"ERATICAL SERVICES INC","geo_score":0.714,"postal code/zip code":49686,"id":"a6oh64x1yx0i","geo_precision":"city","state":"MI"},"type":"Feature","geometry":{"type":"Point","coordinates":[-88.234001,47.194369]}},{"properties":{"steet address":"2893 ASHMUN","city":"SAULT SAINTE MARIE","company name":"EVERYTHING ELECTRIC","geo_score":0.714,"postal code/zip code":49783,"id":"a6oh64uffxe8","geo_precision":"city","state":"MI"},"type":"Feature","geometry":{"type":"Point","coordinates":[-84.900482,43.046851]}},{"properties":{"steet address":"3480 Veterans Dr","city":"Traverse City","company name":"EZ PLUMBING AND HEATING","geo_score":0.714,"postal code/zip code":49684,"id":"a6oh64vd4gqy","geo_precision":"city","state":"MI"},"type":"Feature","geometry":{"type":"Point","coordinates":[-88.234001,47.194369]}},{"properties":{"steet address":"1509 N. ABBE RD","city":"FAIRVIEW","company name":"FAIRVIEW HARDWARE","geo_score":0.714,"postal code/zip code":48621,"id":"a6oh64y9aosh","geo_precision":"city","state":"MI"},"type":"Feature","geometry":{"type":"Point","coordinates":[-84.011959,44.689286]}},{"properties":{"steet address":"2852 D and M Dr","city":"Gaylord","company name":"FAMILY PLUMBING &amp; HTG","geo_score":0.714,"postal code/zip code":49735,"id":"a6oh64wnstnu","geo_precision":"city","state":"MI"},"type":"Feature","geometry":{"type":"Point","coordinates":[-84.612207,45.028411]}},{"properties":{"steet address":"3876 Mcmichael Rd","city":"Burt Lake","company name":"FAR HILLS CONSTRUCTION CO","geo_score":0.714,"postal code/zip code":49717,"id":"a6oh64n4f2r9","geo_precision":"city","state":"MI"},"type":"Feature","geometry":{"type":"Point","coordinates":[-83.893403,43.263947]}},{"properties":{"steet address":"18573 Northland Dr","city":"Big Rapids","company name":"FENSTERMACHER ASPHALT PAVING","geo_score":0.714,"postal code/zip code":49307,"id":"a6oh6507t59q","geo_precision":"city","state":"MI"},"type":"Feature","geometry":{"type":"Point","coordinates":[-85.3518,43.683493]}},{"properties":{"steet address":"809 SEYMOUR ST","city":"SAULT SAINTE MARIE","company name":"FERRARI CONST RENTALS","geo_score":0.714,"postal code/zip code":49783,"id":"a6oh64ui83oa","geo_precision":"city","state":"MI"},"type":"Feature","geometry":{"type":"Point","coordinates":[-84.900482,43.046851]}},{"properties":{"steet address":"2969 KEYSTONE RD N","city":"TRAVERSE CITY","company name":"FEYEN ZYLSTRA ELECTRIC INC","geo_score":0.714,"postal code/zip code":49686,"id":"a6oh64n0jg48","geo_precision":"city","state":"MI"},"type":"Feature","geometry":{"type":"Point","coordinates":[-88.234001,47.194369]}},{"properties":{"steet address":"307","city":"ALPENA","company name":"FIBER CHAR CORPERATION","geo_score":0.714,"postal code/zip code":49707,"id":"a6oh64tv7lhk","geo_precision":"city","state":"MI"},"type":"Feature","geometry":{"type":"Point","coordinates":[-83.495091,45.033143]}},{"properties":{"steet address":"1037 SEAMAN RD","city":"WELLSTON","company name":"FISCHER TANKS","geo_score":0.714,"postal code/zip code":49689,"id":"a6oh64rtf0hq","geo_precision":"city","state":"MI"},"type":"Feature","geometry":{"type":"Point","coordinates":[-86.027194,44.330169]}},{"properties":{"steet address":"160 Works Ave","city":"Cadillac","company name":"FLEX SMALL ENGINE INC","geo_score":0.714,"postal code/zip code":49601,"id":"a6oh64x9y41a","geo_precision":"city","state":"MI"},"type":"Feature","geometry":{"type":"Point","coordinates":[-85.549093,44.335278]}},{"properties":{"steet address":"271 N M 129","city":"CEDARVILLE","company name":"FLOATATION DOCKING SYSTEMS INC","geo_score":0.714,"postal code/zip code":49719,"id":"a6oh64sbcypz","geo_precision":"city","state":"MI"},"type":"Feature","geometry":{"type":"Point","coordinates":[-84.276199,46.007211]}},{"properties":{"steet address":"216 RAY ST","city":"BOYNE CITY","company name":"FLOYD AND TODD WRIGHT BUILDERS, INC","geo_score":0.714,"postal code/zip code":49712,"id":"a6oh64rrx4un","geo_precision":"city","state":"MI"},"type":"Feature","geometry":{"type":"Point","coordinates":[-85.675458,44.289721]}},{"properties":{"steet address":"4400 WEST 4 MILE RD","city":"GRAYLING","company name":"FORTISTAR LLC","geo_score":0.714,"postal code/zip code":49738,"id":"a6oh64morzcz","geo_precision":"city","state":"MI"},"type":"Feature","geometry":{"type":"Point","coordinates":[-84.612941,44.691777]}},{"properties":{"steet address":"119 N F St","city":"Cheboygan","company name":"FULL CIRCLE CONTRACTING INC","geo_score":0.714,"postal code/zip code":49721,"id":"a6oh650em0m2","geo_precision":"city","state":"MI"},"type":"Feature","geometry":{"type":"Point","coordinates":[-84.468639,45.592842]}},{"properties":{"steet address":"2590 N 41 Rd","city":"Manton","company name":"FUSCONE * JOHN","geo_score":0.714,"postal code/zip code":49663,"id":"a6oh64ktc0re","geo_precision":"city","state":"MI"},"type":"Feature","geometry":{"type":"Point","coordinates":[-85.449665,42.009094]}},{"properties":{"steet address":"6720 N US HWY 23","city":"SPRUCE","company name":"G &amp; G CONSTRUCTION INC","geo_score":0.714,"postal code/zip code":48762,"id":"a6oh64l42lr2","geo_precision":"city","state":"MI"},"type":"Feature","geometry":{"type":"Point","coordinates":[-83.489404,44.792293]}},{"properties":{"steet address":"2233 Fenlon Rd","city":"Cheboygan","company name":"GAHNS CONSTRUCTION, JIM","geo_score":0.714,"postal code/zip code":49721,"id":"a6oh64v1cbu0","geo_precision":"city","state":"MI"},"type":"Feature","geometry":{"type":"Point","coordinates":[-84.468639,45.592842]}},{"properties":{"steet address":"4810 N INDIAN LAKE RD","city":"TRAVERSE CITY","company name":"GARLAND DRYWALL","geo_score":0.714,"postal code/zip code":49696,"id":"a6oh64liy3ej","geo_precision":"city","state":"MI"},"type":"Feature","geometry":{"type":"Point","coordinates":[-88.234001,47.194369]}},{"properties":{"steet address":"84 S Rudd Rd","city":"Cedarville","company name":"GARLAND DRYWALL","geo_score":0.714,"postal code/zip code":49719,"id":"a6oh64py84gu","geo_precision":"city","state":"MI"},"type":"Feature","geometry":{"type":"Point","coordinates":[-84.276199,46.007211]}},{"properties":{"steet address":"615 S Elm Ave","city":"Gaylord","company name":"GAYLORD COMMUNITY SCHOOL","geo_score":0.714,"postal code/zip code":49735,"id":"a6oh64xbae63","geo_precision":"city","state":"MI"},"type":"Feature","geometry":{"type":"Point","coordinates":[-84.612207,45.028411]}},{"properties":{"steet address":"6437 S LAKOLA RD","city":"REED CITY","company name":"GE JOHNSON CONSTRUCTION INC","geo_score":0.714,"postal code/zip code":49677,"id":"a6oh64xglrj3","geo_precision":"city","state":"MI"},"type":"Feature","geometry":{"type":"Point","coordinates":[-85.414718,43.952029]}},{"properties":{"steet address":"866 US Highway 31 S","city":"Traverse City","company name":"GEOFURNACE HEATING &amp; COOLG LLC","geo_score":0.714,"postal code/zip code":49684,"id":"a6oh64wqrxvv","geo_precision":"city","state":"MI"},"type":"Feature","geometry":{"type":"Point","coordinates":[-88.234001,47.194369]}},{"properties":{"steet address":"312","city":"KEWADIN","company name":"GEOMEMBRANE SERVICES INC","geo_score":0.714,"postal code/zip code":49648,"id":"a6oh64yy1jsr","geo_precision":"city","state":"MI"},"type":"Feature","geometry":{"type":"Point","coordinates":[-85.355394,45.006971]}},{"properties":{"steet address":"4113 WEST 4 MILE RD","city":"GRAYLING","company name":"GEORGIA-PACIFIC CORPORATION","geo_score":0.714,"postal code/zip code":49738,"id":"a6oh64rwvejd","geo_precision":"city","state":"MI"},"type":"Feature","geometry":{"type":"Point","coordinates":[-84.612941,44.691777]}},{"properties":{"steet address":"415 SOUTH MORSE","city":"REED CITY","company name":"GERBER CONSTR","geo_score":0.714,"postal code/zip code":49677,"id":"a6oh64kwh3gr","geo_precision":"city","state":"MI"},"type":"Feature","geometry":{"type":"Point","coordinates":[-85.414718,43.952029]}},{"properties":{"steet address":"130 MILL RD","city":"ROSCOMMON","company name":"GERRISH TOWNSHIP","geo_score":0.714,"postal code/zip code":48653,"id":"a6oh64sybt7e","geo_precision":"city","state":"MI"},"type":"Feature","geometry":{"type":"Point","coordinates":[-84.611194,44.394517]}},{"properties":{"steet address":"565 CHERRY GROVE LN","city":"FRANKFORT","company name":"GILBERT BUILDERS * HARRY","geo_score":0.714,"postal code/zip code":49635,"id":"a6oh64yszskk","geo_precision":"city","state":"MI"},"type":"Feature","geometry":{"type":"Point","coordinates":[-86.177255,44.613058]}},{"properties":{"steet address":"2607 WERTH RD","city":"ALPENA","company name":"GILLILAND CONSTRUCTION CO","geo_score":0.714,"postal code/zip code":49707,"id":"a6oh64sxkrxf","geo_precision":"city","state":"MI"},"type":"Feature","geometry":{"type":"Point","coordinates":[-83.495091,45.033143]}},{"properties":{"steet address":"1272 BLACKFORD BLVD","city":"INTERLOCHEN","company name":"GINGRAS ELECTRIC","geo_score":0.714,"postal code/zip code":49643,"id":"a6oh64unono9","geo_precision":"city","state":"MI"},"type":"Feature","geometry":{"type":"Point","coordinates":[-85.782278,44.633562]}},{"properties":{"steet address":"224","city":"SAINT IGNACE","company name":"GLASHAW DRYWALL","geo_score":0.0,"postal code/zip code":49781,"id":"a6oh64zkaxt2","geo_precision":"unmatched","state":"MI"},"type":"Feature","geometry":null},{"properties":{"steet address":"515 N 72ND AVE","city":"HART","company name":"GLOVER * JOSEPH M","geo_score":0.714,"postal code/zip code":49420,"id":"a6oh64zgzbie","geo_precision":"city","state":"MI"},"type":"Feature","geometry":{"type":"Point","coordinates":[-85.710694,44.280319]}},{"properties":{"steet address":"492 Laperell Rd","city":"Cheboygan","company name":"GOUINE CONST INC","geo_score":0.714,"postal code/zip code":49721,"id":"a6oh64pdphls","geo_precision":"city","state":"MI"},"type":"Feature","geometry":{"type":"Point","coordinates":[-84.468639,45.592842]}},{"properties":{"steet address":"7741w M 72 E","city":"Williamsburg","company name":"GRAND TRAVERSE BAND ECONOMIC","geo_score":0.714,"postal code/zip code":49690,"id":"a6oh64kzm2zb","geo_precision":"city","state":"MI"},"type":"Feature","geometry":{"type":"Point","coordinates":[-85.427605,44.767181]}},{"properties":{"steet address":"2331 N WEST BAY SHORE DR","city":"SUTTONS BAY","company name":"GRAND TRAVERSE BAND OF OTTOWA","geo_score":0.714,"postal code/zip code":49682,"id":"a6oh64sfconv","geo_precision":"city","state":"MI"},"type":"Feature","geometry":{"type":"Point","coordinates":[-85.644068,44.988569]}},{"properties":{"steet address":"1616 W South Airport Rd","city":"Traverse City","company name":"GRAND TRAVERSE CONSTRUCTION","geo_score":0.714,"postal code/zip code":49686,"id":"a6oh64qwk4h5","geo_precision":"city","state":"MI"},"type":"Feature","geometry":{"type":"Point","coordinates":[-88.234001,47.194369]}},{"properties":{"steet address":"1305 STEPKE CT","city":"TRAVERSE CITY","company name":"GRAND TRAVERSE REFRIGERATION","geo_score":0.714,"postal code/zip code":49685,"id":"a6oh64pnfw42","geo_precision":"city","state":"MI"},"type":"Feature","geometry":{"type":"Point","coordinates":[-88.234001,47.194369]}},{"properties":{"steet address":"6300 US 31 NORTH","city":"ACME","company name":"GRAND TRAVERSE RESORT &amp; SPA","geo_score":0.714,"postal code/zip code":49610,"id":"a6oh64slpo7q","geo_precision":"city","state":"MI"},"type":"Feature","geometry":{"type":"Point","coordinates":[-85.488449,44.789382]}},{"properties":{"steet address":"1305 Stepke Ct","city":"Traverse City","company name":"GRAND TRAVERSE RFDG INC","geo_score":0.714,"postal code/zip code":49684,"id":"a6oh64ml55t2","geo_precision":"city","state":"MI"},"type":"Feature","geometry":{"type":"Point","coordinates":[-88.234001,47.194369]}},{"properties":{"steet address":"1728 S PENNINSULA RD","city":"EAST JORDAN","company name":"GRANDVUE MEDICAL CARE FACILITY","geo_score":0.714,"postal code/zip code":49727,"id":"a6oh6506846d","geo_precision":"city","state":"MI"},"type":"Feature","geometry":{"type":"Point","coordinates":[-85.102843,45.203995]}},{"properties":{"steet address":"1296 LAKESHORE RD","city":"MANISTEE","company name":"GRANT * DON","geo_score":0.714,"postal code/zip code":49660,"id":"a6oh64kav0vm","geo_precision":"city","state":"MI"},"type":"Feature","geometry":{"type":"Point","coordinates":[-86.182473,44.263534]}},{"properties":{"steet address":"7170 SCHICHTEL RD","city":"KINGSLEY","company name":"GREAT LAKES CAULKING &amp; WTRPRFG","geo_score":0.714,"postal code/zip code":49649,"id":"a6oh64s5g6ix","geo_precision":"city","state":"MI"},"type":"Feature","geometry":{"type":"Point","coordinates":[-86.39752,42.043654]}},{"properties":{"steet address":"4905 W Buchanan Rd","city":"Shelby","company name":"GREAT LAKES DRYWALL","geo_score":0.714,"postal code/zip code":49455,"id":"a6oh64v30m4g","geo_precision":"city","state":"MI"},"type":"Feature","geometry":{"type":"Point","coordinates":[-83.032984,42.670866]}},{"properties":{"steet address":"10892 FAIR DOR DR","city":"RUDYARD","company name":"GREAT LAKES ELECTRICAL INC","geo_score":0.714,"postal code/zip code":49780,"id":"a6oh64m9587k","geo_precision":"city","state":"MI"},"type":"Feature","geometry":{"type":"Point","coordinates":[-84.800411,46.258514]}},{"properties":{"steet address":"70","city":"BOYNE CITY","company name":"GREAT LAKES ENERGY COOPERATIVE","geo_score":0.714,"postal code/zip code":49712,"id":"a6oh64x4wfux","geo_precision":"city","state":"MI"},"type":"Feature","geometry":{"type":"Point","coordinates":[-85.675458,44.289721]}},{"properties":{"steet address":"2318 CASS ROAD","city":"TRAVERSE CITY","company name":"GREAT LAKES GYPSUM SUPPLY","geo_score":0.714,"postal code/zip code":49684,"id":"a6oh65032efz","geo_precision":"city","state":"MI"},"type":"Feature","geometry":{"type":"Point","coordinates":[-88.234001,47.194369]}},{"properties":{"steet address":"1892 Chapel Hill Dr","city":"Petoskey","company name":"GREAT LAKES O M S","geo_score":0.714,"postal code/zip code":49770,"id":"a6oh64x984jr","geo_precision":"city","state":"MI"},"type":"Feature","geometry":{"type":"Point","coordinates":[-84.913255,45.355915]}},{"properties":{"steet address":"87 S Straits Hwy","city":"Indian River","company name":"GREAT LAKES PLUMBING &amp; HEATING","geo_score":0.714,"postal code/zip code":49749,"id":"a6oh64pnilme","geo_precision":"city","state":"MI"},"type":"Feature","geometry":{"type":"Point","coordinates":[-84.578019,45.447209]}},{"properties":{"steet address":"8814 SWAN RD","city":"ONAWAY","company name":"GREAT LAKES POWER &amp; PIPE INC","geo_score":0.714,"postal code/zip code":49765,"id":"a6oh64wt67kt","geo_precision":"city","state":"MI"},"type":"Feature","geometry":{"type":"Point","coordinates":[-83.871571,45.363283]}},{"properties":{"steet address":"19022 S M-129","city":"SAULT SAINTE MARIE","company name":"GREAT LAKES ROOFING &amp; INSULATION","geo_score":0.714,"postal code/zip code":49783,"id":"a6oh64k7aels","geo_precision":"city","state":"MI"},"type":"Feature","geometry":{"type":"Point","coordinates":[-84.900482,43.046851]}},{"properties":{"steet address":"1305 STEPKE CT","city":"TRAVERSE CITY","company name":"GREAT LAKES STAINLESS INC","geo_score":0.714,"postal code/zip code":49684,"id":"a6oh64sk5b8v","geo_precision":"city","state":"MI"},"type":"Feature","geometry":{"type":"Point","coordinates":[-88.234001,47.194369]}},{"properties":{"steet address":"2183 N Water Rd","city":"Hart","company name":"GREAT LAKES UTILITIES INC","geo_score":0.714,"postal code/zip code":49420,"id":"a6oh64tfevyy","geo_precision":"city","state":"MI"},"type":"Feature","geometry":{"type":"Point","coordinates":[-85.710694,44.280319]}},{"properties":{"steet address":"3575 N US HWY 31 S","city":"TRAVERSE CITY","company name":"GREAT WOLF LODGE OF TRAVERSE CITY","geo_score":0.714,"postal code/zip code":49684,"id":"a6oh64lkgv4j","geo_precision":"city","state":"MI"},"type":"Feature","geometry":{"type":"Point","coordinates":[-88.234001,47.194369]}},{"properties":{"steet address":"16721 220TH AVE","city":"BIG RAPIDS","company name":"GREEN BAY ELECTRIC INC","geo_score":0.714,"postal code/zip code":49307,"id":"a6oh64umtn7h","geo_precision":"city","state":"MI"},"type":"Feature","geometry":{"type":"Point","coordinates":[-85.3518,43.683493]}},{"properties":{"steet address":"601 PORTER ST","city":"PETOSKEY","company name":"GREEN CO * JOHN E","geo_score":0.714,"postal code/zip code":49770,"id":"a6oh64nxrt13","geo_precision":"city","state":"MI"},"type":"Feature","geometry":{"type":"Point","coordinates":[-84.913255,45.355915]}},{"properties":{"steet address":"141 S Manila St","city":"Pickford","company name":"GREEN TREE BUILDERS INC","geo_score":0.0,"postal code/zip code":49774,"id":"a6oh64u14ojd","geo_precision":"unmatched","state":"MI"},"type":"Feature","geometry":null},{"properties":{"steet address":"14481 Molineaux Rd","city":"Wolverine","company name":"GREENWAY, GEOFF","geo_score":0.714,"postal code/zip code":49799,"id":"a6oh64zc3xg5","geo_precision":"city","state":"MI"},"type":"Feature","geometry":{"type":"Point","coordinates":[-84.549533,45.326831]}},{"properties":{"steet address":"528 W OAKLAWN RD","city":"SAULT SAINTE MARIE","company name":"GREGG INTERIOR PAINTING * TIM","geo_score":0.714,"postal code/zip code":49783,"id":"a6oh64k6zlul","geo_precision":"city","state":"MI"},"type":"Feature","geometry":{"type":"Point","coordinates":[-84.900482,43.046851]}},{"properties":{"steet address":"9611 N STRAITS HWY","city":"CHEBOYGAN","company name":"H &amp; B PLUMBING &amp; HTG INC","geo_score":0.714,"postal code/zip code":49721,"id":"a6oh64rpgdcx","geo_precision":"city","state":"MI"},"type":"Feature","geometry":{"type":"Point","coordinates":[-84.468639,45.592842]}},{"properties":{"steet address":"06238 US Highway 31 S","city":"Charlevoix","company name":"HAGGARDS PLUMBING &amp; HTG","geo_score":0.0,"postal code/zip code":49720,"id":"a6oh64n6jgdz","geo_precision":"unmatched","state":"MI"},"type":"Feature","geometry":null},{"properties":{"steet address":"4223 W POLK RD","city":"HART","company name":"HALLACK CONTRACTING INC","geo_score":0.714,"postal code/zip code":49420,"id":"a6oh64swa58m","geo_precision":"city","state":"MI"},"type":"Feature","geometry":{"type":"Point","coordinates":[-85.710694,44.280319]}},{"properties":{"steet address":"1874 CASS HARTMAN CT STE A","city":"TRAVERSE CITY","company name":"HALLMARK CONSTRUCTION CO","geo_score":0.714,"postal code/zip code":49684,"id":"a6oh64yqscq8","geo_precision":"city","state":"MI"},"type":"Feature","geometry":{"type":"Point","coordinates":[-88.234001,47.194369]}},{"properties":{"steet address":"2365 S Airport Rd W","city":"Traverse City","company name":"HAMMERSMITH EQUIPMENT CO","geo_score":0.714,"postal code/zip code":49684,"id":"a6oh64qc7gj1","geo_precision":"city","state":"MI"},"type":"Feature","geometry":{"type":"Point","coordinates":[-88.234001,47.194369]}},{"properties":{"steet address":"8700 Commerce CT","city":"Harbor Springs","company name":"HARBOR BUILDERS INC","geo_score":0.714,"postal code/zip code":49740,"id":"a6oh64p161uk","geo_precision":"city","state":"MI"},"type":"Feature","geometry":{"type":"Point","coordinates":[-86.19538,43.076609]}},{"properties":{"steet address":"242 S BRYE","city":"LUDINGTON","company name":"HARDMAN CONSTRUCTION INC","geo_score":0.714,"postal code/zip code":49431,"id":"a6oh64r3jiq5","geo_precision":"city","state":"MI"},"type":"Feature","geometry":{"type":"Point","coordinates":[-86.349439,43.998926]}},{"properties":{"steet address":"8122 Barney Rd","city":"Traverse City","company name":"HARMONY HOME CONSTRUCTION","geo_score":0.714,"postal code/zip code":49684,"id":"a6oh64yzdgg7","geo_precision":"city","state":"MI"},"type":"Feature","geometry":{"type":"Point","coordinates":[-88.234001,47.194369]}},{"properties":{"steet address":"755","city":"Atlanta","company name":"HARRIS ELECTRIC","geo_score":0.714,"postal code/zip code":49709,"id":"a6oh64m5n1p7","geo_precision":"city","state":"MI"},"type":"Feature","geometry":{"type":"Point","coordinates":[-88.634939,47.072716]}},{"properties":{"steet address":"470 N PINE TREE LN","city":"BEULAH","company name":"HARTWOOD CUSTOM BUILDERS","geo_score":0.714,"postal code/zip code":49617,"id":"a6oh64pviwr3","geo_precision":"city","state":"MI"},"type":"Feature","geometry":{"type":"Point","coordinates":[-83.432756,45.249737]}},{"properties":{"steet address":"453 W 3 Mile Rd","city":"Sault Sainte Marie","company name":"HARWOOD ENTERPRISES INC","geo_score":0.714,"postal code/zip code":49783,"id":"a6oh64kxmb7c","geo_precision":"city","state":"MI"},"type":"Feature","geometry":{"type":"Point","coordinates":[-84.900482,43.046851]}},{"properties":{"steet address":"1106 O Orourke Blvd","city":"Gaylord","company name":"HENKELS &amp; MC COY INC","geo_score":0.714,"postal code/zip code":49735,"id":"a6oh64nhdi4a","geo_precision":"city","state":"MI"},"type":"Feature","geometry":{"type":"Point","coordinates":[-84.612207,45.028411]}},{"properties":{"steet address":"9565 N Cut Rd","city":"Roscommon","company name":"HIGGINS LAKE LANDSCAPING LLC","geo_score":0.714,"postal code/zip code":48653,"id":"a6oh64woi2s8","geo_precision":"city","state":"MI"},"type":"Feature","geometry":{"type":"Point","coordinates":[-84.611194,44.394517]}},{"properties":{"steet address":"7352 E M 115","city":"Cadillac","company name":"HOITENGA INSULATION INC","geo_score":0.714,"postal code/zip code":49601,"id":"a6oh64lci4yr","geo_precision":"city","state":"MI"},"type":"Feature","geometry":{"type":"Point","coordinates":[-85.549093,44.335278]}},{"properties":{"steet address":"6320 N STATE RD","city":"LUTHER","company name":"HOWELL AIRPORT LIGHTING * J R","geo_score":0.714,"postal code/zip code":49656,"id":"a6oh64z2sih2","geo_precision":"city","state":"MI"},"type":"Feature","geometry":{"type":"Point","coordinates":[-85.712873,44.04206]}},{"properties":{"steet address":"168","city":"BRIMLEY","company name":"HUNT DRYWALL &amp; PAINTING","geo_score":0.714,"postal code/zip code":49715,"id":"a6oh64m33jme","geo_precision":"city","state":"MI"},"type":"Feature","geometry":{"type":"Point","coordinates":[-84.698136,46.389131]}},{"properties":{"steet address":"110 N INDUSTRIAL HWY","city":"ALPENA","company name":"HUNTER CONSTRUCTION CO","geo_score":0.714,"postal code/zip code":49707,"id":"a6oh64k4w40l","geo_precision":"city","state":"MI"},"type":"Feature","geometry":{"type":"Point","coordinates":[-83.495091,45.033143]}},{"properties":{"steet address":"182 1st St","city":"Saint Ignace","company name":"HUSKEY BUILT CONSTRUCTION CO","geo_score":0.0,"postal code/zip code":49781,"id":"a6oh64shes08","geo_precision":"unmatched","state":"MI"},"type":"Feature","geometry":null},{"properties":{"steet address":"420 S ROTH ST","city":"REED CITY","company name":"HYDAKER WHEATLAKE COMPANY","geo_score":0.714,"postal code/zip code":49677,"id":"a6oh64mb8zyh","geo_precision":"city","state":"MI"},"type":"Feature","geometry":{"type":"Point","coordinates":[-85.414718,43.952029]}},{"properties":{"steet address":"758 ISENHAUER RD","city":"GRAYLING","company name":"I M M INC","geo_score":0.714,"postal code/zip code":49738,"id":"a6oh64u2dnrj","geo_precision":"city","state":"MI"},"type":"Feature","geometry":{"type":"Point","coordinates":[-84.612941,44.691777]}},{"properties":{"steet address":"10495 Northland Dr","city":"Big Rapids","company name":"ILTIS CON INC","geo_score":0.714,"postal code/zip code":49307,"id":"a6oh64krokk5","geo_precision":"city","state":"MI"},"type":"Feature","geometry":{"type":"Point","coordinates":[-85.3518,43.683493]}},{"properties":{"steet address":"788 S Cedar St","city":"Kalkaska","company name":"INFRASOURCE UNDGRD CNSTR LLC","geo_score":0.714,"postal code/zip code":49646,"id":"a6oh64zo6d95","geo_precision":"city","state":"MI"},"type":"Feature","geometry":{"type":"Point","coordinates":[-85.092905,44.697144]}},{"properties":{"steet address":"829 W MAIN ST STE C","city":"GAYLORD","company name":"INTEGRITY CONSTRUCTION SERVICES","geo_score":0.714,"postal code/zip code":49735,"id":"a6oh64whr1oh","geo_precision":"city","state":"MI"},"type":"Feature","geometry":{"type":"Point","coordinates":[-84.612207,45.028411]}},{"properties":{"steet address":"199","city":"INTERLOCHEN","company name":"INTERLOCHEN CENTER-THE ARTS","geo_score":0.714,"postal code/zip code":49643,"id":"a6oh64k4qr1m","geo_precision":"city","state":"MI"},"type":"Feature","geometry":{"type":"Point","coordinates":[-85.782278,44.633562]}},{"properties":{"steet address":"6251 W M 72 HWY","city":"GRAYLING","company name":"IPEC LLC","geo_score":0.714,"postal code/zip code":49738,"id":"a6oh64z22vpj","geo_precision":"city","state":"MI"},"type":"Feature","geometry":{"type":"Point","coordinates":[-84.612941,44.691777]}},{"properties":{"steet address":"3280 Woods Wy","city":"Petoskey","company name":"IRONWOOD CONSTRUCTION","geo_score":0.714,"postal code/zip code":49770,"id":"a6oh64nzn9hl","geo_precision":"city","state":"MI"},"type":"Feature","geometry":{"type":"Point","coordinates":[-84.913255,45.355915]}},{"properties":{"steet address":"18206 NM CARIBOU LAKE RD","city":"DE TOUR VILLAGE","company name":"ISLAND MANONRY &amp; CONST","geo_score":0.714,"postal code/zip code":49725,"id":"a6oh64s1jnx8","geo_precision":"city","state":"MI"},"type":"Feature","geometry":{"type":"Point","coordinates":[-83.923941,45.997182]}},{"properties":{"steet address":"242","city":"DRUMMOND ISLAND","company name":"ISLAND MASONRY CONST INC","geo_score":0.714,"postal code/zip code":49726,"id":"a6oh64zisr5o","geo_precision":"city","state":"MI"},"type":"Feature","geometry":{"type":"Point","coordinates":[-88.660682,47.055206]}},{"properties":{"steet address":"5828 NELSON A MILES PKWY","city":"GRAYLING","company name":"IVER/FICK DEVELOPERS INC","geo_score":0.714,"postal code/zip code":49738,"id":"a6oh64ln4ueu","geo_precision":"city","state":"MI"},"type":"Feature","geometry":{"type":"Point","coordinates":[-84.612941,44.691777]}},{"properties":{"steet address":"2751 19 Mile Rd","city":"Marion","company name":"J &amp; J CONSTRUCTION","geo_score":0.714,"postal code/zip code":49665,"id":"a6oh64wmu9ny","geo_precision":"city","state":"MI"},"type":"Feature","geometry":{"type":"Point","coordinates":[-85.844039,43.023673]}},{"properties":{"steet address":"1223 ANNA DR","city":"GAYLORD","company name":"J &amp; N INC","geo_score":0.714,"postal code/zip code":49735,"id":"a6oh64vrzw70","geo_precision":"city","state":"MI"},"type":"Feature","geometry":{"type":"Point","coordinates":[-84.612207,45.028411]}},{"properties":{"steet address":"1839 MARATHON DR","city":"CADILLAC","company name":"J M L COMMUNICATIONS","geo_score":0.714,"postal code/zip code":49601,"id":"a6oh64ngs9ys","geo_precision":"city","state":"MI"},"type":"Feature","geometry":{"type":"Point","coordinates":[-85.549093,44.335278]}},{"properties":{"steet address":"2410 AERO PARK DR","city":"TRAVERSE CITY","company name":"JACKLIN STEEL SUPPLY CO","geo_score":0.714,"postal code/zip code":49686,"id":"a6oh64uk3zf6","geo_precision":"city","state":"MI"},"type":"Feature","geometry":{"type":"Point","coordinates":[-88.234001,47.194369]}},{"properties":{"steet address":"2410 AERO PARK DR","city":"TRAVERSE CITY","company name":"JACKLIN STEEL SUPPLY CO","geo_score":0.714,"postal code/zip code":49686,"id":"a6oh64vvxqk5","geo_precision":"city","state":"MI"},"type":"Feature","geometry":{"type":"Point","coordinates":[-88.234001,47.194369]}},{"properties":{"steet address":"530 N Michigan Ave","city":"Manton","company name":"JACOBS, BUILDERS BILL","geo_score":0.714,"postal code/zip code":49663,"id":"a6oh64w5q73s","geo_precision":"city","state":"MI"},"type":"Feature","geometry":{"type":"Point","coordinates":[-85.449665,42.009094]}},{"properties":{"steet address":"6800 South St","city":"Benzonia","company name":"JIM GRAY CONSTRUCTION INC","geo_score":0.714,"postal code/zip code":49616,"id":"a6oh64k9pc3t","geo_precision":"city","state":"MI"},"type":"Feature","geometry":{"type":"Point","coordinates":[-86.07937,44.574478]}},{"properties":{"steet address":"16842 STATE HWY M-28","city":"NEWBERRY","company name":"K &amp; K INDUSTRIES INC","geo_score":0.714,"postal code/zip code":49868,"id":"a6oh64lrybih","geo_precision":"city","state":"MI"},"type":"Feature","geometry":{"type":"Point","coordinates":[-85.515605,46.460159]}},{"properties":{"steet address":"4353 N Long Lake Rd","city":"Traverse City","company name":"K V ELECTRIC","geo_score":0.714,"postal code/zip code":49684,"id":"a6oh64ukx3jk","geo_precision":"city","state":"MI"},"type":"Feature","geometry":{"type":"Point","coordinates":[-88.234001,47.194369]}},{"properties":{"steet address":"390 Riggs Dr","city":"Cheboygan","company name":"K W S INC","geo_score":0.714,"postal code/zip code":49721,"id":"a6oh64pja5u6","geo_precision":"city","state":"MI"},"type":"Feature","geometry":{"type":"Point","coordinates":[-84.468639,45.592842]}},{"properties":{"steet address":"5711 N West Bayshore Dr","city":"Omena","company name":"KAL EXCAVATIONG","geo_score":0.714,"postal code/zip code":49674,"id":"a6oh64tbpufz","geo_precision":"city","state":"MI"},"type":"Feature","geometry":{"type":"Point","coordinates":[-85.597374,45.066568]}},{"properties":{"steet address":"08198 Boyne City Rd","city":"Charlevoix","company name":"KATZ, STEVEN","geo_score":0.0,"postal code/zip code":49720,"id":"a6oh64lqo9jg","geo_precision":"unmatched","state":"MI"},"type":"Feature","geometry":null},{"properties":{"steet address":"5679 S M 129","city":"SAULT SAINTE MARIE","company name":"KAYSNER CONSTRUCTION","geo_score":0.714,"postal code/zip code":49783,"id":"a6oh64o9zsiq","geo_precision":"city","state":"MI"},"type":"Feature","geometry":{"type":"Point","coordinates":[-84.900482,43.046851]}},{"properties":{"steet address":"3277 Tibbets Dr","city":"Traverse City","company name":"KENWOOD CONSTRUCTION","geo_score":0.714,"postal code/zip code":49686,"id":"a6oh64pcg457","geo_precision":"city","state":"MI"},"type":"Feature","geometry":{"type":"Point","coordinates":[-88.234001,47.194369]}},{"properties":{"steet address":"230 E Progress St","city":"Hillman","company name":"KENYON BROTHERS CONSTRUCTION","geo_score":0.714,"postal code/zip code":49746,"id":"a6oh64u6merp","geo_precision":"city","state":"MI"},"type":"Feature","geometry":{"type":"Point","coordinates":[-84.022691,45.05958]}},{"properties":{"steet address":"07654 US Highway 31 N","city":"Charlevoix","company name":"KESSLER *BRADLEY","geo_score":0.0,"postal code/zip code":49720,"id":"a6oh64zzaenb","geo_precision":"unmatched","state":"MI"},"type":"Feature","geometry":null},{"properties":{"steet address":"HUGGININ RD BLDG 230","city":"KINCHELOE","company name":"KIN ROSS CORR FACILITY","geo_score":0.714,"postal code/zip code":49788,"id":"a6oh64lm7su7","geo_precision":"city","state":"MI"},"type":"Feature","geometry":{"type":"Point","coordinates":[-84.336519,46.410777]}},{"properties":{"steet address":"7206 Johnson Ct","city":"Bear Lake","company name":"KING CONSTRUCTION","geo_score":0.714,"postal code/zip code":49614,"id":"a6oh64wx5ltj","geo_precision":"city","state":"MI"},"type":"Feature","geometry":{"type":"Point","coordinates":[-85.902261,42.921413]}},{"properties":{"steet address":"3773 RENNIE SCHOOL RD","city":"TRAVERSE CITY","company name":"K-WALL","geo_score":0.714,"postal code/zip code":49685,"id":"a6oh64yob1oi","geo_precision":"city","state":"MI"},"type":"Feature","geometry":{"type":"Point","coordinates":[-88.234001,47.194369]}},{"properties":{"steet address":"381","city":"CHEBOYGAN","company name":"L &amp; L CONTRACTING INC","geo_score":0.714,"postal code/zip code":49721,"id":"a6oh64oossxw","geo_precision":"city","state":"MI"},"type":"Feature","geometry":{"type":"Point","coordinates":[-84.468639,45.592842]}},{"properties":{"steet address":"1435 FORD AVE","city":"Alpena","company name":"LAFARGE","geo_score":0.714,"postal code/zip code":49707,"id":"a6oh64xoq5s0","geo_precision":"city","state":"MI"},"type":"Feature","geometry":{"type":"Point","coordinates":[-83.495091,45.033143]}},{"properties":{"steet address":"11351 E GRAND LAKE RD","city":"PRESQUE ISLE","company name":"LAFARGE CORP +","geo_score":0.714,"postal code/zip code":49777,"id":"a6oh64uw6p9p","geo_precision":"city","state":"MI"},"type":"Feature","geometry":{"type":"Point","coordinates":[-83.586073,45.283057]}},{"properties":{"steet address":"650 W EASTERDAY AVE","city":"SAULT STE MARIE","company name":"LAKE SUPERIOR STATE UNIVERSITY","geo_score":0.714,"postal code/zip code":49783,"id":"a6oh64wp8kro","geo_precision":"city","state":"MI"},"type":"Feature","geometry":{"type":"Point","coordinates":[-84.900482,43.046851]}},{"properties":{"steet address":"1587 M 32 W","city":"Alpena","company name":"LAKESHORE PLUMBING HTG &amp; COOLG","geo_score":0.714,"postal code/zip code":49707,"id":"a6oh64ooheco","geo_precision":"city","state":"MI"},"type":"Feature","geometry":{"type":"Point","coordinates":[-83.495091,45.033143]}},{"properties":{"steet address":"460 PEARL ST","city":"CADILLAC","company name":"LAKEVIEW LUTHERAN MANOR","geo_score":0.714,"postal code/zip code":49601,"id":"a6oh64xnpgi0","geo_precision":"city","state":"MI"},"type":"Feature","geometry":{"type":"Point","coordinates":[-85.549093,44.335278]}},{"properties":{"steet address":"4636 PINEHURST AVE","city":"Gaylord","company name":"LARRY PROCTOR","geo_score":0.714,"postal code/zip code":49735,"id":"a6oh64oe2iw1","geo_precision":"city","state":"MI"},"type":"Feature","geometry":{"type":"Point","coordinates":[-84.612207,45.028411]}},{"properties":{"steet address":"69 Mcbride Park Dr","city":"Harbor Springs","company name":"LAUER PEST CONTROL INC","geo_score":0.714,"postal code/zip code":49740,"id":"a6oh64ldd2g0","geo_precision":"city","state":"MI"},"type":"Feature","geometry":{"type":"Point","coordinates":[-86.19538,43.076609]}},{"properties":{"steet address":"727 W Front St","city":"Traverse City","company name":"LAUTNER IRRIGATION INC","geo_score":0.714,"postal code/zip code":49684,"id":"a6oh64m01kd1","geo_precision":"city","state":"MI"},"type":"Feature","geometry":{"type":"Point","coordinates":[-88.234001,47.194369]}},{"properties":{"steet address":"615 BAY ST","city":"PETOSKEY","company name":"LAZER CONSTRUCTION","geo_score":0.714,"postal code/zip code":49770,"id":"a6oh64ryeo4q","geo_precision":"city","state":"MI"},"type":"Feature","geometry":{"type":"Point","coordinates":[-84.913255,45.355915]}},{"properties":{"steet address":"6300 E Horn Rd","city":"Lake Leelanau","company name":"LEELANAU SHEET METAL CO","geo_score":0.714,"postal code/zip code":49653,"id":"a6oh64s62z5j","geo_precision":"city","state":"MI"},"type":"Feature","geometry":{"type":"Point","coordinates":[-84.867626,43.914196]}},{"properties":{"steet address":"1744 S Norvick Rd","city":"Suttons Bay","company name":"LENNERTH","geo_score":0.714,"postal code/zip code":49682,"id":"a6oh64yelm7r","geo_precision":"city","state":"MI"},"type":"Feature","geometry":{"type":"Point","coordinates":[-85.644068,44.988569]}},{"properties":{"steet address":"3415 E TRAVERSE HWY","city":"TRAVERSE CITY","company name":"LIBERTY CONST SVCS INC","geo_score":0.714,"postal code/zip code":49684,"id":"a6oh64qo6cv5","geo_precision":"city","state":"MI"},"type":"Feature","geometry":{"type":"Point","coordinates":[-88.234001,47.194369]}},{"properties":{"steet address":"201 S WILLIAM ST","city":"LUDINGTON","company name":"LUDINGTON * CITY OF","geo_score":0.714,"postal code/zip code":49431,"id":"a6oh64ph2c5s","geo_precision":"city","state":"MI"},"type":"Feature","geometry":{"type":"Point","coordinates":[-86.349439,43.998926]}},{"properties":{"steet address":"17 OLD STATE RD","city":"GAYLORD","company name":"M &amp; M EXCAVATING CO INC","geo_score":0.714,"postal code/zip code":49735,"id":"a6oh64ow67xw","geo_precision":"city","state":"MI"},"type":"Feature","geometry":{"type":"Point","coordinates":[-84.612207,45.028411]}},{"properties":{"steet address":"3464 STURGEON ST","city":"INDIAN RIVER","company name":"M &amp; M PLUMBING &amp; HEATING","geo_score":0.714,"postal code/zip code":49749,"id":"a6oh64qydkvm","geo_precision":"city","state":"MI"},"type":"Feature","geometry":{"type":"Point","coordinates":[-84.578019,45.447209]}},{"properties":{"steet address":"9065 Willow Ln","city":"Evart","company name":"M X ENERGY","geo_score":0.714,"postal code/zip code":49631,"id":"a6oh64x4dayk","geo_precision":"city","state":"MI"},"type":"Feature","geometry":{"type":"Point","coordinates":[-85.302063,43.958084]}},{"properties":{"steet address":"99 BERTRAND ST","city":"SAINT IGNACE","company name":"MACKINAC PLUMBING &amp; HEAT","geo_score":0.0,"postal code/zip code":49781,"id":"a6oh64wiuysh","geo_precision":"unmatched","state":"MI"},"type":"Feature","geometry":null},{"properties":{"steet address":"873","city":"Mackinaw City","company name":"MACKINAW STATE HISTORIC PARK","geo_score":0.714,"postal code/zip code":49701,"id":"a6oh64ocpe4p","geo_precision":"city","state":"MI"},"type":"Feature","geometry":{"type":"Point","coordinates":[-83.868275,42.066432]}},{"properties":{"steet address":"11105 Inverness Trail Rd","city":"Cheboygan","company name":"MACZKA CONSTRUCTION INC* MARK","geo_score":0.714,"postal code/zip code":49721,"id":"a6oh64rykcqd","geo_precision":"city","state":"MI"},"type":"Feature","geometry":{"type":"Point","coordinates":[-84.468639,45.592842]}},{"properties":{"steet address":"1107 W JACKSON RD","city":"HART","company name":"MALBURG REPAIRS","geo_score":0.714,"postal code/zip code":49420,"id":"a6oh64nt3ric","geo_precision":"city","state":"MI"},"type":"Feature","geometry":{"type":"Point","coordinates":[-85.710694,44.280319]}},{"properties":{"steet address":"4857 E 6 MILE RD","city":"SAULT SAINTE MARIE","company name":"MALEPORT CONSTRUCTION","geo_score":0.714,"postal code/zip code":49783,"id":"a6oh64mb4b5p","geo_precision":"city","state":"MI"},"type":"Feature","geometry":{"type":"Point","coordinates":[-84.900482,43.046851]}},{"properties":{"steet address":"801 SEYMOUR ST","city":"SAULT SAINTE MARIE","company name":"MALETTE CONST EQUIP CO","geo_score":0.714,"postal code/zip code":49783,"id":"a6oh64orhm1v","geo_precision":"city","state":"MI"},"type":"Feature","geometry":{"type":"Point","coordinates":[-84.900482,43.046851]}},{"properties":{"steet address":"830 COTTAGEVIEW DR STE 1011","city":"TRAVERSE CITY","company name":"MAM CONTRACTING INC","geo_score":0.714,"postal code/zip code":49684,"id":"a6oh64yq25rv","geo_precision":"city","state":"MI"},"type":"Feature","geometry":{"type":"Point","coordinates":[-88.234001,47.194369]}},{"properties":{"steet address":"751 Woodmere Ave","city":"Traverse City","company name":"MANITOU CONSTRUCTION INC","geo_score":0.714,"postal code/zip code":49686,"id":"a6oh64ptq7mk","geo_precision":"city","state":"MI"},"type":"Feature","geometry":{"type":"Point","coordinates":[-88.234001,47.194369]}},{"properties":{"steet address":"2144 N Macksey Rd","city":"Suttons Bay","company name":"MARGARET MIKOWSKI","geo_score":0.714,"postal code/zip code":49682,"id":"a6oh64obax29","geo_precision":"city","state":"MI"},"type":"Feature","geometry":{"type":"Point","coordinates":[-85.644068,44.988569]}},{"properties":{"steet address":"1557 Keystone Rd N","city":"Traverse City","company name":"MARK ANDERSEN","geo_score":0.714,"postal code/zip code":49686,"id":"a6oh64o7f5pb","geo_precision":"city","state":"MI"},"type":"Feature","geometry":{"type":"Point","coordinates":[-88.234001,47.194369]}},{"properties":{"steet address":"517 Alpine Rd","city":"Gaylord","company name":"MARK ONE CORP","geo_score":0.714,"postal code/zip code":49735,"id":"a6oh64zdeebx","geo_precision":"city","state":"MI"},"type":"Feature","geometry":{"type":"Point","coordinates":[-84.612207,45.028411]}},{"properties":{"steet address":"642","city":"BEULAH","company name":"MARKEY INC DBA ORKIN","geo_score":0.714,"postal code/zip code":49617,"id":"a6oh64xvpoa6","geo_precision":"city","state":"MI"},"type":"Feature","geometry":{"type":"Point","coordinates":[-83.432756,45.249737]}},{"properties":{"steet address":"6725 S KILLACKEY RD","city":"SAULT SAINTE MARIE","company name":"MARKSTROM CONST INC","geo_score":0.714,"postal code/zip code":49783,"id":"a6oh64rhiedl","geo_precision":"city","state":"MI"},"type":"Feature","geometry":{"type":"Point","coordinates":[-84.900482,43.046851]}},{"properties":{"steet address":"W1024 OLD PORTAGE TRL","city":"SAINT IGNACE","company name":"MARSHALL BUILDERS INC","geo_score":0.0,"postal code/zip code":49781,"id":"a6oh64tsgbav","geo_precision":"unmatched","state":"MI"},"type":"Feature","geometry":null},{"properties":{"steet address":"1800 EAST LAKE RD","city":"MANISTEE","company name":"MARTIN MARIETTA MAGNESIA SPCLTS LLC","geo_score":0.714,"postal code/zip code":49660,"id":"a6oh64l39kn0","geo_precision":"city","state":"MI"},"type":"Feature","geometry":{"type":"Point","coordinates":[-86.182473,44.263534]}},{"properties":{"steet address":"8842 Crockett Rd","city":"Williamsburg","company name":"MARTINEK FRAMING INC","geo_score":0.714,"postal code/zip code":49690,"id":"a6oh64x2e92p","geo_precision":"city","state":"MI"},"type":"Feature","geometry":{"type":"Point","coordinates":[-85.427605,44.767181]}},{"properties":{"steet address":"409 Wood St","city":"Hart","company name":"MASON COUNTY FRT PACKERS COOP","geo_score":0.714,"postal code/zip code":49420,"id":"a6oh64pq5yjz","geo_precision":"city","state":"MI"},"type":"Feature","geometry":{"type":"Point","coordinates":[-85.710694,44.280319]}},{"properties":{"steet address":"100 GLOCHESKI DR","city":"MANISTEE","company name":"MASTECH MANUFACTURING, L.L.C.","geo_score":0.714,"postal code/zip code":49660,"id":"a6oh64spk2ex","geo_precision":"city","state":"MI"},"type":"Feature","geometry":{"type":"Point","coordinates":[-86.182473,44.263534]}},{"properties":{"steet address":"1114 NORTH STATE STREET","city":"SAINT IGNACE","company name":"MAVERICK CONSTRUCTION","geo_score":0.0,"postal code/zip code":49781,"id":"a6oh64pl90nw","geo_precision":"unmatched","state":"MI"},"type":"Feature","geometry":null},{"properties":{"steet address":"692 EXPRESSWAY CT","city":"GAYLORD","company name":"MAXIMUM OILFIELD SERVICE INC","geo_score":0.714,"postal code/zip code":49735,"id":"a6oh64qp41z3","geo_precision":"city","state":"MI"},"type":"Feature","geometry":{"type":"Point","coordinates":[-84.612207,45.028411]}},{"properties":{"steet address":"1065 E Portage Ave","city":"Sault Sainte Marie","company name":"MCM MARINE INC","geo_score":0.714,"postal code/zip code":49783,"id":"a6oh64y74i4e","geo_precision":"city","state":"MI"},"type":"Feature","geometry":{"type":"Point","coordinates":[-84.900482,43.046851]}},{"properties":{"steet address":"690 M 134","city":"Cedarville","company name":"MCMAKEN CARPENTRY","geo_score":0.714,"postal code/zip code":49719,"id":"a6oh64o3mjll","geo_precision":"city","state":"MI"},"type":"Feature","geometry":{"type":"Point","coordinates":[-84.276199,46.007211]}},{"properties":{"steet address":"4901 MARILLA RD","city":"BRETHREN","company name":"MCNALLY HOME IMPROVEMENT","geo_score":0.714,"postal code/zip code":49619,"id":"a6oh64o1m2vv","geo_precision":"city","state":"MI"},"type":"Feature","geometry":{"type":"Point","coordinates":[-85.972541,44.309195]}},{"properties":{"steet address":"2111 E MITCHELL RD","city":"PETOSKEY","company name":"MECHANICAL CONTR SVCS LLC","geo_score":0.714,"postal code/zip code":49770,"id":"a6oh64mtz2b9","geo_precision":"city","state":"MI"},"type":"Feature","geometry":{"type":"Point","coordinates":[-84.913255,45.355915]}},{"properties":{"steet address":"9117 E Donner Rd","city":"Traverse City","company name":"MELICK* BILL","geo_score":0.714,"postal code/zip code":49684,"id":"a6oh64kshzi0","geo_precision":"city","state":"MI"},"type":"Feature","geometry":{"type":"Point","coordinates":[-88.234001,47.194369]}},{"properties":{"steet address":"1 N Atkinson Dr","city":"Ludington","company name":"MEMORIAL MEDICAL CTR OF W MICH","geo_score":0.714,"postal code/zip code":49431,"id":"a6oh64lns1j6","geo_precision":"city","state":"MI"},"type":"Feature","geometry":{"type":"Point","coordinates":[-86.349439,43.998926]}},{"properties":{"steet address":"304 CHISHOLM ST","city":"ALPENA","company name":"MERIDIAN CONTRACTING SVCS","geo_score":0.714,"postal code/zip code":49707,"id":"a6oh64l81fk6","geo_precision":"city","state":"MI"},"type":"Feature","geometry":{"type":"Point","coordinates":[-83.495091,45.033143]}},{"properties":{"steet address":"304 W Chisholm St","city":"Alpena","company name":"MERIDIAN RESTORATION LLC","geo_score":0.714,"postal code/zip code":49707,"id":"a6oh64kms9ta","geo_precision":"city","state":"MI"},"type":"Feature","geometry":{"type":"Point","coordinates":[-83.495091,45.033143]}},{"properties":{"steet address":"837 Webster St","city":"Traverse City","company name":"MERRILL GARDINER","geo_score":0.714,"postal code/zip code":49686,"id":"a6oh64uwhozb","geo_precision":"city","state":"MI"},"type":"Feature","geometry":{"type":"Point","coordinates":[-88.234001,47.194369]}},{"properties":{"steet address":"3690 COUNTY RD 491","city":"LEWISTOWN","company name":"METRO GAS SERVICE","geo_score":0.714,"postal code/zip code":49756,"id":"a6oh64k91pwh","geo_precision":"city","state":"MI"},"type":"Feature","geometry":{"type":"Point","coordinates":[-84.21857,44.91306]}},{"properties":{"steet address":"3975 W FALMOUTH RD","city":"MC BAIN","company name":"MEYERING CONSTRUCTION CO INC","geo_score":0.714,"postal code/zip code":49657,"id":"a6oh64mhqgde","geo_precision":"city","state":"MI"},"type":"Feature","geometry":{"type":"Point","coordinates":[-85.154382,44.258292]}},{"properties":{"steet address":"5130 S PIERRE MARQUETTE HWY","city":"LUDINGTON","company name":"MICHIGAN FOOD PROCESSORS COOP","geo_score":0.714,"postal code/zip code":49431,"id":"a6oh64u5spuv","geo_precision":"city","state":"MI"},"type":"Feature","geometry":{"type":"Point","coordinates":[-86.349439,43.998926]}},{"properties":{"steet address":"5795 WEST 6TH ST","city":"LUDINGTON","company name":"MICHIGAN POWER LP","geo_score":0.714,"postal code/zip code":49431,"id":"a6oh64rs167m","geo_precision":"city","state":"MI"},"type":"Feature","geometry":{"type":"Point","coordinates":[-86.349439,43.998926]}},{"properties":{"steet address":"6786 LARK SPUR","city":"JOHANNESBURG","company name":"MILLER CONST","geo_score":0.714,"postal code/zip code":49751,"id":"a6oh64oqgz5j","geo_precision":"city","state":"MI"},"type":"Feature","geometry":{"type":"Point","coordinates":[-84.505983,44.963223]}},{"properties":{"steet address":"8315 TOWNLINE RD","city":"CHEBOYGAN","company name":"MOLLEN BUILDERS &amp; CONST * M J","geo_score":0.714,"postal code/zip code":49721,"id":"a6oh64ziv0gm","geo_precision":"city","state":"MI"},"type":"Feature","geometry":{"type":"Point","coordinates":[-84.468639,45.592842]}},{"properties":{"steet address":"12760 Honor Hwy","city":"Honor","company name":"MOORE MECHANICAL","geo_score":0.714,"postal code/zip code":49640,"id":"a6oh64v3f2do","geo_precision":"city","state":"MI"},"type":"Feature","geometry":{"type":"Point","coordinates":[-86.050384,44.690037]}},{"properties":{"steet address":"732","city":"ONAWAY","company name":"MORAN IRON WORKS INC","geo_score":0.714,"postal code/zip code":49765,"id":"a6oh64w6jbok","geo_precision":"city","state":"MI"},"type":"Feature","geometry":{"type":"Point","coordinates":[-83.871571,45.363283]}},{"properties":{"steet address":"15181 172ND AVE","city":"BIG RAPIDS","company name":"MORNINGSTAR ENTERPRISES INC","geo_score":0.714,"postal code/zip code":49307,"id":"a6oh64sm7lb4","geo_precision":"city","state":"MI"},"type":"Feature","geometry":{"type":"Point","coordinates":[-85.3518,43.683493]}},{"properties":{"steet address":"3680 US 131","city":"Kalkaska","company name":"MORTON BUILDINGS  INC","geo_score":0.714,"postal code/zip code":49646,"id":"a6oh64wq20xs","geo_precision":"city","state":"MI"},"type":"Feature","geometry":{"type":"Point","coordinates":[-85.092905,44.697144]}},{"properties":{"steet address":"180 6TH ST","city":"MANISTEE","company name":"MORTON SALT","geo_score":0.714,"postal code/zip code":49660,"id":"a6oh64t55ay3","geo_precision":"city","state":"MI"},"type":"Feature","geometry":{"type":"Point","coordinates":[-86.182473,44.263534]}},{"properties":{"steet address":"5055 N Red Maple St","city":"Irons","company name":"MSO CONSTRUCTION (USA) LIMITED","geo_score":0.714,"postal code/zip code":49644,"id":"a6oh64tc9cfu","geo_precision":"city","state":"MI"},"type":"Feature","geometry":{"type":"Point","coordinates":[-85.90658,44.091983]}},{"properties":{"steet address":"669","city":"TRAVERSE CITY","company name":"MUNSON MEDICAL CENTER","geo_score":0.714,"postal code/zip code":49685,"id":"a6oh64lxxzmd","geo_precision":"city","state":"MI"},"type":"Feature","geometry":{"type":"Point","coordinates":[-88.234001,47.194369]}},{"properties":{"steet address":"20571 14 MILE RD","city":"LEROY","company name":"MUSTANG BUILDERS LLC","geo_score":0.714,"postal code/zip code":49655,"id":"a6oh64kmamc9","geo_precision":"city","state":"MI"},"type":"Feature","geometry":{"type":"Point","coordinates":[-85.32548,44.013375]}},{"properties":{"steet address":"145","city":"Copemish","company name":"MYERS FARMS","geo_score":0.714,"postal code/zip code":49625,"id":"a6oh64vgm6q8","geo_precision":"city","state":"MI"},"type":"Feature","geometry":{"type":"Point","coordinates":[-86.028192,44.42757]}},{"properties":{"steet address":"146","city":"GRAWN","company name":"N R W S INC","geo_score":0.714,"postal code/zip code":49637,"id":"a6oh64tlnmuu","geo_precision":"city","state":"MI"},"type":"Feature","geometry":{"type":"Point","coordinates":[-83.78745,44.705591]}},{"properties":{"steet address":"3520 RENNIE SCHOOL RD","city":"TRAVERSE CITY","company name":"NATIONAL COATINGS INC","geo_score":0.714,"postal code/zip code":49684,"id":"a6oh64y0l1l6","geo_precision":"city","state":"MI"},"type":"Feature","geometry":{"type":"Point","coordinates":[-88.234001,47.194369]}},{"properties":{"steet address":"3690 County Road 491","city":"Lewiston","company name":"NATURAL GAS SERVICE GROUP","geo_score":0.714,"postal code/zip code":49756,"id":"a6oh64m40xjj","geo_precision":"city","state":"MI"},"type":"Feature","geometry":{"type":"Point","coordinates":[-84.21857,44.91306]}},{"properties":{"steet address":"3001 NEWBERRY AVE","city":"NEWBERRY","company name":"NEWBERRY CORRECTIONAL FACILITY","geo_score":0.714,"postal code/zip code":49868,"id":"a6oh64y88333","geo_precision":"city","state":"MI"},"type":"Feature","geometry":{"type":"Point","coordinates":[-85.515605,46.460159]}},{"properties":{"steet address":"4089 S NICOLET RD","city":"SAULT SAINTE MARIE","company name":"NOMAD CONSTRUCTION INC","geo_score":0.714,"postal code/zip code":49783,"id":"a6oh64xsww8k","geo_precision":"city","state":"MI"},"type":"Feature","geometry":{"type":"Point","coordinates":[-84.900482,43.046851]}},{"properties":{"steet address":"1299 Dettloff St","city":"Rogers City","company name":"NORDIN ENGINEERING","geo_score":0.714,"postal code/zip code":49779,"id":"a6oh64s3dqta","geo_precision":"city","state":"MI"},"type":"Feature","geometry":{"type":"Point","coordinates":[-83.74985,45.384168]}},{"properties":{"steet address":"1135 GORNICK AVE","city":"GAYLORD","company name":"NORTH CNTL EXCVTG TRCKG MASNRY","geo_score":0.714,"postal code/zip code":49735,"id":"a6oh64ulq00n","geo_precision":"city","state":"MI"},"type":"Feature","geometry":{"type":"Point","coordinates":[-84.612207,45.028411]}},{"properties":{"steet address":"901 N CENTER ST","city":"GAYLORD","company name":"NORTH POINTE INC","geo_score":0.714,"postal code/zip code":49735,"id":"a6oh650kegrw","geo_precision":"city","state":"MI"},"type":"Feature","geometry":{"type":"Point","coordinates":[-84.612207,45.028411]}},{"properties":{"steet address":"1209 W Washington Ave","city":"Alpena","company name":"NORTHERN BUILDING CO INC","geo_score":0.714,"postal code/zip code":49707,"id":"a6oh64uy3y4e","geo_precision":"city","state":"MI"},"type":"Feature","geometry":{"type":"Point","coordinates":[-83.495091,45.033143]}},{"properties":{"steet address":"1798 NORTHERN STAR DRIVE","city":"TRAVERSE CITY","company name":"NORTHERN FIRE &amp; SAFETY - TRAVERSE C","geo_score":0.714,"postal code/zip code":49686,"id":"a6oh64movki0","geo_precision":"city","state":"MI"},"type":"Feature","geometry":{"type":"Point","coordinates":[-88.234001,47.194369]}},{"properties":{"steet address":"2316 PLEASANT VALLEY RD","city":"BOYNE CITY","company name":"NORTHERN IND CONST INC","geo_score":0.714,"postal code/zip code":49712,"id":"a6oh64px4ejz","geo_precision":"city","state":"MI"},"type":"Feature","geometry":{"type":"Point","coordinates":[-85.675458,44.289721]}},{"properties":{"steet address":"1480 S WEST BAY SHORE DR","city":"SUTTONS BAY","company name":"NORTHERN LUMBER COMPANY","geo_score":0.714,"postal code/zip code":49682,"id":"a6oh64q4suks","geo_precision":"city","state":"MI"},"type":"Feature","geometry":{"type":"Point","coordinates":[-85.644068,44.988569]}},{"properties":{"steet address":"1101 HAMMOND RD W","city":"TRAVERSE CITY","company name":"NORTHERN MICHIGAN GLASS INC","geo_score":0.714,"postal code/zip code":49686,"id":"a6oh64zjiada","geo_precision":"city","state":"MI"},"type":"Feature","geometry":{"type":"Point","coordinates":[-88.234001,47.194369]}},{"properties":{"steet address":"416 CONNABLE AVE","city":"PETOSKEY","company name":"NORTHERN MICHIGAN HOSPITAL","geo_score":0.714,"postal code/zip code":49770,"id":"a6oh64kkk8b9","geo_precision":"city","state":"MI"},"type":"Feature","geometry":{"type":"Point","coordinates":[-84.913255,45.355915]}},{"properties":{"steet address":"669","city":"TRAVERSE CITY","company name":"NORTHERN MICHIGAN SUPPLY ALLIANCE","geo_score":0.714,"postal code/zip code":49685,"id":"a6oh64x0cs7b","geo_precision":"city","state":"MI"},"type":"Feature","geometry":{"type":"Point","coordinates":[-88.234001,47.194369]}},{"properties":{"steet address":"9908 N FAWN","city":"MANCELONA","company name":"NORTHERN POWER ELECTRIC SVC INC","geo_score":0.714,"postal code/zip code":49659,"id":"a6oh650as89p","geo_precision":"city","state":"MI"},"type":"Feature","geometry":{"type":"Point","coordinates":[-85.122624,44.947938]}},{"properties":{"steet address":"312 E Dresden St","city":"Kalkaska","company name":"NORTHERN SEAL INC","geo_score":0.714,"postal code/zip code":49646,"id":"a6oh64nrucs1","geo_precision":"city","state":"MI"},"type":"Feature","geometry":{"type":"Point","coordinates":[-85.092905,44.697144]}},{"properties":{"steet address":"427 W CAMPBELL ST","city":"ALPENA","company name":"NORTHERN TOOL","geo_score":0.714,"postal code/zip code":49707,"id":"a6oh64ykzyhh","geo_precision":"city","state":"MI"},"type":"Feature","geometry":{"type":"Point","coordinates":[-83.495091,45.033143]}},{"properties":{"steet address":"5256 CEDAR RUN RD","city":"TRAVERSE CITY","company name":"NORTHERN TOWER ERECTION","geo_score":0.714,"postal code/zip code":49684,"id":"a6oh64oi0033","geo_precision":"city","state":"MI"},"type":"Feature","geometry":{"type":"Point","coordinates":[-88.234001,47.194369]}},{"properties":{"steet address":"17283 MILNICHOL RD","city":"THOMPSONVILLE","company name":"NORTHWESTERN CONTRACTING INC","geo_score":0.714,"postal code/zip code":49683,"id":"a6oh64kiuqrz","geo_precision":"city","state":"MI"},"type":"Feature","geometry":{"type":"Point","coordinates":[-86.330419,45.904974]}},{"properties":{"steet address":"15840 Dickson Rd","city":"Brethren","company name":"NORTHWOODS PRODUCTS","geo_score":0.714,"postal code/zip code":49619,"id":"a6oh64ogmocz","geo_precision":"city","state":"MI"},"type":"Feature","geometry":{"type":"Point","coordinates":[-85.972541,44.309195]}},{"properties":{"steet address":"1500 CABERFAE HWY","city":"MANISTEE","company name":"OAKS MAXIMUM CORRECTIONAL","geo_score":0.714,"postal code/zip code":49660,"id":"a6oh64t6vj5y","geo_precision":"city","state":"MI"},"type":"Feature","geometry":{"type":"Point","coordinates":[-86.182473,44.263534]}},{"properties":{"steet address":"6310 OAK ST","city":"GLEN ARBOR","company name":"O'BRIEN BROS CONSTRUCTION INC","geo_score":0.714,"postal code/zip code":49636,"id":"a6oh64kg1ifc","geo_precision":"city","state":"MI"},"type":"Feature","geometry":{"type":"Point","coordinates":[-85.351074,41.977796]}},{"properties":{"steet address":"216 E LINCOLN ST","city":"HART","company name":"OCEANA COUNTY","geo_score":0.714,"postal code/zip code":49420,"id":"a6oh64ssionz","geo_precision":"city","state":"MI"},"type":"Feature","geometry":{"type":"Point","coordinates":[-85.710694,44.280319]}},{"properties":{"steet address":"2220 CLARK RD","city":"CENTRAL LAKE","company name":"OLIVER FLOORING","geo_score":0.714,"postal code/zip code":49622,"id":"a6oh64zqs17k","geo_precision":"city","state":"MI"},"type":"Feature","geometry":{"type":"Point","coordinates":[-84.867626,43.914196]}},{"properties":{"steet address":"1424 INTERNATIONAL DR","city":"TRAVERSE CITY","company name":"OLMSTED PRODUCTS","geo_score":0.714,"postal code/zip code":49686,"id":"a6oh64yexpvw","geo_precision":"city","state":"MI"},"type":"Feature","geometry":{"type":"Point","coordinates":[-88.234001,47.194369]}},{"properties":{"steet address":"4040 US HIGHWAY 23 N","city":"ALPENA","company name":"OMNI METALCRAFT CORP.","geo_score":0.714,"postal code/zip code":49707,"id":"a6oh64qgscre","geo_precision":"city","state":"MI"},"type":"Feature","geometry":{"type":"Point","coordinates":[-83.495091,45.033143]}},{"properties":{"steet address":"5093 E HIGHWAY M134 134 M","city":"CEDARVILLE","company name":"O-N MINERALS (MICHIGAN) COMPANY","geo_score":0.714,"postal code/zip code":49719,"id":"a6oh64k7ylrd","geo_precision":"city","state":"MI"},"type":"Feature","geometry":{"type":"Point","coordinates":[-84.276199,46.007211]}},{"properties":{"steet address":"1035 CALCITE RD","city":"ROGERS CITY","company name":"O-N MINERALS (MICHIGAN) COMPANY","geo_score":0.714,"postal code/zip code":49779,"id":"a6oh64kcgw3g","geo_precision":"city","state":"MI"},"type":"Feature","geometry":{"type":"Point","coordinates":[-83.74985,45.384168]}},{"properties":{"steet address":"9445 S BLACK RIVER RD","city":"ONAWAY","company name":"OSANTOWSKI* NEIL","geo_score":0.714,"postal code/zip code":49765,"id":"a6oh64njxkam","geo_precision":"city","state":"MI"},"type":"Feature","geometry":{"type":"Point","coordinates":[-83.871571,45.363283]}},{"properties":{"steet address":"1777C S GARFIELD AVE","city":"TRAVERSE CITY","company name":"OTIS ELEVATOR COMPANY","geo_score":0.714,"postal code/zip code":49686,"id":"a6oh64uefpif","geo_precision":"city","state":"MI"},"type":"Feature","geometry":{"type":"Point","coordinates":[-88.234001,47.194369]}},{"properties":{"steet address":"825 N CENTER AVE","city":"GAYLORD","company name":"OTSEGO MEMORIAL HOSPITAL","geo_score":0.714,"postal code/zip code":49735,"id":"a6oh64sorlp6","geo_precision":"city","state":"MI"},"type":"Feature","geometry":{"type":"Point","coordinates":[-84.612207,45.028411]}},{"properties":{"steet address":"891 INDUSTRIAL CIR","city":"TRAVERSE CITY","company name":"OVERHEAD DOOR CO OF GT","geo_score":0.714,"postal code/zip code":49686,"id":"a6oh64yrwx90","geo_precision":"city","state":"MI"},"type":"Feature","geometry":{"type":"Point","coordinates":[-88.234001,47.194369]}},{"properties":{"steet address":"2612 US Highway 23 S","city":"Alpena","company name":"P &amp; S DISTRIBUTORS","geo_score":0.714,"postal code/zip code":49707,"id":"a6oh64kkwrwt","geo_precision":"city","state":"MI"},"type":"Feature","geometry":{"type":"Point","coordinates":[-83.495091,45.033143]}},{"properties":{"steet address":"2246 UDELL ST","city":"FILER CITY","company name":"PACKAGING CORP OF AMERICA","geo_score":0.714,"postal code/zip code":49634,"id":"a6oh64xkatb0","geo_precision":"city","state":"MI"},"type":"Feature","geometry":{"type":"Point","coordinates":[-84.761244,42.993295]}},{"properties":{"steet address":"2245 UDELL","city":"FILER CITY","company name":"PACKAGING CORPORATION","geo_score":0.714,"postal code/zip code":49634,"id":"a6oh64vj5g38","geo_precision":"city","state":"MI"},"type":"Feature","geometry":{"type":"Point","coordinates":[-84.761244,42.993295]}},{"properties":{"steet address":"841 S CHESTNUT ST","city":"REED CITY","company name":"PALMERS OUTDOOR POWER EQUIP","geo_score":0.714,"postal code/zip code":49677,"id":"a6oh64r71ykj","geo_precision":"city","state":"MI"},"type":"Feature","geometry":{"type":"Point","coordinates":[-85.414718,43.952029]}},{"properties":{"steet address":"819 ASHMUN ST","city":"SAULT SAINTE MARIE","company name":"PARKER HARDWARE &amp; LUMBER INC","geo_score":0.714,"postal code/zip code":49783,"id":"a6oh64m2ksaf","geo_precision":"city","state":"MI"},"type":"Feature","geometry":{"type":"Point","coordinates":[-84.900482,43.046851]}},{"properties":{"steet address":"10167 E Cherry Bend Rd","city":"Traverse City","company name":"PAUL W MAURER GENERAL CONTG","geo_score":0.714,"postal code/zip code":49684,"id":"a6oh64q5hhfr","geo_precision":"city","state":"MI"},"type":"Feature","geometry":{"type":"Point","coordinates":[-88.234001,47.194369]}},{"properties":{"steet address":"254 S M 37","city":"BALDWIN","company name":"PEACOCK INDUSTRIES, INC","geo_score":0.714,"postal code/zip code":49304,"id":"a6oh64pdgr4k","geo_precision":"city","state":"MI"},"type":"Feature","geometry":{"type":"Point","coordinates":[-85.840774,43.929225]}},{"properties":{"steet address":"302","city":"CHARLEVOIX","company name":"PEARSALL CONSTRUCTION * W","geo_score":0.0,"postal code/zip code":49720,"id":"a6oh64mzy61f","geo_precision":"unmatched","state":"MI"},"type":"Feature","geometry":null},{"properties":{"steet address":"6100 W Blue Rd","city":"Lake City","company name":"PEARSON DRILLING","geo_score":0.714,"postal code/zip code":49651,"id":"a6oh64yr78ya","geo_precision":"city","state":"MI"},"type":"Feature","geometry":{"type":"Point","coordinates":[-83.706618,42.835861]}},{"properties":{"steet address":"1125 BUSINESS PARK DR","city":"TRAVERSE CITY","company name":"PENINSULA CONSTRUCTION","geo_score":0.714,"postal code/zip code":49686,"id":"a6oh64uzn20m","geo_precision":"city","state":"MI"},"type":"Feature","geometry":{"type":"Point","coordinates":[-88.234001,47.194369]}},{"properties":{"steet address":"10858 US HWY 31 S","city":"WILLIAMSBURG","company name":"PENINSULA GROUP INC","geo_score":0.714,"postal code/zip code":49690,"id":"a6oh64orp5oh","geo_precision":"city","state":"MI"},"type":"Feature","geometry":{"type":"Point","coordinates":[-85.427605,44.767181]}},{"properties":{"steet address":"655 RW HARRIS DR","city":"MANTON","company name":"PERRY ELECTRIC INC","geo_score":0.714,"postal code/zip code":49663,"id":"a6oh650bx897","geo_precision":"city","state":"MI"},"type":"Feature","geometry":{"type":"Point","coordinates":[-85.449665,42.009094]}},{"properties":{"steet address":"3104 W BASELINE RD","city":"SHELBY","company name":"PETERSON FARMS INC","geo_score":0.714,"postal code/zip code":49455,"id":"a6oh64nnzcza","geo_precision":"city","state":"MI"},"type":"Feature","geometry":{"type":"Point","coordinates":[-83.032984,42.670866]}},{"properties":{"steet address":"909 WATER ST","city":"EAST JORDAN","company name":"PETRIE CONSTRUCTION COMPANY","geo_score":0.714,"postal code/zip code":49727,"id":"a6oh64p5kk2n","geo_precision":"city","state":"MI"},"type":"Feature","geometry":{"type":"Point","coordinates":[-85.102843,45.203995]}},{"properties":{"steet address":"221 N M-129","city":"PICKFORD","company name":"PICKFORD BUILDING CNTR","geo_score":0.0,"postal code/zip code":49774,"id":"a6oh64ozo9a1","geo_precision":"unmatched","state":"MI"},"type":"Feature","geometry":null},{"properties":{"steet address":"11859 BENNETT RD","city":"ELLSWORTH","company name":"PINE-AIRE BUILDING CO","geo_score":0.714,"postal code/zip code":49729,"id":"a6oh64uupgqo","geo_precision":"city","state":"MI"},"type":"Feature","geometry":{"type":"Point","coordinates":[-85.303853,45.156457]}},{"properties":{"steet address":"3185 HOLIDAY VIEW DR","city":"TRAVERSE CITY","company name":"PIZZEDAZ CONSTRUCTION","geo_score":0.714,"postal code/zip code":49686,"id":"a6oh650jskm9","geo_precision":"city","state":"MI"},"type":"Feature","geometry":{"type":"Point","coordinates":[-88.234001,47.194369]}},{"properties":{"steet address":"123 E Bagnall Rd","city":"Cedarville","company name":"POLLARD CONSTRUCTION","geo_score":0.714,"postal code/zip code":49719,"id":"a6oh64o2m9rm","geo_precision":"city","state":"MI"},"type":"Feature","geometry":{"type":"Point","coordinates":[-84.276199,46.007211]}},{"properties":{"steet address":"10635 S CENTER HWY","city":"TRAVERSE CITY","company name":"POPP EXCAVATING INC * R W","geo_score":0.714,"postal code/zip code":49684,"id":"a6oh64u1jnzs","geo_precision":"city","state":"MI"},"type":"Feature","geometry":{"type":"Point","coordinates":[-88.234001,47.194369]}},{"properties":{"steet address":"420 ROTH ST STE A","city":"Reed City","company name":"POWER LINE SUPPLY CO","geo_score":0.714,"postal code/zip code":49677,"id":"a6oh64ktg525","geo_precision":"city","state":"MI"},"type":"Feature","geometry":{"type":"Point","coordinates":[-85.414718,43.952029]}},{"properties":{"steet address":"1605 SNOWTRAILS DR","city":"MANISTEE","company name":"PREMEIER MAGNESIA","geo_score":0.714,"postal code/zip code":49660,"id":"a6oh64mgz17u","geo_precision":"city","state":"MI"},"type":"Feature","geometry":{"type":"Point","coordinates":[-86.182473,44.263534]}},{"properties":{"steet address":"205 2ND ST","city":"LUDINGTON","company name":"PREMIER HEATING","geo_score":0.714,"postal code/zip code":49431,"id":"a6oh64kanq5t","geo_precision":"city","state":"MI"},"type":"Feature","geometry":{"type":"Point","coordinates":[-86.349439,43.998926]}},{"properties":{"steet address":"1669 BARLOW ST STE A","city":"TRAVERSE CITY","company name":"PRESTIGE CONSTRUCTION GROUP","geo_score":0.714,"postal code/zip code":49686,"id":"a6oh64xxydc8","geo_precision":"city","state":"MI"},"type":"Feature","geometry":{"type":"Point","coordinates":[-88.234001,47.194369]}},{"properties":{"steet address":"398","city":"Grayling","company name":"PRIMARY ELECTRIC","geo_score":0.714,"postal code/zip code":49738,"id":"a6oh64ujvpjs","geo_precision":"city","state":"MI"},"type":"Feature","geometry":{"type":"Point","coordinates":[-84.612941,44.691777]}},{"properties":{"steet address":"214 Water St","city":"Boyne City","company name":"PRIMIERO DEVELOPMENT LTD","geo_score":0.714,"postal code/zip code":49712,"id":"a6oh64z6wz5w","geo_precision":"city","state":"MI"},"type":"Feature","geometry":{"type":"Point","coordinates":[-85.675458,44.289721]}},{"properties":{"steet address":"113","city":"REED CITY","company name":"PROFESSIONAL MACHINE SOLUTIONS","geo_score":0.714,"postal code/zip code":49677,"id":"a6oh64rewpx5","geo_precision":"city","state":"MI"},"type":"Feature","geometry":{"type":"Point","coordinates":[-85.414718,43.952029]}},{"properties":{"steet address":"1220 WOODMERE AVE","city":"TRAVERSE CITY","company name":"PROFESSIONAL TOOL SVC","geo_score":0.714,"postal code/zip code":49686,"id":"a6oh64wqu3rx","geo_precision":"city","state":"MI"},"type":"Feature","geometry":{"type":"Point","coordinates":[-88.234001,47.194369]}},{"properties":{"steet address":"7401 Walton Rd","city":"Kingsley","company name":"PUGSLEY CORRECTIONAL FACILITY","geo_score":0.714,"postal code/zip code":49649,"id":"a6oh64zjxmxb","geo_precision":"city","state":"MI"},"type":"Feature","geometry":{"type":"Point","coordinates":[-86.39752,42.043654]}},{"properties":{"steet address":"23820 W US HWY 10","city":"REED CITY","company name":"QUALITY CONCRETE CONSTRUCTION","geo_score":0.714,"postal code/zip code":49677,"id":"a6oh64yx4kp2","geo_precision":"city","state":"MI"},"type":"Feature","geometry":{"type":"Point","coordinates":[-85.414718,43.952029]}},{"properties":{"steet address":"5564 ALBA RD","city":"GAYLORD","company name":"QUALITY PLUMBING &amp; MECHANICAL","geo_score":0.714,"postal code/zip code":49735,"id":"a6oh64ne3w4s","geo_precision":"city","state":"MI"},"type":"Feature","geometry":{"type":"Point","coordinates":[-84.612207,45.028411]}},{"properties":{"steet address":"1221 W CONWAY RD","city":"HARBOR SPRINGS","company name":"QUALITY SERVICED TOOLS","geo_score":0.714,"postal code/zip code":49740,"id":"a6oh64xl7w4a","geo_precision":"city","state":"MI"},"type":"Feature","geometry":{"type":"Point","coordinates":[-86.19538,43.076609]}},{"properties":{"steet address":"2416 CARLSON RD","city":"FRANKFORT","company name":"QUARTERSAWN","geo_score":0.714,"postal code/zip code":49635,"id":"a6oh64x6r1ho","geo_precision":"city","state":"MI"},"type":"Feature","geometry":{"type":"Point","coordinates":[-86.177255,44.613058]}},{"properties":{"steet address":"204 INDUSTRIAL DR","city":"BOYNE CITY","company name":"R B I MECHANICAL INC","geo_score":0.714,"postal code/zip code":49712,"id":"a6oh64zy5u9r","geo_precision":"city","state":"MI"},"type":"Feature","geometry":{"type":"Point","coordinates":[-85.675458,44.289721]}},{"properties":{"steet address":"2584 S Red Pine Ln","city":"Brimley","company name":"R L ELECTRIC","geo_score":0.714,"postal code/zip code":49715,"id":"a6oh64p4ocl3","geo_precision":"city","state":"MI"},"type":"Feature","geometry":{"type":"Point","coordinates":[-84.698136,46.389131]}},{"properties":{"steet address":"3765 S 41 Rd","city":"Cadillac","company name":"R WALKER CONSTRUCTION COMPANY","geo_score":0.714,"postal code/zip code":49601,"id":"a6oh64tndtou","geo_precision":"city","state":"MI"},"type":"Feature","geometry":{"type":"Point","coordinates":[-85.549093,44.335278]}},{"properties":{"steet address":"3417 Lakeshore Dr","city":"Sault Sainte Marie","company name":"RANDALL G MC GAHEY","geo_score":0.714,"postal code/zip code":49783,"id":"a6oh64kg3b22","geo_precision":"city","state":"MI"},"type":"Feature","geometry":{"type":"Point","coordinates":[-84.900482,43.046851]}},{"properties":{"steet address":"10880 Metz Rd","city":"Ellsworth","company name":"RAY WALLICK INC","geo_score":0.714,"postal code/zip code":49729,"id":"a6oh64panaww","geo_precision":"city","state":"MI"},"type":"Feature","geometry":{"type":"Point","coordinates":[-85.303853,45.156457]}},{"properties":{"steet address":"2280 S HAMILTON RD","city":"MIKADO","company name":"REAMES MASONRY","geo_score":0.714,"postal code/zip code":48745,"id":"a6oh64y26qtn","geo_precision":"city","state":"MI"},"type":"Feature","geometry":{"type":"Point","coordinates":[-83.591419,44.578092]}},{"properties":{"steet address":"RR 1 BOX 14 M 129","city":"PICKFORD","company name":"REICH ELECTRIC * CARL","geo_score":0.0,"postal code/zip code":49774,"id":"a6oh64w72w5d","geo_precision":"unmatched","state":"MI"},"type":"Feature","geometry":null},{"properties":{"steet address":"230 7TH","city":"CADILLAC","company name":"REXAIR INC","geo_score":0.714,"postal code/zip code":49601,"id":"a6oh64xlm5in","geo_precision":"city","state":"MI"},"type":"Feature","geometry":{"type":"Point","coordinates":[-85.549093,44.335278]}},{"properties":{"steet address":"20251 19 Mile Rd","city":"Big Rapids","company name":"RIETH-RILEY CONSTRUCTION CO","geo_score":0.714,"postal code/zip code":49307,"id":"a6oh64xsl806","geo_precision":"city","state":"MI"},"type":"Feature","geometry":{"type":"Point","coordinates":[-85.3518,43.683493]}},{"properties":{"steet address":"1622 NORTHERN STAR DR","city":"TRAVERSE CITY","company name":"RITSEMA ASSOCIATES +","geo_score":0.714,"postal code/zip code":49686,"id":"a6oh64wy03fk","geo_precision":"city","state":"MI"},"type":"Feature","geometry":{"type":"Point","coordinates":[-88.234001,47.194369]}},{"properties":{"steet address":"4029 Old 27 S","city":"Gaylord","company name":"ROBINSON CONSTRUCTION CO INC","geo_score":0.714,"postal code/zip code":49735,"id":"a6oh64nl1tsu","geo_precision":"city","state":"MI"},"type":"Feature","geometry":{"type":"Point","coordinates":[-84.612207,45.028411]}},{"properties":{"steet address":"884 S Airport Rd","city":"Traverse City","company name":"ROBUCK CONSTRUCTION","geo_score":0.714,"postal code/zip code":49686,"id":"a6oh64s3u8xr","geo_precision":"city","state":"MI"},"type":"Feature","geometry":{"type":"Point","coordinates":[-88.234001,47.194369]}},{"properties":{"steet address":"13900 N ELM","city":"REED CITY","company name":"ROGERS &amp; JOHNSON CONCRETE","geo_score":0.714,"postal code/zip code":49677,"id":"a6oh64rniu7w","geo_precision":"city","state":"MI"},"type":"Feature","geometry":{"type":"Point","coordinates":[-85.414718,43.952029]}},{"properties":{"steet address":"4850 River Rd","city":"Houghton Lake","company name":"RONALD R MARTIN","geo_score":0.714,"postal code/zip code":48629,"id":"a6oh64zhseaf","geo_precision":"city","state":"MI"},"type":"Feature","geometry":{"type":"Point","coordinates":[-84.71945,44.332152]}},{"properties":{"steet address":"17684 Leroy Rd","city":"Leroy","company name":"ROUSE REPAIR, LLC","geo_score":0.714,"postal code/zip code":49655,"id":"a6oh64twtera","geo_precision":"city","state":"MI"},"type":"Feature","geometry":{"type":"Point","coordinates":[-85.32548,44.013375]}},{"properties":{"steet address":"2901 ASHMUN ST","city":"SAULT SAINTE MARIE","company name":"ROY ELECTRIC COMPANY INC","geo_score":0.714,"postal code/zip code":49783,"id":"a6oh64u1rdr5","geo_precision":"city","state":"MI"},"type":"Feature","geometry":{"type":"Point","coordinates":[-84.900482,43.046851]}},{"properties":{"steet address":"15552 S TILSON RD","city":"RUDYARD","company name":"RUDYARD ELEC SRV INC","geo_score":0.714,"postal code/zip code":49780,"id":"a6oh64udm5nt","geo_precision":"city","state":"MI"},"type":"Feature","geometry":{"type":"Point","coordinates":[-84.800411,46.258514]}},{"properties":{"steet address":"1108","city":"INDIAN RIVER","company name":"RUTLEDGE BLDR CORP * JIM","geo_score":0.714,"postal code/zip code":49749,"id":"a6oh64uz4922","geo_precision":"city","state":"MI"},"type":"Feature","geometry":{"type":"Point","coordinates":[-84.578019,45.447209]}},{"properties":{"steet address":"520 N MAIN ST STE 301","city":"CHEBOYGAN","company name":"RYBA MARINE CONST CO","geo_score":0.714,"postal code/zip code":49721,"id":"a6oh64qehywu","geo_precision":"city","state":"MI"},"type":"Feature","geometry":{"type":"Point","coordinates":[-84.468639,45.592842]}},{"properties":{"steet address":"2522 DIAMOND DR","city":"ALPENA","company name":"S &amp; A INC.","geo_score":0.714,"postal code/zip code":49707,"id":"a6oh64xi4vrn","geo_precision":"city","state":"MI"},"type":"Feature","geometry":{"type":"Point","coordinates":[-83.495091,45.033143]}},{"properties":{"steet address":"2186 Shunk Rd","city":"Sault Sainte Marie","company name":"SAULT STE MARIE TRIBE OF CHIPPEWA I","geo_score":0.714,"postal code/zip code":49783,"id":"a6oh64ud6p44","geo_precision":"city","state":"MI"},"type":"Feature","geometry":{"type":"Point","coordinates":[-84.900482,43.046851]}},{"properties":{"steet address":"124 TIMBER TRL","city":"LEROY","company name":"SCHEPERS MASONRY LLC","geo_score":0.714,"postal code/zip code":49655,"id":"a6oh64x8z917","geo_precision":"city","state":"MI"},"type":"Feature","geometry":{"type":"Point","coordinates":[-85.32548,44.013375]}},{"properties":{"steet address":"4842 SHOSHONIE DR","city":"BOYNE","company name":"SEA &amp; LAND","geo_score":0.714,"postal code/zip code":49712,"id":"a6oh64l8wcw4","geo_precision":"city","state":"MI"},"type":"Feature","geometry":{"type":"Point","coordinates":[-85.675458,44.289721]}},{"properties":{"steet address":"1742 Barlow St","city":"Traverse City","company name":"SEABROOK CONSTRUCTION CO INC","geo_score":0.714,"postal code/zip code":49686,"id":"a6oh64r2eivj","geo_precision":"city","state":"MI"},"type":"Feature","geometry":{"type":"Point","coordinates":[-88.234001,47.194369]}},{"properties":{"steet address":"101 Dame St","city":"Suttons Bay","company name":"SEECO CONTRACTING CORP","geo_score":0.714,"postal code/zip code":49682,"id":"a6oh64rrh5pd","geo_precision":"city","state":"MI"},"type":"Feature","geometry":{"type":"Point","coordinates":[-85.644068,44.988569]}},{"properties":{"steet address":"4761 FISHER RD","city":"HARBOR SPRINGS","company name":"SETH THORNTON MASONRY","geo_score":0.714,"postal code/zip code":49740,"id":"a6oh64qsouc4","geo_precision":"city","state":"MI"},"type":"Feature","geometry":{"type":"Point","coordinates":[-86.19538,43.076609]}},{"properties":{"steet address":"3801 RENNIE SCHOOL RD","city":"TRAVERSE CITY","company name":"SHEREN PLUMBING &amp; HTG INC","geo_score":0.714,"postal code/zip code":49684,"id":"a6oh64lchsni","geo_precision":"city","state":"MI"},"type":"Feature","geometry":{"type":"Point","coordinates":[-88.234001,47.194369]}},{"properties":{"steet address":"13472 Lakeview Ct","city":"Charlevoix","company name":"SHINDORF CONSTRUCTION","geo_score":0.0,"postal code/zip code":49720,"id":"a6oh64ud9je9","geo_precision":"unmatched","state":"MI"},"type":"Feature","geometry":null},{"properties":{"steet address":"830 COTTAGE VIEW DR STE 1013","city":"TRAVERSE CITY","company name":"SHORELINE DISTRIBUTING","geo_score":0.714,"postal code/zip code":49684,"id":"a6oh64xxp89i","geo_precision":"city","state":"MI"},"type":"Feature","geometry":{"type":"Point","coordinates":[-88.234001,47.194369]}},{"properties":{"steet address":"6514 E Traverse Hwy","city":"Traverse City","company name":"SHUGART BUILDERS INC","geo_score":0.714,"postal code/zip code":49684,"id":"a6oh64tswe2i","geo_precision":"city","state":"MI"},"type":"Feature","geometry":{"type":"Point","coordinates":[-88.234001,47.194369]}},{"properties":{"steet address":"3206 US HIGHWAY 23 S","city":"ALPENA","company name":"SIESS CONSTRUCTION INC","geo_score":0.714,"postal code/zip code":49707,"id":"a6oh64oticgc","geo_precision":"city","state":"MI"},"type":"Feature","geometry":{"type":"Point","coordinates":[-83.495091,45.033143]}},{"properties":{"steet address":"1438 PENINSULA DR","city":"TRAVERSE CITY","company name":"SIGMA COMMUNICATIONS INC","geo_score":0.714,"postal code/zip code":49686,"id":"a6oh64wfcmk2","geo_precision":"city","state":"MI"},"type":"Feature","geometry":{"type":"Point","coordinates":[-88.234001,47.194369]}},{"properties":{"steet address":"892 INDUSTRIAL PARK DR","city":"SHELBY","company name":"SILVER STREET INC","geo_score":0.714,"postal code/zip code":49455,"id":"a6oh64kt99z7","geo_precision":"city","state":"MI"},"type":"Feature","geometry":{"type":"Point","coordinates":[-83.032984,42.670866]}},{"properties":{"steet address":"528","city":"CHARLEVOIX","company name":"SITE PLANNING &amp; DEVEL CO","geo_score":0.0,"postal code/zip code":49720,"id":"a6oh64nbtycn","geo_precision":"unmatched","state":"MI"},"type":"Feature","geometry":null},{"properties":{"steet address":"2796 WHITMARSH RD","city":"VANDERBILT","company name":"SIWECKI CONSTRUCTION INC","geo_score":0.714,"postal code/zip code":49795,"id":"a6oh64nv4ybe","geo_precision":"city","state":"MI"},"type":"Feature","geometry":{"type":"Point","coordinates":[-84.552604,45.139667]}},{"properties":{"steet address":"1890 E MITCHELL RD","city":"PETOSKEY","company name":"SKIPS PETOSKEY GLASS INC","geo_score":0.714,"postal code/zip code":49770,"id":"a6oh64tdgjnt","geo_precision":"city","state":"MI"},"type":"Feature","geometry":{"type":"Point","coordinates":[-84.913255,45.355915]}},{"properties":{"steet address":"720 WATER ST","city":"EAST JORDAN","company name":"SKY ELECTRIC","geo_score":0.714,"postal code/zip code":49727,"id":"a6oh64tpgbqm","geo_precision":"city","state":"MI"},"type":"Feature","geometry":{"type":"Point","coordinates":[-85.102843,45.203995]}},{"properties":{"steet address":"6032 JOYFIELD ROAD","city":"FRANKFORT","company name":"SMELTZER ORCHARD CO","geo_score":0.714,"postal code/zip code":49635,"id":"a6oh64kngn9g","geo_precision":"city","state":"MI"},"type":"Feature","geometry":{"type":"Point","coordinates":[-86.177255,44.613058]}},{"properties":{"steet address":"4485 Manor Wood Dr S","city":"Traverse City","company name":"SMITH MASONRY* T. A.","geo_score":0.714,"postal code/zip code":49684,"id":"a6oh650e43dg","geo_precision":"city","state":"MI"},"type":"Feature","geometry":{"type":"Point","coordinates":[-88.234001,47.194369]}},{"properties":{"steet address":"8124 S AYR RD","city":"ALANSON","company name":"SOLUTIONS ELECTRIC INC.","geo_score":0.714,"postal code/zip code":49706,"id":"a6oh64qtils3","geo_precision":"city","state":"MI"},"type":"Feature","geometry":{"type":"Point","coordinates":[-84.805792,45.539802]}},{"properties":{"steet address":"306 Henderson Ct","city":"Cadillac","company name":"SOUTH BRANCH TOWNSHIP","geo_score":0.714,"postal code/zip code":49601,"id":"a6oh64ko0aoo","geo_precision":"city","state":"MI"},"type":"Feature","geometry":{"type":"Point","coordinates":[-85.549093,44.335278]}},{"properties":{"steet address":"9746 DARRAGH RD","city":"MANCELONA","company name":"SPARK SERVICES","geo_score":0.714,"postal code/zip code":49659,"id":"a6oh64y25h6p","geo_precision":"city","state":"MI"},"type":"Feature","geometry":{"type":"Point","coordinates":[-85.122624,44.947938]}},{"properties":{"steet address":"800 HASTINGS ST STE A","city":"TRAVERSE CITY","company name":"SPENCE BROS GENERAL CON","geo_score":0.714,"postal code/zip code":49686,"id":"a6oh64l7d7ra","geo_precision":"city","state":"MI"},"type":"Feature","geometry":{"type":"Point","coordinates":[-88.234001,47.194369]}},{"properties":{"steet address":"6509 M 37","city":"Kingsley","company name":"SPRINGFIELD CONSTRUCTION","geo_score":0.714,"postal code/zip code":49649,"id":"a6oh64vsip71","geo_precision":"city","state":"MI"},"type":"Feature","geometry":{"type":"Point","coordinates":[-86.39752,42.043654]}},{"properties":{"steet address":"6650 E RAILWAY COMMONS","city":"WILLIAMSBURG","company name":"STANDFEST MASONRY INC","geo_score":0.714,"postal code/zip code":49690,"id":"a6oh64leogiz","geo_precision":"city","state":"MI"},"type":"Feature","geometry":{"type":"Point","coordinates":[-85.427605,44.767181]}},{"properties":{"steet address":"725 W State St","city":"Cheboygan","company name":"STATE WIDE CONCRETE INC","geo_score":0.714,"postal code/zip code":49721,"id":"a6oh64s824jr","geo_precision":"city","state":"MI"},"type":"Feature","geometry":{"type":"Point","coordinates":[-84.468639,45.592842]}},{"properties":{"steet address":"1086 HAMILTON RD","city":"ALPENA","company name":"STEEL CRAFT INC","geo_score":0.714,"postal code/zip code":49707,"id":"a6oh64n2pc77","geo_precision":"city","state":"MI"},"type":"Feature","geometry":{"type":"Point","coordinates":[-83.495091,45.033143]}},{"properties":{"steet address":"9176 S KASSON ST","city":"CEDAR","company name":"STEIKAR SCRAP METAL RECYCLING","geo_score":0.714,"postal code/zip code":49621,"id":"a6oh64sk7axj","geo_precision":"city","state":"MI"},"type":"Feature","geometry":{"type":"Point","coordinates":[-85.813768,44.860517]}},{"properties":{"steet address":"7949 W DAY FOREST RD","city":"EMPIRE","company name":"STENBACK BUILDERS","geo_score":0.714,"postal code/zip code":49630,"id":"a6oh64vi2i99","geo_precision":"city","state":"MI"},"type":"Feature","geometry":{"type":"Point","coordinates":[-85.976477,44.837888]}},{"properties":{"steet address":"1021 WAYNE ST","city":"TRAVERSE CITY","company name":"STEPHEN GLADIEUX","geo_score":0.714,"postal code/zip code":49684,"id":"a6oh64rdyq8n","geo_precision":"city","state":"MI"},"type":"Feature","geometry":{"type":"Point","coordinates":[-88.234001,47.194369]}},{"properties":{"steet address":"4377 STOVER RD","city":"BELLAIRE","company name":"STRAND CONSTRUCTORS INC","geo_score":0.714,"postal code/zip code":49615,"id":"a6oh64witqt5","geo_precision":"city","state":"MI"},"type":"Feature","geometry":{"type":"Point","coordinates":[-85.198742,44.997248]}},{"properties":{"steet address":"373","city":"MANISTEE","company name":"STRUCTURAL SPECIALTIES","geo_score":0.714,"postal code/zip code":49660,"id":"a6oh64n5of2a","geo_precision":"city","state":"MI"},"type":"Feature","geometry":{"type":"Point","coordinates":[-86.182473,44.263534]}},{"properties":{"steet address":"249 RIVER ST","city":"MANISTEE","company name":"STRUCTURAL SPECIALTIES INC","geo_score":0.714,"postal code/zip code":49660,"id":"a6oh64p4j6bp","geo_precision":"city","state":"MI"},"type":"Feature","geometry":{"type":"Point","coordinates":[-86.182473,44.263534]}},{"properties":{"steet address":"1050 Wilke St","city":"Alpena","company name":"SUNRISE SUPPLY","geo_score":0.714,"postal code/zip code":49707,"id":"a6oh64mlmipb","geo_precision":"city","state":"MI"},"type":"Feature","geometry":{"type":"Point","coordinates":[-83.495091,45.033143]}},{"properties":{"steet address":"5901 SHUGART LN","city":"TRAVERSE CITY","company name":"SURFACES INCORPORATED","geo_score":0.714,"postal code/zip code":49684,"id":"a6oh64ojpavg","geo_precision":"city","state":"MI"},"type":"Feature","geometry":{"type":"Point","coordinates":[-88.234001,47.194369]}},{"properties":{"steet address":"12283 INDIAN RD","city":"KEWADIN","company name":"SWIFT SPECIALTIES INC","geo_score":0.714,"postal code/zip code":49648,"id":"a6oh64n849ba","geo_precision":"city","state":"MI"},"type":"Feature","geometry":{"type":"Point","coordinates":[-85.355394,45.006971]}},{"properties":{"steet address":"2746 Preston Rd Ne","city":"Kalkaska","company name":"T &amp; M CONSTRUCTION","geo_score":0.714,"postal code/zip code":49646,"id":"a6oh64l6zylc","geo_precision":"city","state":"MI"},"type":"Feature","geometry":{"type":"Point","coordinates":[-85.092905,44.697144]}},{"properties":{"steet address":"84 W Center Rd","city":"Kingsley","company name":"T C INSULATING CO INC","geo_score":0.714,"postal code/zip code":49649,"id":"a6oh64udu2az","geo_precision":"city","state":"MI"},"type":"Feature","geometry":{"type":"Point","coordinates":[-86.39752,42.043654]}},{"properties":{"steet address":"1163 HASTINGS ST","city":"TRAVERSE CITY","company name":"T C MIRROR &amp; SHOWER DOOR INC","geo_score":0.714,"postal code/zip code":49686,"id":"a6oh64qpb9vy","geo_precision":"city","state":"MI"},"type":"Feature","geometry":{"type":"Point","coordinates":[-88.234001,47.194369]}},{"properties":{"steet address":"745 S AIR PORT RD W","city":"TRAVERSE CITY","company name":"T C RENTALS INC","geo_score":0.714,"postal code/zip code":49686,"id":"a6oh64zszfa5","geo_precision":"city","state":"MI"},"type":"Feature","geometry":{"type":"Point","coordinates":[-88.234001,47.194369]}},{"properties":{"steet address":"1843 BERGER RD","city":"PETOSKEY","company name":"T J MARBLE &amp; GRANITE","geo_score":0.714,"postal code/zip code":49770,"id":"a6oh650gk6ju","geo_precision":"city","state":"MI"},"type":"Feature","geometry":{"type":"Point","coordinates":[-84.913255,45.355915]}},{"properties":{"steet address":"33336 Piper Rd","city":"A[pena","company name":"T R C Roofing","geo_score":0.0,"postal code/zip code":49707,"id":"a6oh64thi55e","geo_precision":"unmatched","state":"MI"},"type":"Feature","geometry":null},{"properties":{"steet address":"906 E MAPLE ST","city":"LUDINGTON","company name":"TEACHOUT &amp; CROSS CONTRACTING","geo_score":0.714,"postal code/zip code":49431,"id":"a6oh64qxv29y","geo_precision":"city","state":"MI"},"type":"Feature","geometry":{"type":"Point","coordinates":[-86.349439,43.998926]}},{"properties":{"steet address":"9572 CHIPPEWA HWY","city":"BEAR LAKE","company name":"TEACHOUT INDUSTRIAL CONTRACTING INC","geo_score":0.714,"postal code/zip code":49614,"id":"a6oh64mggc1b","geo_precision":"city","state":"MI"},"type":"Feature","geometry":{"type":"Point","coordinates":[-85.902261,42.921413]}},{"properties":{"steet address":"1623 Northern Star Dr","city":"Traverse City","company name":"TEMPERATURE CONTROL INC","geo_score":0.714,"postal code/zip code":49686,"id":"a6oh64twnox1","geo_precision":"city","state":"MI"},"type":"Feature","geometry":{"type":"Point","coordinates":[-88.234001,47.194369]}},{"properties":{"steet address":"2585 Lafranier Rd","city":"Traverse City","company name":"TENDERCARE TRAVERSE CITY","geo_score":0.714,"postal code/zip code":49686,"id":"a6oh64x6yzxj","geo_precision":"city","state":"MI"},"type":"Feature","geometry":{"type":"Point","coordinates":[-88.234001,47.194369]}},{"properties":{"steet address":"700 MEE ST","city":"FILER CITY","company name":"TES FILER CITY STATION LP","geo_score":0.714,"postal code/zip code":49634,"id":"a6oh64stf5k9","geo_precision":"city","state":"MI"},"type":"Feature","geometry":{"type":"Point","coordinates":[-84.761244,42.993295]}},{"properties":{"steet address":"6064 River St","city":"Indian River","company name":"THE INN BETWEEN INC","geo_score":0.714,"postal code/zip code":49749,"id":"a6oh64yzz1kw","geo_precision":"city","state":"MI"},"type":"Feature","geometry":{"type":"Point","coordinates":[-84.578019,45.447209]}},{"properties":{"steet address":"472","city":"ALPENA","company name":"THUNDER BAY ELECTRIC","geo_score":0.714,"postal code/zip code":49707,"id":"a6oh64xxhya4","geo_precision":"city","state":"MI"},"type":"Feature","geometry":{"type":"Point","coordinates":[-83.495091,45.033143]}},{"properties":{"steet address":"3336 Piper Rd","city":"Alpena","company name":"TIMM CONSTRUCTION CO LLC","geo_score":0.714,"postal code/zip code":49707,"id":"a6oh64zuul1x","geo_precision":"city","state":"MI"},"type":"Feature","geometry":{"type":"Point","coordinates":[-83.495091,45.033143]}},{"properties":{"steet address":"2207 Traversefield Dr","city":"Traverse City","company name":"TOMMARK INC","geo_score":0.714,"postal code/zip code":49686,"id":"a6oh64m4or1b","geo_precision":"city","state":"MI"},"type":"Feature","geometry":{"type":"Point","coordinates":[-88.234001,47.194369]}},{"properties":{"steet address":"2475 N AERO PARK CT","city":"TRAVERSE CITY","company name":"TOOL NORTH INC","geo_score":0.714,"postal code/zip code":49686,"id":"a6oh64mlo1w3","geo_precision":"city","state":"MI"},"type":"Feature","geometry":{"type":"Point","coordinates":[-88.234001,47.194369]}},{"properties":{"steet address":"5057 SAWYER WOODS DR","city":"TRAVERSE CITY","company name":"TOP LINE ELECTRIC LLC","geo_score":0.714,"postal code/zip code":49684,"id":"a6oh64ks3rub","geo_precision":"city","state":"MI"},"type":"Feature","geometry":{"type":"Point","coordinates":[-88.234001,47.194369]}},{"properties":{"steet address":"345 W MAIN ST","city":"LAKE LEELANAU","company name":"TOTAL PLUMBING &amp; HEATING","geo_score":0.714,"postal code/zip code":49653,"id":"a6oh64lvd6p1","geo_precision":"city","state":"MI"},"type":"Feature","geometry":{"type":"Point","coordinates":[-84.867626,43.914196]}},{"properties":{"steet address":"679 S PERE MARQUETTE HWY","city":"LUDINGTON","company name":"TOWNS BROTHERS CONSTRUCTION","geo_score":0.714,"postal code/zip code":49431,"id":"a6oh64n6p184","geo_precision":"city","state":"MI"},"type":"Feature","geometry":{"type":"Point","coordinates":[-86.349439,43.998926]}},{"properties":{"steet address":"2470 N AERO PARK CT","city":"TRAVERSE CITY","company name":"TRANTEK","geo_score":0.714,"postal code/zip code":49686,"id":"a6oh650nisgp","geo_precision":"city","state":"MI"},"type":"Feature","geometry":{"type":"Point","coordinates":[-88.234001,47.194369]}},{"properties":{"steet address":"6020","city":"TRAVERSE CITY","company name":"TRAVERSE BAY AREA SCHOOL DIST","geo_score":0.714,"postal code/zip code":49696,"id":"a6oh64z90fhq","geo_precision":"city","state":"MI"},"type":"Feature","geometry":{"type":"Point","coordinates":[-88.234001,47.194369]}},{"properties":{"steet address":"412 Webster St","city":"Traverse City","company name":"TRAVERSE CITY AREA PUB SCHOOLS","geo_score":0.714,"postal code/zip code":49686,"id":"a6oh64xzkca4","geo_precision":"city","state":"MI"},"type":"Feature","geometry":{"type":"Point","coordinates":[-88.234001,47.194369]}},{"properties":{"steet address":"303 E STATE ST STE C","city":"TRAVERSE CITY","company name":"TRAVERSE CITY CITY OF","geo_score":0.714,"postal code/zip code":49684,"id":"a6oh64w38l9g","geo_precision":"city","state":"MI"},"type":"Feature","geometry":{"type":"Point","coordinates":[-88.234001,47.194369]}},{"properties":{"steet address":"1502 BARLOW ST","city":"TRAVERSE CITY","company name":"TRAVERSE CITY GLASS","geo_score":0.714,"postal code/zip code":49686,"id":"a6oh64qmr6j1","geo_precision":"city","state":"MI"},"type":"Feature","geometry":{"type":"Point","coordinates":[-88.234001,47.194369]}},{"properties":{"steet address":"1715 M 68","city":"AFTON","company name":"TUBE FAB/ROMAN ENGINEERING CO., INC","geo_score":0.714,"postal code/zip code":49705,"id":"a6oh64s6iprw","geo_precision":"city","state":"MI"},"type":"Feature","geometry":{"type":"Point","coordinates":[-84.429893,45.366479]}},{"properties":{"steet address":"225 N Lake St","city":"Cadillac","company name":"TUSCOLA &amp; SAGINAW BAY RLWY CO","geo_score":0.714,"postal code/zip code":49601,"id":"a6oh64wri6h7","geo_precision":"city","state":"MI"},"type":"Feature","geometry":{"type":"Point","coordinates":[-85.549093,44.335278]}},{"properties":{"steet address":"418 E 8TH ST","city":"TRAVERSE CITY","company name":"TWIN BAY GLASS INC","geo_score":0.714,"postal code/zip code":49686,"id":"a6oh64odvojc","geo_precision":"city","state":"MI"},"type":"Feature","geometry":{"type":"Point","coordinates":[-88.234001,47.194369]}},{"properties":{"steet address":"119 WATER ST","city":"SAULT SAINTE MARIE","company name":"U S ARMY CORPS OF ENGINEERS","geo_score":0.714,"postal code/zip code":49783,"id":"a6oh64lti03b","geo_precision":"city","state":"MI"},"type":"Feature","geometry":{"type":"Point","coordinates":[-84.900482,43.046851]}},{"properties":{"steet address":"955 LOOMIS ST","city":"CHEBOYGAN","company name":"U S COAST GUARD","geo_score":0.714,"postal code/zip code":49721,"id":"a6oh64mdch87","geo_precision":"city","state":"MI"},"type":"Feature","geometry":{"type":"Point","coordinates":[-84.468639,45.592842]}},{"properties":{"steet address":"COMMANDING OFFICER","city":"SAULT SAINTE MARIE","company name":"U S COAST GUARD","geo_score":0.714,"postal code/zip code":49783,"id":"a6oh64n12e83","geo_precision":"city","state":"MI"},"type":"Feature","geometry":{"type":"Point","coordinates":[-84.900482,43.046851]}},{"properties":{"steet address":"1175 AIRPORT ACCESS RD","city":"TRAVERSE CITY","company name":"U S COAST GUARD","geo_score":0.714,"postal code/zip code":49686,"id":"a6oh64u2ies7","geo_precision":"city","state":"MI"},"type":"Feature","geometry":{"type":"Point","coordinates":[-88.234001,47.194369]}},{"properties":{"steet address":"7051 E 34 RD","city":"CADILLAC","company name":"UNIVERSAL RENT IT ALL","geo_score":0.714,"postal code/zip code":49601,"id":"a6oh64mrx1el","geo_precision":"city","state":"MI"},"type":"Feature","geometry":{"type":"Point","coordinates":[-85.549093,44.335278]}},{"properties":{"steet address":"20423 80TH AVE","city":"EVART","company name":"UP TO PAR DRYWALL","geo_score":0.714,"postal code/zip code":49631,"id":"a6oh64on5jto","geo_precision":"city","state":"MI"},"type":"Feature","geometry":{"type":"Point","coordinates":[-85.302063,43.958084]}},{"properties":{"steet address":"1175 AIRPORT ACCESS RD","city":"TRAVERSE CITY","company name":"US TRANSPORTATION DEPT","geo_score":0.714,"postal code/zip code":49686,"id":"a6oh64moi6gp","geo_precision":"city","state":"MI"},"type":"Feature","geometry":{"type":"Point","coordinates":[-88.234001,47.194369]}},{"properties":{"steet address":"100 Glocheski Dr","city":"Manistee","company name":"V M C TECHNOLOGIES","geo_score":0.714,"postal code/zip code":49660,"id":"a6oh64retvlh","geo_precision":"city","state":"MI"},"type":"Feature","geometry":{"type":"Point","coordinates":[-86.182473,44.263534]}},{"properties":{"steet address":"29831 E Court St","city":"Drummond Island","company name":"VACATION CONSTRUCTION","geo_score":0.714,"postal code/zip code":49726,"id":"a6oh64qmx59b","geo_precision":"city","state":"MI"},"type":"Feature","geometry":{"type":"Point","coordinates":[-88.660682,47.055206]}},{"properties":{"steet address":"5635 W Dewey Rd","city":"Ludington","company name":"VANDERVEST ELECTRIC","geo_score":0.714,"postal code/zip code":49431,"id":"a6oh64uv9ivb","geo_precision":"city","state":"MI"},"type":"Feature","geometry":{"type":"Point","coordinates":[-86.349439,43.998926]}},{"properties":{"steet address":"2186 SHUNK RD","city":"SAULT SAINTE MARIE","company name":"VEGAS KEWADIN","geo_score":0.714,"postal code/zip code":49783,"id":"a6oh64zjuczg","geo_precision":"city","state":"MI"},"type":"Feature","geometry":{"type":"Point","coordinates":[-84.900482,43.046851]}},{"properties":{"steet address":"235 E 12TH ST","city":"TRAVERSE CITY","company name":"VELL CONSTRUCTION","geo_score":0.714,"postal code/zip code":49684,"id":"a6oh64wbov6g","geo_precision":"city","state":"MI"},"type":"Feature","geometry":{"type":"Point","coordinates":[-88.234001,47.194369]}},{"properties":{"steet address":"509 WEST STATE RD","city":"LINCOLN","company name":"VIKING ENERGY OF LINCOLN INCORPORAT","geo_score":0.714,"postal code/zip code":48742,"id":"a6oh64tmj5pi","geo_precision":"city","state":"MI"},"type":"Feature","geometry":{"type":"Point","coordinates":[-83.454865,44.65922]}},{"properties":{"steet address":"6751 WEST GERWOUDE DR","city":"MC BAIN","company name":"VIKING ENERGY OF MCBAIN INC","geo_score":0.714,"postal code/zip code":49657,"id":"a6oh64ldsf6t","geo_precision":"city","state":"MI"},"type":"Feature","geometry":{"type":"Point","coordinates":[-85.154382,44.258292]}},{"properties":{"steet address":"Old Portage Trl","city":"Saint Ignace","company name":"WADE MARSHALL","geo_score":0.0,"postal code/zip code":49781,"id":"a6oh64rt5szh","geo_precision":"unmatched","state":"MI"},"type":"Feature","geometry":null},{"properties":{"steet address":"2500 N Oceana Dr","city":"Hart","company name":"WADEL STABILIZATION INC","geo_score":0.714,"postal code/zip code":49420,"id":"a6oh64ps7ima","geo_precision":"city","state":"MI"},"type":"Feature","geometry":{"type":"Point","coordinates":[-85.710694,44.280319]}},{"properties":{"steet address":"341 ALCAN DR","city":"PETOSKEY","company name":"WAGER BUILDERS INC","geo_score":0.714,"postal code/zip code":49770,"id":"a6oh64mq4ir9","geo_precision":"city","state":"MI"},"type":"Feature","geometry":{"type":"Point","coordinates":[-84.913255,45.355915]}},{"properties":{"steet address":"822 WELLINGTON DR","city":"EAST JORDAN","company name":"WALKER * JIM","geo_score":0.714,"postal code/zip code":49727,"id":"a6oh64smq6u4","geo_precision":"city","state":"MI"},"type":"Feature","geometry":{"type":"Point","coordinates":[-85.102843,45.203995]}},{"properties":{"steet address":"8192 Maple Leaf Dr","city":"Traverse City","company name":"WALKER, TROY","geo_score":0.714,"postal code/zip code":49684,"id":"a6oh64qi20el","geo_precision":"city","state":"MI"},"type":"Feature","geometry":{"type":"Point","coordinates":[-88.234001,47.194369]}},{"properties":{"steet address":"101 HILTOP LN","city":"LEROY","company name":"WANSTEAD BUILDERS","geo_score":0.714,"postal code/zip code":49655,"id":"a6oh64tfk72h","geo_precision":"city","state":"MI"},"type":"Feature","geometry":{"type":"Point","coordinates":[-85.32548,44.013375]}},{"properties":{"steet address":"16925 S SCENIC DR","city":"BARBEAU","company name":"WARE GENERAL CONTRACTING INC","geo_score":0.714,"postal code/zip code":49710,"id":"a6oh64kek42r","geo_precision":"city","state":"MI"},"type":"Feature","geometry":{"type":"Point","coordinates":[-84.196899,46.278437]}},{"properties":{"steet address":"301 CITY CENTER BLDG","city":"LUDINGTON","company name":"WASHAW CONST","geo_score":0.714,"postal code/zip code":49431,"id":"a6oh64lbwqe7","geo_precision":"city","state":"MI"},"type":"Feature","geometry":{"type":"Point","coordinates":[-86.349439,43.998926]}},{"properties":{"steet address":"4245 EL CAJON BEACH RD","city":"ALPENA","company name":"WATERFRONT","geo_score":0.714,"postal code/zip code":49707,"id":"a6oh650ep54t","geo_precision":"city","state":"MI"},"type":"Feature","geometry":{"type":"Point","coordinates":[-83.495091,45.033143]}},{"properties":{"steet address":"1411 M 32 W","city":"ALPENA","company name":"WEINKAUF PLUMBING &amp; HTG","geo_score":0.714,"postal code/zip code":49707,"id":"a6oh64p0lyf3","geo_precision":"city","state":"MI"},"type":"Feature","geometry":{"type":"Point","coordinates":[-83.495091,45.033143]}},{"properties":{"steet address":"168 S Portage St","city":"Saint Ignace","company name":"WEISS BUILDERS","geo_score":0.0,"postal code/zip code":49781,"id":"a6oh64p1hoxu","geo_precision":"unmatched","state":"MI"},"type":"Feature","geometry":null},{"properties":{"steet address":"10861 N STRAITS HWY","city":"CHEBOYGAN","company name":"WERNER PLUMBING AND HEATING INC","geo_score":0.714,"postal code/zip code":49721,"id":"a6oh64ord0wf","geo_precision":"city","state":"MI"},"type":"Feature","geometry":{"type":"Point","coordinates":[-84.468639,45.592842]}},{"properties":{"steet address":"BIRCH POINT RD","city":"SAULT SAINTE MARIE","company name":"WETSU CONSTRUCTION","geo_score":0.714,"postal code/zip code":49783,"id":"a6oh64t7xrk8","geo_precision":"city","state":"MI"},"type":"Feature","geometry":{"type":"Point","coordinates":[-84.900482,43.046851]}},{"properties":{"steet address":"755","city":"MIO","company name":"WHALEY STEEL CORPORATION","geo_score":0.714,"postal code/zip code":48647,"id":"a6oh64zejhch","geo_precision":"city","state":"MI"},"type":"Feature","geometry":{"type":"Point","coordinates":[-84.089518,44.662952]}},{"properties":{"steet address":"19030 S MACKINAC TRL","city":"RUDYARD","company name":"WHISKEY RIVER INC","geo_score":0.714,"postal code/zip code":49780,"id":"a6oh64tnmctu","geo_precision":"city","state":"MI"},"type":"Feature","geometry":{"type":"Point","coordinates":[-84.800411,46.258514]}},{"properties":{"steet address":"934 S GARFIELD AVE","city":"TRAVERSE CITY","company name":"WIDING CUSTOM HOMES","geo_score":0.714,"postal code/zip code":49686,"id":"a6oh64lxb1nz","geo_precision":"city","state":"MI"},"type":"Feature","geometry":{"type":"Point","coordinates":[-88.234001,47.194369]}},{"properties":{"steet address":"1Madison Ave","city":"Cadillac","company name":"WILCOX ASSOCIATES INC","geo_score":0.714,"postal code/zip code":49601,"id":"a6oh64qdgwj7","geo_precision":"city","state":"MI"},"type":"Feature","geometry":{"type":"Point","coordinates":[-85.549093,44.335278]}},{"properties":{"steet address":"5343 KNAFFLE RD","city":"CHEBOYGAN","company name":"WILLEY CONSTRUCTION","geo_score":0.714,"postal code/zip code":49721,"id":"a6oh64m8tcy6","geo_precision":"city","state":"MI"},"type":"Feature","geometry":{"type":"Point","coordinates":[-84.468639,45.592842]}},{"properties":{"steet address":"150 WORKS AVE A","city":"CADILLAC","company name":"WILLIAMS CONSTRUCTION INC","geo_score":0.714,"postal code/zip code":49601,"id":"a6oh64ze16f9","geo_precision":"city","state":"MI"},"type":"Feature","geometry":{"type":"Point","coordinates":[-85.549093,44.335278]}},{"properties":{"steet address":"1714 NORTHERN STAR DR","city":"TRAVERSE CITY","company name":"WINDEMULLER ELECTRIC +","geo_score":0.714,"postal code/zip code":49686,"id":"a6oh64xfobj2","geo_precision":"city","state":"MI"},"type":"Feature","geometry":{"type":"Point","coordinates":[-88.234001,47.194369]}},{"properties":{"steet address":"1381 TRADE CENTER DR","city":"TRAVERSE CITY","company name":"WINTER BROTHERS CONSTRUCTION","geo_score":0.714,"postal code/zip code":49686,"id":"a6oh64tas2s3","geo_precision":"city","state":"MI"},"type":"Feature","geometry":{"type":"Point","coordinates":[-88.234001,47.194369]}},{"properties":{"steet address":"217 STOVER RD","city":"CHARLEVOIX","company name":"WOJAN WINDOW &amp; DOOR","geo_score":0.0,"postal code/zip code":49720,"id":"a6oh64zo2hgi","geo_precision":"unmatched","state":"MI"},"type":"Feature","geometry":null},{"properties":{"steet address":"1011 LYNN DR","city":"INDIAN RIVER","company name":"WOLFGRAM &amp; SONS INC * G B","geo_score":0.714,"postal code/zip code":49749,"id":"a6oh64s16d77","geo_precision":"city","state":"MI"},"type":"Feature","geometry":{"type":"Point","coordinates":[-84.578019,45.447209]}},{"properties":{"steet address":"10125 W WATERGATE RD","city":"CADILLAC","company name":"WOLVERINE POWER COOP INC","geo_score":0.714,"postal code/zip code":49601,"id":"a6oh64plkk4v","geo_precision":"city","state":"MI"},"type":"Feature","geometry":{"type":"Point","coordinates":[-85.549093,44.335278]}},{"properties":{"steet address":"6101 COUNTY ROAD 633","city":"GRAWN","company name":"Y CONCRETE","geo_score":0.714,"postal code/zip code":49637,"id":"a6oh64oubx9f","geo_precision":"city","state":"MI"},"type":"Feature","geometry":{"type":"Point","coordinates":[-83.78745,44.705591]}},{"properties":{"steet address":"6101 COUNTY ROAD 633","city":"GRAWN","company name":"Y CONCRETE","geo_score":0.714,"postal code/zip code":49637,"id":"a6oh64le6df2","geo_precision":"city","state":"MI"},"type":"Feature","geometry":{"type":"Point","coordinates":[-83.78745,44.705591]}},{"properties":{"steet address":"8839 MIDSTATE DR","city":"MECOSTA","company name":"YOUNG BUILDERS","geo_score":0.714,"postal code/zip code":49332,"id":"a6oh64uk26f5","geo_precision":"city","state":"MI"},"type":"Feature","geometry":{"type":"Point","coordinates":[-85.31329,43.60077]}},{"properties":{"steet address":"723 Duell Rd","city":"Traverse City","company name":"ZIMMERMAN CONSTRUCTION CO","geo_score":0.714,"postal code/zip code":49686,"id":"a6oh64skipu5","geo_precision":"city","state":"MI"},"type":"Feature","geometry":{"type":"Point","coordinates":[-88.234001,47.194369]}}],"is_temporal":false,"author":{"url":"","metadata":"","contact_name":"","contact_address":"","source":"","contact_phone":""},"source":"","pagination":{"sort":null,"start":0,"total":499,"limit":1000000},"state":"complete","tags":"","published":"2014-08-14T22:32:04-04:00","id":255759}