{"type":"FeatureCollection","data_type":"Dataset","url_type":null,"permissions":[{"permissions":{"download":true,"view":true},"group_id":"everyone"}],"classification":null,"title":"NWregion","count":33,"stream_id":256476,"contributor":{"url":"http://geocommons.com/users/46663","name":"FlynnFREAC"},"data_attributes":null,"calculation_params":null,"icon_link":null,"link":"http://geocommons.com/overlays/256476.json","extent":[-124.42,32.75,-87.6797,47.5769],"geometry_types":["point"],"unique_name":null,"name":"NWregion","feature_count":33,"description":"","next_feature":null,"is_raster":false,"short_classification":"Y","stats":{"rank":{"max":11,"variance":9.2258064516129,"mean":5.67741935483871,"stdev":3.03740126615054,"min":1,"median":6}},"features":[{"properties":{"city":"Eugene","zip":"97403","region":"NW","w/l (2011)":"12 &amp; 2","geo_score":0.61,"rank":1,"division":"Upper","team":"Ducks","id":"a6peas9849tu","school":"Oregon","address":"1431 Johnson Ln","geo_precision":"street","state":"OR"},"type":"Feature","geometry":{"type":"Point","coordinates":[-124.419614,42.403203]}},{"properties":{"city":"Stanford","zip":"94305","region":"NW","w/l (2011)":"11 &amp; 2","geo_score":0.591,"rank":2,"division":"Upper","team":"Cardinals","id":"a6peas81eu82","school":"Stanford","address":"450 Serra Mall","geo_precision":"street","state":"CA"},"type":"Feature","geometry":{"type":"Point","coordinates":[-122.1607,37.42705]}},{"properties":{"city":"Los Angeles","zip":"90089","region":"NW","w/l (2011)":"10 &amp; 2","geo_score":0.837,"rank":3,"division":"Upper","team":"Trojans","id":"a6pearyzlz7a","school":"USC","address":"850 West 37th St","geo_precision":"range","state":"CA"},"type":"Feature","geometry":{"type":"Point","coordinates":[-118.287104,34.01917]}},{"properties":{"city":"Boise","zip":"83725","region":"NW","w/l (2011)":"12 &amp; 1","geo_score":0.902,"rank":4,"division":"Upper","team":"Broncos","id":"a6pearyuryl3","school":"Boise State","address":"2120 University Dr","geo_precision":"range","state":"ID"},"type":"Feature","geometry":{"type":"Point","coordinates":[-116.207577,43.604436]}},{"properties":{"city":"Madison","zip":"53706","region":"NW","w/l (2011)":"11 &amp; 3","geo_score":0.902,"rank":5,"division":"Upper","team":"Badgers","id":"a6peas6olpgo","school":"Wisconsin","address":"975 University Ave","geo_precision":"range","state":"WI"},"type":"Feature","geometry":{"type":"Point","coordinates":[-89.402228,43.073221]}},{"properties":{"city":"Manhattan","zip":"66506","region":"NW","w/l (2011)":"10 &amp; 3","geo_score":0.714,"rank":6,"division":"Upper","team":"Wildcats","id":"a6peasb37g7l","school":"Kansas State","address":"1700 &amp;erson Ave","geo_precision":"zip","state":"KS"},"type":"Feature","geometry":{"type":"Point","coordinates":[-96.583875,39.196032]}},{"properties":{"city":"Lincoln","zip":"68508","region":"NW","w/l (2011)":"9 &amp; 4","geo_score":0.837,"rank":7,"division":"Upper","team":"Cornhuskers","id":"a6peas5f5qlb","school":"Nebraska","address":"600 N 15th St","geo_precision":"range","state":"NE"},"type":"Feature","geometry":{"type":"Point","coordinates":[-96.69859,40.819942]}},{"properties":{"city":"Salt Lake City","zip":"84112","region":"NW","w/l (2011)":"8 &amp; 5","geo_score":0.902,"rank":8,"division":"Upper","team":"Utes","id":"a6peas3avetn","school":"Utah","address":"201 Presidents Cir","geo_precision":"range","state":"UT"},"type":"Feature","geometry":{"type":"Point","coordinates":[-111.851171,40.765549]}},{"properties":{"city":"Columbia","zip":"65203","region":"NW","w/l (2011)":"8 &amp; 5","geo_score":0.819,"rank":9,"division":"Upper","team":"Tigers","id":"a6pease086hh","school":"Missouri","address":"600 Stadium Blvd E","geo_precision":"range","state":"MO"},"type":"Feature","geometry":{"type":"Point","coordinates":[-92.371139,38.963817]}},{"properties":{"city":"Provo","zip":"84602","region":"NW","w/l (2011)":"10 &amp; 3","geo_score":0.702,"rank":10,"division":"Upper","team":"Cougars","id":"a6peasei3wuv","school":"BYU","address":"1 University Hill","geo_precision":"range","state":"UT"},"type":"Feature","geometry":{"type":"Point","coordinates":[-111.660031,40.256226]}},{"properties":{"city":null,"zip":null,"region":"NW","w/l (2011)":null,"geo_score":0.0,"rank":null,"division":null,"team":null,"id":"a6peas60zurv","school":null,"address":null,"geo_precision":"unmatched","state":null},"type":"Feature","geometry":null},{"properties":{"city":"DeKalb","zip":"60115","region":"NW","w/l (2011)":"11 &amp; 3","geo_score":0.902,"rank":1,"division":"Middle","team":"Huskies","id":"a6peas8p23so","school":"Northern Illinois","address":"1425 West Lincoln Highway","geo_precision":"range","state":"IL"},"type":"Feature","geometry":{"type":"Point","coordinates":[-88.78,41.930794]}},{"properties":{"city":"Berkeley","zip":"94720","region":"NW","w/l (2011)":"7 &amp; 6","geo_score":0.571,"rank":2,"division":"Middle","team":"Golden Bears","id":"a6peas3gy6da","school":"California","address":"Berkeley Campus","geo_precision":"street","state":"CA"},"type":"Feature","geometry":{"type":"Point","coordinates":[-122.282935,37.871066]}},{"properties":{"city":"Iowa City","zip":"52242","region":"NW","w/l (2011)":"7 &amp; 6","geo_score":0.683,"rank":3,"division":"Middle","team":"Hawkeyes","id":"a6pearzmq84y","school":"Iowa","address":"138 Iowa Memorial Un","geo_precision":"range","state":"IA"},"type":"Feature","geometry":{"type":"Point","coordinates":[-91.538947,41.661401]}},{"properties":{"city":"Seattle","zip":"98105","region":"NW","w/l (2011)":"7 &amp; 6","geo_score":0.488,"rank":4,"division":"Middle","team":"Huskies","id":"a6pearysbug6","school":"Washington","address":"185 Stevens Way","geo_precision":"street","state":"WA"},"type":"Feature","geometry":{"type":"Point","coordinates":[-122.320736,47.576905]}},{"properties":{"city":"Ames","zip":"50011","region":"NW","w/l (2011)":"6 &amp; 7","geo_score":0.805,"rank":5,"division":"Middle","team":"Cyclones","id":"a6peas8ow612","school":"Iowa State","address":"2229 Lincoln Way","geo_precision":"range","state":"IA"},"type":"Feature","geometry":{"type":"Point","coordinates":[-93.64464,42.022855]}},{"properties":{"city":"Urbana-Champaign","zip":"61820","region":"NW","w/l (2011)":"7 &amp; 6","geo_score":0.86,"rank":6,"division":"Middle","team":"Fighting Illini","id":"a6peasadxhor","school":"Illinois","address":"601 E John St","geo_precision":"range","state":"IL"},"type":"Feature","geometry":{"type":"Point","coordinates":[-88.228875,40.109083]}},{"properties":{"city":"Evanston","zip":"60201","region":"NW","w/l (2011)":"6 &amp; 7","geo_score":0.902,"rank":7,"division":"Middle","team":"Wildcats","id":"a6peas1kp2v6","school":"Northwestern","address":"1927 Orrington Ave","geo_precision":"range","state":"IL"},"type":"Feature","geometry":{"type":"Point","coordinates":[-87.679752,42.05206]}},{"properties":{"city":"San Diego","zip":"92182","region":"NW","w/l (2011)":"8 &amp; 5","geo_score":0.464,"rank":8,"division":"Middle","team":"Aztecs","id":"a6peas346j95","school":"San Diego State","address":"5500 Canyon Crest Dr","geo_precision":"street","state":"CA"},"type":"Feature","geometry":{"type":"Point","coordinates":[-117.215655,32.749969]}},{"properties":{"city":"Los Angeles","zip":"90095","region":"NW","w/l (2011)":"6 &amp; 8","geo_score":0.707,"rank":9,"division":"Middle","team":"Bruins","id":"a6peas1tp3r1","school":"UCLA","address":"405 Hilgard Ave","geo_precision":"street","state":"CA"},"type":"Feature","geometry":{"type":"Point","coordinates":[-118.437979,34.074279]}},{"properties":{"city":"Laramie","zip":"82071","region":"NW","w/l (2011)":"8 &amp; 5","geo_score":0.612,"rank":10,"division":"Middle","team":"Cowboys","id":"a6peasc6svw5","school":"Wyoming","address":"1000 E University Ave","geo_precision":"street","state":"WY"},"type":"Feature","geometry":{"type":"Point","coordinates":[-105.585545,41.312448]}},{"properties":{"city":null,"zip":null,"region":"NW","w/l (2011)":null,"geo_score":0.0,"rank":null,"division":null,"team":null,"id":"a6peas7jte9p","school":null,"address":null,"geo_precision":"unmatched","state":null},"type":"Feature","geometry":null},{"properties":{"city":"Colorado Springs","zip":"80840","region":"NW","w/l (2011)":"7 &amp; 6","geo_score":0.621,"rank":1,"division":"Bottom","team":"Falcons","id":"a6peas44e568","school":"Air Force","address":"2304 Academy Dr","geo_precision":"street","state":"CO"},"type":"Feature","geometry":{"type":"Point","coordinates":[-104.872511,38.997365]}},{"properties":{"city":"Pullman","zip":"99163","region":"NW","w/l (2011)":"4 &amp; 8","geo_score":0.708,"rank":2,"division":"Bottom","team":"Cougars","id":"a6peas95n8y9","school":"Washington State","address":"2000 Northeast Stadium Way","geo_precision":"street","state":"WA"},"type":"Feature","geometry":{"type":"Point","coordinates":[-117.16011,46.735829]}},{"properties":{"city":"Logan","zip":"84322","region":"NW","w/l (2011)":"7 &amp; 6","geo_score":0.427,"rank":3,"division":"Bottom","team":"Aggies","id":"a6peas7vfj6a","school":"Utah State","address":"800 E &amp; 1000 N","geo_precision":"street","state":"UT"},"type":"Feature","geometry":{"type":"Point","coordinates":[-111.809504,41.750091]}},{"properties":{"city":"Corvallis","zip":"97331","region":"NW","w/l (2011)":"3 &amp; 9","geo_score":0.552,"rank":4,"division":"Bottom","team":"Beavers","id":"a6peas9lb01q","school":"Oregon State","address":"660 Southwest 26th St","geo_precision":"street","state":"OR"},"type":"Feature","geometry":{"type":"Point","coordinates":[-124.054077,44.618527]}},{"properties":{"city":"San Jose","zip":"95112","region":"NW","w/l (2011)":"5 &amp; 7","geo_score":0.687,"rank":5,"division":"Bottom","team":"Spartans","id":"a6peas96uhdt","school":"San Jose State","address":"1 Washington Sq","geo_precision":"street","state":"CA"},"type":"Feature","geometry":{"type":"Point","coordinates":[-121.89115,37.344654]}},{"properties":{"city":"Boulder","zip":"80303","region":"NW","w/l (2011)":"3 &amp; 10","geo_score":0.819,"rank":6,"division":"Bottom","team":"Buffaloes","id":"a6peasc5dxc7","school":"Colorado","address":"1540 30th Street","geo_precision":"range","state":"CO"},"type":"Feature","geometry":{"type":"Point","coordinates":[-105.253652,40.012867]}},{"properties":{"city":"Minneapolis","zip":"55414","region":"NW","w/l (2011)":"3 &amp; 9","geo_score":0.799,"rank":7,"division":"Bottom","team":"Golden Gophers","id":"a6peas0c82mp","school":"Minnesota","address":"2009 SE University Ave","geo_precision":"range","state":"MN"},"type":"Feature","geometry":{"type":"Point","coordinates":[-93.225763,44.975105]}},{"properties":{"city":"Fresno","zip":"93740","region":"NW","w/l (2011)":"4 &amp; 9","geo_score":0.611,"rank":8,"division":"Bottom","team":"Bulldogs","id":"a6peasckpji3","school":"Fresno State","address":"5241 North Maple Ave","geo_precision":"street","state":"CA"},"type":"Feature","geometry":{"type":"Point","coordinates":[-119.7452,36.80767]}},{"properties":{"city":"Lawrence","zip":"66045","region":"NW","w/l (2011)":"2 &amp; 10","geo_score":0.902,"rank":9,"division":"Bottom","team":"Jayhawks","id":"a6peas0fjtme","school":"Kansas","address":"1445 Jayhawk Blvd","geo_precision":"range","state":"KS"},"type":"Feature","geometry":{"type":"Point","coordinates":[-95.245854,38.957378]}},{"properties":{"city":"Fort Colins","zip":"80526","region":"NW","w/l (2011)":"3 &amp; 9","geo_score":0.714,"rank":10,"division":"Bottom","team":"Rams","id":"a6peas5xr1fo","school":"Colorado State","address":"1800 S Overl&amp; Trail","geo_precision":"zip","state":"CO"},"type":"Feature","geometry":{"type":"Point","coordinates":[-105.324268,40.587553]}},{"properties":{"city":"Moscow","zip":"83844","region":"NW","w/l (2011)":"2 &amp; 10","geo_score":0.805,"rank":11,"division":"Bottom","team":"V&amp;als","id":"a6pearzyt70s","school":"Idaho","address":"1210 Blake Ave","geo_precision":"range","state":"ID"},"type":"Feature","geometry":{"type":"Point","coordinates":[-117.008285,46.723394]}}],"is_temporal":false,"author":{"url":"","metadata":null,"contact_name":null,"contact_address":null,"source":null,"contact_phone":null},"source":"","pagination":{"sort":null,"start":0,"total":33,"limit":1000000},"state":"complete","tags":"","published":"2014-08-14T23:45:03-04:00","id":256476}