{"type":"FeatureCollection","data_type":"Dataset","url_type":null,"permissions":[{"permissions":{"download":true,"view":true},"group_id":"everyone"}],"classification":null,"title":"NEregion","count":31,"stream_id":256475,"contributor":{"url":"http://geocommons.com/users/46663","name":"FlynnFREAC"},"data_attributes":null,"calculation_params":null,"icon_link":null,"link":"http://geocommons.com/overlays/256475.json","extent":[-86.8784,38.4211,-71.1704,43.5935],"geometry_types":["point"],"unique_name":null,"name":"NEregion","feature_count":31,"description":"","next_feature":null,"is_raster":false,"short_classification":"Y","stats":{"rank":{"max":11,"variance":9.2258064516129,"mean":5.67741935483871,"stdev":3.03740126615054,"min":1,"median":6}},"features":[{"properties":{"city":"East Lansing","zip":"48824","region":"NE","w/l (2011)":"11 &amp; 3","geo_score":0.725,"rank":1,"division":"Upper","team":"Spartans","id":"a6peadce8c0c","school":"Michigan State","address":"300 Spartan Way","geo_precision":"range","state":"MI"},"type":"Feature","geometry":{"type":"Point","coordinates":[-84.465854,42.736661]}},{"properties":{"city":"Ann Arbor","zip":"48104","region":"NE","w/l (2011)":"11 &amp; 2","geo_score":0.902,"rank":2,"division":"Upper","team":"Wolverines","id":"a6peadd5fx14","school":"Michigan","address":"1201 South Main St","geo_precision":"range","state":"MI"},"type":"Feature","geometry":{"type":"Point","coordinates":[-83.750168,42.26601]}},{"properties":{"city":"Morgantown","zip":"26506","region":"NE","w/l (2011)":"10 &amp; 3","geo_score":0.707,"rank":3,"division":"Upper","team":"Mountaineers","id":"a6pead9ljd30","school":"West Virginia","address":"1601 University Ave","geo_precision":"street","state":"WV"},"type":"Feature","geometry":{"type":"Point","coordinates":[-79.95485,39.63424]}},{"properties":{"city":"Cincinnati","zip":"45221","region":"NE","w/l (2011)":"10 &amp; 3","geo_score":0.53,"rank":4,"division":"Upper","team":"Bearcats","id":"a6peadoafvd8","school":"Cincinnati","address":"2700 Bearcat Way","geo_precision":"street","state":"OH"},"type":"Feature","geometry":{"type":"Point","coordinates":[-84.647663,39.156619]}},{"properties":{"city":"University Park","zip":"16802","region":"NE","w/l (2011)":"9 &amp; 4","geo_score":0.486,"rank":5,"division":"Upper","team":"Nittany Lions","id":"a6peadoyq054","school":"Penn State","address":"1 Beaver Stadium","geo_precision":"street","state":"PA"},"type":"Feature","geometry":{"type":"Point","coordinates":[-77.947492,40.870922]}},{"properties":{"city":"South Bend","zip":"46556","region":"NE","w/l (2011)":"8 &amp; 5","geo_score":0.61,"rank":6,"division":"Upper","team":"Fighting Irish","id":"a6peadnilm30","school":"Notre Dame","address":"1600 Edison Rd","geo_precision":"street","state":"IN"},"type":"Feature","geometry":{"type":"Point","coordinates":[-86.065885,41.695433]}},{"properties":{"city":"Toledo","zip":"43606","region":"NE","w/l (2011)":"9 &amp; 4","geo_score":0.902,"rank":7,"division":"Upper","team":"Rockets","id":"a6peadft2s95","school":"Toledo","address":"2801 West Bancroft St","geo_precision":"range","state":"OH"},"type":"Feature","geometry":{"type":"Point","coordinates":[-83.611671,41.663033]}},{"properties":{"city":"Columbus","zip":"43210","region":"NE","w/l (2011)":"6 &amp; 7","geo_score":0.902,"rank":8,"division":"Upper","team":"Buckeyes","id":"a6peadabc82n","school":"Ohio State","address":"1849 Cannon Dr","geo_precision":"range","state":"OH"},"type":"Feature","geometry":{"type":"Point","coordinates":[-83.020358,40.003114]}},{"properties":{"city":"Piscataway","zip":"08854","region":"NE","w/l (2011)":"9 &amp; 4","geo_score":0.78,"rank":9,"division":"Upper","team":"Scarlet Knights","id":"a6peadktetyn","school":"Rutgers","address":"65 Davidson Rd","geo_precision":"street","state":"NJ"},"type":"Feature","geometry":{"type":"Point","coordinates":[-74.457217,40.52538]}},{"properties":{"city":"Athens","zip":"45701","region":"NE","w/l (2011)":"10 &amp; 4","geo_score":0.652,"rank":10,"division":"Upper","team":"Bobcats","id":"a6peadbyxj0w","school":"Ohio","address":"1 Park Pl","geo_precision":"range","state":"OH"},"type":"Feature","geometry":{"type":"Point","coordinates":[-82.110495,39.334613]}},{"properties":{"city":"Philadelphia","zip":"19002","region":"NE","w/l (2011)":"9 &amp; 4","geo_score":0.488,"rank":1,"division":"Middle","team":"Owls","id":"a6peadjavi6y","school":"Temple","address":"580 Meetinghouse Rd","geo_precision":"zip","state":"PA"},"type":"Feature","geometry":{"type":"Point","coordinates":[-75.206842,40.165387]}},{"properties":{"city":"West Lafayette","zip":"47907","region":"NE","w/l (2011)":"7 &amp; 6","geo_score":0.477,"rank":2,"division":"Middle","team":"Boilermakers","id":"a6peadb8rspc","school":"Purdue","address":"610 Purdue Mall","geo_precision":"street","state":"IN"},"type":"Feature","geometry":{"type":"Point","coordinates":[-86.8784,40.41232]}},{"properties":{"city":"Pittsburgh","zip":"15261","region":"NE","w/l (2011)":"6 &amp; 7","geo_score":0.537,"rank":3,"division":"Middle","team":"Panthers","id":"a6peadf05a3i","school":"Pittsburgh","address":"3719 Terrace St","geo_precision":"street","state":"PA"},"type":"Feature","geometry":{"type":"Point","coordinates":[-79.888288,40.469395]}},{"properties":{"city":"Huntington","zip":"25755","region":"NE","w/l (2011)":"7 &amp; 6","geo_score":0.61,"rank":4,"division":"Middle","team":"Thundering Herd","id":"a6peadgl4km1","school":"Marshall","address":"1 John Marshall Dr","geo_precision":"street","state":"WV"},"type":"Feature","geometry":{"type":"Point","coordinates":[-82.429513,38.421088]}},{"properties":{"city":"Storrs","zip":"06269","region":"NE","w/l (2011)":"5 &amp; 7","geo_score":0.0,"rank":5,"division":"Middle","team":"Huskies","id":"a6peadm9t339","school":"UConn","address":"249 Glenbrook Road","geo_precision":"unmatched","state":"CT"},"type":"Feature","geometry":null},{"properties":{"city":"Syracuse","zip":"13210","region":"NE","w/l (2011)":"5 &amp; 7","geo_score":0.902,"rank":6,"division":"Middle","team":"Orange","id":"a6peadpd6c1w","school":"Syracuse","address":"805 South Crouse Ave","geo_precision":"range","state":"NY"},"type":"Feature","geometry":{"type":"Point","coordinates":[-76.136622,43.040564]}},{"properties":{"city":"Kalamazoo","zip":"49008","region":"NE","w/l (2011)":"7 &amp; 6","geo_score":0.805,"rank":7,"division":"Middle","team":"Broncos","id":"a6pead9j34bg","school":"Western Michigan","address":"1200 Academy St","geo_precision":"range","state":"MI"},"type":"Feature","geometry":{"type":"Point","coordinates":[-85.601154,42.290366]}},{"properties":{"city":"Chestnut Hill","zip":"02467","region":"NE","w/l (2011)":"4 &amp; 8","geo_score":0.902,"rank":8,"division":"Middle","team":"Eagles","id":"a6peadayr1xr","school":"Boston College","address":"140 Commonwealth Ave","geo_precision":"range","state":"MA"},"type":"Feature","geometry":{"type":"Point","coordinates":[-71.170409,42.338568]}},{"properties":{"city":"Annapolis","zip":"21401","region":"NE","w/l (2011)":"5 &amp; 7","geo_score":0.902,"rank":9,"division":"Middle","team":"Midshipmen","id":"a6peadn6uu9c","school":"Navy","address":"550 Taylor Ave","geo_precision":"range","state":"MD"},"type":"Feature","geometry":{"type":"Point","coordinates":[-76.505461,38.982717]}},{"properties":{"city":"Muncie","zip":"47303","region":"NE","w/l (2011)":"6 &amp; 6","geo_score":0.422,"rank":10,"division":"Middle","team":"Cardinals","id":"a6peadisft1g","school":"Ball State","address":"1001-1299 N McKinley Ave","geo_precision":"street","state":"IN"},"type":"Feature","geometry":{"type":"Point","coordinates":[-84.981388,40.44049]}},{"properties":{"city":"Ypsilanti","zip":"48197","region":"NE","w/l (2011)":"6 &amp; 6","geo_score":0.902,"rank":1,"division":"Bottom","team":"Eagles","id":"a6peadopxdsw","school":"Eastern Michigan","address":"799 North Hewitt Rd","geo_precision":"range","state":"MI"},"type":"Feature","geometry":{"type":"Point","coordinates":[-83.647627,42.251104]}},{"properties":{"city":"Oxford","zip":"45056","region":"NE","w/l (2011)":"4 &amp; 8","geo_score":0.451,"rank":2,"division":"Bottom","team":"Red Hawks","id":"a6peadp662sj","school":"Miami (OH)","address":"Moming Sun Rd","geo_precision":"street","state":"OH"},"type":"Feature","geometry":{"type":"Point","coordinates":[-84.70343,39.176635]}},{"properties":{"city":"Kent","zip":"44240","region":"NE","w/l (2011)":"5 &amp; 7","geo_score":0.805,"rank":3,"division":"Bottom","team":"Golden Flashes","id":"a6peadmgvplw","school":"Kent State","address":"21 Loop Rd","geo_precision":"range","state":"OH"},"type":"Feature","geometry":{"type":"Point","coordinates":[-81.334623,41.142308]}},{"properties":{"city":"Bowling Green","zip":"43403","region":"NE","w/l (2011)":"5 &amp; 7","geo_score":0.709,"rank":4,"division":"Bottom","team":"Falcons","id":"a6peado27z1f","school":"Bowling Green","address":"1001 East Wooster St","geo_precision":"street","state":"OH"},"type":"Feature","geometry":{"type":"Point","coordinates":[-83.636676,41.374607]}},{"properties":{"city":"College Park","zip":"20740","region":"NE","w/l (2011)":"2 &amp; 10","geo_score":0.488,"rank":5,"division":"Bottom","team":"Terrapins","id":"a6peadnqk0se","school":"Maryland","address":"1132 Regents Dr","geo_precision":"zip","state":"MD"},"type":"Feature","geometry":{"type":"Point","coordinates":[-76.932197,39.016499]}},{"properties":{"city":"West Point","zip":"10996","region":"NE","w/l (2011)":"3 &amp; 9","geo_score":0.902,"rank":6,"division":"Bottom","team":"Black Knights","id":"a6peadanfawf","school":"Army","address":"600 Thayer Rd","geo_precision":"range","state":"NY"},"type":"Feature","geometry":{"type":"Point","coordinates":[-73.956319,41.390399]}},{"properties":{"city":"Buffalo","zip":"14260","region":"NE","w/l (2011)":"3 &amp; 9","geo_score":0.512,"rank":7,"division":"Bottom","team":"Bulls","id":"a6peadf18l8h","school":"Buffalo","address":"109 Cooke Hall","geo_precision":"street","state":"NY"},"type":"Feature","geometry":{"type":"Point","coordinates":[-78.834009,42.824386]}},{"properties":{"city":"Mount Pleasant","zip":"48858","region":"NE","w/l (2011)":"3 &amp; 9","geo_score":0.709,"rank":8,"division":"Bottom","team":"Chippewas","id":"a6peadh43anh","school":"Central Michigan","address":"1200 South Franklin St","geo_precision":"street","state":"MI"},"type":"Feature","geometry":{"type":"Point","coordinates":[-84.774096,43.593525]}},{"properties":{"city":"Bloomington","zip":"47405","region":"NE","w/l (2011)":"1 &amp; 11","geo_score":0.902,"rank":9,"division":"Bottom","team":"Hoosiers","id":"a6peadkgqa74","school":"Indiana","address":"107 South Indiana Ave","geo_precision":"range","state":"IN"},"type":"Feature","geometry":{"type":"Point","coordinates":[-86.526839,39.165613]}},{"properties":{"city":"Akron","zip":"44325","region":"NE","w/l (2011)":"1 &amp; 11","geo_score":0.708,"rank":10,"division":"Bottom","team":"Zips","id":"a6peadljuhvs","school":"Akron","address":"382 Carroll St","geo_precision":"street","state":"OH"},"type":"Feature","geometry":{"type":"Point","coordinates":[-81.513893,41.075278]}},{"properties":{"city":"Amherst","zip":"01003","region":"NE","w/l (2011)":"5 &amp; 6","geo_score":0.642,"rank":11,"division":"Bottom","team":"Minutemen","id":"a6peadebxo5f","school":"UMass","address":"154 Hicks Way","geo_precision":"range","state":"MA"},"type":"Feature","geometry":{"type":"Point","coordinates":[-72.776124,42.140499]}}],"is_temporal":false,"author":{"url":"","metadata":null,"contact_name":null,"contact_address":null,"source":null,"contact_phone":null},"source":"","pagination":{"sort":null,"start":0,"total":31,"limit":1000000},"state":"complete","tags":"","published":"2014-08-14T23:45:02-04:00","id":256475}