{"type":"FeatureCollection","data_type":"Dataset","url_type":null,"permissions":[{"permissions":{"download":true,"view":true},"group_id":"everyone"}],"classification":null,"title":"Texas GLO, Heliports, Texas, 2006","count":88,"stream_id":2566,"contributor":{"url":"http://geocommons.com/users/2","name":"data"},"data_attributes":null,"calculation_params":null,"icon_link":null,"link":"http://geocommons.com/overlays/2566.json","extent":[-97.5403,26.0722,-93.8596,30.1011],"geometry_types":["point"],"unique_name":null,"name":"Texas GLO, Heliports, Texas, 2006","feature_count":88,"description":"Locations of heliports in Texas coastal counties. Data generated from latitude/longitude coordinates provided by the Texas Dept. of Transportation Aviation Division.\n\nFor display/cartography at scales of 1:24,000 or smaller\n\nData are incomplete and some locations may be spatially inaccurate","next_feature":null,"is_raster":false,"short_classification":"Y","stats":{"HELID":{"max":200,"mean":99.1931818181818,"variance":4674.36455067921,"stdev":68.3693246323174,"min":0,"median":117},"ELEV":{"max":null,"min":null,"median":null},"OBJECTID":{"max":176,"mean":132.5,"variance":652.666666666667,"stdev":25.5473416751463,"min":89,"median":133}},"features":[{"properties":{"CITY":"PORT NECHES","ARP_LON":"093-55-55.618W","ADDRESS1":"6001 HWY 366","XY":"1917781.75,-325016.8125","OWNER":"TEXACO CHEMICAL CO.","ADDRESS2":"PORT NECHES, TX 77651","FAC_NAME":"TEXACO CHEMICAL COMPANY-EAST","HELID":173,"PHONE":"409-724-4543","RARNUM":"H1330","FAC_TYPE":"HELIPORT","STATE":"TX","ELEV":"14","MANAGER":"CHAD R. WYBLE, ELEC. ENGINEER","OBJECTID":89,"ARP_LONS":"33155.618W","id":"a65kjj95tbr2","ARP_LAT":"29-57-44.769N","ARP_LATS":"107864.769N","COUNTYNAME":"JEFFERSON"},"type":"Feature","geometry":{"type":"Point","coordinates":[-93.932098229093,29.9624404681779]}},{"properties":{"CITY":"PORT ARTHUR","ARP_LON":"093-56-18.617","ADDRESS1":"P.O. BOX 1648","XY":"1916357.75,-335939.8125","OWNER":"PARK PLACE MEDICAL CENTER","ADDRESS2":"PORT ARTHUR, TX 77642","FAC_NAME":"P P H","HELID":168,"PHONE":"409-985-0415","RARNUM":"H1325","FAC_TYPE":"HELIPORT","STATE":"TX","ELEV":"5","MANAGER":"JAMES MITCHELL, DIR OF ENG.","OBJECTID":90,"ARP_LONS":"338178.617W","id":"a65kjja9v2rj","ARP_LAT":"29-55-57.770N","ARP_LATS":"107757.770N","COUNTYNAME":"JEFFERSON"},"type":"Feature","geometry":{"type":"Point","coordinates":[-93.938499596988,29.9327106567742]}},{"properties":{"CITY":"PORT ARTHUR","ARP_LON":"093-53-14.609W","ADDRESS1":"P.O. BOX 1408","XY":"1932812.125,-340699.4375","OWNER":"PORT ARTHUR TOWING CO","ADDRESS2":"PORT ARTHUR, TX 77640","FAC_NAME":"PATCO","HELID":166,"PHONE":"713-962-8536","RARNUM":"H1323","FAC_TYPE":"HELIPORT","STATE":"TX","ELEV":"15","MANAGER":"RANDY DRAPER","OBJECTID":91,"ARP_LONS":"337994.609W","id":"a65kjivqx4ct","ARP_LAT":"29-55-01.771N","ARP_LATS":"107701.771N","COUNTYNAME":"JEFFERSON"},"type":"Feature","geometry":{"type":"Point","coordinates":[-93.8873975577597,29.9171600668471]}},{"properties":{"CITY":"PORT ARTHUR","ARP_LON":"093-55-15.613W","ADDRESS1":"PO BOX 3696","XY":"1922372,-344419.84375","OWNER":"ST MARY HOSP OF PORT ARTHUR","ADDRESS2":"PORT ARTHUR, TX 77640","FAC_NAME":"ST MARY HOSPITAL OF PORT ARTHUR","HELID":167,"PHONE":"409-985-7431","RARNUM":"H1324","FAC_TYPE":"HELIPORT","STATE":"TX","ELEV":"16","MANAGER":"RUSS SIMPKINS","OBJECTID":92,"ARP_LONS":"338115.613W","id":"a65kjj1njs67","ARP_LAT":"29-54-30.772N","ARP_LATS":"107670.772N","COUNTYNAME":"JEFFERSON"},"type":"Feature","geometry":{"type":"Point","coordinates":[-93.9209977865161,29.9085502165645]}},{"properties":{"CITY":"CHANNELVIEW","ARP_LON":"095-07-07.751W","ADDRESS1":"8280 SHELDON RD P.O.BOX 777","XY":"1545060.5,-390094.375","OWNER":"LYONDELL PETROCHEMICAL COMP","ADDRESS2":"CHANNELVIEW, TX 77530","FAC_NAME":"LPC","HELID":20,"PHONE":"713-452-8888","RARNUM":"H1179","FAC_TYPE":"HELIPORT","STATE":"TX","ELEV":"41","MANAGER":"GEORGE ARNOLD","OBJECTID":93,"ARP_LONS":"342427.751W","id":"a65kjj0hm8y1","ARP_LAT":"29-50-05.808N","ARP_LATS":"107405.808N","COUNTYNAME":"HARRIS"},"type":"Feature","geometry":{"type":"Point","coordinates":[-95.118797431127,29.8349495130881]}},{"properties":{"CITY":"BAYTOWN","ARP_LON":"095-00-13.740W","ADDRESS1":"4533 PASADENA BLVD","XY":"1581960.625,-399979.40625","OWNER":"DIAMOND INC","ADDRESS2":"PASADENA, TX 77503","FAC_NAME":"RED BARN","HELID":13,"PHONE":"713-479-3435","RARNUM":"H1172","FAC_TYPE":"HELIPORT","STATE":"TX","ELEV":"35","MANAGER":"JOHN PITTMAN","OBJECTID":94,"ARP_LONS":"342013.740W","id":"a65kjj885vhx","ARP_LAT":"29-48-11.811N","ARP_LATS":"107291.811N","COUNTYNAME":"HARRIS"},"type":"Feature","geometry":{"type":"Point","coordinates":[-95.0037995056473,29.8032798749367]}},{"properties":{"CITY":"HOUSTON","ARP_LON":"095-18-40.770W","ADDRESS1":"P.O. BOX 66769","XY":"1484509.375,-400832.59375","OWNER":"HARRIS COUNTY HOSPITAL DIST","ADDRESS2":"HOUSTON, TX 77266","FAC_NAME":"LYNDON B JOHNSON GENERAL HOSPITAL","HELID":120,"PHONE":"713-746-5590","RARNUM":"H1277","FAC_TYPE":"HELIPORT","STATE":"TX","ELEV":"40","MANAGER":"ALEXANDER BRAILAS","OBJECTID":95,"ARP_LONS":"343120.770W","id":"a65kjj6oxfbj","ARP_LAT":"29-48-45.814N","ARP_LATS":"107325.814N","COUNTYNAME":"HARRIS"},"type":"Feature","geometry":{"type":"Point","coordinates":[-95.3113023555142,29.8127307360291]}},{"properties":{"CITY":"HOUSTON","ARP_LON":"095-20-10.772W","ADDRESS1":"8402 LARSON","XY":"1476589.875,-400969.65625","OWNER":"HOUSTON POLICE HEL PATROL DIV","ADDRESS2":"HOUSTON, TX 77061","FAC_NAME":"NE POLICE STATION NR 2","HELID":127,"PHONE":"713-641-0281","RARNUM":"H1284","FAC_TYPE":"HELIPORT","STATE":"TX","ELEV":"53","MANAGER":"J.M. KING","OBJECTID":96,"ARP_LONS":"343210.772W","id":"a65kjj89nao0","ARP_LAT":"29-48-47.814N","ARP_LATS":"107327.814N","COUNTYNAME":"HARRIS"},"type":"Feature","geometry":{"type":"Point","coordinates":[-95.3363036718311,29.8132801093303]}},{"properties":{"CITY":"HOUSTON","ARP_LON":"095-16-38.767W","ADDRESS1":"125 MCCARTY DR","XY":"1495603,-408864.78125","OWNER":"DAILEY PETRO SERVICES CORP","ADDRESS2":"HOUSTON, TX 77029","FAC_NAME":"","HELID":99,"PHONE":"409-539-5699","RARNUM":"H1256","FAC_TYPE":"HELIPORT","STATE":"TX","ELEV":"25","MANAGER":"STEVE JOHNSON","OBJECTID":97,"ARP_LONS":"342998.767W","id":"a65kjiyisjgx","ARP_LAT":"29-47-21.816N","ARP_LATS":"107241.816N","COUNTYNAME":"HARRIS"},"type":"Feature","geometry":{"type":"Point","coordinates":[-95.2773969840407,29.7893905123182]}},{"properties":{"CITY":"HOUSTON","ARP_LON":"13-674-3163\"","ADDRESS1":"555 GELLHORN","XY":"1498522,-411877.40625","OWNER":"PORTA-KAMP MANUFACTURING CO","ADDRESS2":"HOUSTON, TX 77029","FAC_NAME":"GELLHORN PAD","HELID":71,"PHONE":"713-674-3163","RARNUM":"H1228","FAC_TYPE":"HELIPORT","STATE":"TX","ELEV":"40","MANAGER":"WILLIAM BIGELOW","OBJECTID":98,"ARP_LONS":"29-46-50.817N","id":"a65kjiup0tot","ARP_LAT":"BIGELOW\"","ARP_LATS":"PRESIDENT,","COUNTYNAME":"HARRIS"},"type":"Feature","geometry":{"type":"Point","coordinates":[-95.2686006050742,29.7807807776033]}},{"properties":{"CITY":"SABINE PASS","ARP_LON":"093-51-34.592W","ADDRESS1":"P O BOX 1346","XY":"1945753,-414544.5625","OWNER":"VASTAR RESOURCES INC","ADDRESS2":"HOUSTON, TX 77251","FAC_NAME":"ARCO SABINE","HELID":186,"PHONE":"409-971-2329","RARNUM":"H1343","FAC_TYPE":"HELIPORT","STATE":"TX","ELEV":"9","MANAGER":"J D PELTIER","OBJECTID":99,"ARP_LONS":"337894.592W","id":"a65kjiz7nsq5","ARP_LAT":"29-42-45.791N","ARP_LATS":"106965.791N","COUNTYNAME":"JEFFERSON"},"type":"Feature","geometry":{"type":"Point","coordinates":[-93.8595961881639,29.7127208241751]}},{"properties":{"CITY":"HOUSTON","ARP_LON":"095-10-23.758W","ADDRESS1":"MERICHEM CO., 1914 HADEN RD","XY":"1529001.125,-417738.8125","OWNER":"HADEN ROAD INDUSTRIES","ADDRESS2":"HOUSTON, TX 77015","FAC_NAME":"LIFE FLIGHT","HELID":117,"PHONE":"713-455-1311","RARNUM":"H1274","FAC_TYPE":"HELIPORT","STATE":"TX","ELEV":"26","MANAGER":"JOHN D. MC HAZLETT","OBJECTID":100,"ARP_LONS":"342623.758W","id":"a65kjj5ujo5v","ARP_LAT":"29-45-39.818N","ARP_LATS":"107139.818N","COUNTYNAME":"HARRIS"},"type":"Feature","geometry":{"type":"Point","coordinates":[-95.1733016347118,29.7610607156608]}},{"properties":{"CITY":"HOUSTON","ARP_LON":"095-22-16.777W","ADDRESS1":"","XY":"1466253.25,-418921","OWNER":"","ADDRESS2":"","FAC_NAME":"","HELID":133,"PHONE":"713-641-0281","RARNUM":"H1290","FAC_TYPE":"HELIPORT","STATE":"TX","ELEV":"","MANAGER":"J.W. SNELSON","OBJECTID":101,"ARP_LONS":"343336.777W","id":"a65kjj8zcuz7","ARP_LAT":"29-45-54.820N","ARP_LATS":"107154.820N","COUNTYNAME":"HARRIS"},"type":"Feature","geometry":{"type":"Point","coordinates":[-95.3712997954049,29.7652302126539]}},{"properties":{"CITY":"HOUSTON","ARP_LON":"095-19-40.773W","ADDRESS1":"4100 CLINTON DR.","XY":"1479994.75,-419148.21875","OWNER":"BROWN &amp; ROOT, INC.","ADDRESS2":"HOUSTON, TX 77020","FAC_NAME":"BROWN &amp; ROOT-CLINTON","HELID":113,"PHONE":"713-676-3841","RARNUM":"H1270","FAC_TYPE":"HELIPORT","STATE":"TX","ELEV":"29","MANAGER":"JAMES A. MC MULLIAN","OBJECTID":102,"ARP_LONS":"343180.773W","id":"a65kjj89mw19","ARP_LAT":"29-45-46.820N","ARP_LATS":"107146.820N","COUNTYNAME":"HARRIS"},"type":"Feature","geometry":{"type":"Point","coordinates":[-95.3280028560148,29.7630100046095]}},{"properties":{"CITY":"SABINE PASS","ARP_LON":"093-51-50.594W","ADDRESS1":"PO BOX 26845","XY":"1944582.25,-419169.28125","OWNER":"CHEVRON USA","ADDRESS2":"NEW ORLEANS, LA 70186","FAC_NAME":"TENNECO SHOREBASE","HELID":187,"PHONE":"504-241-2120","RARNUM":"H1344","FAC_TYPE":"HELIPORT","STATE":"TX","ELEV":"11","MANAGER":"EARL FIELDS","OBJECTID":103,"ARP_LONS":"337910.594W","id":"a65kjjb1upv5","ARP_LAT":"29-42-00.793N","ARP_LATS":"106920.793N","COUNTYNAME":"JEFFERSON"},"type":"Feature","geometry":{"type":"Point","coordinates":[-93.8640974548848,29.7002200797447]}},{"properties":{"CITY":"HOUSTON","ARP_LON":"095-21-41.777W","ADDRESS1":"P.O. BOX 2227, SUITE 1564","XY":"1469812.625,-420103.90625","OWNER":"CHEVRON OIL COMPANY (CUSA)","ADDRESS2":"HOUSTON, TX 77252","FAC_NAME":"GULF TOWER","HELID":95,"PHONE":"713-754-2903","RARNUM":"H1252","FAC_TYPE":"HELIPORT","STATE":"TX","ELEV":"774","MANAGER":"C. R. FARRIS","OBJECTID":104,"ARP_LONS":"343301.777W","id":"a65kjj38bqim","ARP_LAT":"29-45-19.821N","ARP_LATS":"107119.821N","COUNTYNAME":"HARRIS"},"type":"Feature","geometry":{"type":"Point","coordinates":[-95.3602344126821,29.7615726416945]}},{"properties":{"CITY":"HOUSTON","ARP_LON":"095-21-44.777W","ADDRESS1":"909 FANNIN ST SUITE 1250","XY":"1468963.375,-420263.09375","OWNER":"JMB PARTNERS LIMITED","ADDRESS2":"HOUSTON, TX 77010","FAC_NAME":"EMERGENCY-1 HOUSTON CENTER","HELID":122,"PHONE":"713-654-1911","RARNUM":"H1279","FAC_TYPE":"HELIPORT","STATE":"TX","ELEV":"680","MANAGER":"JAMES WILSON","OBJECTID":105,"ARP_LONS":"343304.777W","id":"a65kjj9tfz9b","ARP_LAT":"29-45-23.821N","ARP_LATS":"107123.821N","COUNTYNAME":"HARRIS"},"type":"Feature","geometry":{"type":"Point","coordinates":[-95.3629332603492,29.761234296793]}},{"properties":{"CITY":"SABINE PASS","ARP_LON":"093-56-38.606W","ADDRESS1":"P.O. BOX 1085","XY":"1919237.375,-420274.46875","OWNER":"PETROLEUM HELICOPTERS INC.","ADDRESS2":"SABINE PASS, TX 77655","FAC_NAME":"PETROLEUM HELICOPTERS INC","HELID":183,"PHONE":"409-971-2455","RARNUM":"H1340","FAC_TYPE":"HELIPORT","STATE":"TX","ELEV":"10","MANAGER":"JAMES T. RODGERS","OBJECTID":106,"ARP_LONS":"338198.606W","id":"a65kjj1i40ai","ARP_LAT":"29-42-03.788N","ARP_LATS":"106923.788N","COUNTYNAME":"JEFFERSON"},"type":"Feature","geometry":{"type":"Point","coordinates":[-93.9440992855401,29.7010497894404]}},{"properties":{"CITY":"HOUSTON","ARP_LON":"095-21-49.777W","ADDRESS1":"P.O. BOX 2558","XY":"1467875.875,-420380.6875","OWNER":"TEXAS COMMERCE BANK","ADDRESS2":"HOUSTON, TX 77001","FAC_NAME":"TEXAS COMMERCE BANK BUILDING","HELID":132,"PHONE":"713-236-5536","RARNUM":"H1289","FAC_TYPE":"HELIPORT","STATE":"TX","ELEV":"458","MANAGER":"SCOTT DENNIS","OBJECTID":107,"ARP_LONS":"343309.777W","id":"a65kjiwzugoi","ARP_LAT":"29-45-31.821N","ARP_LATS":"107131.821N","COUNTYNAME":"HARRIS"},"type":"Feature","geometry":{"type":"Point","coordinates":[-95.366377738824,29.7610376616688]}},{"properties":{"CITY":"SABINE PASS","ARP_LON":"093-57-23.608W","ADDRESS1":"PO BOX 6550","XY":"1915375.375,-422208.96875","OWNER":"ERA HELICOPTERS, INC","ADDRESS2":"LAKE CHARLES, LA 70606","FAC_NAME":"ERA HELICOPTERS SABINE BASE","HELID":185,"PHONE":"318-478-6131","RARNUM":"H1342","FAC_TYPE":"HELIPORT","STATE":"TX","ELEV":"7","MANAGER":"CHARLES W. JOHNSON","OBJECTID":108,"ARP_LONS":"338243.608W","id":"a65kjjatkby1","ARP_LAT":"29-41-46.789N","ARP_LATS":"106906.789N","COUNTYNAME":"JEFFERSON"},"type":"Feature","geometry":{"type":"Point","coordinates":[-93.9565961697063,29.6963291396555]}},{"properties":{"CITY":"HOUSTON","ARP_LON":"095-21-55.777W","ADDRESS1":"1301 FANNIN, SUITE 2282","XY":"1469283.75,-422931.28125","OWNER":"1ST CITH NATL BANK OF TEXAS","ADDRESS2":"HOUSTON, TX 77002","FAC_NAME":"FIRST CITY FINANCIAL CENTER","HELID":103,"PHONE":"713-658-7044","RARNUM":"H1260","FAC_TYPE":"HELIPORT","STATE":"TX","ELEV":"482","MANAGER":"BRUCE C. EDWARDS","OBJECTID":109,"ARP_LONS":"343315.777W","id":"a65kjizeh61k","ARP_LAT":"29-45-13.821N","ARP_LATS":"107113.821N","COUNTYNAME":"HARRIS"},"type":"Feature","geometry":{"type":"Point","coordinates":[-95.3622785126461,29.7538767633675]}},{"properties":{"CITY":"BAYTOWN","ARP_LON":"094-58-48.739W","ADDRESS1":"4401 GARTH RD","XY":"1590517.625,-423484.78125","OWNER":"SAN JACINTO METHODIST HOSPITAL","ADDRESS2":"BAYTOWN, TX 77521","FAC_NAME":"SAN JACINTO METHODIST HOSPITAL","HELID":10,"PHONE":"713-420-8600","RARNUM":"H1169","FAC_TYPE":"HELIPORT","STATE":"TX","ELEV":"19","MANAGER":"ROD SEIDEL","OBJECTID":110,"ARP_LONS":"341928.739W","id":"a65kjiwk6eco","ARP_LAT":"29-44-15.817N","ARP_LATS":"107055.817N","COUNTYNAME":"HARRIS"},"type":"Feature","geometry":{"type":"Point","coordinates":[-94.9802017008879,29.7377300143414]}},{"properties":{"CITY":"SABINE PASS","ARP_LON":"093-58-00.609W","ADDRESS1":"RT 3, BOX 1913","XY":"1912206.75,-423499.0625","OWNER":"EVERGREEN HELICOPTERS INC","ADDRESS2":"GALVESTON, TX 77554","FAC_NAME":"EVERGREEN HELICOPTERS INC","HELID":181,"PHONE":"409-740-0231","RARNUM":"H1338","FAC_TYPE":"HELIPORT","STATE":"TX","ELEV":"10","MANAGER":"MICHAEL WILLIAMSON","OBJECTID":111,"ARP_LONS":"338280.609W","id":"a65kjj81pqrz","ARP_LAT":"29-41-35.789N","ARP_LATS":"106895.789N","COUNTYNAME":"JEFFERSON"},"type":"Feature","geometry":{"type":"Point","coordinates":[-93.9667970722419,29.6932697014658]}},{"properties":{"CITY":"PASADENA","ARP_LON":"095-10-14.758W","ADDRESS1":"1000 N SOUTH ST","XY":"1530113.375,-424980.28125","OWNER":"ETHYL CORP","ADDRESS2":"PASADENA, TX 77503","FAC_NAME":"ETHYL CORP","HELID":157,"PHONE":"713-740-1121","RARNUM":"H1314","FAC_TYPE":"HELIPORT","STATE":"TX","ELEV":"9","MANAGER":"DUARD FRANKLIN","OBJECTID":112,"ARP_LONS":"342614.758W","id":"a65kjj1f3nqb","ARP_LAT":"29-44-27.820N","ARP_LATS":"107067.820N","COUNTYNAME":"HARRIS"},"type":"Feature","geometry":{"type":"Point","coordinates":[-95.1707992574781,29.7410602932072]}},{"properties":{"CITY":"HOUSTON","ARP_LON":"095-16-42.769W","ADDRESS1":"1714 BROADWAY","XY":"1496460,-437681.625","OWNER":"FIRST CITY, TEXAS-HOUSTON","ADDRESS2":"HOUSTON, TX 77012","FAC_NAME":"LEWIS ELECTRIC APPARATUS REPAIR INC","HELID":54,"PHONE":"","RARNUM":"H1211","FAC_TYPE":"HELIPORT","STATE":"TX","ELEV":"35","MANAGER":"TOM R. LEWIS","OBJECTID":113,"ARP_LONS":"343002.769W","id":"a65kjj89a0wr","ARP_LAT":"29-42-36.824N","ARP_LATS":"106956.824N","COUNTYNAME":"HARRIS"},"type":"Feature","geometry":{"type":"Point","coordinates":[-95.2786024023322,29.7102298999148]}},{"properties":{"CITY":"HOUSTON","ARP_LON":"095-16-26.768W","ADDRESS1":"8501 S. LOOP EAST","XY":"1497951.125,-439137.1875","OWNER":"AMER SHIP &amp; INDUS CLEANING CO","ADDRESS2":"HOUSTON, TX 77017","FAC_NAME":"MARINE CONSULTANTS INC","HELID":61,"PHONE":"713-921-8181","RARNUM":"H1218","FAC_TYPE":"HELIPORT","STATE":"TX","ELEV":"50","MANAGER":"RALEIGH ABNER","OBJECTID":114,"ARP_LONS":"342986.768W","id":"a65kjiw8i56u","ARP_LAT":"29-42-21.825N","ARP_LATS":"106941.825N","COUNTYNAME":"HARRIS"},"type":"Feature","geometry":{"type":"Point","coordinates":[-95.2741010412447,29.7060604017698]}},{"properties":{"CITY":"PASADENA","ARP_LON":"095-12-03.761W","ADDRESS1":"906 E SOUTHMORE AVE","XY":"1521368.875,-444095.28125","OWNER":"MEMORIAL HOSPITAL SYSTEM","ADDRESS2":"PASADENA, TX 77502","FAC_NAME":"MEMORIAL HOSPITAL","HELID":155,"PHONE":"713-477-0411","RARNUM":"H1312","FAC_TYPE":"HELIPORT","STATE":"TX","ELEV":"20","MANAGER":"DENNIS KNOX","OBJECTID":115,"ARP_LONS":"342723.761W","id":"a65kjj5hpppx","ARP_LAT":"29-41-22.824N","ARP_LATS":"106882.824N","COUNTYNAME":"HARRIS"},"type":"Feature","geometry":{"type":"Point","coordinates":[-95.2009962941317,29.689670557944]}},{"properties":{"CITY":"PASADENA","ARP_LON":"095-08-40.755W","ADDRESS1":"4533 PASADENA BLVD","XY":"1539302.875,-445534.25","OWNER":"DIAMOND INC","ADDRESS2":"PASADENA, TX 77503","FAC_NAME":"RED BARN","HELID":154,"PHONE":"713-479-3435","RARNUM":"H1311","FAC_TYPE":"HELIPORT","STATE":"TX","ELEV":"35","MANAGER":"JOHN PITTMAN","OBJECTID":116,"ARP_LONS":"342520.755W","id":"a65kjiyd8ibp","ARP_LAT":"29-41-00.824N","ARP_LATS":"106860.824N","COUNTYNAME":"HARRIS"},"type":"Feature","geometry":{"type":"Point","coordinates":[-95.1446989987757,29.6835594074918]}},{"properties":{"CITY":"PASADENA","ARP_LON":"095-06-43W","ADDRESS1":"8060 SPENCER HWY","XY":"1550089.375,-453945.4375","OWNER":"SAN JACINTO COLLEGE SYSTEM","ADDRESS2":"PASADENA, TX 77501","FAC_NAME":"SAN JACINTO COLLEGE CENTRAL CAMPUS","HELID":158,"PHONE":"713-476-1501","RARNUM":"H1315","FAC_TYPE":"HELIPORT","STATE":"TX","ELEV":"26","MANAGER":"LARRY D TUCKER","OBJECTID":117,"ARP_LONS":"342403W","id":"a65kjix29gd4","ARP_LAT":"29-39-33N","ARP_LATS":"106773N","COUNTYNAME":"HARRIS"},"type":"Feature","geometry":{"type":"Point","coordinates":[-95.1119004202862,29.6591701385679]}},{"properties":{"CITY":"HIGH ISLAND","ARP_LON":"094-12-25.658W","ADDRESS1":"P.O. BOX 1346","XY":"1837528,-454361.21875","OWNER":"VASTAR RESOURCES INC","ADDRESS2":"HOUSTON, TX 77251","FAC_NAME":"ARCO HIGH ISLAND","HELID":50,"PHONE":"713-584-3854","RARNUM":"H1207","FAC_TYPE":"HELIPORT","STATE":"TX","ELEV":"5","MANAGER":"DAVID PELTIER","OBJECTID":118,"ARP_LONS":"339145.658W","id":"a65kjiw8usxc","ARP_LAT":"29-37-10.810N","ARP_LATS":"106630.810N","COUNTYNAME":"JEFFERSON"},"type":"Feature","geometry":{"type":"Point","coordinates":[-94.2070999591423,29.6196708530408]}},{"properties":{"CITY":"PASADENA","ARP_LON":"095-12-06.761W","ADDRESS1":"","XY":"1521547.25,-454716.46875","OWNER":"","ADDRESS2":"","FAC_NAME":"3321 WESTSIDE","HELID":153,"PHONE":"713-944-5347","RARNUM":"H1310","FAC_TYPE":"HELIPORT","STATE":"TX","ELEV":"36","MANAGER":"J A STALLINGS","OBJECTID":119,"ARP_LONS":"342726.761W","id":"a65kjiz06aow","ARP_LAT":"29-39-37.827N","ARP_LATS":"106777.827N","COUNTYNAME":"HARRIS"},"type":"Feature","geometry":{"type":"Point","coordinates":[-95.2018966990732,29.6605091268874]}},{"properties":{"CITY":"HOUSTON","ARP_LON":"095-19-12.773W","ADDRESS1":"8300 MYKAWA","XY":"1484115.5,-457749.625","OWNER":"HOUSTON POLICE DEPARTMENT","ADDRESS2":"HOUSTON, TX 77048","FAC_NAME":"HOUSTON POLICE COMMAND STATION","HELID":119,"PHONE":"713-731-5212","RARNUM":"H1276","FAC_TYPE":"HELIPORT","STATE":"TX","ELEV":"40","MANAGER":"HOUSTON POLICE DEPARTMENT","OBJECTID":120,"ARP_LONS":"343152.773W","id":"a65kjj5z0l4r","ARP_LAT":"29-39-23.831N","ARP_LATS":"106763.831N","COUNTYNAME":"HARRIS"},"type":"Feature","geometry":{"type":"Point","coordinates":[-95.3201980075141,29.6566200390474]}},{"properties":{"CITY":"SOUTH HOUSTON","ARP_LON":"095-12-41.762W","ADDRESS1":"PO BOX 1700","XY":"1518762.75,-461522.3125","OWNER":"HL&amp;P","ADDRESS2":"HOUSTON, TX 77251","FAC_NAME":"HL&amp;P SOUTH HOUSTON HELISTOP","HELID":189,"PHONE":"713-623-7119","RARNUM":"H1346","FAC_TYPE":"HELIPORT","STATE":"TX","ELEV":"40","MANAGER":"R.L. MOORE/DIVISION MGR.","OBJECTID":121,"ARP_LONS":"342761.762W","id":"a65kjj2z7khs","ARP_LAT":"29-38-31.829N","ARP_LATS":"106711.829N","COUNTYNAME":"HARRIS"},"type":"Feature","geometry":{"type":"Point","coordinates":[-95.2116011696333,29.6421699274653]}},{"properties":{"CITY":"HOUSTON","ARP_LON":"095-17-12.770W","ADDRESS1":"9300 TELEPHONE RD","XY":"1495071.25,-466694.84375","OWNER":"ROWAN COMPANIES","ADDRESS2":"HOUSTON, TX 77027","FAC_NAME":"ROWAN","HELID":84,"PHONE":"713-991-6300","RARNUM":"H1241","FAC_TYPE":"HELIPORT","STATE":"TX","ELEV":"47","MANAGER":"WILLIAM D. SHIRLEY","OBJECTID":122,"ARP_LONS":"343032.770W","id":"a65kjj3xprrn","ARP_LAT":"29-37-50.833N","ARP_LATS":"106670.833N","COUNTYNAME":"HARRIS"},"type":"Feature","geometry":{"type":"Point","coordinates":[-95.2869032627837,29.6307907305202]}},{"properties":{"CITY":"SEABROOK","ARP_LON":"095-00-37.740W","ADDRESS1":"12212 PORT ROAD","XY":"1583019.125,-470000.40625","OWNER":"FINA OIL &amp; CHEMICAL COMPANY","ADDRESS2":"PASADENA, TX 77507","FAC_NAME":"FINA BAYPORT","HELID":188,"PHONE":"713-474-6000","RARNUM":"H1345","FAC_TYPE":"HELIPORT","STATE":"TX","ELEV":"16","MANAGER":"D BAILEY","OBJECTID":123,"ARP_LONS":"342037.740W","id":"a65kjja87suu","ARP_LAT":"29-36-39.823N","ARP_LATS":"106599.823N","COUNTYNAME":"HARRIS"},"type":"Feature","geometry":{"type":"Point","coordinates":[-95.0104978612996,29.611059164813]}},{"properties":{"CITY":"HOUSTON","ARP_LON":"095-05-27W","ADDRESS1":"MAIL CODE JD4","XY":"1558354,-488913.71875","OWNER":"NASA JOHNSON SPACE CENTER","ADDRESS2":"HOUSTON, TX 77058","FAC_NAME":"JOHNSON SPACE CENTER","HELID":106,"PHONE":"713-483-3196","RARNUM":"H1263","FAC_TYPE":"HELIPORT","STATE":"TX","ELEV":"17","MANAGER":"RONALD C. BAILEY","OBJECTID":124,"ARP_LONS":"342327W","id":"a65kjizqffyu","ARP_LAT":"29-33-44N","ARP_LATS":"106424N","COUNTYNAME":"HARRIS"},"type":"Feature","geometry":{"type":"Point","coordinates":[-95.0907974131188,29.5622196056279]}},{"properties":{"CITY":"PORT BOLIVAR","ARP_LON":"094-45-50.704W","ADDRESS1":"1001 FANNIN SUITE 1700","XY":"1664952.25,-546368.125","OWNER":"SEAGULL ENERGY","ADDRESS2":"HOUSTON, TX 77002","FAC_NAME":"HOUSTON OIL &amp; MINERALS PT BOLIVAR NR 2","HELID":170,"PHONE":"713-951-4700","RARNUM":"H1327","FAC_TYPE":"HELIPORT","STATE":"TX","ELEV":"8","MANAGER":"D G NASSER","OBJECTID":125,"ARP_LONS":"341150.704W","id":"a65kjixktnxh","ARP_LAT":"29-23-27.842N","ARP_LATS":"105807.842N","COUNTYNAME":"GALVESTON"},"type":"Feature","geometry":{"type":"Point","coordinates":[-94.764098993293,29.3910694904412]}},{"properties":{"CITY":"LAMARQUE/TEXAS CITY","ARP_LON":"094-59-06.731W","ADDRESS1":"PO BOX 2756","XY":"1594658.25,-548840.875","OWNER":"MAINLAND RGNL HEALTH CARE SYS","ADDRESS2":"TEXAS CITY, TX 77592-2756","FAC_NAME":"MAINLAND REGIONAL HEALTH CARE SYSTEM","HELID":143,"PHONE":"409-938-5000","RARNUM":"H1300","FAC_TYPE":"HELIPORT","STATE":"TX","ELEV":"16","MANAGER":"STEVE BROWN","OBJECTID":126,"ARP_LONS":"341946.731W","id":"a65kjjat0ju6","ARP_LAT":"29-23-35.840N","ARP_LATS":"105815.840N","COUNTYNAME":"GALVESTON"},"type":"Feature","geometry":{"type":"Point","coordinates":[-94.985198837642,29.3932895068741]}},{"properties":{"CITY":"PORT BOLIVAR","ARP_LON":"094-46-24.705W","ADDRESS1":"1001 FANNIN, SUITE 1700","XY":"1662100.25,-549339.6875","OWNER":"SEAGULL ENERGY","ADDRESS2":"HOUSTON, TX 77002","FAC_NAME":"HOUSTON OIL &amp; MINERALS PORT BOLIVAR","HELID":169,"PHONE":"713-951-4700","RARNUM":"H1326","FAC_TYPE":"HELIPORT","STATE":"TX","ELEV":"10","MANAGER":"DANNY NASSER","OBJECTID":127,"ARP_LONS":"341184.705W","id":"a65kjj5ysj8x","ARP_LAT":"29-22-59.843N","ARP_LATS":"105779.843N","COUNTYNAME":"GALVESTON"},"type":"Feature","geometry":{"type":"Point","coordinates":[-94.773498596542,29.3832893578606]}},{"properties":{"CITY":"GALVESTON","ARP_LON":"094-44-01W","ADDRESS1":"1401 EAST BEACH BLVD","XY":"1676534.75,-567884.6875","OWNER":"GALVESTONIAN CONDOMINIUM","ADDRESS2":"GALVESTON, TX 77550","FAC_NAME":"GALVESTONIAN CONDOMINIUM","HELID":47,"PHONE":"409-765-6161","RARNUM":"H1204","FAC_TYPE":"HELIPORT","STATE":"TX","ELEV":"14","MANAGER":"JAMES C.HENDERSON, DIR.","OBJECTID":128,"ARP_LONS":"341041W","id":"a65kjixkso21","ARP_LAT":"29-20-01N","ARP_LATS":"105601N","COUNTYNAME":"GALVESTON"},"type":"Feature","geometry":{"type":"Point","coordinates":[-94.730973120031,29.3305137643828]}},{"properties":{"CITY":"HITCHCOCK","ARP_LON":"095-01-35.733W","ADDRESS1":"PO BOX 830","XY":"1582484.875,-571158.125","OWNER":"HOUSTON HELICOPTERS INC","ADDRESS2":"PEARLAND, TX 77581","FAC_NAME":"HHI HITCHCOCK","HELID":51,"PHONE":"713-485-1777","RARNUM":"H1208","FAC_TYPE":"HELIPORT","STATE":"TX","ELEV":"10","MANAGER":"FELTON M BAKER","OBJECTID":129,"ARP_LONS":"342095.733W","id":"a65kjj4dopqj","ARP_LAT":"29-20-00.847N","ARP_LATS":"105600.847N","COUNTYNAME":"GALVESTON"},"type":"Feature","geometry":{"type":"Point","coordinates":[-95.0266035240192,29.333570430076]}},{"properties":{"CITY":"GALVESTON","ARP_LON":"094-46-58.704W","ADDRESS1":"P.O. BOX 1018","XY":"1660118.75,-571301.5625","OWNER":"GRASSO MARINE SVCS","ADDRESS2":"GALVESTON, TX 77553","FAC_NAME":"DRESSER INDUSTRIES/MAGCOBAR/","HELID":44,"PHONE":"713-488-7161","RARNUM":"H1201","FAC_TYPE":"HELIPORT","STATE":"TX","ELEV":"10","MANAGER":"DONNY GRASSO","OBJECTID":130,"ARP_LONS":"341218.704W","id":"a65kjixlqfww","ARP_LAT":"29-19-23.850N","ARP_LATS":"105563.850N","COUNTYNAME":"GALVESTON"},"type":"Feature","geometry":{"type":"Point","coordinates":[-94.7829971087888,29.3232897954399]}},{"properties":{"CITY":"GALVESTON","ARP_LON":"094-47-12.704W","ADDRESS1":"P.O. BOX 61933","XY":"1658886.125,-571560.3125","OWNER":"SHELL OFFSHORE INC","ADDRESS2":"NEW ORLEANS, LA 70161","FAC_NAME":"SHELL PELICAN ISLAND","HELID":43,"PHONE":"504-588-4591","RARNUM":"H1200","FAC_TYPE":"HELIPORT","STATE":"TX","ELEV":"10","MANAGER":"J E WHITMAN","OBJECTID":131,"ARP_LONS":"341232.704W","id":"a65kjiwwxc7f","ARP_LAT":"29-19-21.850N","ARP_LATS":"105561.850N","COUNTYNAME":"GALVESTON"},"type":"Feature","geometry":{"type":"Point","coordinates":[-94.7869034076865,29.3227404972842]}},{"properties":{"CITY":"GALVESTON","ARP_LON":"094-51-52.710W","ADDRESS1":"107 POPPY AVE","XY":"1635483.875,-600604.5","OWNER":"SOUTHERN BELL HELICOPTERS","ADDRESS2":"FORT WALTON BEACH, FL 32541","FAC_NAME":"TOURIST RIDE SERVICES","HELID":45,"PHONE":"","RARNUM":"H1202","FAC_TYPE":"HELIPORT","STATE":"TX","ELEV":"18","MANAGER":"","OBJECTID":132,"ARP_LONS":"341512.710W","id":"a65kjj8qmzyi","ARP_LAT":"29-14-45.857N","ARP_LATS":"105285.857N","COUNTYNAME":"GALVESTON"},"type":"Feature","geometry":{"type":"Point","coordinates":[-94.864601122575,29.2460707901383]}},{"properties":{"CITY":"ALVIN","ARP_LON":"095-11-24.750W","ADDRESS1":"PO BOX 1488","XY":"1532092.375,-610651.6875","OWNER":"AMOCO CHEMICAL COMPANY","ADDRESS2":"ALVIN, TX 77511-1488","FAC_NAME":"AMOCO","HELID":4,"PHONE":"713-581-3100","RARNUM":"H1163","FAC_TYPE":"HELIPORT","STATE":"TX","ELEV":"13","MANAGER":"BRIAN DINSMOOR","OBJECTID":133,"ARP_LONS":"342684.750W","id":"a65kjj0922fw","ARP_LAT":"29-13-52.862N","ARP_LATS":"105232.862N","COUNTYNAME":"BRAZORIA"},"type":"Feature","geometry":{"type":"Point","coordinates":[-95.1902006840957,29.2313499020653]}},{"properties":{"CITY":"FREEPORT","ARP_LON":"095-19-02.775W","ADDRESS1":"11 GREENWAY PLAZA, SUITE 1606","XY":"1495546.5,-704928.0625","OWNER":"IVORY PRODUCTION CO.","ADDRESS2":"HOUSTON, TX 77046","FAC_NAME":"BUCCANEER SHORE FACILITY","HELID":40,"PHONE":"409-233-8547","RARNUM":"H1197","FAC_TYPE":"HELIPORT","STATE":"TX","ELEV":"5","MANAGER":"ALVIN CHILDS","OBJECTID":134,"ARP_LONS":"343142.775W","id":"a65kjj2j7v8q","ARP_LAT":"28-58-36.888N","ARP_LATS":"104316.888N","COUNTYNAME":"BRAZORIA"},"type":"Feature","geometry":{"type":"Point","coordinates":[-95.3173981710415,28.9769096222579]}},{"properties":{"CITY":"FREEPORT","ARP_LON":"095-20-30.781W","ADDRESS1":"P.O. BOX 42842","XY":"1488542.875,-724549.375","OWNER":"M-I DRILLING FLUIDS COMPANY","ADDRESS2":"HOUSTON, TX 77242","FAC_NAME":"M-I DRILLING FLUIDS COMPANY","HELID":39,"PHONE":"409-233-6542","RARNUM":"H1196","FAC_TYPE":"HELIPORT","STATE":"TX","ELEV":"5","MANAGER":"HAYNE ECKHOFF","OBJECTID":135,"ARP_LONS":"343230.781W","id":"a65kjjag6l1d","ARP_LAT":"28-55-25.895N","ARP_LATS":"104125.895N","COUNTYNAME":"BRAZORIA"},"type":"Feature","geometry":{"type":"Point","coordinates":[-95.3419036672925,28.9238605881103]}},{"properties":{"CITY":"FREEPORT","ARP_LON":"","ADDRESS1":"PO BOX 5-C","XY":"1480278.875,-669756.875","OWNER":"AIR LOGISTICS","ADDRESS2":"LAFAYETTE, LA 70505","FAC_NAME":"AIR LOGISTICS - FREEPORT","HELID":0,"PHONE":"318-233-1221","RARNUM":"H1305","FAC_TYPE":"HELIPORT","STATE":"TX","ELEV":"101","MANAGER":"NEILL OSBORNE","OBJECTID":136,"ARP_LONS":"","id":"a65kjj470c20","ARP_LAT":"","ARP_LATS":"","COUNTYNAME":"BRAZORIA"},"type":"Feature","geometry":{"type":"Point","coordinates":[-95.3604966620054,29.0752391725873]}},{"properties":{"CITY":"PASADENA","ARP_LON":"095-11-45.760W","ADDRESS1":"","XY":"1523088.837374,-443494.3172597","OWNER":"CITY OF PASADENA","ADDRESS2":"","FAC_NAME":"POLICE","HELID":152,"PHONE":"713-477-1221","RARNUM":"H1309","FAC_TYPE":"HELIPORT","STATE":"TX","ELEV":"55","MANAGER":"LT P.D. COBB","OBJECTID":137,"ARP_LONS":"342705.760W","id":"a65kjiuumi73","ARP_LAT":"29-41-31.824N","ARP_LATS":"106891.824N","COUNTYNAME":"HARRIS"},"type":"Feature","geometry":{"type":"Point","coordinates":[-95.19549494589,29.6911129571813]}},{"properties":{"CITY":"HOUSTON","ARP_LON":"095-16-20.768W","ADDRESS1":"8217 BRANIFF","XY":"1500160.300755,-465021.0359611","OWNER":"DUDLEY TARLTON","ADDRESS2":"HOUSTON, TX 77061","FAC_NAME":"DUDLEYS","HELID":88,"PHONE":"713-871-8010","RARNUM":"H1245","FAC_TYPE":"HELIPORT","STATE":"TX","ELEV":"48","MANAGER":"DUDLEY TARLTON","OBJECTID":138,"ARP_LONS":"342980.768W","id":"a65kjizxjn3d","ARP_LAT":"29-38-04.832N","ARP_LATS":"106684.832N","COUNTYNAME":"HARRIS"},"type":"Feature","geometry":{"type":"Point","coordinates":[-95.2706531928311,29.6347828227544]}},{"properties":{"CITY":"HOUSTON","ARP_LON":"095-15-24.766W","ADDRESS1":"P0 BOX 446","XY":"1502840.644657,-430808.5747449","OWNER":"USCG","ADDRESS2":"GALENA PARK, TX 77547","FAC_NAME":"USCG PORT SAFETY STATION","HELID":78,"PHONE":"713-672-6639","RARNUM":"H1235","FAC_TYPE":"HELIPORT","STATE":"TX","ELEV":"28","MANAGER":"CAPT WAGGETT","OBJECTID":139,"ARP_LONS":"342924.766W","id":"a65kjizgr0zf","ARP_LAT":"29-43-42.822N","ARP_LATS":"107022.822N","COUNTYNAME":"HARRIS"},"type":"Feature","geometry":{"type":"Point","coordinates":[-95.2575605994017,29.728332076712]}},{"properties":{"CITY":"PORT O'CONNOR","ARP_LON":"096-29-30.912W","ADDRESS1":"RT 2 BOX 19B","XY":"1126471.25,-903357.6875","OWNER":"EVERGREEN HELICOPTERS, INC.","ADDRESS2":"GALVESTON, TX 77551","FAC_NAME":"PORT O'CONNOR BASE (EHI)","HELID":175,"PHONE":"713-740-0231","RARNUM":"H1332","FAC_TYPE":"HELIPORT","STATE":"TX","ELEV":"6","MANAGER":"MICHAEL WILLIAMSON","OBJECTID":140,"ARP_LONS":"347370.912W","id":"a65kjja8el0s","ARP_LAT":"28-28-11.005N","ARP_LATS":"102491.005N","COUNTYNAME":"CALHOUN"},"type":"Feature","geometry":{"type":"Point","coordinates":[-96.4918976386838,28.4697207780095]}},{"properties":{"CITY":"PORT O'CONNOR","ARP_LON":"096-25-30.907W","ADDRESS1":"211 BUYERS RD","XY":"1148170.625,-912564.9375","OWNER":"HOUSTON HELICOPTERS INC","ADDRESS2":"PORT O'CONNOR, TX 77952","FAC_NAME":"","HELID":174,"PHONE":"512-983-2738","RARNUM":"H1331","FAC_TYPE":"HELIPORT","STATE":"TX","ELEV":"7","MANAGER":"F.M. BAKER","OBJECTID":141,"ARP_LONS":"347130.907W","id":"a65kjiw9kd9t","ARP_LAT":"28-26-33.007N","ARP_LATS":"102393.007N","COUNTYNAME":"CALHOUN"},"type":"Feature","geometry":{"type":"Point","coordinates":[-96.4253004677775,28.4424992098474]}},{"properties":{"CITY":"PORT O'CONNOR","ARP_LON":"096-26-05.908W","ADDRESS1":"P.O. BOX 430","XY":"1145089.875,-913676.5","OWNER":"PETROLEUM HELICOPTERS, INC","ADDRESS2":"FULTON, TX 78358","FAC_NAME":"PHI","HELID":176,"PHONE":"512-729-1559","RARNUM":"H1333","FAC_TYPE":"HELIPORT","STATE":"TX","ELEV":"4","MANAGER":"KEN TOWNSEND","OBJECTID":142,"ARP_LONS":"347165.908W","id":"a65kjj5vouuz","ARP_LAT":"28-26-23.007N","ARP_LATS":"102383.007N","COUNTYNAME":"CALHOUN"},"type":"Feature","geometry":{"type":"Point","coordinates":[-96.4349975568643,28.4397200873685]}},{"properties":{"CITY":"ARANSAS PASS","ARP_LON":"097-09-32.963W","ADDRESS1":"1711 W. WHEELER","XY":"917480.3125,-1111799","OWNER":"COASTAL BEND HOSPITAL","ADDRESS2":"ARANSAS PASS, TX 78336","FAC_NAME":"COASTAL BEND HOSPITAL","HELID":7,"PHONE":"512-758-8585","RARNUM":"H1166","FAC_TYPE":"HELIPORT","STATE":"TX","ELEV":"9","MANAGER":"SHIRLEY I GALLAGHER,CEO","OBJECTID":143,"ARP_LONS":"345703.852W","id":"a65kjiw3g2wl","ARP_LAT":"27-54-48.083N","ARP_LATS":"100488.083N","COUNTYNAME":"SAN PATRICIO"},"type":"Feature","geometry":{"type":"Point","coordinates":[-97.1592025529885,27.9133607641779]}},{"properties":{"CITY":"INGLESIDE","ARP_LON":"097-11-55.964W","ADDRESS1":"P.O. BOX 354","XY":"905146.6875,-1131105.375","OWNER":"JAMES E. TALLEY","ADDRESS2":"INGLESIDE, TX 78362","FAC_NAME":"OAK RIDGE","HELID":137,"PHONE":"512-776-2753","RARNUM":"H1294","FAC_TYPE":"HELIPORT","STATE":"TX","ELEV":"20","MANAGER":"STEVE TALLEY","OBJECTID":144,"ARP_LONS":"349915.964W","id":"a65kjjb34itg","ARP_LAT":"27-51-40.092N","ARP_LATS":"100300.092N","COUNTYNAME":"SAN PATRICIO"},"type":"Feature","geometry":{"type":"Point","coordinates":[-97.198898399441,27.8611394794285]}},{"properties":{"CITY":"INGLESIDE","ARP_LON":"097-12-12.964W","ADDRESS1":"","XY":"903867.4375,-1140533.5","OWNER":"NAVAL STATION INGLESIDE","ADDRESS2":"INGLESIDE, TX 78362-5001","FAC_NAME":"NAVSTA INGLESIDE","HELID":139,"PHONE":"512-776-4549","RARNUM":"H1296","FAC_TYPE":"HELIPORT","STATE":"TX","ELEV":"26","MANAGER":"COMMANDING OFFICER","OBJECTID":145,"ARP_LONS":"349932.964W","id":"a65kjj30fx26","ARP_LAT":"27-50-07.096N","ARP_LATS":"100207.096N","COUNTYNAME":"SAN PATRICIO"},"type":"Feature","geometry":{"type":"Point","coordinates":[-97.2035980164234,27.8353004574614]}},{"properties":{"CITY":"CORPUS CHRISTI","ARP_LON":"097-32-24.978W","ADDRESS1":"9154 UPRIVER ROAD","XY":"795074.875,-1143943.75","OWNER":"VALLEY PIPE LINE","ADDRESS2":"CORPUS CHRISTI, TX 78410","FAC_NAME":"HPL","HELID":26,"PHONE":"512-241-2811","RARNUM":"H1185","FAC_TYPE":"HELIPORT","STATE":"TX","ELEV":"60","MANAGER":"EMIL THOMAS","OBJECTID":146,"ARP_LONS":"351144.978W","id":"a65kjixlg2gt","ARP_LAT":"27-49-59.087N","ARP_LATS":"100199.087N","COUNTYNAME":"NUECES"},"type":"Feature","geometry":{"type":"Point","coordinates":[-97.5402984544974,27.8330803499188]}},{"properties":{"CITY":"CORPUS CHRISTI","ARP_LON":"097-24-50.972W","ADDRESS1":"PO BOX 5280","XY":"836283.9375,-1162386.75","OWNER":"MEMORIAL MEDICAL CENTER","ADDRESS2":"CORPUS CHRISTI, TX 78405","FAC_NAME":"CHRISTUS SPOHN HOSPITAL MEMORIAL","HELID":29,"PHONE":"512-902-4910","RARNUM":"H1188","FAC_TYPE":"HELIPORT","STATE":"TX","ELEV":"38","MANAGER":"J WESTLEY","OBJECTID":147,"ARP_LONS":"350690.972W","id":"a65kjixqd19d","ARP_LAT":"27-46-47.100N","ARP_LATS":"100007.100N","COUNTYNAME":"NUECES"},"type":"Feature","geometry":{"type":"Point","coordinates":[-97.4141997945879,27.7797506698168]}},{"properties":{"CITY":"CORPUS CHRISTI","ARP_LON":"097-23-04.970W","ADDRESS1":"3533 S. ALAMEDA","XY":"846092.9375,-1173465.25","OWNER":"DRISCOLL FOUNDATION CHIL HOS","ADDRESS2":"CORPUS CHRISTI, TX 78411","FAC_NAME":"D.F.C.H.","HELID":28,"PHONE":"512-850-5030","RARNUM":"H1187","FAC_TYPE":"HELIPORT","STATE":"TX","ELEV":"31","MANAGER":"GARLAND ALLEN","OBJECTID":148,"ARP_LONS":"350584.970W","id":"a65kjj2kwu9x","ARP_LAT":"27-44-55.107N","ARP_LATS":"99895.107N","COUNTYNAME":"NUECES"},"type":"Feature","geometry":{"type":"Point","coordinates":[-97.3846969538764,27.7486400025735]}},{"properties":{"CITY":"CORPUS CHRISTI","ARP_LON":"097-26-05.972W","ADDRESS1":"BOX 4087","XY":"829886.5,-1176574","OWNER":"TEXAS DEPT OF PUBLIC SAFETY","ADDRESS2":"AUSTIN, TX 78773","FAC_NAME":"TEXAS DEPT. OF PUBLIC SAFETY","HELID":27,"PHONE":"512-854-2681","RARNUM":"H1186","FAC_TYPE":"HELIPORT","STATE":"TX","ELEV":"37","MANAGER":"ALFRED E. MATOCHA","OBJECTID":149,"ARP_LONS":"350765.972W","id":"a65kjj0hvow5","ARP_LAT":"27-44-28.106N","ARP_LATS":"99868.106N","COUNTYNAME":"NUECES"},"type":"Feature","geometry":{"type":"Point","coordinates":[-97.4349975435846,27.7411402298834]}},{"properties":{"CITY":"PORT ARANSAS","ARP_LON":"097-10-22.959W","ADDRESS1":"1980 POST OAK BLVD STE 1330","XY":"914873.375,-1183675.125","OWNER":"LONE PINE PRODUCTION ASS INC","ADDRESS2":"HOUSTON, TX 77042","FAC_NAME":"MUSTANG ISLAND","HELID":165,"PHONE":"405-226-6700","RARNUM":"H1322","FAC_TYPE":"HELIPORT","STATE":"TX","ELEV":"10","MANAGER":"ALI SABERIOON","OBJECTID":150,"ARP_LONS":"349822.959W","id":"a65kjiza1lbi","ARP_LAT":"27-42-57.117N","ARP_LATS":"99777.117N","COUNTYNAME":"NUECES"},"type":"Feature","geometry":{"type":"Point","coordinates":[-97.1729964307139,27.7158699698351]}},{"properties":{"CITY":"SOUTH PADRE ISLAND","ARP_LON":"097-10-25.899W","ADDRESS1":"RT 3 BOX 27","XY":"929232.375,-1753059.5","OWNER":"THOMAS W WHITEHEAD","ADDRESS2":"LOS FRESNOS, TX","FAC_NAME":"SOUTHEASTERN HELICOPTERS","HELID":190,"PHONE":"512-943-5350","RARNUM":"H1347","FAC_TYPE":"HELIPORT","STATE":"TX","ELEV":"5","MANAGER":"THOMAS W WHITEHEAD","OBJECTID":151,"ARP_LONS":"349825.899W","id":"a65kjj48k8wu","ARP_LAT":"26-08-49.276N","ARP_LATS":"94129.276N","COUNTYNAME":"CAMERON"},"type":"Feature","geometry":{"type":"Point","coordinates":[-97.1738967050744,26.1470201858549]}},{"properties":{"CITY":"INGLESIDE","ARP_LON":"097-13-22.965W","ADDRESS1":"P.O. DRAWER K","XY":"897329.875,-1135869.25","OWNER":"VASTAR RESOURCES INC","ADDRESS2":"INGLESIDE, TX 78362","FAC_NAME":"ARCO INGLESIDE SHOREBASE","HELID":136,"PHONE":"512-289-4639","RARNUM":"H1293","FAC_TYPE":"HELIPORT","STATE":"TX","ELEV":"20","MANAGER":"DEE COCHRAN","OBJECTID":152,"ARP_LONS":"350002.965W","id":"a65kjiylioz5","ARP_LAT":"27-50-52.094N","ARP_LATS":"100252.094N","COUNTYNAME":"SAN PATRICIO"},"type":"Feature","geometry":{"type":"Point","coordinates":[-97.2234507392831,27.8485840486767]}},{"properties":{"CITY":"PALACIOS","ARP_LON":"096-12-50.880W","ADDRESS1":"310 GREEN STREET","XY":"1212787,-810847.875","OWNER":"MATAGORDA COUNTY HOSP DIST","ADDRESS2":"PALACIOS, TX 77465","FAC_NAME":"WAGNER","HELID":151,"PHONE":"512-972-2511","RARNUM":"H1308","FAC_TYPE":"HELIPORT","STATE":"TX","ELEV":"18","MANAGER":"HELEN DOLEZAL","OBJECTID":153,"ARP_LONS":"346370.880W","id":"a65kjiw0dzy5","ARP_LAT":"28-42-58.964N","ARP_LATS":"103378.964N","COUNTYNAME":"MATAGORDA"},"type":"Feature","geometry":{"type":"Point","coordinates":[-96.2133681672393,28.715992183875]}},{"properties":{"CITY":"PORT O'CONNOR","ARP_LON":"096-25-10.907W","ADDRESS1":"3921 INDUSTRIAL DR","XY":"1149870.25,-913411.625","OWNER":"AIR LOGISTICS","ADDRESS2":"NEW IBERIA, LA 70560","FAC_NAME":"AIR LOGISTICS","HELID":177,"PHONE":"318-365-6771","RARNUM":"H1334","FAC_TYPE":"HELIPORT","STATE":"TX","ELEV":"5","MANAGER":"NEILL OSBORNE","OBJECTID":154,"ARP_LONS":"347110.907W","id":"a65kjiur135l","ARP_LAT":"28-26-23.007N","ARP_LATS":"102383.007N","COUNTYNAME":"CALHOUN"},"type":"Feature","geometry":{"type":"Point","coordinates":[-96.420098514268,28.4400206314005]}},{"properties":{"CITY":"INGLESIDE","ARP_LON":"097-13-25.965W","ADDRESS1":"PO BOX 507","XY":"896584.25,-1137566.375","OWNER":"BRASWELL SERVICES GROUP INC","ADDRESS2":"INGLESIDE, TX 78362","FAC_NAME":"JBH AEROSPACE","HELID":138,"PHONE":"512-776-0637","RARNUM":"H1295","FAC_TYPE":"HELIPORT","STATE":"TX","ELEV":"15","MANAGER":"EDWARD HOOD","OBJECTID":155,"ARP_LONS":"350005.965W","id":"a65kjj461ytk","ARP_LAT":"27-50-41.095N","ARP_LATS":"100241.095N","COUNTYNAME":"SAN PATRICIO"},"type":"Feature","geometry":{"type":"Point","coordinates":[-97.2258894968369,27.8439685220468]}},{"properties":{"CITY":"TEXAS CITY","ARP_LON":"","ADDRESS1":"TDCJ, PO BOX 99","XY":"1595792.957726,-536718.3323235","OWNER":"TDCJ","ADDRESS2":"HUNTSVILLE, TX 77342","FAC_NAME":"TDCJ/SOUTHERN REGIONAL MEDICAL FACILITY","HELID":0,"PHONE":"409-294-2169","RARNUM":"H1180","FAC_TYPE":"HELIPORT","STATE":"TX","ELEV":"10","MANAGER":"GARY JOHNSON","OBJECTID":156,"ARP_LONS":"","id":"a65kjj77hw4z","ARP_LAT":"","ARP_LATS":"","COUNTYNAME":"GALVESTON"},"type":"Feature","geometry":{"type":"Point","coordinates":[-94.9798946376948,29.4264099467527]}},{"properties":{"CITY":"HOUSTON","ARP_LON":"","ADDRESS1":"1400 POST OAK BLUE #1010","XY":"1581838.951403,-493480.5654337","OWNER":"LANDRYS RESTAURANTS INC","ADDRESS2":"HOUSTON, TX 77056","FAC_NAME":"KEMAH WATERFRONT","HELID":0,"PHONE":"713-645-9191","RARNUM":"H1162","FAC_TYPE":"HELIPORT","STATE":"TX","ELEV":"5","MANAGER":"JIM ELTON","OBJECTID":157,"ARP_LONS":"","id":"a65kjivt6kxl","ARP_LAT":"","ARP_LATS":"","COUNTYNAME":"HARRIS"},"type":"Feature","geometry":{"type":"Point","coordinates":[-95.0175666810173,29.5467869718976]}},{"properties":{"CITY":"GALVESTON","ARP_LON":"094-46-35.703W","ADDRESS1":"301 UNIVERSITY BLVD","XY":"1661891.485236,-575225.9970395","OWNER":"UNIV OF TEXAS MEDICAL BRANCH","ADDRESS2":"GALVESTON, TX 77555-1073","FAC_NAME":"UNIV OF TEXAS MEDICAL BRANCH","HELID":42,"PHONE":"409-772-4355","RARNUM":"H1199","FAC_TYPE":"HELIPORT","STATE":"TX","ELEV":"16","MANAGER":"UTMB LIFE FLIGHT","OBJECTID":158,"ARP_LONS":"341195.703W","id":"a65kjj0v3wex","ARP_LAT":"29-18-46.851N","ARP_LATS":"105526.851N","COUNTYNAME":"GALVESTON"},"type":"Feature","geometry":{"type":"Point","coordinates":[-94.7780203659593,29.3122904977715]}},{"properties":{"CITY":"GALVESTON","ARP_LON":"","ADDRESS1":"5222 SEAWALL BLVD","XY":"1649906.199329,-589950.8700663","OWNER":"SAN LUIS RESORT","ADDRESS2":"GALVESTON, TX 77551","FAC_NAME":"SAN LUIS RESORT","HELID":0,"PHONE":"","RARNUM":"H1194","FAC_TYPE":"HELIPORT","STATE":"TX","ELEV":"10","MANAGER":"PAUL SCHULTZ","OBJECTID":159,"ARP_LONS":"","id":"a65kjj2afhx1","ARP_LAT":"","ARP_LATS":"","COUNTYNAME":"GALVESTON"},"type":"Feature","geometry":{"type":"Point","coordinates":[-94.8178052526138,29.2734450769591]}},{"properties":{"CITY":"BEAUMONT","ARP_LON":"094-08-01.6500","ADDRESS1":"525 I.H. 10","XY":"1851886.823381,-288095.5809229","OWNER":"TEXAS TELECASTING INC.","ADDRESS2":"BEAUMONT, TX 77704","FAC_NAME":"KBMT-TV","HELID":0,"PHONE":"409-833-7512","RARNUM":"H1318","FAC_TYPE":"HELIPORT","STATE":"TX","ELEV":"32","MANAGER":"","OBJECTID":160,"ARP_LONS":"338881.6500","id":"a65kjj79ihi0","ARP_LAT":"30-04-23.7670N","ARP_LATS":"108263.7670","COUNTYNAME":"JEFFERSON"},"type":"Feature","geometry":{"type":"Point","coordinates":[-94.133956759744,30.073482798755]}},{"properties":{"CITY":"BEAUMONT","ARP_LON":"094-07-32.6490","ADDRESS1":"PO DRAWER 1591","XY":"1854568.496885,-289693.7503756","OWNER":"BAPTIST HOSPITAL OF SE TEXAS","ADDRESS2":"BEAUMONT, TX 77704","FAC_NAME":"BAPTIST HOSPITAL OF SE TEXAS","HELID":0,"PHONE":"","RARNUM":"H1319","FAC_TYPE":"HELIPORT","STATE":"TX","ELEV":"20","MANAGER":"DAVID N. PARMER","OBJECTID":161,"ARP_LONS":"338852.6490","id":"a65kjizu975e","ARP_LAT":"30-04-06.7660N","ARP_LATS":"108246.7660","COUNTYNAME":"JEFFERSON"},"type":"Feature","geometry":{"type":"Point","coordinates":[-94.1257488503572,30.0687080988244]}},{"properties":{"CITY":"FREEPORT","ARP_LON":"","ADDRESS1":"15 ALEXANDER CT","XY":"1483254.894677,-715331.4118997","OWNER":"PAULA FOLLETT","ADDRESS2":"ANGLETON, TX 77515","FAC_NAME":"GO HELITRANS","HELID":0,"PHONE":"281-431-0531","RARNUM":"H1205","FAC_TYPE":"HELIPORT","STATE":"TX","ELEV":"14","MANAGER":"RANDALL K. VACEK","OBJECTID":162,"ARP_LONS":"","id":"a65kjj8rnlx2","ARP_LAT":"","ARP_LATS":"","COUNTYNAME":"BRAZORIA"},"type":"Feature","geometry":{"type":"Point","coordinates":[-95.3572132972881,28.9497823034891]}},{"properties":{"CITY":"FREEPORT","ARP_LON":"095-17-26W","ADDRESS1":"PO DRAWER O","XY":"1504117.793298,-707991.3222815","OWNER":"HERCULES MARINE SERVICES CORP","ADDRESS2":"FREEPORT, TX 77541","FAC_NAME":"HERCULES MARINE SERVICES CORP","HELID":38,"PHONE":"409-233-6371","RARNUM":"H1195","FAC_TYPE":"HELIPORT","STATE":"TX","ELEV":"4","MANAGER":"","OBJECTID":163,"ARP_LONS":"343046W","id":"a65kjj964fhx","ARP_LAT":"28-57-59N","ARP_LATS":"104279N","COUNTYNAME":"BRAZORIA"},"type":"Feature","geometry":{"type":"Point","coordinates":[-95.2910047981774,28.9674938589138]}},{"properties":{"CITY":"PORT O'CONNOR","ARP_LON":"096-26-54.0000","ADDRESS1":"PO BOX 90210","XY":"1141394.540348,-912242.1396738","OWNER":"J. ORAN RICHARD","ADDRESS2":"LAFAYETTE, LA 70509","FAC_NAME":"INDUSTRIAL HELICOPTERS INC","HELID":0,"PHONE":"318-233-3356","RARNUM":"H1223","FAC_TYPE":"HELIPORT","STATE":"TX","ELEV":"10","MANAGER":"J. ORAN RICHARD","OBJECTID":164,"ARP_LONS":"347214.0000","id":"a65kjj422e6r","ARP_LAT":"28-26-42.0000N","ARP_LATS":"102402.0000","COUNTYNAME":"CALHOUN"},"type":"Feature","geometry":{"type":"Point","coordinates":[-96.4463498352078,28.4439904436206]}},{"properties":{"CITY":"OLIVIA","ARP_LON":"","ADDRESS1":"RR 3 BOX 74A","XY":"1150265.555698,-812972.6440418","OWNER":"DIANNA STANGER","ADDRESS2":"PORT LAVACA, TX 77979","FAC_NAME":"WOLF POINT","HELID":0,"PHONE":"512-893-5115","RARNUM":"H1316","FAC_TYPE":"HELIPORT","STATE":"TX","ELEV":"14","MANAGER":"DIANNA STANGER","OBJECTID":165,"ARP_LONS":"","id":"a65kjiyk3p1o","ARP_LAT":"","ARP_LATS":"","COUNTYNAME":"CALHOUN"},"type":"Feature","geometry":{"type":"Point","coordinates":[-96.4086501247559,28.7159246771596]}},{"properties":{"CITY":"PORT ISABEL","ARP_LON":"097-09-48.897W","ADDRESS1":"501 MAGAZINE ST.","XY":"933382.6390275,-1780077.707425","OWNER":"U S COAST GUARD (AOSR)","ADDRESS2":"NEW ORLEANS, LA 70130","FAC_NAME":"U S COAST GUARD STATION","HELID":171,"PHONE":"210-761-2668","RARNUM":"H1328","FAC_TYPE":"HELIPORT","STATE":"TX","ELEV":"4","MANAGER":"OFFICER-IN-CHARGE","OBJECTID":166,"ARP_LONS":"349788.897W","id":"a65kjj1ppqjd","ARP_LAT":"26-04-20.281N","ARP_LATS":"93860.281N","COUNTYNAME":"CAMERON"},"type":"Feature","geometry":{"type":"Point","coordinates":[-97.1634012322784,26.0722356663694]}},{"properties":{"CITY":"PORT LAVACA","ARP_LON":"096-41-00.926W","ADDRESS1":"15415 KATY FWY, SUITE 100","XY":"1063292.5,-849155.3092251","OWNER":"CHANNEL INDUSTRIES GAS","ADDRESS2":"HOUSTON, TX 77094","FAC_NAME":"CIG 806","HELID":172,"PHONE":"713-578-4813","RARNUM":"H1329","FAC_TYPE":"HELIPORT","STATE":"TX","ELEV":"25","MANAGER":"W.C. BYERLY","OBJECTID":167,"ARP_LONS":"348060.926W","id":"a65kjj7jlcxl","ARP_LAT":"28-37-29.987N","ARP_LATS":"103049.987N","COUNTYNAME":"CALHOUN"},"type":"Feature","geometry":{"type":"Point","coordinates":[-96.6834342175939,28.6240385255697]}},{"properties":{"CITY":"HOUSTON","ARP_LON":"095-16-26.768W","ADDRESS1":"8402 LARSON","XY":"1498851.5,-460056.1875","OWNER":"HOUSTON POLICE HEL PATROL DIV","ADDRESS2":"HOUSTON, TX 77061","FAC_NAME":"POLICE HELICOPTER PATROL","HELID":77,"PHONE":"713-641-0281","RARNUM":"H1234","FAC_TYPE":"HELIPORT","STATE":"TX","ELEV":"62","MANAGER":"J.M. KING","OBJECTID":168,"ARP_LONS":"342986.768W","id":"a65kjj2bssh3","ARP_LAT":"29-38-54.830N","ARP_LATS":"106734.830N","COUNTYNAME":"HARRIS"},"type":"Feature","geometry":{"type":"Point","coordinates":[-95.2741012779519,29.6485596086736]}},{"properties":{"CITY":"SMITH POINT","ARP_LON":"094-45-57.7080","ADDRESS1":"1001 FANNIN SUITE 1700","XY":"1661930.797018,-496208.4580485","OWNER":"HOUSTON OIL &amp; MINERALS","ADDRESS2":"HOUSTON, TX 77002","FAC_NAME":"HOUSTON OIL &amp; MINERALS SMITH PT","HELID":0,"PHONE":"713-583-3072","RARNUM":"H1180","FAC_TYPE":"HELIPORT","STATE":"TX","ELEV":"9","MANAGER":"D.G. NASSER","OBJECTID":169,"ARP_LONS":"341157.7080","id":"a65kjj4vpp1k","ARP_LAT":"29-31-43.8270N","ARP_LATS":"106303.8270","COUNTYNAME":"CHAMBERS"},"type":"Feature","geometry":{"type":"Point","coordinates":[-94.7660770019774,29.5290786649959]}},{"properties":{"CITY":"BEAUMONT","ARP_LON":"094-07-51.6500","ADDRESS1":"2525 N 11TH ST","XY":"1852347.312124,-277991.8982801","OWNER":"SPINDLETOP ENTERPRISES, INC.","ADDRESS2":"BEAUMONT, TX 77703","FAC_NAME":"SHERATON SPINDLETOP HOTEL","HELID":0,"PHONE":"409-898-8570","RARNUM":"H1313","FAC_TYPE":"HELIPORT","STATE":"TX","ELEV":"25","MANAGER":"JACK HERZIK","OBJECTID":170,"ARP_LONS":"338871.6500","id":"a65kjiwrbuug","ARP_LAT":"30-06-04.7640N","ARP_LATS":"108364.7640","COUNTYNAME":"JEFFERSON"},"type":"Feature","geometry":{"type":"Point","coordinates":[-94.1307926492603,30.1011150141222]}},{"properties":{"CITY":"SABINE PASS","ARP_LON":"093-54-43.600W","ADDRESS1":"PO BOX 53178","XY":"1929103.376027,-414439.3799696","OWNER":"OFFSHORE LOGISTICS INC.","ADDRESS2":"LAFAYETTE, LA 70505","FAC_NAME":"AIR LOGISTICS SABINE","HELID":182,"PHONE":"318-365-6771","RARNUM":"H1339","FAC_TYPE":"HELIPORT","STATE":"TX","ELEV":"7","MANAGER":"NEILL OSBORNE","OBJECTID":171,"ARP_LONS":"338083.600W","id":"a65kjiziemmg","ARP_LAT":"29-42-52.788N","ARP_LATS":"106972.788N","COUNTYNAME":"JEFFERSON"},"type":"Feature","geometry":{"type":"Point","coordinates":[-93.9120126757959,29.7155525455825]}},{"properties":{"CITY":"SABINE PASS","ARP_LON":"093-54-46.601W","ADDRESS1":"PO BOX 434","XY":"1928333.051432,-415156.2595671","OWNER":"HOUSTON HELICOPTERS INC","ADDRESS2":"SABINE PASS, TX 77655","FAC_NAME":"HHI-SABINE","HELID":184,"PHONE":"713-971-2431","RARNUM":"H1341","FAC_TYPE":"HELIPORT","STATE":"TX","ELEV":"6","MANAGER":"F.M. BAKER","OBJECTID":172,"ARP_LONS":"338086.601W","id":"a65kjjaijjyl","ARP_LAT":"29-42-50.788N","ARP_LATS":"106970.788N","COUNTYNAME":"JEFFERSON"},"type":"Feature","geometry":{"type":"Point","coordinates":[-93.9145639637788,29.7137040625345]}},{"properties":{"CITY":"WALLISVILLE","ARP_LON":"094-42-03.709W","ADDRESS1":"STAR RTE, BOX 17","XY":"1676684.42229,-374383.1543467","OWNER":"CHANNEL INDUSTRIES GAS","ADDRESS2":"WALLISVILLE, TX 77597","FAC_NAME":"CIG 816","HELID":200,"PHONE":"","RARNUM":"H1357","FAC_TYPE":"HELIPORT","STATE":"TX","ELEV":"23","MANAGER":"W.C. BYERLY","OBJECTID":173,"ARP_LONS":"340923.709W","id":"a65kjiuozoj9","ARP_LAT":"29-51-40.791N","ARP_LATS":"107500.791N","COUNTYNAME":"CHAMBERS"},"type":"Feature","geometry":{"type":"Point","coordinates":[-94.7011940229909,29.8613048414794]}},{"properties":{"CITY":"DEER PARK","ARP_LON":"095-05-20.750W","ADDRESS1":"P.O. BOX 888","XY":"1556051.760525,-428240.0792153","OWNER":"FINA OIL &amp; CHEMICAL CO.","ADDRESS2":"DEER PARK, TX 77536","FAC_NAME":"LA PORTE PLANT","HELID":32,"PHONE":"713-476-3700","RARNUM":"H1190","FAC_TYPE":"HELIPORT","STATE":"TX","ELEV":"31","MANAGER":"C.J. MONK","OBJECTID":174,"ARP_LONS":"342320.750W","id":"a65kjiykcdvi","ARP_LAT":"29-43-43.819N","ARP_LATS":"107023.819N","COUNTYNAME":"HARRIS"},"type":"Feature","geometry":{"type":"Point","coordinates":[-95.0895026152218,29.7289610093915]}},{"properties":{"CITY":"LA PORTE","ARP_LON":"095-04-41.748W","ADDRESS1":"4900 UPSHUR ST.","XY":"1560078.623565,-438128.2181538","OWNER":"RENTAL TOOLS &amp; EQUIP. CO. INC","ADDRESS2":"BLADENSBURG, MD 20710","FAC_NAME":"RENTAL TOOLS","HELID":144,"PHONE":"713-471-4226","RARNUM":"H1301","FAC_TYPE":"HELIPORT","STATE":"TX","ELEV":"28","MANAGER":"H. CARLOS SMITH","OBJECTID":175,"ARP_LONS":"342281.748W","id":"a65kjizhcge5","ARP_LAT":"29-42-04.821N","ARP_LATS":"106924.821N","COUNTYNAME":"HARRIS"},"type":"Feature","geometry":{"type":"Point","coordinates":[-95.0782089424205,29.7013395127827]}},{"properties":{"CITY":"MATAGORDA","ARP_LON":"","ADDRESS1":"1331 LAMAR ST., SUITE 900","XY":"1321658.163318,-805147.8497513","OWNER":"AMERICAN EXPLORATION CO","ADDRESS2":"HOUSTON, TX 77010-3088","FAC_NAME":"MATAGORDA SHORE FACILITY","HELID":0,"PHONE":"713-756-6000","RARNUM":"H1198","FAC_TYPE":"HELIPORT","STATE":"TX","ELEV":"5","MANAGER":"LES THOMPSON","OBJECTID":176,"ARP_LONS":"","id":"a65kjixo92q0","ARP_LAT":"","ARP_LATS":"","COUNTYNAME":"MATAGORDA"},"type":"Feature","geometry":{"type":"Point","coordinates":[-95.8730827508112,28.7208733441168]}}],"is_temporal":false,"author":{"url":"http://www.glo.state.tx.us/gisdata/gisdata.html","metadata":"http://www.glo.state.tx.us/gisdata/gisdata.html","contact_name":"","contact_address":"","source":"Texas General Land Office","contact_phone":""},"source":"http://www.glo.state.tx.us/gisdata/gisdata.html","pagination":{"sort":null,"start":0,"total":88,"limit":1000000},"state":"complete","tags":"airport,airports,helicopter,heliports,texas","published":"2006-01-01T12:00:00Z","id":2566}