{"type":"FeatureCollection","data_type":"Dataset","url_type":null,"permissions":[{"permissions":{"download":true,"view":true},"group_id":"everyone"}],"classification":null,"title":"Patients","count":65,"stream_id":256633,"contributor":{"url":"http://geocommons.com/users/3995","name":"amazon"},"data_attributes":null,"calculation_params":null,"icon_link":null,"link":"http://geocommons.com/overlays/256633.json","extent":[-86.9292,33.5446,-76.8305,39.6083],"geometry_types":["point"],"unique_name":null,"name":"Patients","feature_count":65,"description":"","next_feature":null,"is_raster":false,"short_classification":"Y","stats":{"zipcode":{"count":64,"counts_by_value":{"40515":1,"40383":1,"40504":1,"40361":1,"42528":1,"40372":1,"41164":1,"42539":1,"40505":1,"40516":1,"40351":1,"40417":1,"40604":1,"41352":1,"42716":1,"40517":1,"40385":1,"40330":1,"42629":1,"40353":1,"40342":1,"35121":1,"40157-7534":1,"41101":1,"40475":1,"40507":1,"45370":1,"28210":1,"40508":1,"40409":1,"40519":1,"40591-0472":1,"21043":1,"40356":1,"40509":1,"40444":1,"40510":1,"35283-":1,"40422":1,"40004":1,"41719":1,"40511":1,"40324":1,"40390":1,"41314":1,"40962":1,"40456":1,"41171":1,"40391":1,"40523":1,"40347":1,"40336":1,"40160":1,"40380":1,"40502":2,"40513":1,"40601":1,"40524":1,"40370":1,"40503":1,"40514":1,"41031":1,"40591":1,"40371":1},"list":["40515","40503","40502","40356","40513","40514","40509","40517","40511","40383","40324","40504","40444","40505","40391","40475","40516","40361","40353","40351","40342","40390","40510","41031","40601","40523","42528","35283-","40508","40347","40417","35121","41314","40962","40524","40409","40507","40336","45370","40385","40157-7534","40422","40004","40370","40160","40519","40456","40372","40591","40591-0472","40371","40604","40380","40330","41101","41164","41171","21043","41352","41719","28210","42539","42629","42716"]},"total":{"max":217,"variance":1334.56586538462,"mean":16.6769230769231,"stdev":36.5317104086931,"min":1,"median":2}},"features":[{"properties":{"zipcode":"40515","total":217,"geo_score":0.714,"id":"a6ph628ztsay","geo_precision":"zip"},"type":"Feature","geometry":{"type":"Point","coordinates":[-84.437207,37.924774]}},{"properties":{"zipcode":"40503","total":146,"geo_score":0.714,"id":"a6ph623u7tz3","geo_precision":"zip"},"type":"Feature","geometry":{"type":"Point","coordinates":[-84.530773,38.019522]}},{"properties":{"zipcode":"40502","total":87,"geo_score":0.714,"id":"a6ph621wvixc","geo_precision":"zip"},"type":"Feature","geometry":{"type":"Point","coordinates":[-84.437714,37.872579]}},{"properties":{"zipcode":"40356","total":80,"geo_score":0.714,"id":"a6ph6227yro2","geo_precision":"zip"},"type":"Feature","geometry":{"type":"Point","coordinates":[-84.504382,37.826746]}},{"properties":{"zipcode":"40513","total":66,"geo_score":0.714,"id":"a6ph61y8cha5","geo_precision":"zip"},"type":"Feature","geometry":{"type":"Point","coordinates":[-84.605827,38.01513]}},{"properties":{"zipcode":"40514","total":60,"geo_score":0.714,"id":"a6ph61yji4a7","geo_precision":"zip"},"type":"Feature","geometry":{"type":"Point","coordinates":[-84.560827,37.982677]}},{"properties":{"zipcode":"40509","total":58,"geo_score":0.714,"id":"a6ph61xnzv5a","geo_precision":"zip"},"type":"Feature","geometry":{"type":"Point","coordinates":[-84.372883,37.986629]}},{"properties":{"zipcode":"40517","total":53,"geo_score":0.714,"id":"a6ph61zjai8r","geo_precision":"zip"},"type":"Feature","geometry":{"type":"Point","coordinates":[-84.487251,37.986751]}},{"properties":{"zipcode":"40511","total":45,"geo_score":0.714,"id":"a6ph61w775kl","geo_precision":"zip"},"type":"Feature","geometry":{"type":"Point","coordinates":[-84.492226,38.132747]}},{"properties":{"zipcode":"40383","total":42,"geo_score":0.714,"id":"a6ph620tp87d","geo_precision":"zip"},"type":"Feature","geometry":{"type":"Point","coordinates":[-84.681611,37.9773]}},{"properties":{"zipcode":"40324","total":36,"geo_score":0.714,"id":"a6ph628eq3wy","geo_precision":"zip"},"type":"Feature","geometry":{"type":"Point","coordinates":[-84.536053,38.304518]}},{"properties":{"zipcode":"40504","total":25,"geo_score":0.714,"id":"a6ph61ut8q2u","geo_precision":"zip"},"type":"Feature","geometry":{"type":"Point","coordinates":[-84.539422,38.038613]}},{"properties":{"zipcode":"40444","total":18,"geo_score":0.714,"id":"a6ph61u1mwcs","geo_precision":"zip"},"type":"Feature","geometry":{"type":"Point","coordinates":[-84.466325,37.66397]}},{"properties":{"zipcode":"40505","total":16,"geo_score":0.714,"id":"a6ph620ipbv3","geo_precision":"zip"},"type":"Feature","geometry":{"type":"Point","coordinates":[-84.534941,38.149242]}},{"properties":{"zipcode":"40391","total":12,"geo_score":0.714,"id":"a6ph61yi83c0","geo_precision":"zip"},"type":"Feature","geometry":{"type":"Point","coordinates":[-84.160483,37.910635]}},{"properties":{"zipcode":"40475","total":10,"geo_score":0.714,"id":"a6ph61w7c17z","geo_precision":"zip"},"type":"Feature","geometry":{"type":"Point","coordinates":[-84.182707,37.741747]}},{"properties":{"zipcode":"40516","total":8,"geo_score":0.714,"id":"a6ph61ztnfcs","geo_precision":"zip"},"type":"Feature","geometry":{"type":"Point","coordinates":[-84.430752,38.064867]}},{"properties":{"zipcode":"40361","total":8,"geo_score":0.714,"id":"a6ph626uatb9","geo_precision":"zip"},"type":"Feature","geometry":{"type":"Point","coordinates":[-84.268264,38.085078]}},{"properties":{"zipcode":"40353","total":7,"geo_score":0.714,"id":"a6ph61w061rw","geo_precision":"zip"},"type":"Feature","geometry":{"type":"Point","coordinates":[-84.036592,38.113133]}},{"properties":{"zipcode":"40351","total":6,"geo_score":0.714,"id":"a6ph620byxvx","geo_precision":"zip"},"type":"Feature","geometry":{"type":"Point","coordinates":[-83.490186,38.25758]}},{"properties":{"zipcode":"40342","total":6,"geo_score":0.714,"id":"a6ph620a8g90","geo_precision":"zip"},"type":"Feature","geometry":{"type":"Point","coordinates":[-84.885506,37.975353]}},{"properties":{"zipcode":"40390","total":6,"geo_score":0.714,"id":"a6ph61z0rw0k","geo_precision":"zip"},"type":"Feature","geometry":{"type":"Point","coordinates":[-84.718279,37.824245]}},{"properties":{"zipcode":"40510","total":5,"geo_score":0.714,"id":"a6ph622ynd2e","geo_precision":"zip"},"type":"Feature","geometry":{"type":"Point","coordinates":[-84.594901,38.06146]}},{"properties":{"zipcode":"41031","total":4,"geo_score":0.714,"id":"a6ph623qlv4y","geo_precision":"zip"},"type":"Feature","geometry":{"type":"Point","coordinates":[-84.308546,38.389519]}},{"properties":{"zipcode":"40601","total":4,"geo_score":0.714,"id":"a6ph61uk2e1i","geo_precision":"zip"},"type":"Feature","geometry":{"type":"Point","coordinates":[-84.814393,38.178684]}},{"properties":{"zipcode":"40523","total":4,"geo_score":0.714,"id":"a6ph621amuii","geo_precision":"zip"},"type":"Feature","geometry":{"type":"Point","coordinates":[-84.471505,38.028269]}},{"properties":{"zipcode":"42528","total":3,"geo_score":0.714,"id":"a6ph61u5aqdx","geo_precision":"zip"},"type":"Feature","geometry":{"type":"Point","coordinates":[-84.983484,37.190615]}},{"properties":{"zipcode":"35283-","total":3,"geo_score":0.714,"id":"a6ph629yenuw","geo_precision":"zip"},"type":"Feature","geometry":{"type":"Point","coordinates":[-86.929208,33.544622]}},{"properties":{"zipcode":"40508","total":3,"geo_score":0.714,"id":"a6ph61xj6434","geo_precision":"zip"},"type":"Feature","geometry":{"type":"Point","coordinates":[-84.498954,38.051285]}},{"properties":{"zipcode":"40347","total":3,"geo_score":0.714,"id":"a6ph629wanf9","geo_precision":"zip"},"type":"Feature","geometry":{"type":"Point","coordinates":[-84.637722,38.120075]}},{"properties":{"zipcode":"40417","total":2,"geo_score":0.714,"id":"a6ph622nn8ih","geo_precision":"zip"},"type":"Feature","geometry":{"type":"Point","coordinates":[-84.334379,37.477862]}},{"properties":{"zipcode":"35121","total":2,"geo_score":0.714,"id":"a6ph61uoswm5","geo_precision":"zip"},"type":"Feature","geometry":{"type":"Point","coordinates":[-86.564155,33.863433]}},{"properties":{"zipcode":"41314","total":2,"geo_score":0.714,"id":"a6ph61vpqmbc","geo_precision":"zip"},"type":"Feature","geometry":{"type":"Point","coordinates":[-83.698527,37.413977]}},{"properties":{"zipcode":"40962","total":2,"geo_score":0.714,"id":"a6ph625n92ts","geo_precision":"zip"},"type":"Feature","geometry":{"type":"Point","coordinates":[-83.748808,37.24509]}},{"properties":{"zipcode":"40524","total":2,"geo_score":0.714,"id":"a6ph622warwy","geo_precision":"zip"},"type":"Feature","geometry":{"type":"Point","coordinates":[-84.471505,38.028269]}},{"properties":{"zipcode":"40409","total":2,"geo_score":0.714,"id":"a6ph629g2noy","geo_precision":"zip"},"type":"Feature","geometry":{"type":"Point","coordinates":[-84.412242,37.373811]}},{"properties":{"zipcode":"40507","total":2,"geo_score":0.714,"id":"a6ph61x3621q","geo_precision":"zip"},"type":"Feature","geometry":{"type":"Point","coordinates":[-84.495969,38.045571]}},{"properties":{"zipcode":"40336","total":2,"geo_score":0.714,"id":"a6ph61yv6rpk","geo_precision":"zip"},"type":"Feature","geometry":{"type":"Point","coordinates":[-84.029092,37.729804]}},{"properties":{"zipcode":"45370","total":1,"geo_score":0.714,"id":"a6ph61xglees","geo_precision":"zip"},"type":"Feature","geometry":{"type":"Point","coordinates":[-84.025972,39.608285]}},{"properties":{"zipcode":"40385","total":1,"geo_score":0.714,"id":"a6ph61wflu3a","geo_precision":"zip"},"type":"Feature","geometry":{"type":"Point","coordinates":[-84.115206,37.660915]}},{"properties":{"zipcode":"40157-7534","total":1,"geo_score":0.714,"id":"a6ph6253j6j1","geo_precision":"zip"},"type":"Feature","geometry":{"type":"Point","coordinates":[-86.355493,38.022328]}},{"properties":{"zipcode":"40422","total":1,"geo_score":0.714,"id":"a6ph620sv8ch","geo_precision":"zip"},"type":"Feature","geometry":{"type":"Point","coordinates":[-84.862175,37.650075]}},{"properties":{"zipcode":"40004","total":1,"geo_score":0.714,"id":"a6ph624meymc","geo_precision":"zip"},"type":"Feature","geometry":{"type":"Point","coordinates":[-85.501067,37.860338]}},{"properties":{"zipcode":"40502","total":1,"geo_score":0.714,"id":"a6ph622x7efa","geo_precision":"zip"},"type":"Feature","geometry":{"type":"Point","coordinates":[-84.437714,37.872579]}},{"properties":{"zipcode":"40370","total":1,"geo_score":0.714,"id":"a6ph61tzgiq2","geo_precision":"zip"},"type":"Feature","geometry":{"type":"Point","coordinates":[-84.472163,38.37424]}},{"properties":{"zipcode":"40160","total":1,"geo_score":0.714,"id":"a6ph622766dv","geo_precision":"zip"},"type":"Feature","geometry":{"type":"Point","coordinates":[-85.934685,37.832012]}},{"properties":{"zipcode":"40519","total":1,"geo_score":0.714,"id":"a6ph626fu6w4","geo_precision":"zip"},"type":"Feature","geometry":{"type":"Point","coordinates":[-84.477715,37.988689]}},{"properties":{"zipcode":"40456","total":1,"geo_score":0.714,"id":"a6ph61va3wv8","geo_precision":"zip"},"type":"Feature","geometry":{"type":"Point","coordinates":[-84.263268,37.329529]}},{"properties":{"zipcode":"40372","total":1,"geo_score":0.714,"id":"a6ph61wgz5av","geo_precision":"zip"},"type":"Feature","geometry":{"type":"Point","coordinates":[-84.814949,37.879799]}},{"properties":{"zipcode":"40591","total":1,"geo_score":0.714,"id":"a6ph620zi1eq","geo_precision":"zip"},"type":"Feature","geometry":{"type":"Point","coordinates":[-84.471505,38.028269]}},{"properties":{"zipcode":"40591-0472","total":1,"geo_score":0.714,"id":"a6ph6210gucp","geo_precision":"zip"},"type":"Feature","geometry":{"type":"Point","coordinates":[-84.471505,38.028269]}},{"properties":{"zipcode":"40371","total":1,"geo_score":0.714,"id":"a6ph62055ryj","geo_precision":"zip"},"type":"Feature","geometry":{"type":"Point","coordinates":[-83.654081,38.138414]}},{"properties":{"zipcode":"40604","total":1,"geo_score":0.714,"id":"a6ph61tnxwlf","geo_precision":"zip"},"type":"Feature","geometry":{"type":"Point","coordinates":[-84.874809,38.234133]}},{"properties":{"zipcode":"40380","total":1,"geo_score":0.714,"id":"a6ph61x67ikx","geo_precision":"zip"},"type":"Feature","geometry":{"type":"Point","coordinates":[-83.779639,37.74925]}},{"properties":{"zipcode":"40330","total":1,"geo_score":0.714,"id":"a6ph623xtseo","geo_precision":"zip"},"type":"Feature","geometry":{"type":"Point","coordinates":[-84.805505,37.841466]}},{"properties":{"zipcode":"41101","total":1,"geo_score":0.714,"id":"a6ph623h4msv","geo_precision":"zip"},"type":"Feature","geometry":{"type":"Point","coordinates":[-82.679051,38.479248]}},{"properties":{"zipcode":"41164","total":1,"geo_score":0.714,"id":"a6ph622mfofj","geo_precision":"zip"},"type":"Feature","geometry":{"type":"Point","coordinates":[-83.073505,38.176194]}},{"properties":{"zipcode":"41171","total":1,"geo_score":0.714,"id":"a6ph61tx2zaf","geo_precision":"zip"},"type":"Feature","geometry":{"type":"Point","coordinates":[-83.089616,38.068419]}},{"properties":{"zipcode":"21043","total":1,"geo_score":0.714,"id":"a6ph61x06dla","geo_precision":"zip"},"type":"Feature","geometry":{"type":"Point","coordinates":[-76.830529,39.16983]}},{"properties":{"zipcode":"41352","total":1,"geo_score":0.714,"id":"a6ph6255e34k","geo_precision":"zip"},"type":"Feature","geometry":{"type":"Point","coordinates":[-83.233761,37.914002]}},{"properties":{"zipcode":"41719","total":1,"geo_score":0.714,"id":"a6ph629l0ps5","geo_precision":"zip"},"type":"Feature","geometry":{"type":"Point","coordinates":[-83.309013,37.310308]}},{"properties":{"zipcode":"28210","total":1,"geo_score":0.714,"id":"a6ph6226o0bg","geo_precision":"zip"},"type":"Feature","geometry":{"type":"Point","coordinates":[-80.851319,35.156753]}},{"properties":{"zipcode":"42539","total":1,"geo_score":0.714,"id":"a6ph622ecjjc","geo_precision":"zip"},"type":"Feature","geometry":{"type":"Point","coordinates":[-84.919119,37.226462]}},{"properties":{"zipcode":"42629","total":1,"geo_score":0.714,"id":"a6ph62925dui","geo_precision":"zip"},"type":"Feature","geometry":{"type":"Point","coordinates":[-85.120512,36.9759]}},{"properties":{"zipcode":"42716","total":1,"geo_score":0.714,"id":"a6ph62a3bmr4","geo_precision":"zip"},"type":"Feature","geometry":{"type":"Point","coordinates":[-85.702462,37.504227]}}],"is_temporal":false,"author":{"url":"","metadata":"","contact_name":"","contact_address":"","source":"","contact_phone":""},"source":"","pagination":{"sort":null,"start":0,"total":65,"limit":1000000},"state":"complete","tags":"","published":"2012-06-26T16:00:00Z","id":256633}