{"type":"FeatureCollection","data_type":"Dataset","url_type":null,"permissions":[{"permissions":{"download":true,"view":true},"group_id":49211},{"permissions":{"download":true,"view":true},"group_id":"everyone"}],"classification":null,"title":"PDW US Dealer List - 6-27-12","count":402,"stream_id":257298,"contributor":{"url":"http://geocommons.com/users/47735","name":"kevin@ridepdw.com"},"data_attributes":null,"calculation_params":null,"icon_link":null,"link":"http://geocommons.com/overlays/257298.json","extent":[-158.029,21.2963,-70.2502,64.8892],"geometry_types":["point"],"unique_name":null,"name":"PDW US Dealer List - 6-27-12","feature_count":402,"description":"","next_feature":null,"is_raster":false,"short_classification":"Y","stats":{},"features":[{"properties":{"city":"Fairbanks","geo_score":1.0,"zip code":"99709","phone":"(907) 455-6520","id":"a6qgxg88p6ey","address":"711 Sheep Creek Rd","geo_precision":"range","shop name":"Goldstream Sports","state":"AK"},"type":"Feature","geometry":{"type":"Point","coordinates":[-147.933222,64.889214]}},{"properties":{"city":"Homer","geo_score":1.0,"zip code":"99603","phone":"(907) 235-8406","id":"a6qgxgf4ltd6","address":"1532 Ocean Dr","geo_precision":"range","shop name":"Homer Saw And Cycle","state":"AK"},"type":"Feature","geometry":{"type":"Point","coordinates":[-151.504081,59.6398]}},{"properties":{"city":"Anchorage","geo_score":1.0,"zip code":"99503","phone":"(907) 222-1967","id":"a6qgxg953n72","address":"2600 Spenard Rd","geo_precision":"range","shop name":"Speedway Cycles","state":"AK"},"type":"Feature","geometry":{"type":"Point","coordinates":[-149.905437,61.197116]}},{"properties":{"city":"Sitka","geo_score":0.585,"zip code":"99835","phone":"(907) 747-6317","id":"a6qgxgff82gq","address":"332 Eliason Loop","geo_precision":"zip","shop name":"Yellow Jersey Cycle Shop","state":"AK"},"type":"Feature","geometry":{"type":"Point","coordinates":[-135.318348,57.080818]}},{"properties":{"city":"Huntsville","geo_score":0.767,"zip code":"35802","phone":"(256) 650-6282","id":"a6qgxgny4y94","address":"2000 Cecil Ashburn Dr SE Ste 105","geo_precision":"street","shop name":"Bicycle Works","state":"AL"},"type":"Feature","geometry":{"type":"Point","coordinates":[-86.536489,34.672214]}},{"properties":{"city":"Huntsville","geo_score":0.513,"zip code":"35801","phone":"(256) 519-9233","id":"a6qgxgbzi9ux","address":"611 Meridian St N # 1","geo_precision":"street","shop name":"Bicycles Etc","state":"AL"},"type":"Feature","geometry":{"type":"Point","coordinates":[-86.586503,34.734922]}},{"properties":{"city":"Birmingham","geo_score":1.0,"zip code":"35213","phone":"(205) 870-8330","id":"a6qgxgmud256","address":"1105 Dunston Ave","geo_precision":"range","shop name":"Birmingham Bicycle Co.","state":"AL"},"type":"Feature","geometry":{"type":"Point","coordinates":[-86.735572,33.515087]}},{"properties":{"city":"Springdale","geo_score":1.0,"zip code":"72764","phone":"(479) 845-1344","id":"a6qgxgdnjmns","address":"4915 S Thompson St","geo_precision":"range","shop name":"Lewis &amp; Clark Outfitters","state":"AR"},"type":"Feature","geometry":{"type":"Point","coordinates":[-94.144119,36.142382]}},{"properties":{"city":"Bentonville","geo_score":0.908,"zip code":"72712","phone":"(479) 271-7201","id":"a6qgxgn1ybrd","address":"2104 S Walton Blvd Ste 1","geo_precision":"range","shop name":"Mojo Cycling","state":"AR"},"type":"Feature","geometry":{"type":"Point","coordinates":[-94.210772,36.348763]}},{"properties":{"city":"Conway","geo_score":0.908,"zip code":"72032","phone":"(501) 764-4500","id":"a6qgxg96mpft","address":"2100 Meadowlake Rd Ste 2","geo_precision":"range","shop name":"The Ride","state":"AR"},"type":"Feature","geometry":{"type":"Point","coordinates":[-92.45514,35.110174]}},{"properties":{"city":"Tucson","geo_score":0.927,"zip code":"85705","phone":"(520) 622-6488","id":"a6qgxgg51xx0","address":"311 E 7th St","geo_precision":"range","shop name":"Ordinary Bike Shop","state":"AZ"},"type":"Feature","geometry":{"type":"Point","coordinates":[-110.966672,32.2265]}},{"properties":{"city":"Tucson","geo_score":1.0,"zip code":"85715","phone":"(520) 885-3666","id":"a6qgxgmn925z","address":"7045 E Tanque Verde Rd","geo_precision":"range","shop name":"Sabino Cycles","state":"AZ"},"type":"Feature","geometry":{"type":"Point","coordinates":[-110.842235,32.250839]}},{"properties":{"city":"Phoenix","geo_score":1.0,"zip code":"85012","phone":"(831) 429-6062","id":"a6qgxghtsh3w","address":"5036 N Central Ave","geo_precision":"range","shop name":"Slippery Pig Bike Shop","state":"AZ"},"type":"Feature","geometry":{"type":"Point","coordinates":[-112.073815,33.50967]}},{"properties":{"city":"Cottonwood","geo_score":0.883,"zip code":"86326","phone":"(928) 649-3822","id":"a6qgxgalsu8j","address":"470 S Main St Ste B","geo_precision":"range","shop name":"Sultana Cycles","state":"AZ"},"type":"Feature","geometry":{"type":"Point","coordinates":[-112.009862,34.73105]}},{"properties":{"city":"Arcata","geo_score":0.916,"zip code":"95521","phone":"(707) 822-4673","id":"a6qgxga8en80","address":"650 10th St","geo_precision":"range","shop name":"Adventure'S Edge","state":"CA"},"type":"Feature","geometry":{"type":"Point","coordinates":[-124.085046,40.869547]}},{"properties":{"city":"Eureka","geo_score":0.927,"zip code":"95501","phone":"(707) 445-1711","id":"a6qgxg8slrrt","address":"125 W 5th St","geo_precision":"range","shop name":"Adventure'S Edge","state":"CA"},"type":"Feature","geometry":{"type":"Point","coordinates":[-124.171965,40.800987]}},{"properties":{"city":"Alameda","geo_score":1.0,"zip code":"94501","phone":"(510) 522-0070","id":"a6qgxgk5zxrt","address":"1522 Park St","geo_precision":"range","shop name":"Alameda Bicycle","state":"CA"},"type":"Feature","geometry":{"type":"Point","coordinates":[-122.240792,37.766583]}},{"properties":{"city":"Auburn","geo_score":1.0,"zip code":"95603","phone":"(530) 885-3861","id":"a6qgxgej7l0s","address":"350 Grass Valley Hwy","geo_precision":"range","shop name":"Auburn Bike Works","state":"CA"},"type":"Feature","geometry":{"type":"Point","coordinates":[-121.076071,38.903078]}},{"properties":{"city":"Oakland","geo_score":1.0,"zip code":"94612","phone":"(510) 763-2453","id":"a6qgxggvvf4u","address":"2424 Webster St","geo_precision":"range","shop name":"Bay Area Bikes","state":"CA"},"type":"Feature","geometry":{"type":"Point","coordinates":[-122.264727,37.81376]}},{"properties":{"city":"Pittsburg","geo_score":0.854,"zip code":"94565","phone":"(925) 252-1702","id":"a6qgxgk4ivpk","address":"625 Railroad Ave","geo_precision":"range","shop name":"Bay Area Bikes","state":"CA"},"type":"Feature","geometry":{"type":"Point","coordinates":[-121.884043,38.030557]}},{"properties":{"city":"North Hollywood","geo_score":1.0,"zip code":"91601","phone":"(818) 994-4171","id":"a6qgxg9bilg3","address":"11522 Burbank Blvd","geo_precision":"range","shop name":"Bent Up Cycles","state":"CA"},"type":"Feature","geometry":{"type":"Point","coordinates":[-118.382687,34.172079]}},{"properties":{"city":"Davis","geo_score":0.554,"zip code":"95616","phone":"(530) 752-2575","id":"a6qgxgkobec8","address":"364 Memorial Union","geo_precision":"street","shop name":"Bike Barn Uc Davis","state":"CA"},"type":"Feature","geometry":{"type":"Point","coordinates":[-121.733723,38.556236]}},{"properties":{"city":"Antioch","geo_score":1.0,"zip code":"94509","phone":"(925) 754-8025","id":"a6qgxgi2lezj","address":"1344 Sunset Dr","geo_precision":"range","shop name":"Bikes For Life","state":"CA"},"type":"Feature","geometry":{"type":"Point","coordinates":[-121.797886,37.998733]}},{"properties":{"city":"Redondo Beach","geo_score":1.0,"zip code":"90277","phone":"(310) 540-2080","id":"a6qgxgee0vf8","address":"807 Torrance Blvd","geo_precision":"range","shop name":"Bill Rons Bicycles","state":"CA"},"type":"Feature","geometry":{"type":"Point","coordinates":[-118.377842,33.838614]}},{"properties":{"city":"San Francisco","geo_score":0.916,"zip code":"94103","phone":"(415) 431-9627","id":"a6qgxgjen2ra","address":"494 14th St","geo_precision":"range","shop name":"Box Dog Bikes","state":"CA"},"type":"Feature","geometry":{"type":"Point","coordinates":[-122.42274,37.768208]}},{"properties":{"city":"Pasadena","geo_score":0.961,"zip code":"91103","phone":"(805) 388-3007","id":"a6qgxg7u03ej","address":"898 Linda Vista Ave","geo_precision":"range","shop name":"Camarillo Bike Co","state":"CA"},"type":"Feature","geometry":{"type":"Point","coordinates":[-118.174892,34.163369]}},{"properties":{"city":"Chico","geo_score":1.0,"zip code":"95928","phone":"(530) 345-2081","id":"a6qgxgo2kw2b","address":"330 Main St","geo_precision":"range","shop name":"Campus Bicycles","state":"CA"},"type":"Feature","geometry":{"type":"Point","coordinates":[-121.838889,39.729204]}},{"properties":{"city":"Upland","geo_score":0.865,"zip code":"91786","phone":"(866) 946-5888","id":"a6qgxgijd193","address":"1933 W 11th St Ste M","geo_precision":"range","shop name":"Chopper Us","state":"CA"},"type":"Feature","geometry":{"type":"Point","coordinates":[-117.68679,34.103301]}},{"properties":{"city":"Los Angeles","geo_score":1.0,"zip code":"90039","phone":"(323) 664-7400","id":"a6qgxgcj19fk","address":"2427 Riverside Dr","geo_precision":"range","shop name":"Coco'S Variety","state":"CA"},"type":"Feature","geometry":{"type":"Point","coordinates":[-118.255374,34.105377]}},{"properties":{"city":"Los Gatos","geo_score":1.0,"zip code":"95030","phone":"(408) 354-0555","id":"a6qgxgj8vc47","address":"217 N Santa Cruz Ave","geo_precision":"range","shop name":"Crossroad Bikes","state":"CA"},"type":"Feature","geometry":{"type":"Point","coordinates":[-121.98188,37.227034]}},{"properties":{"city":"Turlock","geo_score":1.0,"zip code":"95380","phone":"(209) 634-8123","id":"a6qgxgcwsfla","address":"605 E Main St","geo_precision":"range","shop name":"Cycle Masters","state":"CA"},"type":"Feature","geometry":{"type":"Point","coordinates":[-120.841313,37.498065]}},{"properties":{"city":"Oakland","geo_score":1.0,"zip code":"94610","phone":"(510) 444-7900","id":"a6qgxgibnzxk","address":"3530 Grand Ave","geo_precision":"range","shop name":"Cycle Sports","state":"CA"},"type":"Feature","geometry":{"type":"Point","coordinates":[-122.245893,37.815161]}},{"properties":{"city":"Walnut Creek","geo_score":0.472,"zip code":"94598","phone":"(925) 944-9200","id":"a6qgxgfqxaa8","address":"2901 Ygnacio Valley Rd","geo_precision":"street","shop name":"Encina Bicycle","state":"CA"},"type":"Feature","geometry":{"type":"Point","coordinates":[-122.289471,38.007017]}},{"properties":{"city":"Cupertino","geo_score":1.0,"zip code":"95014","phone":"(408) 252-5202","id":"a6qgxgkbs1eb","address":"19685 Stevens Creek Blvd","geo_precision":"range","shop name":"Evolution Bike Shoppe","state":"CA"},"type":"Feature","geometry":{"type":"Point","coordinates":[-122.014634,37.322918]}},{"properties":{"city":"Los Angeles","geo_score":1.0,"zip code":"90026","phone":"(323) 661-1174","id":"a6qgxgebdvne","address":"1618 Lucile Ave","geo_precision":"range","shop name":"Golden Saddle Cyclery","state":"CA"},"type":"Feature","geometry":{"type":"Point","coordinates":[-118.278333,34.091377]}},{"properties":{"city":"San Francisco","geo_score":1.0,"zip code":"94109","phone":"(415) 814-3216","id":"a6qgxgl3nkr7","address":"1825 Polk St","geo_precision":"range","shop name":"High Trails","state":"CA"},"type":"Feature","geometry":{"type":"Point","coordinates":[-122.421444,37.793915]}},{"properties":{"city":"San Francisco","geo_score":0.854,"zip code":"94103","phone":"(415) 484-6575","id":"a6qgxgmzq650","address":"1067 Market St Apt 1003","geo_precision":"range","shop name":"Huckleberry Bicycles","state":"CA"},"type":"Feature","geometry":{"type":"Point","coordinates":[-122.41188,37.780927]}},{"properties":{"city":"San Jose","geo_score":1.0,"zip code":"95125","phone":"(408) 269-2300","id":"a6qgxgn5j6h8","address":"1515 Meridian Ave","geo_precision":"range","shop name":"Hyland Family'S Bicycle","state":"CA"},"type":"Feature","geometry":{"type":"Point","coordinates":[-121.913638,37.297159]}},{"properties":{"city":"Irvine","geo_score":0.883,"zip code":"92604","phone":"(949) 733-1212","id":"a6qgxgl8qosf","address":"14280 Culver Dr Ste D","geo_precision":"range","shop name":"Jax Bicycle Center","state":"CA"},"type":"Feature","geometry":{"type":"Point","coordinates":[-117.785501,33.706895]}},{"properties":{"city":"Riverside","geo_score":1.0,"zip code":"92507","phone":"(651) 344-1010","id":"a6qgxgpd6ynx","address":"1615 Eastridge Ave","geo_precision":"range","shop name":"Jenson Usa","state":"CA"},"type":"Feature","geometry":{"type":"Point","coordinates":[-117.305932,33.931086]}},{"properties":{"city":"Berkeley","geo_score":1.0,"zip code":"94704","phone":"(510) 540-6240","id":"a6qgxh3wl9h6","address":"2250 Bancroft Way","geo_precision":"range","shop name":"Jitensha Studio","state":"CA"},"type":"Feature","geometry":{"type":"Point","coordinates":[-122.264626,37.867935]}},{"properties":{"city":"Laguna Beach","geo_score":0.512,"zip code":"92651","phone":"(949) 494-1522","id":"a6qgxgrrvxv9","address":"240 Phalia","geo_precision":"street","shop name":"Laguna Beach Cyclery","state":"CA"},"type":"Feature","geometry":{"type":"Point","coordinates":[-117.65774,33.64711]}},{"properties":{"city":"Oakland","geo_score":1.0,"zip code":"94610","phone":"(510) 251-1422","id":"a6qgxgr3qmfa","address":"622 Grand Ave","geo_precision":"range","shop name":"Lakeview Bicycle","state":"CA"},"type":"Feature","geometry":{"type":"Point","coordinates":[-122.248965,37.810125]}},{"properties":{"city":"Arcata","geo_score":1.0,"zip code":"95521","phone":"(707) 822-7755","id":"a6qgxgs9vzly","address":"1593 G St","geo_precision":"range","shop name":"Life Cycle","state":"CA"},"type":"Feature","geometry":{"type":"Point","coordinates":[-124.08396,40.87363]}},{"properties":{"city":"Oakland","geo_score":0.916,"zip code":"94609","phone":"(510) 595-1155","id":"a6qgxh1ztlll","address":"421 40th St","geo_precision":"range","shop name":"Manifesto Bicycles","state":"CA"},"type":"Feature","geometry":{"type":"Point","coordinates":[-122.259786,37.828459]}},{"properties":{"city":"San Francisco","geo_score":1.0,"zip code":"94117","phone":"(415) 440-2338","id":"a6qgxgugd1dk","address":"639A Divisadero St","geo_precision":"range","shop name":"Mojo Bicycle Cafe","state":"CA"},"type":"Feature","geometry":{"type":"Point","coordinates":[-122.438055,37.775547]}},{"properties":{"city":"Oakland","geo_score":1.0,"zip code":"94611","phone":"(510) 654-8356","id":"a6qgxgqu1he4","address":"4266 Piedmont Ave","geo_precision":"range","shop name":"Motano Velo","state":"CA"},"type":"Feature","geometry":{"type":"Point","coordinates":[-122.249559,37.828534]}},{"properties":{"city":"Los Angeles","geo_score":1.0,"zip code":"90029","phone":"(323) 662-4537","id":"a6qgxh1du6rm","address":"4351 Melrose Ave","geo_precision":"range","shop name":"Orange 20","state":"CA"},"type":"Feature","geometry":{"type":"Point","coordinates":[-118.295313,34.083582]}},{"properties":{"city":"Woodland Hills","geo_score":1.0,"zip code":"91367","phone":"(818) 415-9701","id":"a6qgxgzgj6je","address":"6060 Crape Myrtle Ct","geo_precision":"range","shop name":"Out-Spoke-N","state":"CA"},"type":"Feature","geometry":{"type":"Point","coordinates":[-118.611933,34.181601]}},{"properties":{"city":"Palm Springs","geo_score":1.0,"zip code":"92264","phone":"(760) 325-9319","id":"a6qgxgsgy72x","address":"611 S Palm Canyon Dr","geo_precision":"range","shop name":"Palm Springs Cyclery","state":"CA"},"type":"Feature","geometry":{"type":"Point","coordinates":[-116.544758,33.812402]}},{"properties":{"city":"Los Altos","geo_score":1.0,"zip code":"94024","phone":"(323) 464-5765","id":"a6qgxgplwydx","address":"963 Fremont Ave","geo_precision":"range","shop name":"Palo Alto Bicycles","state":"CA"},"type":"Feature","geometry":{"type":"Point","coordinates":[-122.087367,37.352893]}},{"properties":{"city":"Los Angeles","geo_score":1.0,"zip code":"90029","phone":"(323) 464-5765","id":"a6qgxgw1hwtk","address":"1014 N Western Ave","geo_precision":"range","shop name":"Safety Cycle","state":"CA"},"type":"Feature","geometry":{"type":"Point","coordinates":[-118.309176,34.09077]}},{"properties":{"city":"Albany","geo_score":0.915,"zip code":"94707","phone":"(510) 524-1094","id":"a6qgxh048s9d","address":"1554 Solano Ave","geo_precision":"range","shop name":"Solano Avenue Cyclery","state":"CA"},"type":"Feature","geometry":{"type":"Point","coordinates":[-122.284613,37.890977]}},{"properties":{"city":"Fresno","geo_score":1.0,"zip code":"93704","phone":"(559) 229-8163","id":"a6qgxgs2uxdy","address":"3132 N Palm Ave","geo_precision":"range","shop name":"Steven'S Bike Shop","state":"CA"},"type":"Feature","geometry":{"type":"Point","coordinates":[-119.808567,36.779125]}},{"properties":{"city":"Milpitas","geo_score":1.0,"zip code":"95035","phone":"(408) 262-4360","id":"a6qgxgslclxt","address":"1624 S Main St","geo_precision":"range","shop name":"Sun Bike Shop","state":"CA"},"type":"Feature","geometry":{"type":"Point","coordinates":[-121.902837,37.405909]}},{"properties":{"city":"Gilroy","geo_score":0.902,"zip code":"95020","phone":"(408) 842-4889","id":"a6qgxgo9hecp","address":"311 1st St","geo_precision":"range","shop name":"Sunshine Bikes","state":"CA"},"type":"Feature","geometry":{"type":"Point","coordinates":[-121.575604,37.01375]}},{"properties":{"city":"Lakeport","geo_score":1.0,"zip code":"95453","phone":"(707) 263-1200","id":"a6qgxgpaepkb","address":"2570 S Main St","geo_precision":"range","shop name":"The Bicycle Rack","state":"CA"},"type":"Feature","geometry":{"type":"Point","coordinates":[-122.913089,39.019602]}},{"properties":{"city":"Santa Cruz","geo_score":0.717,"zip code":"95060","phone":"(831) 454-0909","id":"a6qgxh0yu6zw","address":"1325 Mission St","geo_precision":"street","shop name":"The Bicycle Shop","state":"CA"},"type":"Feature","geometry":{"type":"Point","coordinates":[-122.039281,36.963076]}},{"properties":{"city":"San Anselmo","geo_score":1.0,"zip code":"94960","phone":"(415) 419-5831","id":"a6qgxgqg8tws","address":"1117 San Anselmo Ave","geo_precision":"range","shop name":"The Bicycle Works","state":"CA"},"type":"Feature","geometry":{"type":"Point","coordinates":[-122.571802,37.979119]}},{"properties":{"city":"Mount Shasta","geo_score":1.0,"zip code":"96067","phone":"(530) 926-3606","id":"a6qgxh03a723","address":"300 N Mount Shasta Blvd","geo_precision":"range","shop name":"The Fifth Season","state":"CA"},"type":"Feature","geometry":{"type":"Point","coordinates":[-122.313522,41.314223]}},{"properties":{"city":"Mountain View","geo_score":0.945,"zip code":"94040","phone":"(650) 968-2974","id":"a6qgxgql50ud","address":"2320 W El Camino Real","geo_precision":"range","shop name":"The Off Ramp","state":"CA"},"type":"Feature","geometry":{"type":"Point","coordinates":[-122.106448,37.397761]}},{"properties":{"city":"Santa Cruz","geo_score":1.0,"zip code":"95060","phone":"(831) 429-6062","id":"a6qgxgtgp29n","address":"231 Cathcart St","geo_precision":"range","shop name":"The Spokesman Bicycle","state":"CA"},"type":"Feature","geometry":{"type":"Point","coordinates":[-122.026429,36.971428]}},{"properties":{"city":"San Jose","geo_score":1.0,"zip code":"95124","phone":"(408) 369-9666","id":"a6qgxgvbp8uf","address":"14390 Union Ave","geo_precision":"range","shop name":"Trail Head Cyclery","state":"CA"},"type":"Feature","geometry":{"type":"Point","coordinates":[-121.931343,37.259305]}},{"properties":{"city":"San Jose","geo_score":1.0,"zip code":"95136","phone":"(408) 264-2453","id":"a6qgxguw8mnh","address":"503 W Capitol Expy","geo_precision":"range","shop name":"Trek Store Of San Jose","state":"CA"},"type":"Feature","geometry":{"type":"Point","coordinates":[-121.854552,37.274445]}},{"properties":{"city":"Redondo Beach","geo_score":1.0,"zip code":"90278","phone":"(310) 374-9100","id":"a6qgxgzn7xh8","address":"1500 Ormond Ln","geo_precision":"range","shop name":"Triathlon Lab","state":"CA"},"type":"Feature","geometry":{"type":"Point","coordinates":[-118.383562,33.869205]}},{"properties":{"city":"San Francisco","geo_score":1.0,"zip code":"94107","phone":"(415) 974-6440","id":"a6qgxgtxk9rd","address":"311 Townsend St","geo_precision":"range","shop name":"Warm Planet","state":"CA"},"type":"Feature","geometry":{"type":"Point","coordinates":[-122.396974,37.775458]}},{"properties":{"city":"Berkeley","geo_score":1.0,"zip code":"94702","phone":"(510) 524-1400","id":"a6qgxgqznikg","address":"1400 San Pablo Ave","geo_precision":"range","shop name":"Wheel Girl","state":"CA"},"type":"Feature","geometry":{"type":"Point","coordinates":[-122.294977,37.877501]}},{"properties":{"city":"Santa Barbara","geo_score":1.0,"zip code":"93101","phone":"(805) 845-6547","id":"a6qgxgxh07j6","address":"528 Anacapa St","geo_precision":"range","shop name":"Wheelhouse","state":"CA"},"type":"Feature","geometry":{"type":"Point","coordinates":[-119.695278,34.418599]}},{"properties":{"city":"Santee","geo_score":0.512,"zip code":"92071","phone":"(619) 449-1076","id":"a6qgxgpin6j2","address":"925 Carlton Hill Blvd #28","geo_precision":"street","shop name":"Wheels On Wheels","state":"CA"},"type":"Feature","geometry":{"type":"Point","coordinates":[-117.022881,32.84209]}},{"properties":{"city":"Belmont","geo_score":0.84,"zip code":"94002","phone":"(650) 592-3200","id":"a6qgxgs9c9gk","address":"120 El Camino Real","geo_precision":"street","shop name":"Wheelworks","state":"CA"},"type":"Feature","geometry":{"type":"Point","coordinates":[-122.287332,37.529213]}},{"properties":{"city":"San Jose","geo_score":1.0,"zip code":"95125","phone":"(408) 293-2606","id":"a6qgxgs2qf44","address":"1016 Lincoln Ave","geo_precision":"range","shop name":"Willow Glen Bicycles","state":"CA"},"type":"Feature","geometry":{"type":"Point","coordinates":[-121.903126,37.311461]}},{"properties":{"city":"Redwood City","geo_score":1.0,"zip code":"94061","phone":"(650) 299-1071","id":"a6qgxh244lru","address":"1523 Woodside Rd","geo_precision":"range","shop name":"Woodside Bike Shop","state":"CA"},"type":"Feature","geometry":{"type":"Point","coordinates":[-122.227981,37.45615]}},{"properties":{"city":"Breckenridge","geo_score":0.442,"zip code":"80424","phone":"(970) 453-8100","id":"a6qgxgtbhdml","address":"PO Box 1359","geo_precision":"street","shop name":"Alpine Sports","state":"CO"},"type":"Feature","geometry":{"type":"Point","coordinates":[-105.534774,39.496123]}},{"properties":{"city":"Colorado Springs","geo_score":0.897,"zip code":"80906","phone":"(719) 955-7867","id":"a6qgxh389ypi","address":"2842 Janitell Rd Ste C","geo_precision":"range","shop name":"Bike Stop","state":"CO"},"type":"Feature","geometry":{"type":"Point","coordinates":[-104.794333,38.796892]}},{"properties":{"city":"Boulder","geo_score":0.886,"zip code":"80304","phone":"(303) 444-2453","id":"a6qgxguzv4be","address":"4580 Broadway St Unit B","geo_precision":"range","shop name":"Boulder Cycler Sport","state":"CO"},"type":"Feature","geometry":{"type":"Point","coordinates":[-105.28205,40.056704]}},{"properties":{"city":"Louisville","geo_score":0.935,"zip code":"80027","phone":"(303) 665-6343","id":"a6qgxgvthdra","address":"1032 E South Boulder Rd","geo_precision":"range","shop name":"Louisvillle Cyclery","state":"CO"},"type":"Feature","geometry":{"type":"Point","coordinates":[-105.13123,39.986846]}},{"properties":{"city":"Golden","geo_score":0.894,"zip code":"80401","phone":"(303) 216-1616","id":"a6qgxgpxd5en","address":"1224 Washington Ave Ste 145","geo_precision":"range","shop name":"Peak Cycles","state":"CO"},"type":"Feature","geometry":{"type":"Point","coordinates":[-105.220752,39.754726]}},{"properties":{"city":"Denver","geo_score":1.0,"zip code":"80212","phone":"(720) 468-3220","id":"a6qgxgrw8shw","address":"4301 Tennyson St","geo_precision":"range","shop name":"Pearl Velo","state":"CO"},"type":"Feature","geometry":{"type":"Point","coordinates":[-105.043994,39.775283]}},{"properties":{"city":"Pueblo","geo_score":1.0,"zip code":"81003","phone":"(719) 546-2453","id":"a6qgxgwv4sgw","address":"400 N Santa Fe Ave","geo_precision":"range","shop name":"The Great Divide Ski And Bike","state":"CO"},"type":"Feature","geometry":{"type":"Point","coordinates":[-104.607058,38.271589]}},{"properties":{"city":"Denver","geo_score":1.0,"zip code":"80210","phone":"(303) 817-3997","id":"a6qgxgphqnmz","address":"1767 S Lafayette St","geo_precision":"range","shop name":"The Mindful Bike","state":"CO"},"type":"Feature","geometry":{"type":"Point","coordinates":[-104.971144,39.685158]}},{"properties":{"city":"Boulder","geo_score":1.0,"zip code":"80302","phone":"(303) 440-3535","id":"a6qgxh4npq2t","address":"1833 Pearl St","geo_precision":"range","shop name":"Vecchio'S","state":"CO"},"type":"Feature","geometry":{"type":"Point","coordinates":[-105.271144,40.019764]}},{"properties":{"city":"Wheat Ridge","geo_score":0.941,"zip code":"80033","phone":"(303) 424-3221","id":"a6qgxgx7eocd","address":"7085 W 38th Ave","geo_precision":"range","shop name":"Wheat Ridge Cyclery","state":"CO"},"type":"Feature","geometry":{"type":"Point","coordinates":[-105.074989,39.769444]}},{"properties":{"city":"Greenwich","geo_score":0.499,"zip code":"06830","phone":"(203) 869-4141","id":"a6qgxgq924ge","address":"35 Amogerone Crossway","geo_precision":"street","shop name":"Greenwich Bicycles","state":"CT"},"type":"Feature","geometry":{"type":"Point","coordinates":[-73.56724,41.015405]}},{"properties":{"city":"Ridgefield","geo_score":0.973,"zip code":"06877","phone":"(203) 438-0489","id":"a6qgxgtkc1xa","address":"22 Catoonah St","geo_precision":"range","shop name":"Ridgefield Cycle And Sport","state":"CT"},"type":"Feature","geometry":{"type":"Point","coordinates":[-73.500331,41.281459]}},{"properties":{"city":"Colchester","geo_score":1.0,"zip code":"06415","phone":"(860) 537-2788","id":"a6qgxh40u0ph","address":"467 S Main St","geo_precision":"range","shop name":"Sunshine Cycle Works","state":"CT"},"type":"Feature","geometry":{"type":"Point","coordinates":[-72.323928,41.566591]}},{"properties":{"city":"New Haven","geo_score":1.0,"zip code":"06510","phone":"(203) 773-9288","id":"a6qgxh1qdpe3","address":"151 Orange St","geo_precision":"range","shop name":"The Devil'S Gear Bike Shop","state":"CT"},"type":"Feature","geometry":{"type":"Point","coordinates":[-72.923815,41.305817]}},{"properties":{"city":"Washington","geo_score":0.935,"zip code":"20001","phone":"(202) 962-0123","id":"a6qgxgwb9cm2","address":"1019 7th St NW","geo_precision":"range","shop name":"Bicycle Space","state":"DC"},"type":"Feature","geometry":{"type":"Point","coordinates":[-77.02184,38.903942]}},{"properties":{"city":"Washington","geo_score":0.935,"zip code":"20003","phone":"(202) 544-4234","id":"a6qgxgukz3i3","address":"719 8th St SE","geo_precision":"range","shop name":"Capitol Hill Bikes","state":"DC"},"type":"Feature","geometry":{"type":"Point","coordinates":[-76.995051,38.879464]}},{"properties":{"city":"Wilmington","geo_score":1.0,"zip code":"19810","phone":"(302) 475-7433","id":"a6qgxgr2s1nn","address":"22 Marker Dr","geo_precision":"range","shop name":"Brandywine Cyclery","state":"DE"},"type":"Feature","geometry":{"type":"Point","coordinates":[-75.523989,39.824086]}},{"properties":{"city":"Gainesville","geo_score":0.935,"zip code":"32609","phone":"(352) 373-6574","id":"a6qgxgredvh6","address":"2133 NW 6th St","geo_precision":"range","shop name":"Bikes And More Gainesville","state":"FL"},"type":"Feature","geometry":{"type":"Point","coordinates":[-82.330758,29.672836]}},{"properties":{"city":"Tampa","geo_score":1.0,"zip code":"33609","phone":"(813) 418-7709","id":"a6qgxgyvpcql","address":"207 N Dale Mabry Hwy","geo_precision":"range","shop name":"Cycle Sport Concepts","state":"FL"},"type":"Feature","geometry":{"type":"Point","coordinates":[-82.505609,27.946409]}},{"properties":{"city":"Orlando","geo_score":1.0,"zip code":"32804","phone":"(407) 422-2458","id":"a6qgxh4msp7l","address":"2517 Edgewater Dr","geo_precision":"range","shop name":"David'S World Cycle","state":"FL"},"type":"Feature","geometry":{"type":"Point","coordinates":[-81.389412,28.574138]}},{"properties":{"city":"Miami Beach","geo_score":1.0,"zip code":"33139","phone":"(305) 532-1954","id":"a6qgxgq96j57","address":"1620 Washington Ave","geo_precision":"range","shop name":"Fritz'S Skate Bike And Surf","state":"FL"},"type":"Feature","geometry":{"type":"Point","coordinates":[-80.131932,25.790023]}},{"properties":{"city":"Tallahassee","geo_score":1.0,"zip code":"32303","phone":"(850) 224-7461","id":"a6qgxgzdnwkw","address":"1909 Thomasville Rd","geo_precision":"range","shop name":"Great Bicycle Shop","state":"FL"},"type":"Feature","geometry":{"type":"Point","coordinates":[-84.269207,30.465478]}},{"properties":{"city":"Tallahassee","geo_score":0.854,"zip code":"32308","phone":"(850) 942-2453","id":"a6qgxgrrysl5","address":"2819 Mahan Dr Ste 108","geo_precision":"range","shop name":"Higher Ground Bicycle Company","state":"FL"},"type":"Feature","geometry":{"type":"Point","coordinates":[-84.231818,30.45862]}},{"properties":{"city":"Belleair","geo_score":0.932,"zip code":"33756","phone":"(727) 216-6948","id":"a6qgxh11eg73","address":"1115 Ponce De Leon Blvd","geo_precision":"range","shop name":"Jcs Cycles","state":"FL"},"type":"Feature","geometry":{"type":"Point","coordinates":[-82.797168,27.93507]}},{"properties":{"city":"Oakland Park","geo_score":0.913,"zip code":"33334","phone":"(954) 565-5961","id":"a6qgxgt105oo","address":"830 E Oakland Park Blvd Ste 126","geo_precision":"range","shop name":"Lauderdale Cyclry","state":"FL"},"type":"Feature","geometry":{"type":"Point","coordinates":[-80.136143,26.16668]}},{"properties":{"city":"Gainesville","geo_score":1.0,"zip code":"32607","phone":"(352) 371-2453","id":"a6qgxgyabtqa","address":"3460 W University Ave","geo_precision":"range","shop name":"Super Cool Bike Shop","state":"FL"},"type":"Feature","geometry":{"type":"Point","coordinates":[-82.372703,29.652139]}},{"properties":{"city":"Augusta","geo_score":0.916,"zip code":"30901","phone":"(706) 724-6777","id":"a6qgxgr33ach","address":"527 13th St","geo_precision":"range","shop name":"Andy Jordan'S Bicycle Warehouse","state":"GA"},"type":"Feature","geometry":{"type":"Point","coordinates":[-81.977044,33.475476]}},{"properties":{"city":"Saint Marys","geo_score":0.694,"zip code":"31558","phone":"(912) 576-9696","id":"a6qgxgt1rtt2","address":"1929 Osborne Rd","geo_precision":"street","shop name":"Camden Bicycle Center","state":"GA"},"type":"Feature","geometry":{"type":"Point","coordinates":[-81.65073,30.823324]}},{"properties":{"city":"Honolulu","geo_score":1.0,"zip code":"96813","phone":"(808) 596-8844","id":"a6qgxh06fcxz","address":"740 Ala Moana Blvd","geo_precision":"range","shop name":"Bikefactory","state":"HI"},"type":"Feature","geometry":{"type":"Point","coordinates":[-157.860596,21.296326]}},{"properties":{"city":"Waipio","geo_score":0.377,"zip code":"96797","phone":"(808) 678-1800","id":"a6qgxgybus7h","address":"94-1388 Moaniani St #208","geo_precision":"street","shop name":"Bikefactory","state":"HI"},"type":"Feature","geometry":{"type":"Point","coordinates":[-158.028585,21.392236]}},{"properties":{"city":"Honolulu","geo_score":1.0,"zip code":"96813","phone":"(808) 591-9839","id":"a6qgxh2w8pss","address":"330 Cooke St","geo_precision":"range","shop name":"Boca Hawai'I","state":"HI"},"type":"Feature","geometry":{"type":"Point","coordinates":[-157.860268,21.29717]}},{"properties":{"city":"Iowa City","geo_score":0.868,"zip code":"52240","phone":"(319) 248-1288","id":"a6qgxh1zu8rx","address":"310 E Prentice St Unit C","geo_precision":"range","shop name":"30th Century Bicycle","state":"IA"},"type":"Feature","geometry":{"type":"Point","coordinates":[-91.530913,41.654472]}},{"properties":{"city":"Ankeny","geo_score":0.927,"zip code":"50021","phone":"(515) 964-5623","id":"a6qgxh2r3xju","address":"825 E 1st St","geo_precision":"range","shop name":"Bike Country","state":"IA"},"type":"Feature","geometry":{"type":"Point","coordinates":[-93.586086,41.731794]}},{"properties":{"city":"West Des Moines","geo_score":0.692,"zip code":"50266","phone":"(515) 222-1880","id":"a6qgxgwcszgy","address":"5960 Village View Dr","geo_precision":"street","shop name":"Bike World Ashworth","state":"IA"},"type":"Feature","geometry":{"type":"Point","coordinates":[-93.761918,41.588957]}},{"properties":{"city":"Des Moines","geo_score":0.585,"zip code":"50310","phone":"(515) 222-1880","id":"a6qgxh0ro03u","address":"2401 Hickman Rd","geo_precision":"zip","shop name":"Bike World Hickman","state":"IA"},"type":"Feature","geometry":{"type":"Point","coordinates":[-93.680954,41.623438]}},{"properties":{"city":"Cedar Rapids","geo_score":0.941,"zip code":"52401","phone":"(319) 362-1052","id":"a6qgxgru6gsv","address":"419 2nd Ave SE","geo_precision":"range","shop name":"Hall Bicycle Co.","state":"IA"},"type":"Feature","geometry":{"type":"Point","coordinates":[-91.664592,41.979587]}},{"properties":{"city":"Decorah","geo_score":1.0,"zip code":"52101","phone":"(563) 382-0421","id":"a6qgxh2db9u4","address":"220 East Water St","geo_precision":"range","shop name":"Oneota River Cycles","state":"IA"},"type":"Feature","geometry":{"type":"Point","coordinates":[-91.784491,43.304233]}},{"properties":{"city":"Altoona","geo_score":0.935,"zip code":"50009","phone":"(515) 967-4414","id":"a6qgxgpdtg4z","address":"307 8th St SW","geo_precision":"range","shop name":"Rasmussen Bike Shop","state":"IA"},"type":"Feature","geometry":{"type":"Point","coordinates":[-93.467081,41.644163]}},{"properties":{"city":"West Des Moines","geo_score":1.0,"zip code":"50265","phone":"(515) 277-2636","id":"a6qgxh0ybdbe","address":"301 Grand Ave","geo_precision":"range","shop name":"Rasmussen Bike Shop","state":"IA"},"type":"Feature","geometry":{"type":"Point","coordinates":[-93.704905,41.582768]}},{"properties":{"city":"Ames","geo_score":1.0,"zip code":"50010","phone":"(515) 232-0322","id":"a6qgxgvlvp4w","address":"308 Main St","geo_precision":"range","shop name":"Skunk River Cycle","state":"IA"},"type":"Feature","geometry":{"type":"Point","coordinates":[-93.61529,42.025015]}},{"properties":{"city":"Iowa City","geo_score":1.0,"zip code":"52240","phone":"(319) 351-8337","id":"a6qgxgpmxc93","address":"723 S Gilbert St","geo_precision":"range","shop name":"World Of Bikes","state":"IA"},"type":"Feature","geometry":{"type":"Point","coordinates":[-91.531212,41.652529]}},{"properties":{"city":"Boise","geo_score":0.471,"zip code":"83703","phone":"(208) 941-6769","id":"a6qgxgrl3hg4","address":"3853 N Garden Center Way","geo_precision":"street","shop name":"Bike Touring News","state":"ID"},"type":"Feature","geometry":{"type":"Point","coordinates":[-116.232952,43.620225]}},{"properties":{"city":"Boise","geo_score":0.805,"zip code":"83702","phone":"(208) 336-3854","id":"a6qgxgyxj4rk","address":"1310 W Main St","geo_precision":"street","shop name":"Idaho Mountain Touring","state":"ID"},"type":"Feature","geometry":{"type":"Point","coordinates":[-116.195247,43.61145]}},{"properties":{"city":"Chicago","geo_score":0.902,"zip code":"60608","phone":"(312) 225-3780","id":"a6qgxh1y44ka","address":"3201 S Halsted St","geo_precision":"street","shop name":"Blue City","state":"IL"},"type":"Feature","geometry":{"type":"Point","coordinates":[-87.646239,41.836462]}},{"properties":{"city":"Chicago","geo_score":0.698,"zip code":"60642","phone":"(312) 337-6400","id":"a6qgxgpxk3zo","address":"1000 W North Ave","geo_precision":"range","shop name":"Erehwon","state":"IL"},"type":"Feature","geometry":{"type":"Point","coordinates":[-87.65408,41.910824]}},{"properties":{"city":"Kildeer","geo_score":0.683,"zip code":"60047","phone":"(847) 726-1301","id":"a6qgxgps8uyv","address":"20505 Rand Rd","geo_precision":"street","shop name":"Erehwon","state":"IL"},"type":"Feature","geometry":{"type":"Point","coordinates":[-88.111677,42.233849]}},{"properties":{"city":"Dekalb","geo_score":1.0,"zip code":"60115","phone":"(815) 758-2403","id":"a6qgxgttwn5m","address":"534 E Lincoln Hwy","geo_precision":"range","shop name":"North Central Cycle","state":"IL"},"type":"Feature","geometry":{"type":"Point","coordinates":[-88.749189,41.929166]}},{"properties":{"city":"Chicago","geo_score":1.0,"zip code":"60657","phone":"(773) 477-5066","id":"a6qgxgwaq1il","address":"3146 N Lincoln Ave","geo_precision":"range","shop name":"On The Route Bicycles","state":"IL"},"type":"Feature","geometry":{"type":"Point","coordinates":[-87.667639,41.938788]}},{"properties":{"city":"Loves Park","geo_score":1.0,"zip code":"61111","phone":"(815) 633-0755","id":"a6qgxgxv0xvo","address":"514 Windsor Rd","geo_precision":"range","shop name":"Shoseis Cyclery","state":"IL"},"type":"Feature","geometry":{"type":"Point","coordinates":[-89.057164,42.324999]}},{"properties":{"city":"Bradley","geo_score":1.0,"zip code":"60915","phone":"(815) 933-9152","id":"a6qgxgu8bmkn","address":"404 W Broadway St","geo_precision":"range","shop name":"Tern Of The Wheel","state":"IL"},"type":"Feature","geometry":{"type":"Point","coordinates":[-87.867693,41.142608]}},{"properties":{"city":"Evanston","geo_score":1.0,"zip code":"60201","phone":"(847) 864-7660","id":"a6qgxgwmmjim","address":"1027 Davis St","geo_precision":"range","shop name":"Turin","state":"IL"},"type":"Feature","geometry":{"type":"Point","coordinates":[-87.686367,42.047152]}},{"properties":{"city":"Bloomington","geo_score":1.0,"zip code":"47408","phone":"(812) 339-3437","id":"a6qgxgoudxz3","address":"507 E Kirkwood Ave","geo_precision":"range","shop name":"Bicycle Garage","state":"IN"},"type":"Feature","geometry":{"type":"Point","coordinates":[-86.526945,39.166618]}},{"properties":{"city":"Indianapolis","geo_score":0.902,"zip code":"46227","phone":"(317) 780-4828","id":"a6qgxguybtu8","address":"5439 S East St","geo_precision":"range","shop name":"Gray Goat Sports","state":"IN"},"type":"Feature","geometry":{"type":"Point","coordinates":[-86.148751,39.68751]}},{"properties":{"city":"Lawrence","geo_score":1.0,"zip code":"66044","phone":"(785) 843-5000","id":"a6qgxgzbpwz5","address":"804 Massachusetts St","geo_precision":"range","shop name":"Sunflower Outdoor And Bike","state":"KS"},"type":"Feature","geometry":{"type":"Point","coordinates":[-95.235834,38.967592]}},{"properties":{"city":"Hays","geo_score":1.0,"zip code":"67601","phone":"(785) 625-5685","id":"a6qgxgrmienh","address":"803 Fort St","geo_precision":"range","shop name":"The Hub Bicycle Shop","state":"KS"},"type":"Feature","geometry":{"type":"Point","coordinates":[-99.33292,38.871583]}},{"properties":{"city":"Louisville","geo_score":0.415,"zip code":"40204","phone":"(502) 749-6775","id":"a6qgxgu9uoau","address":"625 Baxter Ave","geo_precision":"street","shop name":"On Your Left Cycles","state":"KY"},"type":"Feature","geometry":{"type":"Point","coordinates":[-85.601344,38.199887]}},{"properties":{"city":"Lexington","geo_score":1.0,"zip code":"40509","phone":"(859) 273-5856","id":"a6qgxgzc0sjg","address":"3450 Richmond Rd","geo_precision":"range","shop name":"Pedal The Planet","state":"KY"},"type":"Feature","geometry":{"type":"Point","coordinates":[-84.441262,37.996902]}},{"properties":{"city":"Mandeville","geo_score":0.922,"zip code":"70471","phone":"(985) 727-7211","id":"a6qgxgp24ijt","address":"1848 N Causeway Blvd","geo_precision":"range","shop name":"Spokesman Professional","state":"LA"},"type":"Feature","geometry":{"type":"Point","coordinates":[-90.090294,30.385763]}},{"properties":{"city":"Somerville","geo_score":1.0,"zip code":"02144","phone":"(617) 776-2100","id":"a6qgxgzvqvi9","address":"145 Elm St","geo_precision":"range","shop name":"Ace Wheelworks","state":"MA"},"type":"Feature","geometry":{"type":"Point","coordinates":[-71.118454,42.391059]}},{"properties":{"city":"Cambridge","geo_score":1.0,"zip code":"02140","phone":"(617) 354-0907","id":"a6qgxgpu4u2f","address":"1773 Massachusetts Ave","geo_precision":"range","shop name":"Ata Cycle","state":"MA"},"type":"Feature","geometry":{"type":"Point","coordinates":[-71.1194,42.38556]}},{"properties":{"city":"Belmont","geo_score":1.0,"zip code":"02478","phone":"(617) 489-3577","id":"a6qgxgyngdev","address":"480 Trapelo Rd","geo_precision":"range","shop name":"Belmont Wheelworks","state":"MA"},"type":"Feature","geometry":{"type":"Point","coordinates":[-71.189786,42.387519]}},{"properties":{"city":"Beverly","geo_score":0.875,"zip code":"01915","phone":"(978) 338-5663","id":"a6qgxgx7lfzo","address":"132 Dodge St Ste 1","geo_precision":"range","shop name":"Beverly Cycles","state":"MA"},"type":"Feature","geometry":{"type":"Point","coordinates":[-70.884668,42.582443]}},{"properties":{"city":"Cambridge","geo_score":0.391,"zip code":"02139","phone":"(617) 868-3392","id":"a6qgxgqz9gc1","address":"351 Croadawy","geo_precision":"street","shop name":"Broadway Bicycle School","state":"MA"},"type":"Feature","geometry":{"type":"Point","coordinates":[-71.041969,42.369845]}},{"properties":{"city":"Cambridge","geo_score":0.538,"zip code":"02139","phone":"(617) 876-6555","id":"a6qgxh11dwcu","address":"259 Mass Ave","geo_precision":"street","shop name":"Cambridge Bicycle","state":"MA"},"type":"Feature","geometry":{"type":"Point","coordinates":[-70.94113,42.20088]}},{"properties":{"city":"Falmouth","geo_score":1.0,"zip code":"02540","phone":"(508) 540-4195","id":"a6qgxgwe5tfe","address":"115 Palmer Ave","geo_precision":"range","shop name":"Corner Cycle Cape Cod","state":"MA"},"type":"Feature","geometry":{"type":"Point","coordinates":[-70.620808,41.55594]}},{"properties":{"city":"West Newton","geo_score":1.0,"zip code":"02465","phone":"(617) 244-1040","id":"a6qgxh32ibwv","address":"1353 Washington St","geo_precision":"range","shop name":"Harris Cycle","state":"MA"},"type":"Feature","geometry":{"type":"Point","coordinates":[-71.228886,42.348782]}},{"properties":{"city":"Cambridge","geo_score":1.0,"zip code":"02141","phone":"(617) 441-2500","id":"a6qgxh31pc54","address":"918 Cambridge St","geo_precision":"range","shop name":"Hub Bicycle Company","state":"MA"},"type":"Feature","geometry":{"type":"Point","coordinates":[-71.092637,42.372584]}},{"properties":{"city":"Boston","geo_score":0.958,"zip code":"02134","phone":"(617) 783-5804","id":"a6qgxgyvtoa1","address":"89 Brighton Ave","geo_precision":"range","shop name":"International Bicycle Center","state":"MA"},"type":"Feature","geometry":{"type":"Point","coordinates":[-71.129801,42.352843]}},{"properties":{"city":"Boston","geo_score":1.0,"zip code":"02215","phone":"(617) 236-0752","id":"a6qgxh2wvwim","address":"842 Beacon St","geo_precision":"range","shop name":"Superb Bicycle","state":"MA"},"type":"Feature","geometry":{"type":"Point","coordinates":[-71.102578,42.347369]}},{"properties":{"city":"Amherst","geo_score":1.0,"zip code":"01002","phone":"(413) 253-7722","id":"a6qgxgybf9hc","address":"63 S Pleasant St","geo_precision":"range","shop name":"Laughing Dog Bicycle","state":"MA"},"type":"Feature","geometry":{"type":"Point","coordinates":[-72.519896,42.374079]}},{"properties":{"city":"Baltimore","geo_score":1.0,"zip code":"21201","phone":"(410) 605-0705","id":"a6qgxh48qxrt","address":"1813 Falls Road","geo_precision":"range","shop name":"Baltimore Bicycle Works","state":"MD"},"type":"Feature","geometry":{"type":"Point","coordinates":[-76.618898,39.310021]}},{"properties":{"city":"Baltimore","geo_score":1.0,"zip code":"21230","phone":"(410) 986-0001","id":"a6qgxguah2tr","address":"1410 Key Hwy","geo_precision":"range","shop name":"Race Pace Bicycles - Baltimore","state":"MD"},"type":"Feature","geometry":{"type":"Point","coordinates":[-76.602324,39.273753]}},{"properties":{"city":"Columbia","geo_score":1.0,"zip code":"21045","phone":"(410) 290-6880","id":"a6qgxgu1zowc","address":"6925 Oakland Mills Rd","geo_precision":"range","shop name":"Race Pace Bicycles - Columbia","state":"MD"},"type":"Feature","geometry":{"type":"Point","coordinates":[-76.828372,39.179924]}},{"properties":{"city":"Ellicott City","geo_score":1.0,"zip code":"21043","phone":"(410) 461-7878","id":"a6qgxgy15ovs","address":"8450 Baltimore National Pike","geo_precision":"range","shop name":"Race Pace Bicycles  - Ellicott City","state":"MD"},"type":"Feature","geometry":{"type":"Point","coordinates":[-76.808255,39.284124]}},{"properties":{"city":"Westminster","geo_score":1.0,"zip code":"21157","phone":"(410) 876-3001","id":"a6qgxgtz4uet","address":"459 Baltimore Blvd","geo_precision":"range","shop name":"Race Pace Bicycles - Westminster","state":"MD"},"type":"Feature","geometry":{"type":"Point","coordinates":[-76.981807,39.56978]}},{"properties":{"city":"Owings Mills","geo_score":1.0,"zip code":"21117","phone":"(410) 581-9700","id":"a6qgxgyp1qej","address":"9930 Reisterstown Rd","geo_precision":"range","shop name":"Race Pace Bicycles - Owings Mills","state":"MD"},"type":"Feature","geometry":{"type":"Point","coordinates":[-76.768939,39.411259]}},{"properties":{"city":"Silver Spring","geo_score":1.0,"zip code":"20910","phone":"(301) 588-6160","id":"a6qgxgtg1c00","address":"8313 Grubb Rd","geo_precision":"range","shop name":"The Bicycle Place","state":"MD"},"type":"Feature","geometry":{"type":"Point","coordinates":[-77.050892,38.993195]}},{"properties":{"city":"York","geo_score":0.878,"zip code":"03909","phone":"(207) 363-4070","id":"a6qgxh3gdige","address":"241 York St","geo_precision":"range","shop name":"Bergers Bike Shop","state":"ME"},"type":"Feature","geometry":{"type":"Point","coordinates":[-70.650099,43.143442]}},{"properties":{"city":"Portland","geo_score":1.0,"zip code":"04101","phone":"(207) 774-2933","id":"a6qgxgxg3bdl","address":"59 Federal St","geo_precision":"range","shop name":"Cycle Mania","state":"ME"},"type":"Feature","geometry":{"type":"Point","coordinates":[-70.250241,43.662086]}},{"properties":{"city":"Portland","geo_score":1.0,"zip code":"04102","phone":"(207) 773-1700","id":"a6qgxgzsron8","address":"693 Congress St","geo_precision":"range","shop name":"Gorham Bike And Ski","state":"ME"},"type":"Feature","geometry":{"type":"Point","coordinates":[-70.267354,43.65318]}},{"properties":{"city":"Portland","geo_score":1.0,"zip code":"04101","phone":"(207) 899-3133","id":"a6qgxh009ub3","address":"45 York St","geo_precision":"range","shop name":"Portland Velocipede","state":"ME"},"type":"Feature","geometry":{"type":"Point","coordinates":[-70.257472,43.653595]}},{"properties":{"city":"Lincoln Park","geo_score":0.81,"zip code":"48146","phone":"(313) 381-2833","id":"a6qgxh01aj9j","address":"2160 Fort St","geo_precision":"street","shop name":"Al Petri &amp; Sons Bicycles","state":"MI"},"type":"Feature","geometry":{"type":"Point","coordinates":[-83.179085,42.246843]}},{"properties":{"city":"Macomb County","geo_score":0.947,"zip code":"48044","phone":"(586) 416-1000","id":"a6qgxgud9mcw","address":"18517 Hall Rd","geo_precision":"range","shop name":"American Cycle And Fitness","state":"MI"},"type":"Feature","geometry":{"type":"Point","coordinates":[-82.936884,42.628653]}},{"properties":{"city":"Traverse City","geo_score":0.927,"zip code":"49686","phone":"(231) 947-4272","id":"a6qgxgru9dld","address":"736 E 8th St","geo_precision":"range","shop name":"Brick Wheels","state":"MI"},"type":"Feature","geometry":{"type":"Point","coordinates":[-85.607576,44.759181]}},{"properties":{"city":"Traverse City","geo_score":0.844,"zip code":"49684","phone":"(231) 342-1546","id":"a6qgxh3unvsd","address":"1200 W 11th St Ste 231","geo_precision":"range","shop name":"Fixed Gear Gallery/Hell Yes Clothing","state":"MI"},"type":"Feature","geometry":{"type":"Point","coordinates":[-85.642058,44.75616]}},{"properties":{"city":"Ferndale","geo_score":1.0,"zip code":"48220","phone":"(248) 410-1245","id":"a6qgxh0cgmyq","address":"1511 Jarvis St","geo_precision":"range","shop name":"Home Grown Cycles","state":"MI"},"type":"Feature","geometry":{"type":"Point","coordinates":[-83.115316,42.45677]}},{"properties":{"city":"Marquette","geo_score":1.0,"zip code":"49855","phone":"(906) 228-7547","id":"a6qgxgudbesy","address":"505 N Lakeshore Blvd","geo_precision":"range","shop name":"Lakeshore Bike","state":"MI"},"type":"Feature","geometry":{"type":"Point","coordinates":[-87.380147,46.547954]}},{"properties":{"city":"Marquette","geo_score":0.927,"zip code":"49855","phone":"(906) 225-1577","id":"a6qgxgxw8s2h","address":"1100 N 3rd St","geo_precision":"range","shop name":"Quick Stop Bike Shop","state":"MI"},"type":"Feature","geometry":{"type":"Point","coordinates":[-87.394835,46.554627]}},{"properties":{"city":"Marquette","geo_score":1.0,"zip code":"49855","phone":"(906) 225-1766","id":"a6qgxgzthuaf","address":"315 W Washington St","geo_precision":"range","shop name":"The Sports Rack","state":"MI"},"type":"Feature","geometry":{"type":"Point","coordinates":[-87.399656,46.54413]}},{"properties":{"city":"Harbor Springs","geo_score":0.927,"zip code":"49740","phone":"(231) 526-7152","id":"a6qgxgzxiqmd","address":"108 E 3rd St","geo_precision":"range","shop name":"Tourning Gear","state":"MI"},"type":"Feature","geometry":{"type":"Point","coordinates":[-84.988041,45.43047]}},{"properties":{"city":"Ann Arbor","geo_score":0.585,"zip code":"48108","phone":"(734) 528-3030","id":"a6qgxh1e4cef","address":"3162 Packard St","geo_precision":"zip","shop name":"Two Wheel Tango","state":"MI"},"type":"Feature","geometry":{"type":"Point","coordinates":[-83.729342,42.223305]}},{"properties":{"city":"Roseville","geo_score":0.585,"zip code":"55113","phone":"(651) 489-4513","id":"a6qgxgsx1mb9","address":"1712 Lexington Ave N","geo_precision":"zip","shop name":"Bicycle Chain","state":"MN"},"type":"Feature","geometry":{"type":"Point","coordinates":[-93.166333,44.991632]}},{"properties":{"city":"Minneapolis","geo_score":0.958,"zip code":"55408","phone":"(612) 827-8000","id":"a6qgxgq3m1ne","address":"3342 Hennepin Ave","geo_precision":"range","shop name":"Calhoun Cycle","state":"MN"},"type":"Feature","geometry":{"type":"Point","coordinates":[-93.298425,44.941998]}},{"properties":{"city":"Roseville","geo_score":0.585,"zip code":"55113","phone":"(651) 482-9609","id":"a6qgxgwvt7b1","address":"2700 Lexington Ave N","geo_precision":"zip","shop name":"County Cycles","state":"MN"},"type":"Feature","geometry":{"type":"Point","coordinates":[-93.166333,44.991632]}},{"properties":{"city":"Minneapolis","geo_score":0.817,"zip code":"55454","phone":"(612) 238-4447","id":"a6qgxgrrhq2q","address":"1812 S 6th St","geo_precision":"range","shop name":"Freewheel Bike","state":"MN"},"type":"Feature","geometry":{"type":"Point","coordinates":[-93.245766,44.967852]}},{"properties":{"city":"Minneapolis","geo_score":0.935,"zip code":"55417","phone":"(612) 727-2565","id":"a6qgxgu6vlvi","address":"4205 E 54th St","geo_precision":"range","shop name":"Hiawatha Cycle","state":"MN"},"type":"Feature","geometry":{"type":"Point","coordinates":[-93.211455,44.905309]}},{"properties":{"city":"Lanesboro","geo_score":0.947,"zip code":"55949","phone":"(507) 467-2943","id":"a6qgxgus4gm2","address":"105 Coffee St","geo_precision":"range","shop name":"Little River General Store","state":"MN"},"type":"Feature","geometry":{"type":"Point","coordinates":[-91.976984,43.721915]}},{"properties":{"city":"Minneapolis","geo_score":1.0,"zip code":"55401","phone":"(612) 371-9565","id":"a6qgxgpowybi","address":"117 Washington Ave N","geo_precision":"range","shop name":"One On One Bicycle Studio","state":"MN"},"type":"Feature","geometry":{"type":"Point","coordinates":[-93.27026,44.982935]}},{"properties":{"city":"Blaine","geo_score":0.615,"zip code":"55449","phone":"(763) 432-9430","id":"a6qgxgop0ott","address":"10611 Baltimore St NE Ste 140","geo_precision":"street","shop name":"Penn Cycle Blaine","state":"MN"},"type":"Feature","geometry":{"type":"Point","coordinates":[-93.23325,45.168493]}},{"properties":{"city":"Bloomington","geo_score":0.902,"zip code":"55437","phone":"(952) 888-1427","id":"a6qgxgwgg7vo","address":"3916 W Old Shakopee Rd","geo_precision":"range","shop name":"Penn Cycle Bloomington","state":"MN"},"type":"Feature","geometry":{"type":"Point","coordinates":[-93.33436,44.809397]}},{"properties":{"city":"Minneapolis","geo_score":1.0,"zip code":"55408","phone":"(612) 822-2228","id":"a6qgxgyw62u0","address":"710 W Lake St","geo_precision":"range","shop name":"Penn Cycle Lake St","state":"MN"},"type":"Feature","geometry":{"type":"Point","coordinates":[-93.289282,44.948439]}},{"properties":{"city":"Minnetonka","geo_score":0.883,"zip code":"55305","phone":"(952) 593-5030","id":"a6qgxgrte2d9","address":"10750 Cedar Bnd","geo_precision":"range","shop name":"Penn Cycle Minnetonka","state":"MN"},"type":"Feature","geometry":{"type":"Point","coordinates":[-93.415882,44.953424]}},{"properties":{"city":"Richfield","geo_score":1.0,"zip code":"55423","phone":"(612) 866-7540","id":"a6qgxgv9n5ww","address":"6824 Penn Ave S","geo_precision":"range","shop name":"Penn Cycle Richfield","state":"MN"},"type":"Feature","geometry":{"type":"Point","coordinates":[-93.308677,44.878566]}},{"properties":{"city":"Woodbury","geo_score":0.894,"zip code":"55125","phone":"(651) 731-9458","id":"a6qgxh2dn0d3","address":"6415 Lake Road Ter","geo_precision":"range","shop name":"Penn Cycle Woodbury","state":"MN"},"type":"Feature","geometry":{"type":"Point","coordinates":[-92.978973,44.915546]}},{"properties":{"city":"Rochester","geo_score":0.742,"zip code":"55901","phone":"(507) 289-7410","id":"a6qgxh3vtg7h","address":"1211 7th St NW","geo_precision":"street","shop name":"Rochester Cycling &amp; Fitness","state":"MN"},"type":"Feature","geometry":{"type":"Point","coordinates":[-92.48686,44.032599]}},{"properties":{"city":"Austin","geo_score":0.87,"zip code":"55912","phone":"(507) 433-7571","id":"a6qgxh1isoax","address":"219 N Main St","geo_precision":"range","shop name":"Rydjor Bike Shop","state":"MN"},"type":"Feature","geometry":{"type":"Point","coordinates":[-92.974912,43.668171]}},{"properties":{"city":"Mankato","geo_score":0.875,"zip code":"56001","phone":"(507) 386-7767","id":"a6qgxgs0j53c","address":"1850 Adams St Ste 6","geo_precision":"range","shop name":"Scheels River Hills","state":"MN"},"type":"Feature","geometry":{"type":"Point","coordinates":[-93.953412,44.170412]}},{"properties":{"city":"Circle Pines","geo_score":1.0,"zip code":"55014","phone":"(763) 786-3205","id":"a6qgxgt6j7j5","address":"10136 Sunset Ave","geo_precision":"range","shop name":"Sunset Cycle","state":"MN"},"type":"Feature","geometry":{"type":"Point","coordinates":[-93.142978,45.154411]}},{"properties":{"city":"Minneapolis","geo_score":1.0,"zip code":"55454","phone":"(612) 238-3593","id":"a6qgxgxa3hyd","address":"301 Cedar Ave S","geo_precision":"range","shop name":"The Hub Co-Op","state":"MN"},"type":"Feature","geometry":{"type":"Point","coordinates":[-93.247231,44.970248]}},{"properties":{"city":"Minneapolis","geo_score":1.0,"zip code":"55406","phone":"(612) 729-0437","id":"a6qgxgw77a0d","address":"3020 Minnehaha Ave","geo_precision":"range","shop name":"The Hub Co-Op","state":"MN"},"type":"Feature","geometry":{"type":"Point","coordinates":[-93.233405,44.947127]}},{"properties":{"city":"Kansas City","geo_score":1.0,"zip code":"64134","phone":"(816) 761-3233","id":"a6qgxh0brwsm","address":"10415 Blue Ridge Blvd","geo_precision":"range","shop name":"The Bicycle Shack","state":"MO"},"type":"Feature","geometry":{"type":"Point","coordinates":[-94.507733,38.931765]}},{"properties":{"city":"Kansas City","geo_score":1.0,"zip code":"64111","phone":"(816) 759-5510","id":"a6qgxgq78698","address":"1717 W 39th St","geo_precision":"range","shop name":"Volker Bicycles","state":"MO"},"type":"Feature","geometry":{"type":"Point","coordinates":[-94.605964,39.057217]}},{"properties":{"city":"Starkville","geo_score":0.878,"zip code":"39759","phone":"(662) 323-2555","id":"a6qgxgy0gcow","address":"500 Russell St","geo_precision":"range","shop name":"The Bicycle Shop","state":"MS"},"type":"Feature","geometry":{"type":"Point","coordinates":[-88.801919,33.457941]}},{"properties":{"city":"Missoula","geo_score":0.403,"zip code":"59807","phone":"(800) 755-2453","id":"a6qgxgytbof6","address":"PO Box 8308","geo_precision":"street","shop name":"Adventure Cycling Association","state":"MT"},"type":"Feature","geometry":{"type":"Point","coordinates":[-113.734432,45.909116]}},{"properties":{"city":"Billings","geo_score":1.0,"zip code":"59102","phone":"(406) 656-8342","id":"a6qgxh14au6v","address":"1910 Broadwater Ave","geo_precision":"range","shop name":"The Spoke Shop","state":"MT"},"type":"Feature","geometry":{"type":"Point","coordinates":[-108.5647,45.776857]}},{"properties":{"city":"Raleigh","geo_score":0.805,"zip code":"27603","phone":"(919) 832-5097","id":"a6qgxguhau0i","address":"424 W Peace St","geo_precision":"range","shop name":"Flythe Cyclery","state":"NC"},"type":"Feature","geometry":{"type":"Point","coordinates":[-78.644958,35.78872]}},{"properties":{"city":"Asheville","geo_score":1.0,"zip code":"28803","phone":"(828) 274-2453","id":"a6qgxgomsnu9","address":"1378 Hendersonville Rd","geo_precision":"range","shop name":"Liberty Bicycles","state":"NC"},"type":"Feature","geometry":{"type":"Point","coordinates":[-82.529484,35.522891]}},{"properties":{"city":"Asheville","geo_score":1.0,"zip code":"28806","phone":"(828) 253-2800","id":"a6qgxgzzjrle","address":"610 Haywood Rd","geo_precision":"range","shop name":"Pro Bikes","state":"NC"},"type":"Feature","geometry":{"type":"Point","coordinates":[-82.588569,35.578776]}},{"properties":{"city":"Charlotte","geo_score":0.87,"zip code":"28203","phone":"(980) 224-7681","id":"a6qgxgzfzms7","address":"2923 S Tryon St Ste 250","geo_precision":"range","shop name":"Spoke Easy","state":"NC"},"type":"Feature","geometry":{"type":"Point","coordinates":[-80.872757,35.201483]}},{"properties":{"city":"Raleigh","geo_score":0.894,"zip code":"27614","phone":"(919) 845-2600","id":"a6qgxgr72b81","address":"10911 Raven Ridge Rd Ste 107","geo_precision":"range","shop name":"Trek Store Of Raleigh","state":"NC"},"type":"Feature","geometry":{"type":"Point","coordinates":[-78.590962,35.908068]}},{"properties":{"city":"Fargo","geo_score":0.817,"zip code":"58103","phone":"(701) 364-2334","id":"a6qgxgruxljl","address":"4501 15th Ave S Ste 106","geo_precision":"range","shop name":"Paramount Sport","state":"ND"},"type":"Feature","geometry":{"type":"Point","coordinates":[-96.863396,46.858349]}},{"properties":{"city":"Fargo","geo_score":0.941,"zip code":"58103","phone":"(701) 364-0300","id":"a6qgxgy8kod4","address":"4550 15th Ave S","geo_precision":"range","shop name":"Scheel'S All Sports","state":"ND"},"type":"Feature","geometry":{"type":"Point","coordinates":[-96.862899,46.858272]}},{"properties":{"city":"Grand Forks","geo_score":1.0,"zip code":"58201","phone":"(701) 772-5567","id":"a6qgxgu976us","address":"1711 S Washington St","geo_precision":"range","shop name":"The Skie &amp; Bike Shop","state":"ND"},"type":"Feature","geometry":{"type":"Point","coordinates":[-97.044554,47.901991]}},{"properties":{"city":"Lincoln","geo_score":0.935,"zip code":"68503","phone":"(402) 475-2453","id":"a6qgxh2zaj8t","address":"720 N 27th St","geo_precision":"range","shop name":"Cycle Works","state":"NE"},"type":"Feature","geometry":{"type":"Point","coordinates":[-96.682165,40.819751]}},{"properties":{"city":"Lincoln","geo_score":0.824,"zip code":"68508","phone":"(402) 477-4101","id":"a6qgxgzt3dd7","address":"1225 P St Ste A","geo_precision":"range","shop name":"Monkey Wrench Cycles","state":"NE"},"type":"Feature","geometry":{"type":"Point","coordinates":[-96.702852,40.814675]}},{"properties":{"city":"Omaha","geo_score":1.0,"zip code":"68114","phone":"(402) 884-1820","id":"a6qgxgrbayfz","address":"7214 Jones St","geo_precision":"range","shop name":"Trek Bicycle Store Of Omaha","state":"NE"},"type":"Feature","geometry":{"type":"Point","coordinates":[-96.029002,41.254082]}},{"properties":{"city":"Portsmouth","geo_score":1.0,"zip code":"03801","phone":"(603) 427-2060","id":"a6qgxgt0d7zi","address":"653 Islington St","geo_precision":"range","shop name":"Papa Wheelie'S","state":"NH"},"type":"Feature","geometry":{"type":"Point","coordinates":[-70.770974,43.070945]}},{"properties":{"city":"Portsmouth","geo_score":1.0,"zip code":"03801","phone":"(603) 319-1688","id":"a6qgxgtj9ytn","address":"775 Lafayette Rd","geo_precision":"range","shop name":"Trek Bicycles Portsmouth","state":"NH"},"type":"Feature","geometry":{"type":"Point","coordinates":[-70.770316,43.052793]}},{"properties":{"city":"Wenonah","geo_score":1.0,"zip code":"08090","phone":"(856) 468-5115","id":"a6qgxgulpihb","address":"1066 Mantua Pike","geo_precision":"range","shop name":"Action Wheels","state":"NJ"},"type":"Feature","geometry":{"type":"Point","coordinates":[-75.167391,39.806518]}},{"properties":{"city":"Pitman","geo_score":1.0,"zip code":"08071","phone":"(856) 256-1414","id":"a6qgxgpkk9vb","address":"23 S Broadway","geo_precision":"range","shop name":"Caffeinated Cyclist","state":"NJ"},"type":"Feature","geometry":{"type":"Point","coordinates":[-75.13096,39.732739]}},{"properties":{"city":"Albuquerque","geo_score":1.0,"zip code":"87106","phone":"(505) 255-0586","id":"a6qgxgv7pyz4","address":"114 Tulane Dr SE","geo_precision":"range","shop name":"Fixed And Free","state":"NM"},"type":"Feature","geometry":{"type":"Point","coordinates":[-106.606957,35.079225]}},{"properties":{"city":"Alamogordo","geo_score":0.624,"zip code":"88310","phone":"(575) 434-1920","id":"a6qgxgzzpdpu","address":"1516 10th St","geo_precision":"street","shop name":"Outdoor Adventures","state":"NM"},"type":"Feature","geometry":{"type":"Point","coordinates":[-105.877862,33.643795]}},{"properties":{"city":"Gardnerville","geo_score":1.0,"zip code":"89410","phone":"(775) 782-7077","id":"a6qgxgwzrk4i","address":"1546 US Highway 395 N","geo_precision":"range","shop name":"Big Daddy'S Bicycles","state":"NV"},"type":"Feature","geometry":{"type":"Point","coordinates":[-119.755513,38.946218]}},{"properties":{"city":"Reno","geo_score":0.512,"zip code":"89501","phone":"(775) 323-1809","id":"a6qgxh2tlwyd","address":"622 S Virginia St","geo_precision":"street","shop name":"College Cyclery","state":"NV"},"type":"Feature","geometry":{"type":"Point","coordinates":[-119.768153,39.438904]}},{"properties":{"city":"New York","geo_score":1.0,"zip code":"10013","phone":"(212) 227-1150","id":"a6qgxh0fjsyx","address":"147 Reade St","geo_precision":"range","shop name":"Adeline Adeline","state":"NY"},"type":"Feature","geometry":{"type":"Point","coordinates":[-74.010641,40.716721]}},{"properties":{"city":"Brooklyn","geo_score":0.585,"zip code":"11418","phone":"(718) 846-2099","id":"a6qgxgoerem3","address":"114-01 Jamacia Ave","geo_precision":"zip","shop name":"Adt Bike And Skate","state":"NY"},"type":"Feature","geometry":{"type":"Point","coordinates":[-73.83127,40.698566]}},{"properties":{"city":"Brooklyn","geo_score":0.877,"zip code":"11231","phone":"(732) 207-9966","id":"a6qgxh3ovqdv","address":"201 Richards St Ste 104","geo_precision":"range","shop name":"Bamboo Bicycle Studio","state":"NY"},"type":"Feature","geometry":{"type":"Point","coordinates":[-74.013313,40.674716]}},{"properties":{"city":"Brooklyn","geo_score":1.0,"zip code":"11205","phone":"(347) 788-0478","id":"a6qgxgsm22h8","address":"478 Myrtle Ave","geo_precision":"range","shop name":"Bikes On Myrtle","state":"NY"},"type":"Feature","geometry":{"type":"Point","coordinates":[-73.966471,40.693287]}},{"properties":{"city":"Greenvale","geo_score":0.902,"zip code":"11548","phone":"(516) 484-4422","id":"a6qgxgs0euwf","address":"7 Northern Blvd","geo_precision":"street","shop name":"Bikeworks","state":"NY"},"type":"Feature","geometry":{"type":"Point","coordinates":[-73.625064,40.810705]}},{"properties":{"city":"Saratoga Springs","geo_score":1.0,"zip code":"12866","phone":"(518) 583-0600","id":"a6qgxh0utkex","address":"71 Church St","geo_precision":"range","shop name":"Blue Sky Bicycles","state":"NY"},"type":"Feature","geometry":{"type":"Point","coordinates":[-73.788845,43.084182]}},{"properties":{"city":"Brooklyn","geo_score":0.902,"zip code":"11215","phone":"(718) 768-2453","id":"a6qgxgrr06pq","address":"375 9th St","geo_precision":"range","shop name":"Brooklyn Bicycles","state":"NY"},"type":"Feature","geometry":{"type":"Point","coordinates":[-73.986303,40.669173]}},{"properties":{"city":"Brooklyn","geo_score":1.0,"zip code":"11201","phone":"(718) 635-9633","id":"a6qgxh0kjizs","address":"278 Atlantic Ave","geo_precision":"range","shop name":"Brooklyn Heights Bike","state":"NY"},"type":"Feature","geometry":{"type":"Point","coordinates":[-73.989967,40.688899]}},{"properties":{"city":"New York","geo_score":1.0,"zip code":"10002","phone":"(212) 475-0102","id":"a6qgxgwamb6x","address":"175 Stanton St","geo_precision":"range","shop name":"Chari And Co.","state":"NY"},"type":"Feature","geometry":{"type":"Point","coordinates":[-73.983881,40.719994]}},{"properties":{"city":"Corona","geo_score":0.585,"zip code":"11368","phone":"(718) 271-1473","id":"a6qgxgq3rvcy","address":"4220 111th St","geo_precision":"street","shop name":"Cigi Bicycle","state":"NY"},"type":"Feature","geometry":{"type":"Point","coordinates":[-73.857928,40.756685]}},{"properties":{"city":"Jackson Heights","geo_score":0.634,"zip code":"11372","phone":"(718) 457-1093","id":"a6qgxgvcl7za","address":"9107 37th Ave","geo_precision":"street","shop name":"Cigi Bicycle","state":"NY"},"type":"Feature","geometry":{"type":"Point","coordinates":[-73.88902,40.749244]}},{"properties":{"city":"New V","geo_score":0.951,"zip code":"10009","phone":"(212) 505-8785","id":"a6qgxgtst7za","address":"199 Ave B","geo_precision":"range","shop name":"Continuum Cycles","state":"NY"},"type":"Feature","geometry":{"type":"Point","coordinates":[-73.978557,40.72855]}},{"properties":{"city":"Brooklyn","geo_score":1.0,"zip code":"11238","phone":"(718) 789-2502","id":"a6qgxh1x52t4","address":"694 Franklin Ave","geo_precision":"range","shop name":"Excelsior Bicycles","state":"NY"},"type":"Feature","geometry":{"type":"Point","coordinates":[-73.956706,40.674442]}},{"properties":{"city":"Brooklyn","geo_score":1.0,"zip code":"11238","phone":"(718) 638-2453","id":"a6qgxh0dko32","address":"997 Fulton St","geo_precision":"range","shop name":"Fulton Bikes","state":"NY"},"type":"Feature","geometry":{"type":"Point","coordinates":[-73.96315,40.682813]}},{"properties":{"city":"New York","geo_score":1.0,"zip code":"10013","phone":"(212) 732-2453","id":"a6qgxh0rq3ux","address":"112 W Broadway","geo_precision":"range","shop name":"Gotham Bikes","state":"NY"},"type":"Feature","geometry":{"type":"Point","coordinates":[-74.008598,40.716361]}},{"properties":{"city":"Brooklyn","geo_score":1.0,"zip code":"11222","phone":"(347) 689-8899","id":"a6qgxgqqh4ce","address":"453 Graham Ave","geo_precision":"range","shop name":"King Kog","state":"NY"},"type":"Feature","geometry":{"type":"Point","coordinates":[-73.945514,40.719454]}},{"properties":{"city":"New York","geo_score":1.0,"zip code":"10128","phone":"(212) 722-2201","id":"a6qgxgunb2o0","address":"1690 2nd Ave","geo_precision":"range","shop name":"Larry'S Bicycles Plus","state":"NY"},"type":"Feature","geometry":{"type":"Point","coordinates":[-73.950899,40.778829]}},{"properties":{"city":"Brooklyn","geo_score":1.0,"zip code":"11210","phone":"(718) 377-3600","id":"a6qgxgwm9axe","address":"1854 Flatbush Ave","geo_precision":"range","shop name":"Larry'S Cycle Shop","state":"NY"},"type":"Feature","geometry":{"type":"Point","coordinates":[-73.939106,40.624768]}},{"properties":{"city":"New York","geo_score":1.0,"zip code":"10019","phone":"(212) 757-2418","id":"a6qgxgz4zy6d","address":"849 9th Ave","geo_precision":"range","shop name":"Liberty Bicycles","state":"NY"},"type":"Feature","geometry":{"type":"Point","coordinates":[-73.986408,40.767028]}},{"properties":{"city":"Brooklyn","geo_score":0.585,"zip code":"11205","phone":"(347) 442-1672","id":"a6qgxgtqeshw","address":"409 Willoughby Ave","geo_precision":"zip","shop name":"Lit Fuse Cyclery","state":"NY"},"type":"Feature","geometry":{"type":"Point","coordinates":[-73.936274,40.682507]}},{"properties":{"city":"New York","geo_score":1.0,"zip code":"10003","phone":"(212) 253-6788","id":"a6qgxh27g1zs","address":"141 E 17th St","geo_precision":"range","shop name":"Manhattan Velo","state":"NY"},"type":"Feature","geometry":{"type":"Point","coordinates":[-73.986045,40.735434]}},{"properties":{"city":"New York","geo_score":1.0,"zip code":"10025","phone":"(212) 663-7531","id":"a6qgxgp1xzr3","address":"231 W 96th St","geo_precision":"range","shop name":"Metro Bicycles","state":"NY"},"type":"Feature","geometry":{"type":"Point","coordinates":[-73.97108,40.79434]}},{"properties":{"city":"New York","geo_score":1.0,"zip code":"10026","phone":"(212) 865-5050","id":"a6qgxgzox81l","address":"2119 Frederick Douglass Blvd","geo_precision":"range","shop name":"Modsquad Cycles","state":"NY"},"type":"Feature","geometry":{"type":"Point","coordinates":[-73.956101,40.803465]}},{"properties":{"city":"Pelham","geo_score":1.0,"zip code":"10803","phone":"(914) 738-3338","id":"a6qgxgq76d01","address":"109 Wolfs Ln","geo_precision":"range","shop name":"Pelham Bicycles","state":"NY"},"type":"Feature","geometry":{"type":"Point","coordinates":[-73.812091,40.905439]}},{"properties":{"city":"Brooklyn","geo_score":1.0,"zip code":"11217","phone":"(347) 599-1340","id":"a6qgxgqyr75f","address":"468 Bergen St","geo_precision":"range","shop name":"Ride Brooklyn","state":"NY"},"type":"Feature","geometry":{"type":"Point","coordinates":[-73.976179,40.681178]}},{"properties":{"city":"Glen Cove","geo_score":0.89,"zip code":"11542","phone":"(516) 671-8280","id":"a6qgxgp8sa31","address":"8 Forest Ave Ste C","geo_precision":"range","shop name":"Road Runners","state":"NY"},"type":"Feature","geometry":{"type":"Point","coordinates":[-73.627812,40.87045]}},{"properties":{"city":"Flushing","geo_score":0.707,"zip code":"11358","phone":"(718) 353-5432","id":"a6qgxh33jh8i","address":"3313 Francis Lewis Blvd","geo_precision":"street","shop name":"Roberts Bicycles","state":"NY"},"type":"Feature","geometry":{"type":"Point","coordinates":[-73.796525,40.773502]}},{"properties":{"city":"Brooklyn","geo_score":1.0,"zip code":"11235","phone":"(718) 648-1440","id":"a6qgxgzt0grv","address":"2679 Coney Island Ave","geo_precision":"range","shop name":"Sheepshead Cycles","state":"NY"},"type":"Feature","geometry":{"type":"Point","coordinates":[-73.960567,40.591174]}},{"properties":{"city":"New York","geo_score":1.0,"zip code":"10003","phone":"(212) 995-0450","id":"a6qgxgrui501","address":"34 Irving Pl","geo_precision":"range","shop name":"Spokesman Cycle","state":"NY"},"type":"Feature","geometry":{"type":"Point","coordinates":[-73.987387,40.735879]}},{"properties":{"city":"Glendale","geo_score":0.585,"zip code":"11385","phone":"(718) 366-0450","id":"a6qgxgwnqqn7","address":"8016 Cooper Ave","geo_precision":"street","shop name":"Spokesman Cycle","state":"NY"},"type":"Feature","geometry":{"type":"Point","coordinates":[-73.895789,40.694744]}},{"properties":{"city":"Long Island City","geo_score":0.585,"zip code":"11101","phone":"(718) 433-0450","id":"a6qgxh262iv1","address":"4904 Vernon Blvd","geo_precision":"street","shop name":"Spokesman Cycle","state":"NY"},"type":"Feature","geometry":{"type":"Point","coordinates":[-73.952946,40.746186]}},{"properties":{"city":"New York","geo_score":1.0,"zip code":"10023","phone":"(212) 799-9625","id":"a6qgxgsg0957","address":"110 W End Ave","geo_precision":"range","shop name":"Toga Bikes","state":"NY"},"type":"Feature","geometry":{"type":"Point","coordinates":[-73.987874,40.774919]}},{"properties":{"city":"Astoria","geo_score":0.634,"zip code":"11105","phone":"(718) 278-3355","id":"a6qgxgo7tef3","address":"3501 23rd Ave","geo_precision":"street","shop name":"Tony'S Bicycles","state":"NY"},"type":"Feature","geometry":{"type":"Point","coordinates":[-73.920127,40.779489]}},{"properties":{"city":"Brooklyn","geo_score":0.916,"zip code":"11209","phone":"(718) 680-6521","id":"a6qgxgyuqmfr","address":"7308 5th Ave","geo_precision":"range","shop name":"Verrazano Bicycle Shop","state":"NY"},"type":"Feature","geometry":{"type":"Point","coordinates":[-74.022351,40.630399]}},{"properties":{"city":"Bronx","geo_score":1.0,"zip code":"10461","phone":"(718) 409-1114","id":"a6qgxgwwzzx5","address":"2611 Westchester Ave","geo_precision":"range","shop name":"Westchester Pro Bike","state":"NY"},"type":"Feature","geometry":{"type":"Point","coordinates":[-73.841204,40.841159]}},{"properties":{"city":"Yorktown Heights","geo_score":1.0,"zip code":"10598","phone":"(914) 245-5504","id":"a6qgxh3ourya","address":"1899 Commerce St","geo_precision":"range","shop name":"Yorktown Cycles","state":"NY"},"type":"Feature","geometry":{"type":"Point","coordinates":[-73.780126,41.273906]}},{"properties":{"city":"Stow","geo_score":1.0,"zip code":"44224","phone":"(33) 688-5521","id":"a6qgxgy0kh6q","address":"3707 Darrow Rd","geo_precision":"range","shop name":"Eddy'S","state":"OH"},"type":"Feature","geometry":{"type":"Point","coordinates":[-81.440305,41.16538]}},{"properties":{"city":"Cleveland","geo_score":0.935,"zip code":"44113","phone":"(216) 394-0230","id":"a6qgxgvipgbk","address":"1836 W 25th St","geo_precision":"range","shop name":"Joy Machines","state":"OH"},"type":"Feature","geometry":{"type":"Point","coordinates":[-81.705167,41.48639]}},{"properties":{"city":"Columbus","geo_score":0.592,"zip code":"43201","phone":"(614) 299-0899","id":"a6qgxgpp7ltg","address":"941 N High St","geo_precision":"range","shop name":"Paradise Garage","state":"OH"},"type":"Feature","geometry":{"type":"Point","coordinates":[-83.043151,40.128539]}},{"properties":{"city":"Wooster","geo_score":1.0,"zip code":"44691","phone":"(330) 345-2453","id":"a6qgxgoy0a0a","address":"139 N Market St","geo_precision":"range","shop name":"Ride On","state":"OH"},"type":"Feature","geometry":{"type":"Point","coordinates":[-81.940076,40.798976]}},{"properties":{"city":"Lakewood","geo_score":1.0,"zip code":"44107","phone":"(216) 521-7746","id":"a6qgxgu6v356","address":"14515 Madison Ave","geo_precision":"range","shop name":"Spin Bike Shop","state":"OH"},"type":"Feature","geometry":{"type":"Point","coordinates":[-81.796798,41.477113]}},{"properties":{"city":"Lewis Center","geo_score":1.0,"zip code":"43035","phone":"(614) 933-9999","id":"a6qgxgy58cva","address":"3294 Harbor Dr","geo_precision":"range","shop name":"Trek Store Of Columbus","state":"OH"},"type":"Feature","geometry":{"type":"Point","coordinates":[-82.978043,40.192204]}},{"properties":{"city":"Norman","geo_score":1.0,"zip code":"73069","phone":"(405) 364-5513","id":"a6qgxh2j37fk","address":"561 Buchanan Ave","geo_precision":"range","shop name":"Buchanan Bicycles","state":"OK"},"type":"Feature","geometry":{"type":"Point","coordinates":[-97.444575,35.212278]}},{"properties":{"city":"Oklahoma City","geo_score":1.0,"zip code":"73102","phone":"(405) 232-4040","id":"a6qgxgohxrwc","address":"900 N Broadway Ave","geo_precision":"range","shop name":"Schlegel Bicycle","state":"OK"},"type":"Feature","geometry":{"type":"Point","coordinates":[-97.51412,35.477112]}},{"properties":{"city":"Shawnee","geo_score":1.0,"zip code":"74801","phone":"(405) 275-4980","id":"a6qgxh0v4izg","address":"701 N Beard Ave","geo_precision":"range","shop name":"The Bicycle Shoppe","state":"OK"},"type":"Feature","geometry":{"type":"Point","coordinates":[-96.924883,35.338673]}},{"properties":{"city":"Portland","geo_score":0.947,"zip code":"97209","phone":"(503) 222-2851","id":"a6qgxgrx4n9f","address":"916 NW 21st Ave","geo_precision":"range","shop name":"21St Ave Bicycles","state":"OR"},"type":"Feature","geometry":{"type":"Point","coordinates":[-122.694475,45.529749]}},{"properties":{"city":"Portland","geo_score":1.0,"zip code":"97227","phone":"(503) 953-5260","id":"a6qgxgva2q0x","address":"3508 N Williams Ave","geo_precision":"range","shop name":"Abraham Fixes Bikes","state":"OR"},"type":"Feature","geometry":{"type":"Point","coordinates":[-122.666636,45.549482]}},{"properties":{"city":"Eugene","geo_score":1.0,"zip code":"97405","phone":"(541) 484-5410","id":"a6qgxgto81ww","address":"2705 Willamette St","geo_precision":"range","shop name":"Arriving By Bike","state":"OR"},"type":"Feature","geometry":{"type":"Point","coordinates":[-123.090638,44.028143]}},{"properties":{"city":"Ashland","geo_score":1.0,"zip code":"97520","phone":"(541) 488-0581","id":"a6qgxh44eesl","address":"191 Oak St","geo_precision":"range","shop name":"Ashland Cycle Sport","state":"OR"},"type":"Feature","geometry":{"type":"Point","coordinates":[-122.714071,42.197821]}},{"properties":{"city":"Portland","geo_score":0.585,"zip code":"97210","phone":"(503) 477-5906","id":"a6qgxh2y297p","address":"2600 NW Vaughn St","geo_precision":"zip","shop name":"Athletes Lounge","state":"OR"},"type":"Feature","geometry":{"type":"Point","coordinates":[-122.732358,45.547339]}},{"properties":{"city":"Bend","geo_score":0.865,"zip code":"97701","phone":"(541) 610-7460","id":"a6qgxgt7fpgf","address":"1631 NE 2nd St Ste 2","geo_precision":"range","shop name":"Bend Velo","state":"OR"},"type":"Feature","geometry":{"type":"Point","coordinates":[-121.303986,44.066417]}},{"properties":{"city":"Florence","geo_score":0.732,"zip code":"97439","phone":"(541) 997-5717","id":"a6qgxh42vo78","address":"1537 8th St","geo_precision":"street","shop name":"Bicycles 101","state":"OR"},"type":"Feature","geometry":{"type":"Point","coordinates":[-124.106177,43.973724]}},{"properties":{"city":"Portland","geo_score":0.947,"zip code":"97202","phone":"(503) 505-9200","id":"a6qgxgo85v0w","address":"8315 SE 13th Ave","geo_precision":"range","shop name":"Bike Commuter","state":"OR"},"type":"Feature","geometry":{"type":"Point","coordinates":[-122.653075,45.462284]}},{"properties":{"city":"Portland","geo_score":1.0,"zip code":"97213","phone":"(503) 281-9800","id":"a6qgxgvab8vt","address":"5329 NE Sandy Blvd","geo_precision":"range","shop name":"Bike Gallery Hollywood","state":"OR"},"type":"Feature","geometry":{"type":"Point","coordinates":[-122.607808,45.541008]}},{"properties":{"city":"Portland","geo_score":1.0,"zip code":"97214","phone":"(503) 736-1074","id":"a6qgxh16qglh","address":"400 SE Grand Ave","geo_precision":"range","shop name":"Bike N' Hike","state":"OR"},"type":"Feature","geometry":{"type":"Point","coordinates":[-122.66073,45.519366]}},{"properties":{"city":"Portland","geo_score":0.947,"zip code":"97220","phone":"(503) 342-9980","id":"a6qgxh4kcro6","address":"5741 NE 87th Ave","geo_precision":"range","shop name":"Bike Tires Direct","state":"OR"},"type":"Feature","geometry":{"type":"Point","coordinates":[-122.573403,45.565378]}},{"properties":{"city":"Portland","geo_score":1.0,"zip code":"97217","phone":"(503) 281-0255","id":"a6qgxh1hx7nn","address":"122 N Killingsworth St","geo_precision":"range","shop name":"Cascade Cycling","state":"OR"},"type":"Feature","geometry":{"type":"Point","coordinates":[-122.668621,45.562632]}},{"properties":{"city":"Portland","geo_score":1.0,"zip code":"97214","phone":"(503) 239-6951","id":"a6qgxh2rj0b6","address":"734 SE Ankeny St","geo_precision":"range","shop name":"City Bikes","state":"OR"},"type":"Feature","geometry":{"type":"Point","coordinates":[-122.657915,45.522135]}},{"properties":{"city":"Portland","geo_score":1.0,"zip code":"97214","phone":"(503) 334-1560","id":"a6qgxgo7zots","address":"908 SE Hawthorne Blvd","geo_precision":"range","shop name":"Clever Cycles","state":"OR"},"type":"Feature","geometry":{"type":"Point","coordinates":[-122.655764,45.512143]}},{"properties":{"city":"Portland","geo_score":1.0,"zip code":"97214","phone":"(503) 610-8356","id":"a6qgxgsd1xkn","address":"2725 SE Ash St","geo_precision":"range","shop name":"Crank","state":"OR"},"type":"Feature","geometry":{"type":"Point","coordinates":[-122.637489,45.521535]}},{"properties":{"city":"Portland","geo_score":1.0,"zip code":"97210","phone":"(503) 222-3276","id":"a6qgxgy9wzer","address":"2714 NW Thurman St","geo_precision":"range","shop name":"Fat Tire Farm","state":"OR"},"type":"Feature","geometry":{"type":"Point","coordinates":[-122.708603,45.535239]}},{"properties":{"city":"Talent","geo_score":0.699,"zip code":"97540","phone":"(541) 512-8891","id":"a6qgxh1dagam","address":"106 Talent Ave Suite 1","geo_precision":"street","shop name":"Flywheel Bicycle Solutions","state":"OR"},"type":"Feature","geometry":{"type":"Point","coordinates":[-122.787485,42.245664]}},{"properties":{"city":"Portland","geo_score":1.0,"zip code":"97214","phone":"(503) 232-1107","id":"a6qgxguc9kwj","address":"3953 SE Hawthorne Blvd","geo_precision":"range","shop name":"Joe Bike","state":"OR"},"type":"Feature","geometry":{"type":"Point","coordinates":[-122.622017,45.512118]}},{"properties":{"city":"Portland","geo_score":1.0,"zip code":"97206","phone":"(503) 234-1313","id":"a6qgxgpjfgeq","address":"5020 SE Division St","geo_precision":"range","shop name":"Lucky 13 Bikes","state":"OR"},"type":"Feature","geometry":{"type":"Point","coordinates":[-122.610169,45.505234]}},{"properties":{"city":"Portland","geo_score":1.0,"zip code":"97227","phone":"(503) 287-7116","id":"a6qgxgt04cz8","address":"2249 N Williams Ave","geo_precision":"range","shop name":"Metropolis Cycle Repair","state":"OR"},"type":"Feature","geometry":{"type":"Point","coordinates":[-122.666765,45.539301]}},{"properties":{"city":"La Grande","geo_score":1.0,"zip code":"97850","phone":"(541) 963-3220","id":"a6qgxh1ylhgm","address":"1307 Adams Ave","geo_precision":"range","shop name":"Mountain Works","state":"OR"},"type":"Feature","geometry":{"type":"Point","coordinates":[-118.093316,45.327966]}},{"properties":{"city":"Portland","geo_score":1.0,"zip code":"97227","phone":"(503) 287-1098","id":"a6qgxgybzyhm","address":"3978 N Mississippi Ave","geo_precision":"range","shop name":"North Portland Bike Works","state":"OR"},"type":"Feature","geometry":{"type":"Point","coordinates":[-122.675539,45.550843]}},{"properties":{"city":"Portland","geo_score":1.0,"zip code":"97215","phone":"(503) 575-1804","id":"a6qgxgxf3dfk","address":"7918 SE Stark St","geo_precision":"range","shop name":"Oregon Bike Shop","state":"OR"},"type":"Feature","geometry":{"type":"Point","coordinates":[-122.581595,45.519077]}},{"properties":{"city":"Portland","geo_score":0.512,"zip code":"97217","phone":"(503) 285-1084","id":"a6qgxgwd02ua","address":"6509 N Interstate Ave # 11","geo_precision":"street","shop name":"Revolver","state":"OR"},"type":"Feature","geometry":{"type":"Point","coordinates":[-122.680348,45.55338]}},{"properties":{"city":"Portland","geo_score":1.0,"zip code":"97214","phone":"(503) 233-5973","id":"a6qgxgzt1nn2","address":"706 SE M L King Blvd","geo_precision":"range","shop name":"River City Bicycles","state":"OR"},"type":"Feature","geometry":{"type":"Point","coordinates":[-122.661719,45.517425]}},{"properties":{"city":"Portland","geo_score":1.0,"zip code":"97202","phone":"(503) 233-9392","id":"a6qgxh2cl5vp","address":"7639 SE Milwaukie Ave","geo_precision":"range","shop name":"Sellwood Cycle Repair","state":"OR"},"type":"Feature","geometry":{"type":"Point","coordinates":[-122.648308,45.4697]}},{"properties":{"city":"Portland","geo_score":0.752,"zip code":"97202","phone":"(503) 230-0317","id":"a6qgxh3owmcs","address":"32318 SE 21st Ave","geo_precision":"street","shop name":"Seven Corners Cycles","state":"OR"},"type":"Feature","geometry":{"type":"Point","coordinates":[-122.643072,45.460749]}},{"properties":{"city":"Bend","geo_score":1.0,"zip code":"97701","phone":"(541) 382-8018","id":"a6qgxgojlmt6","address":"930 NW Newport Ave","geo_precision":"range","shop name":"Sunnyside Sports","state":"OR"},"type":"Feature","geometry":{"type":"Point","coordinates":[-121.325091,44.062448]}},{"properties":{"city":"Portland","geo_score":0.947,"zip code":"97209","phone":"(800) 936-5156","id":"a6qgxgxly2zx","address":"1820 NW 18th Ave","geo_precision":"range","shop name":"Universal Cycles","state":"OR"},"type":"Feature","geometry":{"type":"Point","coordinates":[-122.68964,45.536229]}},{"properties":{"city":"Portland","geo_score":0.947,"zip code":"97213","phone":"(503) 922-2012","id":"a6qgxh47adde","address":"1969 NE 42nd Ave","geo_precision":"range","shop name":"Velo Cult","state":"OR"},"type":"Feature","geometry":{"type":"Point","coordinates":[-122.619991,45.536179]}},{"properties":{"city":"Portland","geo_score":0.941,"zip code":"97205","phone":"(503) 335-8356","id":"a6qgxgpy468v","address":"211 SW 9th Ave","geo_precision":"range","shop name":"Velo Shop","state":"OR"},"type":"Feature","geometry":{"type":"Point","coordinates":[-122.680155,45.522853]}},{"properties":{"city":"Portland","geo_score":1.0,"zip code":"97214","phone":"(503) 234-8400","id":"a6qgxh1xhxhi","address":"3202 SE Hawthorne Blvd","geo_precision":"range","shop name":"Veloce","state":"OR"},"type":"Feature","geometry":{"type":"Point","coordinates":[-122.63169,45.511988]}},{"properties":{"city":"Portland","geo_score":1.0,"zip code":"97205","phone":"(503) 208-2933","id":"a6qgxgq4995g","address":"1111 SW Stark St","geo_precision":"range","shop name":"West End Bikes","state":"OR"},"type":"Feature","geometry":{"type":"Point","coordinates":[-122.683012,45.52261]}},{"properties":{"city":"Portland","geo_score":0.947,"zip code":"97209","phone":"(503) 342-9985","id":"a6qgxgr13dzx","address":"1015 NW 17th Ave","geo_precision":"range","shop name":"Western Bikeworks","state":"OR"},"type":"Feature","geometry":{"type":"Point","coordinates":[-122.688565,45.530584]}},{"properties":{"city":"Philadelphia","geo_score":0.927,"zip code":"19147","phone":"(215) 629-2453","id":"a6qgxgonekdo","address":"712 S 4th St","geo_precision":"range","shop name":"Bicycle Revolutions","state":"PA"},"type":"Feature","geometry":{"type":"Point","coordinates":[-75.149583,39.940212]}},{"properties":{"city":"Philadelphia","geo_score":1.0,"zip code":"19130","phone":"(267) 507-9370","id":"a6qgxh2gx68q","address":"2015 Fairmount Ave","geo_precision":"range","shop name":"Fairmount Bicycles","state":"PA"},"type":"Feature","geometry":{"type":"Point","coordinates":[-75.171343,39.967275]}},{"properties":{"city":"State College","geo_score":1.0,"zip code":"16801","phone":"(814) 272-0178","id":"a6qgxgv9rnar","address":"109 S Allen St","geo_precision":"range","shop name":"Freeze Thaw Cycles","state":"PA"},"type":"Feature","geometry":{"type":"Point","coordinates":[-77.861264,40.794291]}},{"properties":{"city":"Pittsburgh","geo_score":1.0,"zip code":"15213","phone":"(412) 681-1310","id":"a6qgxgrvjqig","address":"331 S Bouquet St","geo_precision":"range","shop name":"Iron City Bikes","state":"PA"},"type":"Feature","geometry":{"type":"Point","coordinates":[-79.95297,40.440021]}},{"properties":{"city":"Pittsburgh","geo_score":0.87,"zip code":"15206","phone":"(412) 362-8735","id":"a6qgxgvixlo8","address":"5957 Penn Cir S Ste 202","geo_precision":"range","shop name":"Trek Of Pittsburgh","state":"PA"},"type":"Feature","geometry":{"type":"Point","coordinates":[-79.92898,40.458757]}},{"properties":{"city":"Philadelphia","geo_score":0.935,"zip code":"19103","phone":"(215) 564-2100","id":"a6qgxh23m9rk","address":"115 S 22nd St","geo_precision":"range","shop name":"Volpe Cycles","state":"PA"},"type":"Feature","geometry":{"type":"Point","coordinates":[-75.177002,39.952253]}},{"properties":{"city":"Providence","geo_score":0.902,"zip code":"02906","phone":"(401) 274-5300","id":"a6qgxh46cpep","address":"212 4th St","geo_precision":"range","shop name":"Caster'S On 4Th","state":"RI"},"type":"Feature","geometry":{"type":"Point","coordinates":[-71.392997,41.848897]}},{"properties":{"city":"Providence","geo_score":1.0,"zip code":"02903","phone":"(401) 453-3274","id":"a6qgxgrjkdg1","address":"267 Broadway","geo_precision":"range","shop name":"Dash Bicycle","state":"RI"},"type":"Feature","geometry":{"type":"Point","coordinates":[-71.425981,41.820709]}},{"properties":{"city":"Mt Pleasant","geo_score":0.979,"zip code":"29464","phone":"(843) 722-8168","id":"a6qgxh1v4cji","address":"1579 Johnnie Dodds Blvd","geo_precision":"range","shop name":"Bicycle &amp; Outdoor Shoppe","state":"SC"},"type":"Feature","geometry":{"type":"Point","coordinates":[-79.851548,32.813534]}},{"properties":{"city":"Greenville","geo_score":0.902,"zip code":"29607","phone":"(864) 385-7555","id":"a6qgxgwfhj1d","address":"874 S Pleasantburg Dr","geo_precision":"range","shop name":"Greenville Custom Bicycles","state":"SC"},"type":"Feature","geometry":{"type":"Point","coordinates":[-82.368436,34.816672]}},{"properties":{"city":"Columbia","geo_score":1.0,"zip code":"29205","phone":"(803) 254-9797","id":"a6qgxgzfnsn2","address":"3223 Devine St","geo_precision":"range","shop name":"Outspokin Bicycles","state":"SC"},"type":"Feature","geometry":{"type":"Point","coordinates":[-80.994843,33.99762]}},{"properties":{"city":"Rapid City","geo_score":0.902,"zip code":"57701","phone":"(605) 716-0826","id":"a6qgxgzsecou","address":"519 6th St","geo_precision":"range","shop name":"Crank Jeffs","state":"SD"},"type":"Feature","geometry":{"type":"Point","coordinates":[-103.227329,44.080227]}},{"properties":{"city":"Spearfish","geo_score":0.806,"zip code":"57783","phone":"(605) 642-2885","id":"a6qgxgyx7rek","address":"505 N Main St","geo_precision":"street","shop name":"Rushmore Bicycles","state":"SD"},"type":"Feature","geometry":{"type":"Point","coordinates":[-103.859573,44.492207]}},{"properties":{"city":"Brookings","geo_score":1.0,"zip code":"57006","phone":"(605) 692-5022","id":"a6qgxgplyabo","address":"501 Main Ave","geo_precision":"range","shop name":"Sioux River Bicycles &amp; Fitness","state":"SD"},"type":"Feature","geometry":{"type":"Point","coordinates":[-96.798606,44.311492]}},{"properties":{"city":"Sioux Falls","geo_score":1.0,"zip code":"57105","phone":"(605) 334-2668","id":"a6qgxgv7te9b","address":"3315 S Spring Ave","geo_precision":"range","shop name":"Two Wheeler Dealer","state":"SD"},"type":"Feature","geometry":{"type":"Point","coordinates":[-96.732553,43.513169]}},{"properties":{"city":"Cordova","geo_score":0.902,"zip code":"38016","phone":"(901) 606-2779","id":"a6qgxgth8y7y","address":"9069 Macon Rd","geo_precision":"range","shop name":"Boywids Bicycle Hub","state":"TN"},"type":"Feature","geometry":{"type":"Point","coordinates":[-89.757236,35.163717]}},{"properties":{"city":"Cookeville","geo_score":0.585,"zip code":"38501","phone":"(931) 520-6161","id":"a6qgxgzixy61","address":"610 W Jackson St","geo_precision":"zip","shop name":"Cookeville Bicycles","state":"TN"},"type":"Feature","geometry":{"type":"Point","coordinates":[-85.484417,36.334783]}},{"properties":{"city":"Nashville","geo_score":1.0,"zip code":"37204","phone":"(615) 730-9344","id":"a6qgxgu2jjd1","address":"1119 Halcyon Ave","geo_precision":"range","shop name":"Halcyon Bike Shop","state":"TN"},"type":"Feature","geometry":{"type":"Point","coordinates":[-86.789783,36.122564]}},{"properties":{"city":"Nashville","geo_score":1.0,"zip code":"37206","phone":"(615) 227-2772","id":"a6qgxgsnrt4d","address":"961 Woodland St","geo_precision":"range","shop name":"Nashville Bicycle Lounge","state":"TN"},"type":"Feature","geometry":{"type":"Point","coordinates":[-86.751538,36.176988]}},{"properties":{"city":"Chattanooga","geo_score":0.902,"zip code":"37405","phone":"(423) 648-2100","id":"a6qgxgrivo1g","address":"307 Manufacturers Rd Ste 117","geo_precision":"range","shop name":"Trek Bicycle Store Of Chattanooga","state":"TN"},"type":"Feature","geometry":{"type":"Point","coordinates":[-85.31302,35.062734]}},{"properties":{"city":"Sewanee","geo_score":0.967,"zip code":"37375","phone":"(931) 598-9793","id":"a6qgxh4fh9v7","address":"90 Reeds Ln","geo_precision":"range","shop name":"Woody'S Bicycles","state":"TN"},"type":"Feature","geometry":{"type":"Point","coordinates":[-85.918147,35.194689]}},{"properties":{"city":"Cedar Hill","geo_score":0.875,"zip code":"75104","phone":"(972) 293-3100","id":"a6qgxgsihq1y","address":"408 N Highway 67 Ste A","geo_precision":"range","shop name":"B&amp;B Bicycle","state":"TX"},"type":"Feature","geometry":{"type":"Point","coordinates":[-96.938579,32.595521]}},{"properties":{"city":"Austin","geo_score":0.829,"zip code":"78704","phone":"(512) 477-1551","id":"a6qgxh3yrvlx","address":"517 Lamar","geo_precision":"range","shop name":"Bicycle Sport Shop","state":"TX"},"type":"Feature","geometry":{"type":"Point","coordinates":[-97.759223,30.258773]}},{"properties":{"city":"Houston","geo_score":1.0,"zip code":"77079","phone":"(281) 556-0923","id":"a6qgxh1p4764","address":"14536 Memorial Dr","geo_precision":"range","shop name":"Bicycle World Of Houston","state":"TX"},"type":"Feature","geometry":{"type":"Point","coordinates":[-95.603975,29.770141]}},{"properties":{"city":"Hurst","geo_score":0.868,"zip code":"76054","phone":"(817) 268-6572","id":"a6qgxh2x3k2c","address":"143 E Harwood Rd Ste 100","geo_precision":"range","shop name":"Bicycles Inc.","state":"TX"},"type":"Feature","geometry":{"type":"Point","coordinates":[-97.172551,32.849139]}},{"properties":{"city":"Allen","geo_score":0.861,"zip code":"75002","phone":"(972) 678-4044","id":"a6qgxgyi8e98","address":"190 E Stacy Rd Ste 1704","geo_precision":"range","shop name":"Bicycles Plus","state":"TX"},"type":"Feature","geometry":{"type":"Point","coordinates":[-96.659115,33.129796]}},{"properties":{"city":"Houston","geo_score":1.0,"zip code":"77007","phone":"(713) 802-1707","id":"a6qgxgu6446q","address":"3302 White Oak Dr","geo_precision":"range","shop name":"Blue Line Bike Lab","state":"TX"},"type":"Feature","geometry":{"type":"Point","coordinates":[-95.394008,29.781584]}},{"properties":{"city":"El Paso","geo_score":1.0,"zip code":"79902","phone":"(915) 577-9666","id":"a6qgxgocxnxa","address":"2625 N Mesa St","geo_precision":"range","shop name":"Crazy Cat Cyclery","state":"TX"},"type":"Feature","geometry":{"type":"Point","coordinates":[-106.503057,31.776733]}},{"properties":{"city":"Denton","geo_score":1.0,"zip code":"76201","phone":"(940) 387-9314","id":"a6qgxgssktrb","address":"1700 N Elm St","geo_precision":"range","shop name":"Denton Cycle Center","state":"TX"},"type":"Feature","geometry":{"type":"Point","coordinates":[-97.133398,33.22982]}},{"properties":{"city":"Austin","geo_score":0.927,"zip code":"78702","phone":"(512) 524-8260","id":"a6qgxgvaqd60","address":"1105 E 6th St","geo_precision":"range","shop name":"Fast Folks","state":"TX"},"type":"Feature","geometry":{"type":"Point","coordinates":[-97.73059,30.264348]}},{"properties":{"city":"Dallas","geo_score":0.585,"zip code":"75205","phone":"(214) 596-8420","id":"a6qgxgz3np00","address":"5214 E Mockingbird Ln","geo_precision":"zip","shop name":"Fleetwood'S","state":"TX"},"type":"Feature","geometry":{"type":"Point","coordinates":[-96.800279,32.850127]}},{"properties":{"city":"Fort Worth","geo_score":0.947,"zip code":"76116","phone":"(817) 244-7911","id":"a6qgxgtfavua","address":"3315 Cherry Ln","geo_precision":"range","shop name":"Ft. Worth Cycling","state":"TX"},"type":"Feature","geometry":{"type":"Point","coordinates":[-97.450825,32.725221]}},{"properties":{"city":"Grapevine","geo_score":0.863,"zip code":"76051","phone":"(817) 488-2999","id":"a6qgxgpxd5p1","address":"1106 W Northwest Hwy","geo_precision":"range","shop name":"Grapevine Bike Center","state":"TX"},"type":"Feature","geometry":{"type":"Point","coordinates":[-97.08551,32.941146]}},{"properties":{"city":"San Antonio","geo_score":0.87,"zip code":"78210","phone":"(210) 212-5506","id":"a6qgxgqalvu7","address":"1414 S Alamo St Ste 105","geo_precision":"range","shop name":"Joey'S Inc.","state":"TX"},"type":"Feature","geometry":{"type":"Point","coordinates":[-98.495559,29.410102]}},{"properties":{"city":"Laredo","geo_score":0.805,"zip code":"78045","phone":"(956) 744-8250","id":"a6qgxh1rqvxp","address":"7913 McPherson Rd","geo_precision":"street","shop name":"Laredo Ciclo Mania","state":"TX"},"type":"Feature","geometry":{"type":"Point","coordinates":[-99.48044,27.599159]}},{"properties":{"city":"Austin","geo_score":0.902,"zip code":"78701","phone":"(512) 473-0222","id":"a6qgxgx11r6m","address":"98 San Jacinto Blvd Ste 430","geo_precision":"range","shop name":"Mellow Johnnys","state":"TX"},"type":"Feature","geometry":{"type":"Point","coordinates":[-97.742204,30.262407]}},{"properties":{"city":"Dallas","geo_score":1.0,"zip code":"75208","phone":"(214) 941-0010","id":"a6qgxh0an2nj","address":"410 N Tyler St","geo_precision":"range","shop name":"Oak Cliff Bicycle Company","state":"TX"},"type":"Feature","geometry":{"type":"Point","coordinates":[-96.837498,32.748873]}},{"properties":{"city":"Amarillo","geo_score":1.0,"zip code":"79109","phone":"(806) 353-2900","id":"a6qgxh171aru","address":"3410 S Western St","geo_precision":"range","shop name":"Outdoor Element Sports","state":"TX"},"type":"Feature","geometry":{"type":"Point","coordinates":[-101.884032,35.174894]}},{"properties":{"city":"Austin","geo_score":1.0,"zip code":"78705","phone":"(512) 302-1164","id":"a6qgxgw9tuep","address":"3202 Guadalupe St","geo_precision":"range","shop name":"Ozone Bike Dept.","state":"TX"},"type":"Feature","geometry":{"type":"Point","coordinates":[-97.740054,30.299785]}},{"properties":{"city":"Midland","geo_score":1.0,"zip code":"79705","phone":"(432) 699-1718","id":"a6qgxgqoqzwr","address":"4712 N Midkiff Rd","geo_precision":"range","shop name":"Peyton'S Cycle","state":"TX"},"type":"Feature","geometry":{"type":"Point","coordinates":[-102.129954,32.035372]}},{"properties":{"city":"Laredo","geo_score":1.0,"zip code":"78041","phone":"(956) 726-3469","id":"a6qgxgv1hnub","address":"5603 San Dario Ave","geo_precision":"range","shop name":"Pro Bike","state":"TX"},"type":"Feature","geometry":{"type":"Point","coordinates":[-99.50323,27.549527]}},{"properties":{"city":"Richardson","geo_score":1.0,"zip code":"75080","phone":"(214) 321-0705","id":"a6qgxgraozny","address":"1451 W Campbell Rd","geo_precision":"range","shop name":"Richardson Bike Mart","state":"TX"},"type":"Feature","geometry":{"type":"Point","coordinates":[-96.766961,32.978097]}},{"properties":{"city":"Rockwall","geo_score":1.0,"zip code":"75032","phone":"(972) 771-8297","id":"a6qgxgw8shur","address":"832 Steger Towne Rd","geo_precision":"range","shop name":"Rockwall Cycling","state":"TX"},"type":"Feature","geometry":{"type":"Point","coordinates":[-96.465643,32.892408]}},{"properties":{"city":"Corpus Christi","geo_score":1.0,"zip code":"78412","phone":"(361) 993-1908","id":"a6qgxh2gkwur","address":"5720 S Alameda St","geo_precision":"range","shop name":"Spoke N' Cog","state":"TX"},"type":"Feature","geometry":{"type":"Point","coordinates":[-97.344121,27.716256]}},{"properties":{"city":"Amarillo","geo_score":1.0,"zip code":"79109","phone":"(806) 351-2453","id":"a6qgxgtucwkg","address":"2826 Wolflin Ave","geo_precision":"range","shop name":"Sun Adventure Sports","state":"TX"},"type":"Feature","geometry":{"type":"Point","coordinates":[-101.868773,35.192886]}},{"properties":{"city":"Dallas","geo_score":0.585,"zip code":"75204","phone":"(214) 219-2453","id":"a6qgxh1bskeu","address":"3839 McKinney Ave","geo_precision":"range","shop name":"Transit Bicycle Company","state":"TX"},"type":"Feature","geometry":{"type":"Point","coordinates":[-96.890748,32.789346]}},{"properties":{"city":"Fort Worth","geo_score":1.0,"zip code":"76104","phone":"(817) 484-6825","id":"a6qgxgogbbh7","address":"207 S Main St","geo_precision":"range","shop name":"Trinity Bicycles Ltd","state":"TX"},"type":"Feature","geometry":{"type":"Point","coordinates":[-97.325786,32.742219]}},{"properties":{"city":"Austin","geo_score":1.0,"zip code":"78751","phone":"(512) 507-8356","id":"a6qgxh2khd3r","address":"5555 N Lamar Blvd","geo_precision":"range","shop name":"Velo Road","state":"TX"},"type":"Feature","geometry":{"type":"Point","coordinates":[-97.727031,30.324604]}},{"properties":{"city":"McAllen","geo_score":0.585,"zip code":"78501","phone":"(956) 971-9253","id":"a6qgxgtijh74","address":"201 N McColl Rd","geo_precision":"zip","shop name":"Wally'S Bicycles","state":"TX"},"type":"Feature","geometry":{"type":"Point","coordinates":[-98.266958,26.20924]}},{"properties":{"city":"Houston","geo_score":1.0,"zip code":"77007","phone":"(713) 861-2271","id":"a6qgxgq0uyr8","address":"5427 Blossom St","geo_precision":"range","shop name":"West End Bicycles","state":"TX"},"type":"Feature","geometry":{"type":"Point","coordinates":[-95.417344,29.767346]}},{"properties":{"city":"North Salt Lake City","geo_score":0.976,"zip code":"84054","phone":"(801) 383-3470","id":"a6qgxgybhqau","address":"680 West 200 North","geo_precision":"range","shop name":"Bikewagon","state":"UT"},"type":"Feature","geometry":{"type":"Point","coordinates":[-111.926756,40.846211]}},{"properties":{"city":"Salt Lake City","geo_score":1.0,"zip code":"84106","phone":"(801) 484-0404","id":"a6qgxgt4y05c","address":"803 E 2100 S","geo_precision":"range","shop name":"Guthrie Bicycle","state":"UT"},"type":"Feature","geometry":{"type":"Point","coordinates":[-111.867193,40.725494]}},{"properties":{"city":"Salt Lake City","geo_score":1.0,"zip code":"84111","phone":"(801) 746-8366","id":"a6qgxh2uvh38","address":"177 E 200 S","geo_precision":"range","shop name":"Salt Lake City Bicycle","state":"UT"},"type":"Feature","geometry":{"type":"Point","coordinates":[-111.88591,40.765076]}},{"properties":{"city":"Park City","geo_score":0.371,"zip code":"84060","phone":"(435) 649-4949","id":"a6qgxh28hxhi","address":"PO Box 280","geo_precision":"street","shop name":"Slim And Knobby'S Bike Shop","state":"UT"},"type":"Feature","geometry":{"type":"Point","coordinates":[-111.971487,41.058088]}},{"properties":{"city":"Chesapeake","geo_score":0.944,"zip code":"23320","phone":"(757) 382-7878","id":"a6qgxh1izf5z","address":"109 Gainsborough Sq Ste B","geo_precision":"range","shop name":"All About Bikes","state":"VA"},"type":"Feature","geometry":{"type":"Point","coordinates":[-76.242585,36.741916]}},{"properties":{"city":"Blacksburg","geo_score":1.0,"zip code":"24060","phone":"(540) 443-9960","id":"a6qgxgwah2t5","address":"424 N Main St","geo_precision":"range","shop name":"Bike Barn","state":"VA"},"type":"Feature","geometry":{"type":"Point","coordinates":[-80.416112,37.231615]}},{"properties":{"city":"Charlottesville","geo_score":1.0,"zip code":"22901","phone":"(434) 975-2453","id":"a6qgxgwlxguz","address":"198 Zan Rd","geo_precision":"range","shop name":"Bike Factory","state":"VA"},"type":"Feature","geometry":{"type":"Point","coordinates":[-78.489704,38.064005]}},{"properties":{"city":"Winchester","geo_score":0.87,"zip code":"22601","phone":"(540) 535-0188","id":"a6qgxgymrb1c","address":"3113 Valley Ave Ste 112","geo_precision":"range","shop name":"Black Bar Bicycles","state":"VA"},"type":"Feature","geometry":{"type":"Point","coordinates":[-78.190041,39.142711]}},{"properties":{"city":"Richmond","geo_score":1.0,"zip code":"23221","phone":"(804) 440-2453","id":"a6qgxgppoxbk","address":"3224 W Cary St","geo_precision":"range","shop name":"Carytown Bicycle Company","state":"VA"},"type":"Feature","geometry":{"type":"Point","coordinates":[-77.483609,37.554263]}},{"properties":{"city":"Blacksburg","geo_score":1.0,"zip code":"24060","phone":"(540) 552-7765","id":"a6qgxh4khmik","address":"422 N Main St","geo_precision":"range","shop name":"Hokie Spokes","state":"VA"},"type":"Feature","geometry":{"type":"Point","coordinates":[-80.416071,37.231671]}},{"properties":{"city":"Dayton","geo_score":1.0,"zip code":"22821","phone":"(540) 879-2011","id":"a6qgxh29vl29","address":"440 Main St","geo_precision":"range","shop name":"Mole Hill Bikes","state":"VA"},"type":"Feature","geometry":{"type":"Point","coordinates":[-78.935663,38.417897]}},{"properties":{"city":"Radford","geo_score":0.883,"zip code":"24141","phone":"(540) 633-2453","id":"a6qgxgytdjvh","address":"1129 E Main St Ste A","geo_precision":"range","shop name":"Radford Bike And Paddle Shop","state":"VA"},"type":"Feature","geometry":{"type":"Point","coordinates":[-80.557146,37.140901]}},{"properties":{"city":"Vienna","geo_score":1.0,"zip code":"22180","phone":"(703) 281-2004","id":"a6qgxgvso6ni","address":"224 Maple Ave E","geo_precision":"range","shop name":"Spokes Etc.","state":"VA"},"type":"Feature","geometry":{"type":"Point","coordinates":[-77.261379,38.904644]}},{"properties":{"city":"South Burlington","geo_score":1.0,"zip code":"05403","phone":"(802) 862-2714","id":"a6qgxh27k3fg","address":"1184 Williston Rd","geo_precision":"range","shop name":"Alpine Shop","state":"VT"},"type":"Feature","geometry":{"type":"Point","coordinates":[-73.168047,44.466277]}},{"properties":{"city":"Brattleboro","geo_score":1.0,"zip code":"05301","phone":"(802) 254-8644","id":"a6qgxh2dlj91","address":"165 Main St","geo_precision":"range","shop name":"Brattleboro Bicycle Shop","state":"VT"},"type":"Feature","geometry":{"type":"Point","coordinates":[-72.558709,42.853968]}},{"properties":{"city":"S. Burlington","geo_score":0.857,"zip code":"05403","phone":"(802) 864-9197","id":"a6qgxgp5p81k","address":"2500MWILLISTON Rd","geo_precision":"zip","shop name":"Earl'S Cycling And Fitness","state":"VT"},"type":"Feature","geometry":{"type":"Point","coordinates":[-73.220127,44.443383]}},{"properties":{"city":"Burlington","geo_score":1.0,"zip code":"05401","phone":"(802) 863-4475","id":"a6qgxh3uoa30","address":"322 N Winooski Ave","geo_precision":"range","shop name":"Old Spokes Home","state":"VT"},"type":"Feature","geometry":{"type":"Point","coordinates":[-73.205965,44.48942]}},{"properties":{"city":"Burlington","geo_score":1.0,"zip code":"05401","phone":"(802) 860-0190","id":"a6qgxh3xru2q","address":"37 Church St","geo_precision":"range","shop name":"Outdoor Gear Exchange","state":"VT"},"type":"Feature","geometry":{"type":"Point","coordinates":[-73.212654,44.478193]}},{"properties":{"city":"Seattle","geo_score":1.0,"zip code":"98136","phone":"(206) 938-9795","id":"a6qgxgqjjsw9","address":"6527 California Ave SW","geo_precision":"range","shop name":"Aaron'S Bicycle Repair","state":"WA"},"type":"Feature","geometry":{"type":"Point","coordinates":[-122.387297,47.543307]}},{"properties":{"city":"Bainbridge Island","geo_score":1.0,"zip code":"98110","phone":"(206) 842-6413","id":"a6qgxgsk3fyj","address":"124 Bjune Dr SE","geo_precision":"range","shop name":"B.I. Cycle Shop","state":"WA"},"type":"Feature","geometry":{"type":"Point","coordinates":[-122.520481,47.624231]}},{"properties":{"city":"Issaquah","geo_score":1.0,"zip code":"98027","phone":"(425) 392-4588","id":"a6qgxgpikgue","address":"111 Front St N","geo_precision":"range","shop name":"Bicycle Center Of Issaquah","state":"WA"},"type":"Feature","geometry":{"type":"Point","coordinates":[-122.036531,47.532953]}},{"properties":{"city":"Bainbridge Island","geo_score":1.0,"zip code":"98110","phone":"(206) 842-9191","id":"a6qgxgoqamyk","address":"740 Winslow Way E","geo_precision":"range","shop name":"Classic Cycle","state":"WA"},"type":"Feature","geometry":{"type":"Point","coordinates":[-122.510753,47.624936]}},{"properties":{"city":"Seattle","geo_score":1.0,"zip code":"98119","phone":"(206) 352-3252","id":"a6qgxgsegouz","address":"2 W Roy St","geo_precision":"range","shop name":"Counterbalance","state":"WA"},"type":"Feature","geometry":{"type":"Point","coordinates":[-122.35801,47.625716]}},{"properties":{"city":"Seattle","geo_score":0.63,"zip code":"98104","phone":"(206) 290-2096","id":"a6qgxgr6jtjy","address":"1016 1st Ave Fl 4","geo_precision":"street","shop name":"Mobius","state":"WA"},"type":"Feature","geometry":{"type":"Point","coordinates":[-122.334193,47.59829]}},{"properties":{"city":"Olympia","geo_score":1.0,"zip code":"98501","phone":"(360) 753-7526","id":"a6qgxh20fy2k","address":"124 State Ave NE","geo_precision":"range","shop name":"Oly Bikes","state":"WA"},"type":"Feature","geometry":{"type":"Point","coordinates":[-122.900791,47.045888]}},{"properties":{"city":"Port Townsend","geo_score":1.0,"zip code":"98368","phone":"(360) 385-6470","id":"a6qgxh1y9d2u","address":"252 Tyler St","geo_precision":"range","shop name":"Port Townsend Cyclery","state":"WA"},"type":"Feature","geometry":{"type":"Point","coordinates":[-122.757603,48.114241]}},{"properties":{"city":"Seattle","geo_score":1.0,"zip code":"98105","phone":"(206) 547-4491","id":"a6qgxgor4d8z","address":"1007 NE Boat St","geo_precision":"range","shop name":"Recycled Cycles","state":"WA"},"type":"Feature","geometry":{"type":"Point","coordinates":[-122.318091,47.653591]}},{"properties":{"city":"Silverdale","geo_score":1.0,"zip code":"98383","phone":"(360) 692-5508","id":"a6qgxgqwyehv","address":"9242 Silverdale Way NW","geo_precision":"range","shop name":"Silverdale Cyclery","state":"WA"},"type":"Feature","geometry":{"type":"Point","coordinates":[-122.69792,47.646759]}},{"properties":{"city":"Tacoma","geo_score":1.0,"zip code":"98421","phone":"(253) 272-1351","id":"a6qgxgqbubq3","address":"309 Puyallup Ave","geo_precision":"range","shop name":"Tacoma Bike","state":"WA"},"type":"Feature","geometry":{"type":"Point","coordinates":[-122.429576,47.240698]}},{"properties":{"city":"Spokane","geo_score":0.935,"zip code":"99201","phone":"(509) 747-2231","id":"a6qgxgzzjbva","address":"1405 W 1st Ave","geo_precision":"range","shop name":"Two Wheeled Transit","state":"WA"},"type":"Feature","geometry":{"type":"Point","coordinates":[-117.434126,47.656406]}},{"properties":{"city":"Minocqua","geo_score":1.0,"zip code":"54548","phone":"(715) 356-1618","id":"a6qgxgz85vdh","address":"433 E Chicago Ave","geo_precision":"range","shop name":"Adventure Bicycles","state":"WI"},"type":"Feature","geometry":{"type":"Point","coordinates":[-89.70676,45.869941]}},{"properties":{"city":"Eau Claire","geo_score":1.0,"zip code":"54703","phone":"(715) 833-7100","id":"a6qgxgus645q","address":"411 Water St","geo_precision":"range","shop name":"Anybody'S Bike Shop","state":"WI"},"type":"Feature","geometry":{"type":"Point","coordinates":[-91.509617,44.802089]}},{"properties":{"city":"Fond Du Lac","geo_score":0.883,"zip code":"54935","phone":"(920) 923-2323","id":"a6qgxgygm1v3","address":"209 N Macy St Ste A","geo_precision":"range","shop name":"Attitude Sports","state":"WI"},"type":"Feature","geometry":{"type":"Point","coordinates":[-88.448769,43.783857]}},{"properties":{"city":"Menomonie","geo_score":1.0,"zip code":"54751","phone":"(715) 231-2753","id":"a6qgxgw5qgi8","address":"327 Main St E","geo_precision":"range","shop name":"Bad Cat Bicycles","state":"WI"},"type":"Feature","geometry":{"type":"Point","coordinates":[-91.926265,44.876588]}},{"properties":{"city":"Ashland","geo_score":1.0,"zip code":"54806","phone":"(715) 682-2091","id":"a6qgxgx90ed6","address":"412 Main St W","geo_precision":"range","shop name":"Bay City Cycles","state":"WI"},"type":"Feature","geometry":{"type":"Point","coordinates":[-90.887003,46.589701]}},{"properties":{"city":"Milwaukee","geo_score":1.0,"zip code":"53215","phone":"(414) 384-2236","id":"a6qgxh3zjyex","address":"1018 W Lincoln Ave","geo_precision":"range","shop name":"Bens Cycle","state":"WI"},"type":"Feature","geometry":{"type":"Point","coordinates":[-87.925863,43.002921]}},{"properties":{"city":"Whitewater","geo_score":1.0,"zip code":"53190","phone":"(262) 473-4730","id":"a6qgxgr271sn","address":"1130 W Main St","geo_precision":"range","shop name":"Bicycle Wise","state":"WI"},"type":"Feature","geometry":{"type":"Point","coordinates":[-88.752559,42.83488]}},{"properties":{"city":"La Crosse","geo_score":1.0,"zip code":"54601","phone":"(608) 785-2326","id":"a6qgxgr8m12u","address":"1001 La Crosse St","geo_precision":"range","shop name":"Bikes Limited","state":"WI"},"type":"Feature","geometry":{"type":"Point","coordinates":[-91.241059,43.817294]}},{"properties":{"city":"Rhinelander","geo_score":1.0,"zip code":"54501","phone":"(715) 369-1999","id":"a6qgxgxxemmg","address":"1670 N Stevens St","geo_precision":"range","shop name":"Bikes N Boards","state":"WI"},"type":"Feature","geometry":{"type":"Point","coordinates":[-89.394456,45.655258]}},{"properties":{"city":"Onalaska","geo_score":1.0,"zip code":"54650","phone":"(608) 783-7433","id":"a6qgxgxvksjr","address":"213 Main St","geo_precision":"range","shop name":"Blue Heron Bicycles","state":"WI"},"type":"Feature","geometry":{"type":"Point","coordinates":[-91.233202,43.883029]}},{"properties":{"city":"Fountain City","geo_score":0.78,"zip code":"54629","phone":"(608) 687-8601","id":"a6qgxgxep5c8","address":"615 S Main St","geo_precision":"street","shop name":"Brones","state":"WI"},"type":"Feature","geometry":{"type":"Point","coordinates":[-91.658187,44.085029]}},{"properties":{"city":"Madison","geo_score":1.0,"zip code":"53715","phone":"(608) 251-8413","id":"a6qgxgoqmrjc","address":"1124 Regent St","geo_precision":"range","shop name":"Budget Bicycle Center","state":"WI"},"type":"Feature","geometry":{"type":"Point","coordinates":[-89.405416,43.067787]}},{"properties":{"city":"Milwaukee","geo_score":1.0,"zip code":"53211","phone":"(414) 967-9446","id":"a6qgxh3vpzff","address":"2410 N Murray Ave","geo_precision":"range","shop name":"Corey The Bike Fixer","state":"WI"},"type":"Feature","geometry":{"type":"Point","coordinates":[-87.885492,43.062251]}},{"properties":{"city":"Brodhead","geo_score":0.585,"zip code":"53520","phone":"(608) 214-3573","id":"a6qgxgt1tp8o","address":"929 W Exchange St","geo_precision":"zip","shop name":"Earth Rider","state":"WI"},"type":"Feature","geometry":{"type":"Point","coordinates":[-89.331504,42.543344]}},{"properties":{"city":"Glendale","geo_score":0.571,"zip code":"53217","phone":"(414) 332-9000","id":"a6qgxgz3j7is","address":"Bay Shore Mall 599 W Glen Bay Ste N102","geo_precision":"street","shop name":"Erehwon","state":"WI"},"type":"Feature","geometry":{"type":"Point","coordinates":[-87.902368,43.117609]}},{"properties":{"city":"Stevens Point","geo_score":0.582,"zip code":"54482","phone":"(715) 341-2453","id":"a6qgxgyhfb5z","address":"3201 John Joanis Dr","geo_precision":"street","shop name":"Hostel Shoppe","state":"WI"},"type":"Feature","geometry":{"type":"Point","coordinates":[-89.585749,44.539367]}},{"properties":{"city":"Madison","geo_score":1.0,"zip code":"53703","phone":"(608) 442-5974","id":"a6qgxh4linwm","address":"601 Williamson St","geo_precision":"range","shop name":"Machinery Row Bicycles","state":"WI"},"type":"Feature","geometry":{"type":"Point","coordinates":[-89.373274,43.076994]}},{"properties":{"city":"Rhinelander","geo_score":0.971,"zip code":"54501","phone":"(715) 362-5800","id":"a6qgxh3uxr6v","address":"105 S Brown St","geo_precision":"range","shop name":"Mels Trading Post","state":"WI"},"type":"Feature","geometry":{"type":"Point","coordinates":[-89.412831,45.640081]}},{"properties":{"city":"Platteville","geo_score":1.0,"zip code":"53818","phone":"(608) 348-6888","id":"a6qgxgxemx88","address":"25 W Main St","geo_precision":"range","shop name":"Momentum Bikes &amp; Boards","state":"WI"},"type":"Feature","geometry":{"type":"Point","coordinates":[-90.381168,42.569366]}},{"properties":{"city":"Hayward","geo_score":0.844,"zip code":"54843","phone":"(715) 634-8685","id":"a6qgxgx2wo0t","address":"Hwy 63 North","geo_precision":"street","shop name":"New Moon Bike And Ski","state":"WI"},"type":"Feature","geometry":{"type":"Point","coordinates":[-91.492899,46.007093]}},{"properties":{"city":"Racine","geo_score":1.0,"zip code":"53405","phone":"(262) 637-7241","id":"a6qgxh0hcji6","address":"4615 Washington Ave","geo_precision":"range","shop name":"Racine Cyclery","state":"WI"},"type":"Feature","geometry":{"type":"Point","coordinates":[-87.835868,42.718526]}},{"properties":{"city":"Madison","geo_score":1.0,"zip code":"53704","phone":"(608) 244-0009","id":"a6qgxgoys2zl","address":"2330 Atwood Ave","geo_precision":"range","shop name":"Revolution Cycles","state":"WI"},"type":"Feature","geometry":{"type":"Point","coordinates":[-89.347457,43.093668]}},{"properties":{"city":"Hayward","geo_score":0.947,"zip code":"54843","phone":"(715) 634-5600","id":"a6qgxgruovso","address":"13471 N US Highway 63","geo_precision":"range","shop name":"Riverbrook Bike","state":"WI"},"type":"Feature","geometry":{"type":"Point","coordinates":[-91.362411,46.120102]}},{"properties":{"city":"Eau Claire","geo_score":1.0,"zip code":"54703","phone":"(715) 835-0088","id":"a6qgxgycaqyo","address":"937 Water St","geo_precision":"range","shop name":"Riverside Bike And Skate","state":"WI"},"type":"Feature","geometry":{"type":"Point","coordinates":[-91.51927,44.802077]}},{"properties":{"city":"Lacrosse","geo_score":0.843,"zip code":"54601","phone":"(608) 784-1175","id":"a6qgxh0j9bpg","address":"125 7th St","geo_precision":"range","shop name":"Smiths Cycling","state":"WI"},"type":"Feature","geometry":{"type":"Point","coordinates":[-91.246704,43.812726]}},{"properties":{"city":"Chippewa Falls","geo_score":1.0,"zip code":"54729","phone":"(763) 786-3205","id":"a6qgxgzxhyzs","address":"12 W Spring St","geo_precision":"range","shop name":"Spring Street Sports","state":"WI"},"type":"Feature","geometry":{"type":"Point","coordinates":[-91.392831,44.934988]}},{"properties":{"city":"Wisconsin Rapids","geo_score":1.0,"zip code":"54494","phone":"(715) 424-2242","id":"a6qgxgylihv9","address":"2030 Chestnut St","geo_precision":"range","shop name":"Tour Seven Sports","state":"WI"},"type":"Feature","geometry":{"type":"Point","coordinates":[-89.801603,44.383792]}},{"properties":{"city":"Madison","geo_score":1.0,"zip code":"53704","phone":"(608) 442-8735","id":"a6qgxgwaut6h","address":"1706 Eagan Rd","geo_precision":"range","shop name":"Trek Bicycle Store Madison East","state":"WI"},"type":"Feature","geometry":{"type":"Point","coordinates":[-89.307417,43.12193]}},{"properties":{"city":"Madison","geo_score":0.945,"zip code":"53719","phone":"(608) 833-8735","id":"a6qgxgohftr6","address":"8108 Mineral Point Rd","geo_precision":"range","shop name":"Trek Bicycle Store Madison West","state":"WI"},"type":"Feature","geometry":{"type":"Point","coordinates":[-89.523093,43.060477]}},{"properties":{"city":"Madison","geo_score":1.0,"zip code":"53704","phone":"(608) 244-2453","id":"a6qgxgwpcp8m","address":"3729 E Washington Ave","geo_precision":"range","shop name":"Williamson Bike Works East","state":"WI"},"type":"Feature","geometry":{"type":"Point","coordinates":[-89.326444,43.115525]}},{"properties":{"city":"Madison","geo_score":1.0,"zip code":"53703","phone":"(608) 255-5292","id":"a6qgxgp2v3m6","address":"640 W Washington Ave","geo_precision":"range","shop name":"Williamson Bike Works West","state":"WI"},"type":"Feature","geometry":{"type":"Point","coordinates":[-89.392926,43.06884]}},{"properties":{"city":"Madison","geo_score":1.0,"zip code":"53703","phone":"(608) 257-4757","id":"a6qgxgq4u4kh","address":"419 State St","geo_precision":"range","shop name":"Yellow Jersey","state":"WI"},"type":"Feature","geometry":{"type":"Point","coordinates":[-89.393131,43.074746]}},{"properties":{"city":"Minocqua","geo_score":0.806,"zip code":"54548","phone":"(715) 356-4224","id":"a6qgxgrj3nby","address":"329 Front St","geo_precision":"street","shop name":"Z Best Bike","state":"WI"},"type":"Feature","geometry":{"type":"Point","coordinates":[-89.711479,45.871254]}},{"properties":{"city":"Huntington","geo_score":0.916,"zip code":"25701","phone":"(304) 522-2453","id":"a6qgxgxudwfa","address":"740 6th Ave","geo_precision":"range","shop name":"Jeff'S Bike Shop","state":"WV"},"type":"Feature","geometry":{"type":"Point","coordinates":[-82.445417,38.417661]}},{"properties":{"city":"Laramie","geo_score":1.0,"zip code":"82070","phone":"(307) 721-8036","id":"a6qgxgwb4x4v","address":"412 E Grand Ave","geo_precision":"range","shop name":"All Terrain Sports","state":"WY"},"type":"Feature","geometry":{"type":"Point","coordinates":[-105.592184,41.310848]}},{"properties":{"city":"Casper","geo_score":1.0,"zip code":"82601","phone":"(307) 237-5560","id":"a6qgxh2zwdj4","address":"4190 S Poplar St","geo_precision":"range","shop name":"Ragged Edge","state":"WY"},"type":"Feature","geometry":{"type":"Point","coordinates":[-106.343703,42.80997]}},{"properties":{"city":"Buffalo","geo_score":1.0,"zip code":"82834","phone":"(307) 684-7682","id":"a6qgxh3ksio5","address":"66 S Main St","geo_precision":"range","shop name":"Sports Lure","state":"WY"},"type":"Feature","geometry":{"type":"Point","coordinates":[-106.698584,44.345901]}}],"is_temporal":false,"author":{"url":"","metadata":"","contact_name":"","contact_address":"","source":"","contact_phone":""},"source":"","pagination":{"sort":null,"start":0,"total":402,"limit":1000000},"state":"complete","tags":"","published":"2014-08-15T00:55:12-04:00","id":257298}