{"type":"FeatureCollection","data_type":"Dataset","url_type":null,"permissions":[{"permissions":{"download":true,"view":true},"group_id":"everyone"}],"classification":null,"title":"Tech Ops Addresses","count":35,"stream_id":257307,"contributor":{"url":"http://geocommons.com/users/48312","name":"hensley.peter"},"data_attributes":null,"calculation_params":null,"icon_link":null,"link":"http://geocommons.com/overlays/257307.json","extent":[-97.2915,32.609,-96.4508,33.2447],"geometry_types":["point"],"unique_name":null,"name":"Tech Ops Addresses","feature_count":35,"description":"","next_feature":null,"is_raster":false,"short_classification":"Y","stats":{"id":{"max":135,"variance":105.0,"mean":118.0,"stdev":10.2469507659596,"min":101,"median":118}},"features":[{"properties":{"name":"Ben Sloan","city":"Lewisville","job title":"Lead","geo_score":0.857,"id":"a6qii5cylkls","zip code":"75067","geo_precision":"zip","state":"TX"},"type":"Feature","geometry":{"type":"Point","coordinates":[-97.046676,33.091788]}},{"properties":{"name":"Dallas Daniels","city":"Mesquite","job title":"Lead","geo_score":0.857,"id":"a6qii5r44jdl","zip code":"75150","geo_precision":"zip","state":"TX"},"type":"Feature","geometry":{"type":"Point","coordinates":[-96.635868,32.790964]}},{"properties":{"name":"Dave Hardy","city":"Richardson","job title":"Lead","geo_score":0.857,"id":"a6qii5b5e3n7","zip code":"75080","geo_precision":"zip","state":"TX"},"type":"Feature","geometry":{"type":"Point","coordinates":[-96.726826,32.962811]}},{"properties":{"name":"David Peters","city":"Euless","job title":"Lead","geo_score":0.857,"id":"a6qii5ji1yzm","zip code":"76040","geo_precision":"zip","state":"TX"},"type":"Feature","geometry":{"type":"Point","coordinates":[-97.108179,32.821379]}},{"properties":{"name":"Jackson Hancock","city":"Mesquite","job title":"Lead","geo_score":0.857,"id":"a6qii5b131wk","zip code":"75150","geo_precision":"zip","state":"TX"},"type":"Feature","geometry":{"type":"Point","coordinates":[-96.635868,32.790964]}},{"properties":{"name":"Jason DeLaRosa","city":"Denton","job title":"Lead","geo_score":0.714,"id":"a6qii5pg7rza","zip code":"76209","geo_precision":"city","state":"TX"},"type":"Feature","geometry":{"type":"Point","coordinates":[-97.200555,33.244683]}},{"properties":{"name":"Jon Reaves","city":"Bedford","job title":"Lead","geo_score":0.857,"id":"a6qii5az2e9j","zip code":"76021","geo_precision":"zip","state":"TX"},"type":"Feature","geometry":{"type":"Point","coordinates":[-97.136289,32.852546]}},{"properties":{"name":"Lee Pate","city":"Mesquite","job title":"Lead","geo_score":0.857,"id":"a6qii5jdc69x","zip code":"75150","geo_precision":"zip","state":"TX"},"type":"Feature","geometry":{"type":"Point","coordinates":[-96.635868,32.790964]}},{"properties":{"name":"Marvin Cordon","city":"Irving","job title":"Lead","geo_score":0.857,"id":"a6qii5cow1r9","zip code":"75062","geo_precision":"zip","state":"TX"},"type":"Feature","geometry":{"type":"Point","coordinates":[-96.604557,32.980974]}},{"properties":{"name":"Michael Potter","city":"Plano","job title":"Lead","geo_score":0.857,"id":"a6qii5f5oe2j","zip code":"75024","geo_precision":"zip","state":"TX"},"type":"Feature","geometry":{"type":"Point","coordinates":[-96.805334,33.096727]}},{"properties":{"name":"Mike Willis","city":"Bedford","job title":"Lead","geo_score":0.857,"id":"a6qii5icl7ks","zip code":"76021","geo_precision":"zip","state":"TX"},"type":"Feature","geometry":{"type":"Point","coordinates":[-97.136289,32.852546]}},{"properties":{"name":"Bidhu Thomas","city":"Murphy","job title":"Pro","geo_score":0.857,"id":"a6qii5qp48ie","zip code":"75094","geo_precision":"zip","state":"TX"},"type":"Feature","geometry":{"type":"Point","coordinates":[-96.643043,33.011889]}},{"properties":{"name":"David Schlotterbeck","city":"Grand Prairie","job title":"Pro","geo_score":0.857,"id":"a6qii5obvg6m","zip code":"75050","geo_precision":"zip","state":"TX"},"type":"Feature","geometry":{"type":"Point","coordinates":[-97.020285,32.803185]}},{"properties":{"name":"Shibu Ibrahim","city":"Irving","job title":"Pro","geo_score":0.857,"id":"a6qii5ns3xq3","zip code":"75039","geo_precision":"zip","state":"TX"},"type":"Feature","geometry":{"type":"Point","coordinates":[-96.82273,32.73178]}},{"properties":{"name":"Jeff Jones","city":"Irving","job title":"QA","geo_score":0.857,"id":"a6qii5qu5vn4","zip code":"75038","geo_precision":"zip","state":"TX"},"type":"Feature","geometry":{"type":"Point","coordinates":[-96.777626,32.767268]}},{"properties":{"name":"Josh Garrigus","city":"Lake Dallas","job title":"QA","geo_score":0.857,"id":"a6qii5gaeelf","zip code":"75065","geo_precision":"zip","state":"TX"},"type":"Feature","geometry":{"type":"Point","coordinates":[-97.008563,33.131089]}},{"properties":{"name":"Mark Weiler","city":"Little Elm","job title":"QA","geo_score":0.857,"id":"a6qii5nf8wtx","zip code":"75068","geo_precision":"zip","state":"TX"},"type":"Feature","geometry":{"type":"Point","coordinates":[-96.991674,33.190119]}},{"properties":{"name":"Adam Mollohan","city":"Hurst","job title":"Tech","geo_score":0.857,"id":"a6qii5lq64vd","zip code":"76054","geo_precision":"zip","state":"TX"},"type":"Feature","geometry":{"type":"Point","coordinates":[-97.175935,32.863193]}},{"properties":{"name":"Brent Hershberger","city":"Mansfield","job title":"Tech","geo_score":0.857,"id":"a6qii5mmmn0s","zip code":"76063","geo_precision":"zip","state":"TX"},"type":"Feature","geometry":{"type":"Point","coordinates":[-97.184178,32.609024]}},{"properties":{"name":"Brian Garrett","city":"Arlington","job title":"Tech","geo_score":0.857,"id":"a6qii5k7d6nq","zip code":"75024","geo_precision":"zip","state":"TX"},"type":"Feature","geometry":{"type":"Point","coordinates":[-96.805334,33.096727]}},{"properties":{"name":"Chris Luciano","city":"Carrollton","job title":"Tech","geo_score":0.857,"id":"a6qii5b9bkn6","zip code":"75010","geo_precision":"zip","state":"TX"},"type":"Feature","geometry":{"type":"Point","coordinates":[-96.901417,33.029268]}},{"properties":{"name":"Chris Miller","city":"North Richland Hills","job title":"Tech","geo_score":0.857,"id":"a6qii5gs1ilx","zip code":"76180","geo_precision":"zip","state":"TX"},"type":"Feature","geometry":{"type":"Point","coordinates":[-97.217416,32.868023]}},{"properties":{"name":"Denard Fegans","city":"Grand Prairie","job title":"Tech","geo_score":0.857,"id":"a6qii5r16fke","zip code":"75052","geo_precision":"zip","state":"TX"},"type":"Feature","geometry":{"type":"Point","coordinates":[-96.777626,32.767268]}},{"properties":{"name":"Ethan Ashford","city":"Irving","job title":"Tech","geo_score":0.857,"id":"a6qii5g4icnq","zip code":"75038","geo_precision":"zip","state":"TX"},"type":"Feature","geometry":{"type":"Point","coordinates":[-96.777626,32.767268]}},{"properties":{"name":"Harry Marin","city":"Arlington","job title":"Tech","geo_score":0.857,"id":"a6qii5fhotxt","zip code":"76018","geo_precision":"zip","state":"TX"},"type":"Feature","geometry":{"type":"Point","coordinates":[-97.291484,32.771419]}},{"properties":{"name":"Jacob Cross","city":"Fort Worth","job title":"Tech","geo_score":0.857,"id":"a6qii5i154t5","zip code":"76137","geo_precision":"zip","state":"TX"},"type":"Feature","geometry":{"type":"Point","coordinates":[-97.288144,32.853199]}},{"properties":{"name":"Jonathan Gleason","city":"Plano","job title":"Tech","geo_score":0.857,"id":"a6qii5m41nib","zip code":"75025","geo_precision":"zip","state":"TX"},"type":"Feature","geometry":{"type":"Point","coordinates":[-96.734968,33.107261]}},{"properties":{"name":"Kenneth Dow","city":"Irving","job title":"Tech","geo_score":0.857,"id":"a6qii5ex9onn","zip code":"75060","geo_precision":"zip","state":"TX"},"type":"Feature","geometry":{"type":"Point","coordinates":[-96.99334,32.828462]}},{"properties":{"name":"Kyle Grimsley","city":"Arlington","job title":"Tech","geo_score":0.857,"id":"a6qii5f7go8j","zip code":"76016","geo_precision":"zip","state":"TX"},"type":"Feature","geometry":{"type":"Point","coordinates":[-97.291484,32.771419]}},{"properties":{"name":"Kyle Turner","city":"Frisco","job title":"Tech","geo_score":0.857,"id":"a6qii5g37zal","zip code":"75034","geo_precision":"zip","state":"TX"},"type":"Feature","geometry":{"type":"Point","coordinates":[-96.988896,33.139843]}},{"properties":{"name":"Mark Koenig","city":"Bedford","job title":"Tech","geo_score":0.857,"id":"a6qii5cw0qwp","zip code":"76022","geo_precision":"zip","state":"TX"},"type":"Feature","geometry":{"type":"Point","coordinates":[-97.144339,32.831019]}},{"properties":{"name":"Mark Traux","city":"Cedar Hill","job title":"Tech","geo_score":0.857,"id":"a6qii5ji4dtf","zip code":"75104","geo_precision":"zip","state":"TX"},"type":"Feature","geometry":{"type":"Point","coordinates":[-96.777626,32.767268]}},{"properties":{"name":"Michael Mothersell","city":"Mesquite","job title":"Tech","geo_score":0.857,"id":"a6qii5b0n3tz","zip code":"75150","geo_precision":"zip","state":"TX"},"type":"Feature","geometry":{"type":"Point","coordinates":[-96.635868,32.790964]}},{"properties":{"name":"Nicholas Cole","city":"Forney","job title":"Tech","geo_score":0.857,"id":"a6qii5pmd1e0","zip code":"75126","geo_precision":"zip","state":"TX"},"type":"Feature","geometry":{"type":"Point","coordinates":[-96.450819,32.723931]}},{"properties":{"name":"Rodney Harris","city":"Dallas","job title":"Tech","geo_score":0.857,"id":"a6qii5lh6o1z","zip code":"75287","geo_precision":"zip","state":"TX"},"type":"Feature","geometry":{"type":"Point","coordinates":[-96.777626,32.767268]}}],"is_temporal":false,"author":{"url":"","metadata":"","contact_name":"","contact_address":"","source":"","contact_phone":""},"source":"","pagination":{"sort":null,"start":0,"total":35,"limit":1000000},"state":"complete","tags":"","published":"2014-08-15T00:55:39-04:00","id":257307}