{"type":"FeatureCollection","data_type":"Dataset","url_type":null,"permissions":[{"permissions":{"download":true,"view":true},"group_id":"everyone"}],"classification":null,"title":"waldo lost homes","count":334,"stream_id":258020,"contributor":{"url":"http://geocommons.com/users/28467","name":"bheberto"},"data_attributes":null,"calculation_params":null,"icon_link":null,"link":"http://geocommons.com/overlays/258020.json","extent":[-122.33,38.9048,-104.867,45.519],"geometry_types":["point"],"unique_name":null,"name":"waldo lost homes","feature_count":334,"description":"","next_feature":null,"is_raster":false,"short_classification":"Y","stats":{},"features":[{"properties":{"city":"Colorado Springs","remarks":"Total Loss","fire":"Waldo Canyon Fire","geo_score":0.799,"street address":"6020 ASHTON PARK PL","id":"a6t2l7dvgvty","geo_precision":"range","state":"Colorado"},"type":"Feature","geometry":{"type":"Point","coordinates":[-104.872113,38.91967]}},{"properties":{"city":"Colorado Springs","remarks":"Total Loss","fire":"Waldo Canyon Fire","geo_score":0.799,"street address":"6030 ASHTON PARK PL","id":"a6t2l7f132kw","geo_precision":"range","state":"Colorado"},"type":"Feature","geometry":{"type":"Point","coordinates":[-104.871974,38.91967]}},{"properties":{"city":"Colorado Springs","remarks":"Total Loss","fire":"Waldo Canyon Fire","geo_score":0.799,"street address":"6040 ASHTON PARK PL","id":"a6t2l7h4gh4b","geo_precision":"range","state":"Colorado"},"type":"Feature","geometry":{"type":"Point","coordinates":[-104.871682,38.919671]}},{"properties":{"city":"Colorado Springs","remarks":"Total Loss","fire":"Waldo Canyon Fire","geo_score":0.799,"street address":"6320 ALABASTER WAY","id":"a6t2l73taaed","geo_precision":"range","state":"Colorado"},"type":"Feature","geometry":{"type":"Point","coordinates":[-104.884563,38.922686]}},{"properties":{"city":"Colorado Springs","remarks":"Total Loss","fire":"Waldo Canyon Fire","geo_score":0.799,"street address":"6050 ASHTON PARK PL","id":"a6t2l72q8wzf","geo_precision":"range","state":"Colorado"},"type":"Feature","geometry":{"type":"Point","coordinates":[-104.87151,38.919677]}},{"properties":{"city":"Colorado Springs","remarks":"Total Loss","fire":"Waldo Canyon Fire","geo_score":0.799,"street address":"6060 ASHTON PARK PL","id":"a6t2l7b1iqk8","geo_precision":"range","state":"Colorado"},"type":"Feature","geometry":{"type":"Point","coordinates":[-104.871352,38.919685]}},{"properties":{"city":"Colorado Springs","remarks":"Total Loss","fire":"Waldo Canyon Fire","geo_score":0.799,"street address":"6365 ASHTON PARK PL","id":"a6t2l75iug3c","geo_precision":"range","state":"Colorado"},"type":"Feature","geometry":{"type":"Point","coordinates":[-104.868045,38.922516]}},{"properties":{"city":"Colorado Springs","remarks":"Total Loss","fire":"Waldo Canyon Fire","geo_score":0.799,"street address":"6425 ASHTON PARK PL","id":"a6t2l7dp1c7r","geo_precision":"range","state":"Colorado"},"type":"Feature","geometry":{"type":"Point","coordinates":[-104.867714,38.9233]}},{"properties":{"city":"Colorado Springs","remarks":"Total Loss","fire":"Waldo Canyon Fire","geo_score":0.799,"street address":"6435 ASHTON PARK PL","id":"a6t2l7bkqscy","geo_precision":"range","state":"Colorado"},"type":"Feature","geometry":{"type":"Point","coordinates":[-104.867687,38.923461]}},{"properties":{"city":"Colorado Springs","remarks":"Total Loss","fire":"Waldo Canyon Fire","geo_score":0.799,"street address":"6445 ASHTON PARK PL","id":"a6t2l7a08r5h","geo_precision":"range","state":"Colorado"},"type":"Feature","geometry":{"type":"Point","coordinates":[-104.867647,38.923623]}},{"properties":{"city":"Colorado Springs","remarks":"Total Loss","fire":"Waldo Canyon Fire","geo_score":0.799,"street address":"6455 ASHTON PARK PL","id":"a6t2l7bp38sn","geo_precision":"range","state":"Colorado"},"type":"Feature","geometry":{"type":"Point","coordinates":[-104.867618,38.923753]}},{"properties":{"city":"Colorado Springs","remarks":"Total Loss","fire":"Waldo Canyon Fire","geo_score":0.799,"street address":"6460 ASHTON PARK PL","id":"a6t2l7d4lhjf","geo_precision":"range","state":"Colorado"},"type":"Feature","geometry":{"type":"Point","coordinates":[-104.867615,38.925249]}},{"properties":{"city":"Colorado Springs","remarks":"Total Loss","fire":"Waldo Canyon Fire","geo_score":0.799,"street address":"6465 ASHTON PARK PL","id":"a6t2l722d06v","geo_precision":"range","state":"Colorado"},"type":"Feature","geometry":{"type":"Point","coordinates":[-104.867592,38.92392]}},{"properties":{"city":"Colorado Springs","remarks":"Total Loss","fire":"Waldo Canyon Fire","geo_score":0.799,"street address":"6485 ASHTON PARK PL","id":"a6t2l7cm8i1s","geo_precision":"range","state":"Colorado"},"type":"Feature","geometry":{"type":"Point","coordinates":[-104.867631,38.924255]}},{"properties":{"city":"Colorado Springs","remarks":"Total Loss","fire":"Waldo Canyon Fire","geo_score":0.799,"street address":"6515 ASHTON PARK PL","id":"a6t2l79cf0z4","geo_precision":"range","state":"Colorado"},"type":"Feature","geometry":{"type":"Point","coordinates":[-104.867549,38.924958]}},{"properties":{"city":"Colorado Springs","remarks":"Total Loss","fire":"Waldo Canyon Fire","geo_score":0.799,"street address":"6525 ASHTON PARK PL","id":"a6t2l7fvk3sc","geo_precision":"range","state":"Colorado"},"type":"Feature","geometry":{"type":"Point","coordinates":[-104.867555,38.924756]}},{"properties":{"city":"Colorado Springs","remarks":"Total Loss","fire":"Waldo Canyon Fire","geo_score":0.799,"street address":"5310 AUBREY WAY","id":"a6t2l7284bnv","geo_precision":"range","state":"Colorado"},"type":"Feature","geometry":{"type":"Point","coordinates":[-104.875355,38.909687]}},{"properties":{"city":"Colorado Springs","remarks":"Total Loss","fire":"Waldo Canyon Fire","geo_score":0.799,"street address":"5345 AUBREY WAY","id":"a6t2l72ks4tc","geo_precision":"range","state":"Colorado"},"type":"Feature","geometry":{"type":"Point","coordinates":[-104.875208,38.910109]}},{"properties":{"city":"Colorado Springs","remarks":"Total Loss","fire":"Waldo Canyon Fire","geo_score":0.799,"street address":"4975 BRAEBURN WAY","id":"a6t2l7bdxkz6","geo_precision":"range","state":"Colorado"},"type":"Feature","geometry":{"type":"Point","coordinates":[-104.876494,38.904763]}},{"properties":{"city":"Colorado Springs","remarks":"Total Loss","fire":"Waldo Canyon Fire","geo_score":0.702,"street address":"2515 BROGANS BLUFF DR","id":"a6t2l7f2yb23","geo_precision":"street","state":"Colorado"},"type":"Feature","geometry":{"type":"Point","coordinates":[-104.874594,38.921246]}},{"properties":{"city":"Colorado Springs","remarks":"Total Loss","fire":"Waldo Canyon Fire","geo_score":0.702,"street address":"2530 BROGANS BLUFF DR","id":"a6t2l74fwr1l","geo_precision":"street","state":"Colorado"},"type":"Feature","geometry":{"type":"Point","coordinates":[-104.87511,38.921099]}},{"properties":{"city":"Colorado Springs","remarks":"Total Loss","fire":"Waldo Canyon Fire","geo_score":0.702,"street address":"2545 BROGANS BLUFF DR","id":"a6t2l7e4ju1l","geo_precision":"street","state":"Colorado"},"type":"Feature","geometry":{"type":"Point","coordinates":[-104.880303,38.921417]}},{"properties":{"city":"Colorado Springs","remarks":"Total Loss","fire":"Waldo Canyon Fire","geo_score":0.702,"street address":"2554 BROGANS BLUFF DR","id":"a6t2l7dj4fnh","geo_precision":"street","state":"Colorado"},"type":"Feature","geometry":{"type":"Point","coordinates":[-104.879808,38.921299]}},{"properties":{"city":"Colorado Springs","remarks":"Total Loss","fire":"Waldo Canyon Fire","geo_score":0.702,"street address":"2555 BROGANS BLUFF DR","id":"a6t2l7fmlt4v","geo_precision":"street","state":"Colorado"},"type":"Feature","geometry":{"type":"Point","coordinates":[-104.8798,38.921449]}},{"properties":{"city":"Colorado Springs","remarks":"Total Loss","fire":"Waldo Canyon Fire","geo_score":0.702,"street address":"2565 BROGANS BLUFF DR","id":"a6t2l736lmab","geo_precision":"street","state":"Colorado"},"type":"Feature","geometry":{"type":"Point","coordinates":[-104.879501,38.921447]}},{"properties":{"city":"Colorado Springs","remarks":"Total Loss","fire":"Waldo Canyon Fire","geo_score":0.702,"street address":"2570 BROGANS BLUFF DR","id":"a6t2l7bfm2ya","geo_precision":"street","state":"Colorado"},"type":"Feature","geometry":{"type":"Point","coordinates":[-104.879081,38.921297]}},{"properties":{"city":"Colorado Springs","remarks":"Total Loss","fire":"Waldo Canyon Fire","geo_score":0.702,"street address":"2575 BROGANS BLUFF DR","id":"a6t2l7g3b2di","geo_precision":"street","state":"Colorado"},"type":"Feature","geometry":{"type":"Point","coordinates":[-104.878948,38.921447]}},{"properties":{"city":"Colorado Springs","remarks":"Total Loss","fire":"Waldo Canyon Fire","geo_score":0.702,"street address":"2585 BROGANS BLUFF DR","id":"a6t2l749nlym","geo_precision":"street","state":"Colorado"},"type":"Feature","geometry":{"type":"Point","coordinates":[-104.878617,38.921447]}},{"properties":{"city":"Colorado Springs","remarks":"Total Loss","fire":"Waldo Canyon Fire","geo_score":0.702,"street address":"2595 BROGANS BLUFF DR","id":"a6t2l73z32ss","geo_precision":"street","state":"Colorado"},"type":"Feature","geometry":{"type":"Point","coordinates":[-104.878186,38.921447]}},{"properties":{"city":"Colorado Springs","remarks":"Total Loss","fire":"Waldo Canyon Fire","geo_score":0.702,"street address":"2620 BROGANS BLUFF DR","id":"a6t2l7emkqnd","geo_precision":"street","state":"Colorado"},"type":"Feature","geometry":{"type":"Point","coordinates":[-104.876785,38.921304]}},{"properties":{"city":"Colorado Springs","remarks":"Total Loss","fire":"Waldo Canyon Fire","geo_score":0.702,"street address":"2625 BROGANS BLUFF DR","id":"a6t2l73h3czd","geo_precision":"street","state":"Colorado"},"type":"Feature","geometry":{"type":"Point","coordinates":[-104.876911,38.921459]}},{"properties":{"city":"Colorado Springs","remarks":"Total Loss","fire":"Waldo Canyon Fire","geo_score":0.702,"street address":"2640 BROGANS BLUFF DR","id":"a6t2l79pmb44","geo_precision":"street","state":"Colorado"},"type":"Feature","geometry":{"type":"Point","coordinates":[-104.876128,38.921162]}},{"properties":{"city":"Colorado Springs","remarks":"Total Loss","fire":"Waldo Canyon Fire","geo_score":0.702,"street address":"2645 BROGANS BLUFF DR","id":"a6t2l7aidh47","geo_precision":"street","state":"Colorado"},"type":"Feature","geometry":{"type":"Point","coordinates":[-104.875935,38.92125]}},{"properties":{"city":"Colorado Springs","remarks":"Total Loss","fire":"Waldo Canyon Fire","geo_score":0.702,"street address":"2810 BROGANS BLUFF DR","id":"a6t2l742kuqo","geo_precision":"street","state":"Colorado"},"type":"Feature","geometry":{"type":"Point","coordinates":[-104.879558,38.91914]}},{"properties":{"city":"Colorado Springs","remarks":"Total Loss","fire":"Waldo Canyon Fire","geo_score":0.702,"street address":"2925 BROGANS BLUFF DR","id":"a6t2l7hl5esf","geo_precision":"street","state":"Colorado"},"type":"Feature","geometry":{"type":"Point","coordinates":[-104.882266,38.919472]}},{"properties":{"city":"Colorado Springs","remarks":"Total Loss","fire":"Waldo Canyon Fire","geo_score":0.702,"street address":"2930 BROGANS BLUFF DR","id":"a6t2l7aticuq","geo_precision":"street","state":"Colorado"},"type":"Feature","geometry":{"type":"Point","coordinates":[-104.882281,38.919749]}},{"properties":{"city":"Colorado Springs","remarks":"Total Loss","fire":"Waldo Canyon Fire","geo_score":0.702,"street address":"2835 BROGANS BLUFF DR","id":"a6t2l779jpvs","geo_precision":"street","state":"Colorado"},"type":"Feature","geometry":{"type":"Point","coordinates":[-104.879846,38.918717]}},{"properties":{"city":"Colorado Springs","remarks":"Total Loss","fire":"Waldo Canyon Fire","geo_score":0.702,"street address":"2975 BROGANS BLUFF DR","id":"a6t2l79bynjb","geo_precision":"street","state":"Colorado"},"type":"Feature","geometry":{"type":"Point","coordinates":[-104.882644,38.920507]}},{"properties":{"city":"Colorado Springs","remarks":"Total Loss","fire":"Waldo Canyon Fire","geo_score":0.799,"street address":"2220 CAPRA WAY","id":"a6t2l7box3qs","geo_precision":"range","state":"Colorado"},"type":"Feature","geometry":{"type":"Point","coordinates":[-104.869998,38.90845]}},{"properties":{"city":"Colorado Springs","remarks":"Total Loss","fire":"Waldo Canyon Fire","geo_score":0.799,"street address":"5345 CHAMBREY CT","id":"a6t2l7dzrke6","geo_precision":"range","state":"Colorado"},"type":"Feature","geometry":{"type":"Point","coordinates":[-104.868353,38.90822]}},{"properties":{"city":"Colorado Springs","remarks":"Total Loss","fire":"Waldo Canyon Fire","geo_score":0.799,"street address":"5350 CHAMBREY CT","id":"a6t2l7ac58jc","geo_precision":"range","state":"Colorado"},"type":"Feature","geometry":{"type":"Point","coordinates":[-104.868573,38.908269]}},{"properties":{"city":"Colorado Springs","remarks":"Total Loss","fire":"Waldo Canyon Fire","geo_score":0.799,"street address":"5410 CHAMBREY CT","id":"a6t2l73pqqc9","geo_precision":"range","state":"Colorado"},"type":"Feature","geometry":{"type":"Point","coordinates":[-104.868847,38.909559]}},{"properties":{"city":"Colorado Springs","remarks":"Total Loss","fire":"Waldo Canyon Fire","geo_score":0.799,"street address":"2215 CHARING CT","id":"a6t2l74icv5g","geo_precision":"range","state":"Colorado"},"type":"Feature","geometry":{"type":"Point","coordinates":[-104.868091,38.925252]}},{"properties":{"city":"Colorado Springs","remarks":"Total Loss","fire":"Waldo Canyon Fire","geo_score":0.39,"street address":"3330 CHUCKWAGON RD","id":"a6t2l79r80gl","geo_precision":"city","state":"Colorado"},"type":"Feature","geometry":{"type":"Point","coordinates":[-122.329813,45.519009]}},{"properties":{"city":"Colorado Springs","remarks":"Total Loss","fire":"Waldo Canyon Fire","geo_score":0.799,"street address":"2215 COURTNEY DR","id":"a6t2l7hqj1mo","geo_precision":"range","state":"Colorado"},"type":"Feature","geometry":{"type":"Point","coordinates":[-104.867784,38.924394]}},{"properties":{"city":"Colorado Springs","remarks":"Total Loss","fire":"Waldo Canyon Fire","geo_score":0.799,"street address":"2225 COURTNEY DR","id":"a6t2l7hbhwnm","geo_precision":"range","state":"Colorado"},"type":"Feature","geometry":{"type":"Point","coordinates":[-104.867899,38.924398]}},{"properties":{"city":"Colorado Springs","remarks":"Total Loss","fire":"Waldo Canyon Fire","geo_score":0.799,"street address":"2230 COURTNEY DR","id":"a6t2l7bse1wj","geo_precision":"range","state":"Colorado"},"type":"Feature","geometry":{"type":"Point","coordinates":[-104.867964,38.924549]}},{"properties":{"city":"Colorado Springs","remarks":"Total Loss","fire":"Waldo Canyon Fire","geo_score":0.799,"street address":"2235 COURTNEY DR","id":"a6t2l750mhfu","geo_precision":"range","state":"Colorado"},"type":"Feature","geometry":{"type":"Point","coordinates":[-104.868014,38.924401]}},{"properties":{"city":"Colorado Springs","remarks":"Total Loss","fire":"Waldo Canyon Fire","geo_score":0.799,"street address":"2240 COURTNEY DR","id":"a6t2l7ham2eb","geo_precision":"range","state":"Colorado"},"type":"Feature","geometry":{"type":"Point","coordinates":[-104.868079,38.924552]}},{"properties":{"city":"Colorado Springs","remarks":"Total Loss","fire":"Waldo Canyon Fire","geo_score":0.799,"street address":"2245 COURTNEY DR","id":"a6t2l77in1o8","geo_precision":"range","state":"Colorado"},"type":"Feature","geometry":{"type":"Point","coordinates":[-104.86813,38.924404]}},{"properties":{"city":"Colorado Springs","remarks":"Total Loss","fire":"Waldo Canyon Fire","geo_score":0.799,"street address":"2250 COURTNEY DR","id":"a6t2l7bdpukz","geo_precision":"range","state":"Colorado"},"type":"Feature","geometry":{"type":"Point","coordinates":[-104.868195,38.924556]}},{"properties":{"city":"Colorado Springs","remarks":"Total Loss","fire":"Waldo Canyon Fire","geo_score":0.799,"street address":"2255 COURTNEY DR","id":"a6t2l79k20r4","geo_precision":"range","state":"Colorado"},"type":"Feature","geometry":{"type":"Point","coordinates":[-104.868245,38.924407]}},{"properties":{"city":"Colorado Springs","remarks":"Total Loss","fire":"Waldo Canyon Fire","geo_score":0.799,"street address":"2260 COURTNEY DR","id":"a6t2l7b57i85","geo_precision":"range","state":"Colorado"},"type":"Feature","geometry":{"type":"Point","coordinates":[-104.868488,38.924559]}},{"properties":{"city":"Colorado Springs","remarks":"Total Loss","fire":"Waldo Canyon Fire","geo_score":0.799,"street address":"2265 COURTNEY DR","id":"a6t2l7375yl2","geo_precision":"range","state":"Colorado"},"type":"Feature","geometry":{"type":"Point","coordinates":[-104.86854,38.924411]}},{"properties":{"city":"Colorado Springs","remarks":"Total Loss","fire":"Waldo Canyon Fire","geo_score":0.799,"street address":"2270 COURTNEY DR","id":"a6t2l7c6moct","geo_precision":"range","state":"Colorado"},"type":"Feature","geometry":{"type":"Point","coordinates":[-104.868646,38.924562]}},{"properties":{"city":"Colorado Springs","remarks":"Total Loss","fire":"Waldo Canyon Fire","geo_score":0.799,"street address":"2275 COURTNEY DR","id":"a6t2l72e1mk2","geo_precision":"range","state":"Colorado"},"type":"Feature","geometry":{"type":"Point","coordinates":[-104.868694,38.924413]}},{"properties":{"city":"Colorado Springs","remarks":"Total Loss","fire":"Waldo Canyon Fire","geo_score":0.799,"street address":"2280 COURTNEY DR","id":"a6t2l7hbhiu3","geo_precision":"range","state":"Colorado"},"type":"Feature","geometry":{"type":"Point","coordinates":[-104.868761,38.924564]}},{"properties":{"city":"Colorado Springs","remarks":"Total Loss","fire":"Waldo Canyon Fire","geo_score":0.799,"street address":"2285 COURTNEY DR","id":"a6t2l7fa7vfx","geo_precision":"range","state":"Colorado"},"type":"Feature","geometry":{"type":"Point","coordinates":[-104.868809,38.924414]}},{"properties":{"city":"Colorado Springs","remarks":"Total Loss","fire":"Waldo Canyon Fire","geo_score":0.799,"street address":"2310 COURTNEY DR","id":"a6t2l7atx6ga","geo_precision":"range","state":"Colorado"},"type":"Feature","geometry":{"type":"Point","coordinates":[-104.869108,38.924568]}},{"properties":{"city":"Colorado Springs","remarks":"Total Loss","fire":"Waldo Canyon Fire","geo_score":0.799,"street address":"2320 COURTNEY DR","id":"a6t2l74f7bf0","geo_precision":"range","state":"Colorado"},"type":"Feature","geometry":{"type":"Point","coordinates":[-104.869223,38.924569]}},{"properties":{"city":"Colorado Springs","remarks":"Total Loss","fire":"Waldo Canyon Fire","geo_score":0.799,"street address":"2335 COURTNEY DR","id":"a6t2l79ffm9g","geo_precision":"range","state":"Colorado"},"type":"Feature","geometry":{"type":"Point","coordinates":[-104.869579,38.924424]}},{"properties":{"city":"Colorado Springs","remarks":"Total Loss","fire":"Waldo Canyon Fire","geo_score":0.799,"street address":"2340 COURTNEY DR","id":"a6t2l766hdlm","geo_precision":"range","state":"Colorado"},"type":"Feature","geometry":{"type":"Point","coordinates":[-104.869642,38.924576]}},{"properties":{"city":"Colorado Springs","remarks":"Total Loss","fire":"Waldo Canyon Fire","geo_score":0.799,"street address":"2350 COURTNEY DR","id":"a6t2l77153k7","geo_precision":"range","state":"Colorado"},"type":"Feature","geometry":{"type":"Point","coordinates":[-104.869758,38.92458]}},{"properties":{"city":"Colorado Springs","remarks":"Total Loss","fire":"Waldo Canyon Fire","geo_score":0.799,"street address":"2360 COURTNEY DR","id":"a6t2l7g09gbh","geo_precision":"range","state":"Colorado"},"type":"Feature","geometry":{"type":"Point","coordinates":[-104.869986,38.924566]}},{"properties":{"city":"Colorado Springs","remarks":"Total Loss","fire":"Waldo Canyon Fire","geo_score":0.799,"street address":"2370 COURTNEY DR","id":"a6t2l7d0ur52","geo_precision":"range","state":"Colorado"},"type":"Feature","geometry":{"type":"Point","coordinates":[-104.870143,38.924502]}},{"properties":{"city":"Colorado Springs","remarks":"Total Loss","fire":"Waldo Canyon Fire","geo_score":0.799,"street address":"2375 COURTNEY DR","id":"a6t2l7f2092f","geo_precision":"range","state":"Colorado"},"type":"Feature","geometry":{"type":"Point","coordinates":[-104.870096,38.924352]}},{"properties":{"city":"Colorado Springs","remarks":"Total Loss","fire":"Waldo Canyon Fire","geo_score":0.799,"street address":"2380 COURTNEY DR","id":"a6t2l77kf2kb","geo_precision":"range","state":"Colorado"},"type":"Feature","geometry":{"type":"Point","coordinates":[-104.870281,38.924413]}},{"properties":{"city":"Colorado Springs","remarks":"Total Loss","fire":"Waldo Canyon Fire","geo_score":0.799,"street address":"2385 COURTNEY DR","id":"a6t2l7a3auox","geo_precision":"range","state":"Colorado"},"type":"Feature","geometry":{"type":"Point","coordinates":[-104.870194,38.924283]}},{"properties":{"city":"Colorado Springs","remarks":"Total Loss","fire":"Waldo Canyon Fire","geo_score":0.799,"street address":"2390 COURTNEY DR","id":"a6t2l76ztbvr","geo_precision":"range","state":"Colorado"},"type":"Feature","geometry":{"type":"Point","coordinates":[-104.870371,38.924287]}},{"properties":{"city":"Colorado Springs","remarks":"Total Loss","fire":"Waldo Canyon Fire","geo_score":0.799,"street address":"2395 COURTNEY DR","id":"a6t2l7h6hwow","geo_precision":"range","state":"Colorado"},"type":"Feature","geometry":{"type":"Point","coordinates":[-104.870241,38.924217]}},{"properties":{"city":"Colorado Springs","remarks":"Total Loss","fire":"Waldo Canyon Fire","geo_score":0.799,"street address":"2410 COURTNEY DR","id":"a6t2l75qylk4","geo_precision":"range","state":"Colorado"},"type":"Feature","geometry":{"type":"Point","coordinates":[-104.870404,38.924044]}},{"properties":{"city":"Colorado Springs","remarks":"Total Loss","fire":"Waldo Canyon Fire","geo_score":0.799,"street address":"2415 COURTNEY DR","id":"a6t2l73z2cpv","geo_precision":"range","state":"Colorado"},"type":"Feature","geometry":{"type":"Point","coordinates":[-104.870257,38.923987]}},{"properties":{"city":"Colorado Springs","remarks":"Total Loss","fire":"Waldo Canyon Fire","geo_score":0.799,"street address":"2425 COURTNEY DR","id":"a6t2l7g5w2j9","geo_precision":"range","state":"Colorado"},"type":"Feature","geometry":{"type":"Point","coordinates":[-104.870265,38.923872]}},{"properties":{"city":"Colorado Springs","remarks":"Total Loss","fire":"Waldo Canyon Fire","geo_score":0.799,"street address":"5565 DARIEN WAY","id":"a6t2l729cf5u","geo_precision":"range","state":"Colorado"},"type":"Feature","geometry":{"type":"Point","coordinates":[-104.870699,38.912233]}},{"properties":{"city":"Colorado Springs","remarks":"Total Loss","fire":"Waldo Canyon Fire","geo_score":0.799,"street address":"5710 HARBOR PINES PT","id":"a6t2l7h52p7f","geo_precision":"range","state":"Colorado"},"type":"Feature","geometry":{"type":"Point","coordinates":[-104.878588,38.913934]}},{"properties":{"city":"Colorado Springs","remarks":"Total Loss","fire":"Waldo Canyon Fire","geo_score":0.799,"street address":"5720 HARBOR PINES PT","id":"a6t2l7dp89rc","geo_precision":"range","state":"Colorado"},"type":"Feature","geometry":{"type":"Point","coordinates":[-104.878313,38.91396]}},{"properties":{"city":"Colorado Springs","remarks":"Total Loss","fire":"Waldo Canyon Fire","geo_score":0.799,"street address":"5730 HARBOR PINES PT","id":"a6t2l78ujgow","geo_precision":"range","state":"Colorado"},"type":"Feature","geometry":{"type":"Point","coordinates":[-104.878023,38.913996]}},{"properties":{"city":"Colorado Springs","remarks":"Total Loss","fire":"Waldo Canyon Fire","geo_score":0.799,"street address":"5735 HARBOR PINES PT","id":"a6t2l7983e7o","geo_precision":"range","state":"Colorado"},"type":"Feature","geometry":{"type":"Point","coordinates":[-104.877842,38.913869]}},{"properties":{"city":"Colorado Springs","remarks":"Total Loss","fire":"Waldo Canyon Fire","geo_score":0.799,"street address":"5740 HARBOR PINES PT","id":"a6t2l75e2s7a","geo_precision":"range","state":"Colorado"},"type":"Feature","geometry":{"type":"Point","coordinates":[-104.877685,38.914047]}},{"properties":{"city":"Colorado Springs","remarks":"Total Loss","fire":"Waldo Canyon Fire","geo_score":0.799,"street address":"5745 HARBOR PINES PT","id":"a6t2l7gv07os","geo_precision":"range","state":"Colorado"},"type":"Feature","geometry":{"type":"Point","coordinates":[-104.87756,38.91392]}},{"properties":{"city":"Colorado Springs","remarks":"Total Loss","fire":"Waldo Canyon Fire","geo_score":0.799,"street address":"5750 HARBOR PINES PT","id":"a6t2l72efgnr","geo_precision":"range","state":"Colorado"},"type":"Feature","geometry":{"type":"Point","coordinates":[-104.877396,38.9141]}},{"properties":{"city":"Colorado Springs","remarks":"Total Loss","fire":"Waldo Canyon Fire","geo_score":0.799,"street address":"5760 HARBOR PINES PT","id":"a6t2l779roav","geo_precision":"range","state":"Colorado"},"type":"Feature","geometry":{"type":"Point","coordinates":[-104.877086,38.914148]}},{"properties":{"city":"Colorado Springs","remarks":"Total Loss","fire":"Waldo Canyon Fire","geo_score":0.799,"street address":"5770 HARBOR PINES PT","id":"a6t2l7hsjcu3","geo_precision":"range","state":"Colorado"},"type":"Feature","geometry":{"type":"Point","coordinates":[-104.876776,38.914118]}},{"properties":{"city":"Colorado Springs","remarks":"Total Loss","fire":"Waldo Canyon Fire","geo_score":0.799,"street address":"5780 HARBOR PINES PT","id":"a6t2l7ek3esd","geo_precision":"range","state":"Colorado"},"type":"Feature","geometry":{"type":"Point","coordinates":[-104.876577,38.913866]}},{"properties":{"city":"Colorado Springs","remarks":"Total Loss","fire":"Waldo Canyon Fire","geo_score":0.799,"street address":"5810 HARBOR PINES PT","id":"a6t2l7bdgzh5","geo_precision":"range","state":"Colorado"},"type":"Feature","geometry":{"type":"Point","coordinates":[-104.877112,38.913366]}},{"properties":{"city":"Colorado Springs","remarks":"Total Loss","fire":"Waldo Canyon Fire","geo_score":0.799,"street address":"5820 HARBOR PINES PT","id":"a6t2l7dybknm","geo_precision":"range","state":"Colorado"},"type":"Feature","geometry":{"type":"Point","coordinates":[-104.877347,38.913329]}},{"properties":{"city":"Colorado Springs","remarks":"Total Loss","fire":"Waldo Canyon Fire","geo_score":0.799,"street address":"5125 HEARTHSTONE LN","id":"a6t2l7c7yve4","geo_precision":"range","state":"Colorado"},"type":"Feature","geometry":{"type":"Point","coordinates":[-104.874883,38.908305]}},{"properties":{"city":"Colorado Springs","remarks":"Total Loss","fire":"Waldo Canyon Fire","geo_score":0.799,"street address":"5135 HEARTHSTONE LN","id":"a6t2l762xlk7","geo_precision":"range","state":"Colorado"},"type":"Feature","geometry":{"type":"Point","coordinates":[-104.874699,38.908196]}},{"properties":{"city":"Colorado Springs","remarks":"Total Loss","fire":"Waldo Canyon Fire","geo_score":0.799,"street address":"5175 HEARTHSTONE LN","id":"a6t2l7a7ouln","geo_precision":"range","state":"Colorado"},"type":"Feature","geometry":{"type":"Point","coordinates":[-104.875262,38.907464]}},{"properties":{"city":"Colorado Springs","remarks":"Total Loss","fire":"Waldo Canyon Fire","geo_score":0.799,"street address":"5185 HEARTHSTONE LN","id":"a6t2l733b5rr","geo_precision":"range","state":"Colorado"},"type":"Feature","geometry":{"type":"Point","coordinates":[-104.875521,38.907259]}},{"properties":{"city":"Colorado Springs","remarks":"Total Loss","fire":"Waldo Canyon Fire","geo_score":0.799,"street address":"2515 HOT SPRINGS CT","id":"a6t2l7c270v2","geo_precision":"range","state":"Colorado"},"type":"Feature","geometry":{"type":"Point","coordinates":[-104.87463,38.911593]}},{"properties":{"city":"Colorado Springs","remarks":"Total Loss","fire":"Waldo Canyon Fire","geo_score":0.799,"street address":"2517 HOT SPRINGS CT","id":"a6t2l71h9zeo","geo_precision":"range","state":"Colorado"},"type":"Feature","geometry":{"type":"Point","coordinates":[-104.874614,38.911591]}},{"properties":{"city":"Colorado Springs","remarks":"Total Loss","fire":"Waldo Canyon Fire","geo_score":0.799,"street address":"2519 HOT SPRINGS CT","id":"a6t2l754rmb2","geo_precision":"range","state":"Colorado"},"type":"Feature","geometry":{"type":"Point","coordinates":[-104.874599,38.91159]}},{"properties":{"city":"Colorado Springs","remarks":"Total Loss","fire":"Waldo Canyon Fire","geo_score":0.799,"street address":"2521 HOT SPRINGS CT","id":"a6t2l74mxzbk","geo_precision":"range","state":"Colorado"},"type":"Feature","geometry":{"type":"Point","coordinates":[-104.874515,38.911594]}},{"properties":{"city":"Colorado Springs","remarks":"Total Loss","fire":"Waldo Canyon Fire","geo_score":0.799,"street address":"2523 HOT SPRINGS CT","id":"a6t2l7gmemi3","geo_precision":"range","state":"Colorado"},"type":"Feature","geometry":{"type":"Point","coordinates":[-104.874501,38.911599]}},{"properties":{"city":"Colorado Springs","remarks":"Total Loss","fire":"Waldo Canyon Fire","geo_score":0.799,"street address":"2525 HOT SPRINGS CT","id":"a6t2l7ek9tj4","geo_precision":"range","state":"Colorado"},"type":"Feature","geometry":{"type":"Point","coordinates":[-104.874486,38.911603]}},{"properties":{"city":"Colorado Springs","remarks":"Total Loss","fire":"Waldo Canyon Fire","geo_score":0.799,"street address":"2527 HOT SPRINGS CT","id":"a6t2l73ga96i","geo_precision":"range","state":"Colorado"},"type":"Feature","geometry":{"type":"Point","coordinates":[-104.874471,38.911607]}},{"properties":{"city":"Colorado Springs","remarks":"Total Loss","fire":"Waldo Canyon Fire","geo_score":0.799,"street address":"2529 HOT SPRINGS CT","id":"a6t2l7dbr0dw","geo_precision":"range","state":"Colorado"},"type":"Feature","geometry":{"type":"Point","coordinates":[-104.874456,38.911611]}},{"properties":{"city":"Colorado Springs","remarks":"Total Loss","fire":"Waldo Canyon Fire","geo_score":0.799,"street address":"2531 HOT SPRINGS CT","id":"a6t2l7625rn2","geo_precision":"range","state":"Colorado"},"type":"Feature","geometry":{"type":"Point","coordinates":[-104.874442,38.911615]}},{"properties":{"city":"Colorado Springs","remarks":"Total Loss","fire":"Waldo Canyon Fire","geo_score":0.799,"street address":"2539 HOT SPRINGS CT","id":"a6t2l760hf6s","geo_precision":"range","state":"Colorado"},"type":"Feature","geometry":{"type":"Point","coordinates":[-104.874383,38.911631]}},{"properties":{"city":"Colorado Springs","remarks":"Total Loss","fire":"Waldo Canyon Fire","geo_score":0.799,"street address":"2541 HOT SPRINGS CT","id":"a6t2l74gp0kh","geo_precision":"range","state":"Colorado"},"type":"Feature","geometry":{"type":"Point","coordinates":[-104.874368,38.911635]}},{"properties":{"city":"Colorado Springs","remarks":"Total Loss","fire":"Waldo Canyon Fire","geo_score":0.799,"street address":"2551 HOT SPRINGS CT","id":"a6t2l7ga9ybu","geo_precision":"range","state":"Colorado"},"type":"Feature","geometry":{"type":"Point","coordinates":[-104.874295,38.911655]}},{"properties":{"city":"Colorado Springs","remarks":"Total Loss","fire":"Waldo Canyon Fire","geo_score":0.799,"street address":"2553 HOT SPRINGS CT","id":"a6t2l71jz7fr","geo_precision":"range","state":"Colorado"},"type":"Feature","geometry":{"type":"Point","coordinates":[-104.87428,38.91166]}},{"properties":{"city":"Colorado Springs","remarks":"Total Loss","fire":"Waldo Canyon Fire","geo_score":0.799,"street address":"2555 HOT SPRINGS CT","id":"a6t2l74ing4f","geo_precision":"range","state":"Colorado"},"type":"Feature","geometry":{"type":"Point","coordinates":[-104.874266,38.911664]}},{"properties":{"city":"Colorado Springs","remarks":"Total Loss","fire":"Waldo Canyon Fire","geo_score":0.799,"street address":"2557 HOT SPRINGS CT","id":"a6t2l7bmgtg0","geo_precision":"range","state":"Colorado"},"type":"Feature","geometry":{"type":"Point","coordinates":[-104.874196,38.911662]}},{"properties":{"city":"Colorado Springs","remarks":"Total Loss","fire":"Waldo Canyon Fire","geo_score":0.799,"street address":"2559 HOT SPRINGS CT","id":"a6t2l7340o0b","geo_precision":"range","state":"Colorado"},"type":"Feature","geometry":{"type":"Point","coordinates":[-104.874181,38.911662]}},{"properties":{"city":"Colorado Springs","remarks":"Total Loss","fire":"Waldo Canyon Fire","geo_score":0.799,"street address":"2561 HOT SPRINGS CT","id":"a6t2l7fpnv8d","geo_precision":"range","state":"Colorado"},"type":"Feature","geometry":{"type":"Point","coordinates":[-104.874165,38.911663]}},{"properties":{"city":"Colorado Springs","remarks":"Total Loss","fire":"Waldo Canyon Fire","geo_score":0.799,"street address":"2563 HOT SPRINGS CT","id":"a6t2l7fjrpf2","geo_precision":"range","state":"Colorado"},"type":"Feature","geometry":{"type":"Point","coordinates":[-104.87415,38.911663]}},{"properties":{"city":"Colorado Springs","remarks":"Total Loss","fire":"Waldo Canyon Fire","geo_score":0.799,"street address":"2565 HOT SPRINGS CT","id":"a6t2l75tzt3o","geo_precision":"range","state":"Colorado"},"type":"Feature","geometry":{"type":"Point","coordinates":[-104.874135,38.911664]}},{"properties":{"city":"Colorado Springs","remarks":"Total Loss","fire":"Waldo Canyon Fire","geo_score":0.799,"street address":"2567 HOT SPRINGS CT","id":"a6t2l77dzfm5","geo_precision":"range","state":"Colorado"},"type":"Feature","geometry":{"type":"Point","coordinates":[-104.87412,38.911664]}},{"properties":{"city":"Colorado Springs","remarks":"Total Loss","fire":"Waldo Canyon Fire","geo_score":0.799,"street address":"2569 HOT SPRINGS CT","id":"a6t2l7aoiuzy","geo_precision":"range","state":"Colorado"},"type":"Feature","geometry":{"type":"Point","coordinates":[-104.874104,38.911665]}},{"properties":{"city":"Colorado Springs","remarks":"Total Loss","fire":"Waldo Canyon Fire","geo_score":0.799,"street address":"2571 HOT SPRINGS CT","id":"a6t2l73b3y49","geo_precision":"range","state":"Colorado"},"type":"Feature","geometry":{"type":"Point","coordinates":[-104.874055,38.911665]}},{"properties":{"city":"Colorado Springs","remarks":"Total Loss","fire":"Waldo Canyon Fire","geo_score":0.799,"street address":"2573 HOT SPRINGS CT","id":"a6t2l72dgtje","geo_precision":"range","state":"Colorado"},"type":"Feature","geometry":{"type":"Point","coordinates":[-104.87404,38.911666]}},{"properties":{"city":"Colorado Springs","remarks":"Total Loss","fire":"Waldo Canyon Fire","geo_score":0.799,"street address":"5775 HUFFMAN CT","id":"a6t2l7615vd7","geo_precision":"range","state":"Colorado"},"type":"Feature","geometry":{"type":"Point","coordinates":[-104.872741,38.915665]}},{"properties":{"city":"Colorado Springs","remarks":"Total Loss","fire":"Waldo Canyon Fire","geo_score":0.799,"street address":"2450 JENNER CT","id":"a6t2l7g17o5g","geo_precision":"range","state":"Colorado"},"type":"Feature","geometry":{"type":"Point","coordinates":[-104.873725,38.921728]}},{"properties":{"city":"Colorado Springs","remarks":"Total Loss","fire":"Waldo Canyon Fire","geo_score":0.799,"street address":"2460 JENNER CT","id":"a6t2l7bxdt6v","geo_precision":"range","state":"Colorado"},"type":"Feature","geometry":{"type":"Point","coordinates":[-104.873856,38.921668]}},{"properties":{"city":"Colorado Springs","remarks":"Total Loss","fire":"Waldo Canyon Fire","geo_score":0.799,"street address":"2470 JENNER CT","id":"a6t2l7apoc3i","geo_precision":"range","state":"Colorado"},"type":"Feature","geometry":{"type":"Point","coordinates":[-104.873938,38.921592]}},{"properties":{"city":"Colorado Springs","remarks":"Total Loss","fire":"Waldo Canyon Fire","geo_score":0.799,"street address":"2485 JENNER CT","id":"a6t2l7emcqtx","geo_precision":"range","state":"Colorado"},"type":"Feature","geometry":{"type":"Point","coordinates":[-104.874117,38.921427]}},{"properties":{"city":"Colorado Springs","remarks":"Total Loss","fire":"Waldo Canyon Fire","geo_score":0.799,"street address":"2505 KARAMY CT","id":"a6t2l73h556s","geo_precision":"range","state":"Colorado"},"type":"Feature","geometry":{"type":"Point","coordinates":[-104.877219,38.9207]}},{"properties":{"city":"Colorado Springs","remarks":"Total Loss","fire":"Waldo Canyon Fire","geo_score":0.799,"street address":"2545 KARAMY CT","id":"a6t2l76ei40o","geo_precision":"range","state":"Colorado"},"type":"Feature","geometry":{"type":"Point","coordinates":[-104.878157,38.920613]}},{"properties":{"city":"Colorado Springs","remarks":"Total Loss","fire":"Waldo Canyon Fire","geo_score":0.799,"street address":"2570 KARAMY CT","id":"a6t2l7hs1kg7","geo_precision":"range","state":"Colorado"},"type":"Feature","geometry":{"type":"Point","coordinates":[-104.878694,38.920696]}},{"properties":{"city":"Colorado Springs","remarks":"Total Loss","fire":"Waldo Canyon Fire","geo_score":0.799,"street address":"5140 LANAGAN ST","id":"a6t2l7dscuvg","geo_precision":"range","state":"Colorado"},"type":"Feature","geometry":{"type":"Point","coordinates":[-104.876366,38.911571]}},{"properties":{"city":"Colorado Springs","remarks":"Total Loss","fire":"Waldo Canyon Fire","geo_score":0.799,"street address":"5155 LANAGAN ST","id":"a6t2l76y89lb","geo_precision":"range","state":"Colorado"},"type":"Feature","geometry":{"type":"Point","coordinates":[-104.879292,38.90758]}},{"properties":{"city":"Colorado Springs","remarks":"Total Loss","fire":"Waldo Canyon Fire","geo_score":0.799,"street address":"5175 LANAGAN ST","id":"a6t2l75pi1x8","geo_precision":"range","state":"Colorado"},"type":"Feature","geometry":{"type":"Point","coordinates":[-104.878836,38.90754]}},{"properties":{"city":"Colorado Springs","remarks":"Total Loss","fire":"Waldo Canyon Fire","geo_score":0.799,"street address":"5185 LANAGAN ST","id":"a6t2l74x8shx","geo_precision":"range","state":"Colorado"},"type":"Feature","geometry":{"type":"Point","coordinates":[-104.878626,38.907607]}},{"properties":{"city":"Colorado Springs","remarks":"Total Loss","fire":"Waldo Canyon Fire","geo_score":0.799,"street address":"5265 LANAGAN ST","id":"a6t2l7hax7ae","geo_precision":"range","state":"Colorado"},"type":"Feature","geometry":{"type":"Point","coordinates":[-104.877042,38.908334]}},{"properties":{"city":"Colorado Springs","remarks":"Total Loss","fire":"Waldo Canyon Fire","geo_score":0.799,"street address":"5701 LINGER WAY","id":"a6t2l7eb9ekf","geo_precision":"range","state":"Colorado"},"type":"Feature","geometry":{"type":"Point","coordinates":[-104.878352,38.916542]}},{"properties":{"city":"Colorado Springs","remarks":"Total Loss","fire":"Waldo Canyon Fire","geo_score":0.799,"street address":"5705 LINGER WAY","id":"a6t2l7cnx0un","geo_precision":"range","state":"Colorado"},"type":"Feature","geometry":{"type":"Point","coordinates":[-104.87831,38.916439]}},{"properties":{"city":"Colorado Springs","remarks":"Total Loss","fire":"Waldo Canyon Fire","geo_score":0.799,"street address":"5715 LINGER WAY","id":"a6t2l74resjq","geo_precision":"range","state":"Colorado"},"type":"Feature","geometry":{"type":"Point","coordinates":[-104.87838,38.916245]}},{"properties":{"city":"Colorado Springs","remarks":"Total Loss","fire":"Waldo Canyon Fire","geo_score":0.799,"street address":"5720 LINGER WAY","id":"a6t2l73arco6","geo_precision":"range","state":"Colorado"},"type":"Feature","geometry":{"type":"Point","coordinates":[-104.878564,38.91618]}},{"properties":{"city":"Colorado Springs","remarks":"Total Loss","fire":"Waldo Canyon Fire","geo_score":0.799,"street address":"5725 LINGER WAY","id":"a6t2l752xsky","geo_precision":"range","state":"Colorado"},"type":"Feature","geometry":{"type":"Point","coordinates":[-104.878451,38.916052]}},{"properties":{"city":"Colorado Springs","remarks":"Total Loss","fire":"Waldo Canyon Fire","geo_score":0.799,"street address":"5735 LINGER WAY","id":"a6t2l7gwncl9","geo_precision":"range","state":"Colorado"},"type":"Feature","geometry":{"type":"Point","coordinates":[-104.878521,38.915858]}},{"properties":{"city":"Colorado Springs","remarks":"Total Loss","fire":"Waldo Canyon Fire","geo_score":0.799,"street address":"5740 LINGER WAY","id":"a6t2l79dcfvm","geo_precision":"range","state":"Colorado"},"type":"Feature","geometry":{"type":"Point","coordinates":[-104.878705,38.915793]}},{"properties":{"city":"Colorado Springs","remarks":"Total Loss","fire":"Waldo Canyon Fire","geo_score":0.799,"street address":"5745 LINGER WAY","id":"a6t2l71q6th5","geo_precision":"range","state":"Colorado"},"type":"Feature","geometry":{"type":"Point","coordinates":[-104.878592,38.915664]}},{"properties":{"city":"Colorado Springs","remarks":"Total Loss","fire":"Waldo Canyon Fire","geo_score":0.799,"street address":"5750 LINGER WAY","id":"a6t2l79nsvms","geo_precision":"range","state":"Colorado"},"type":"Feature","geometry":{"type":"Point","coordinates":[-104.878775,38.915599]}},{"properties":{"city":"Colorado Springs","remarks":"Total Loss","fire":"Waldo Canyon Fire","geo_score":0.799,"street address":"5755 LINGER WAY","id":"a6t2l7ee69un","geo_precision":"range","state":"Colorado"},"type":"Feature","geometry":{"type":"Point","coordinates":[-104.878662,38.915471]}},{"properties":{"city":"Colorado Springs","remarks":"Total Loss","fire":"Waldo Canyon Fire","geo_score":0.799,"street address":"5765 LINGER WAY","id":"a6t2l75qdnn8","geo_precision":"range","state":"Colorado"},"type":"Feature","geometry":{"type":"Point","coordinates":[-104.87899,38.91532]}},{"properties":{"city":"Colorado Springs","remarks":"Total Loss","fire":"Waldo Canyon Fire","geo_score":0.799,"street address":"5775 LINGER WAY","id":"a6t2l77d8ip2","geo_precision":"range","state":"Colorado"},"type":"Feature","geometry":{"type":"Point","coordinates":[-104.879192,38.915361]}},{"properties":{"city":"Colorado Springs","remarks":"Total Loss","fire":"Waldo Canyon Fire","geo_score":0.799,"street address":"5785 LINGER WAY","id":"a6t2l74a4j6d","geo_precision":"range","state":"Colorado"},"type":"Feature","geometry":{"type":"Point","coordinates":[-104.879395,38.915402]}},{"properties":{"city":"Colorado Springs","remarks":"Total Loss","fire":"Waldo Canyon Fire","geo_score":0.799,"street address":"5795 LINGER WAY","id":"a6t2l7flgj9e","geo_precision":"range","state":"Colorado"},"type":"Feature","geometry":{"type":"Point","coordinates":[-104.879597,38.915442]}},{"properties":{"city":"Colorado Springs","remarks":"Total Loss","fire":"Waldo Canyon Fire","geo_score":0.799,"street address":"5799 LINGER WAY","id":"a6t2l71l2b5v","geo_precision":"range","state":"Colorado"},"type":"Feature","geometry":{"type":"Point","coordinates":[-104.879881,38.915532]}},{"properties":{"city":"Colorado Springs","remarks":"Total Loss","fire":"Waldo Canyon Fire","geo_score":0.799,"street address":"5463 LIONS GATE LN","id":"a6t2l77dpuk9","geo_precision":"range","state":"Colorado"},"type":"Feature","geometry":{"type":"Point","coordinates":[-104.87252,38.909874]}},{"properties":{"city":"Colorado Springs","remarks":"Total Loss","fire":"Waldo Canyon Fire","geo_score":0.799,"street address":"5465 LIONS GATE LN","id":"a6t2l73apq9e","geo_precision":"range","state":"Colorado"},"type":"Feature","geometry":{"type":"Point","coordinates":[-104.87252,38.909836]}},{"properties":{"city":"Colorado Springs","remarks":"Total Loss","fire":"Waldo Canyon Fire","geo_score":0.799,"street address":"5467 LIONS GATE LN","id":"a6t2l739i3uu","geo_precision":"range","state":"Colorado"},"type":"Feature","geometry":{"type":"Point","coordinates":[-104.872519,38.909798]}},{"properties":{"city":"Colorado Springs","remarks":"Total Loss","fire":"Waldo Canyon Fire","geo_score":0.799,"street address":"5469 LIONS GATE LN","id":"a6t2l7apz9a9","geo_precision":"range","state":"Colorado"},"type":"Feature","geometry":{"type":"Point","coordinates":[-104.872518,38.909761]}},{"properties":{"city":"Colorado Springs","remarks":"Total Loss","fire":"Waldo Canyon Fire","geo_score":0.799,"street address":"5471 LIONS GATE LN","id":"a6t2l7b8a4vo","geo_precision":"range","state":"Colorado"},"type":"Feature","geometry":{"type":"Point","coordinates":[-104.872518,38.909723]}},{"properties":{"city":"Colorado Springs","remarks":"Total Loss","fire":"Waldo Canyon Fire","geo_score":0.799,"street address":"5473 LIONS GATE LN","id":"a6t2l74el46x","geo_precision":"range","state":"Colorado"},"type":"Feature","geometry":{"type":"Point","coordinates":[-104.872517,38.909685]}},{"properties":{"city":"Colorado Springs","remarks":"Total Loss","fire":"Waldo Canyon Fire","geo_score":0.799,"street address":"5475 LIONS GATE LN","id":"a6t2l76d28mf","geo_precision":"range","state":"Colorado"},"type":"Feature","geometry":{"type":"Point","coordinates":[-104.872516,38.909648]}},{"properties":{"city":"Colorado Springs","remarks":"Total Loss","fire":"Waldo Canyon Fire","geo_score":0.799,"street address":"5477 LIONS GATE LN","id":"a6t2l7bssq4f","geo_precision":"range","state":"Colorado"},"type":"Feature","geometry":{"type":"Point","coordinates":[-104.872515,38.90961]}},{"properties":{"city":"Colorado Springs","remarks":"Total Loss","fire":"Waldo Canyon Fire","geo_score":0.799,"street address":"5479 LIONS GATE LN","id":"a6t2l7c7aclx","geo_precision":"range","state":"Colorado"},"type":"Feature","geometry":{"type":"Point","coordinates":[-104.872515,38.909573]}},{"properties":{"city":"Colorado Springs","remarks":"Total Loss","fire":"Waldo Canyon Fire","geo_score":0.799,"street address":"5481 LIONS GATE LN","id":"a6t2l7cn1ohv","geo_precision":"range","state":"Colorado"},"type":"Feature","geometry":{"type":"Point","coordinates":[-104.872514,38.909535]}},{"properties":{"city":"Colorado Springs","remarks":"Total Loss","fire":"Waldo Canyon Fire","geo_score":0.799,"street address":"5483 LIONS GATE LN","id":"a6t2l79jq0i3","geo_precision":"range","state":"Colorado"},"type":"Feature","geometry":{"type":"Point","coordinates":[-104.872586,38.909496]}},{"properties":{"city":"Colorado Springs","remarks":"Total Loss","fire":"Waldo Canyon Fire","geo_score":0.799,"street address":"5485 LIONS GATE LN","id":"a6t2l76n50x9","geo_precision":"range","state":"Colorado"},"type":"Feature","geometry":{"type":"Point","coordinates":[-104.873594,38.910744]}},{"properties":{"city":"Colorado Springs","remarks":"Total Loss","fire":"Waldo Canyon Fire","geo_score":0.799,"street address":"5420 MAJESTIC DR","id":"a6t2l78jds99","geo_precision":"range","state":"Colorado"},"type":"Feature","geometry":{"type":"Point","coordinates":[-104.875176,38.913844]}},{"properties":{"city":"Colorado Springs","remarks":"Total Loss","fire":"Waldo Canyon Fire","geo_score":0.799,"street address":"5422 MAJESTIC DR","id":"a6t2l734sdoe","geo_precision":"range","state":"Colorado"},"type":"Feature","geometry":{"type":"Point","coordinates":[-104.875196,38.913846]}},{"properties":{"city":"Colorado Springs","remarks":"Total Loss","fire":"Waldo Canyon Fire","geo_score":0.799,"street address":"5428 MAJESTIC DR","id":"a6t2l77pnqda","geo_precision":"range","state":"Colorado"},"type":"Feature","geometry":{"type":"Point","coordinates":[-104.875256,38.913851]}},{"properties":{"city":"Colorado Springs","remarks":"Total Loss","fire":"Waldo Canyon Fire","geo_score":0.799,"street address":"5430 MAJESTIC DR","id":"a6t2l74g24s0","geo_precision":"range","state":"Colorado"},"type":"Feature","geometry":{"type":"Point","coordinates":[-104.875277,38.913853]}},{"properties":{"city":"Colorado Springs","remarks":"Total Loss","fire":"Waldo Canyon Fire","geo_score":0.799,"street address":"5432 MAJESTIC DR","id":"a6t2l7f5j6hj","geo_precision":"range","state":"Colorado"},"type":"Feature","geometry":{"type":"Point","coordinates":[-104.875297,38.913855]}},{"properties":{"city":"Colorado Springs","remarks":"Total Loss","fire":"Waldo Canyon Fire","geo_score":0.799,"street address":"5434 MAJESTIC DR","id":"a6t2l7h8ctc8","geo_precision":"range","state":"Colorado"},"type":"Feature","geometry":{"type":"Point","coordinates":[-104.875317,38.913857]}},{"properties":{"city":"Colorado Springs","remarks":"Total Loss","fire":"Waldo Canyon Fire","geo_score":0.799,"street address":"5436 MAJESTIC DR","id":"a6t2l7bqpvnu","geo_precision":"range","state":"Colorado"},"type":"Feature","geometry":{"type":"Point","coordinates":[-104.875337,38.913859]}},{"properties":{"city":"Colorado Springs","remarks":"Total Loss","fire":"Waldo Canyon Fire","geo_score":0.799,"street address":"5438 MAJESTIC DR","id":"a6t2l78pz3b2","geo_precision":"range","state":"Colorado"},"type":"Feature","geometry":{"type":"Point","coordinates":[-104.875357,38.91386]}},{"properties":{"city":"Colorado Springs","remarks":"Total Loss","fire":"Waldo Canyon Fire","geo_score":0.799,"street address":"5440 MAJESTIC DR","id":"a6t2l7ejo0qc","geo_precision":"range","state":"Colorado"},"type":"Feature","geometry":{"type":"Point","coordinates":[-104.875447,38.913937]}},{"properties":{"city":"Colorado Springs","remarks":"Total Loss","fire":"Waldo Canyon Fire","geo_score":0.799,"street address":"5442 MAJESTIC DR","id":"a6t2l7fnp3ve","geo_precision":"range","state":"Colorado"},"type":"Feature","geometry":{"type":"Point","coordinates":[-104.873988,38.913298]}},{"properties":{"city":"Colorado Springs","remarks":"Total Loss","fire":"Waldo Canyon Fire","geo_score":0.799,"street address":"5446 MAJESTIC DR","id":"a6t2l7d1njvg","geo_precision":"range","state":"Colorado"},"type":"Feature","geometry":{"type":"Point","coordinates":[-104.874073,38.913302]}},{"properties":{"city":"Colorado Springs","remarks":"Total Loss","fire":"Waldo Canyon Fire","geo_score":0.799,"street address":"5448 MAJESTIC DR","id":"a6t2l7bemiw0","geo_precision":"range","state":"Colorado"},"type":"Feature","geometry":{"type":"Point","coordinates":[-104.874081,38.913319]}},{"properties":{"city":"Colorado Springs","remarks":"Total Loss","fire":"Waldo Canyon Fire","geo_score":0.799,"street address":"5454 MAJESTIC DR","id":"a6t2l75i4cux","geo_precision":"range","state":"Colorado"},"type":"Feature","geometry":{"type":"Point","coordinates":[-104.874106,38.913373]}},{"properties":{"city":"Colorado Springs","remarks":"Total Loss","fire":"Waldo Canyon Fire","geo_score":0.799,"street address":"5456 MAJESTIC DR","id":"a6t2l7gjdwg2","geo_precision":"range","state":"Colorado"},"type":"Feature","geometry":{"type":"Point","coordinates":[-104.874115,38.913391]}},{"properties":{"city":"Colorado Springs","remarks":"Total Loss","fire":"Waldo Canyon Fire","geo_score":0.799,"street address":"5458 MAJESTIC DR","id":"a6t2l78by4h1","geo_precision":"range","state":"Colorado"},"type":"Feature","geometry":{"type":"Point","coordinates":[-104.874123,38.913409]}},{"properties":{"city":"Colorado Springs","remarks":"Total Loss","fire":"Waldo Canyon Fire","geo_score":0.799,"street address":"5460 MAJESTIC DR","id":"a6t2l7casqe4","geo_precision":"range","state":"Colorado"},"type":"Feature","geometry":{"type":"Point","coordinates":[-104.874132,38.913427]}},{"properties":{"city":"Colorado Springs","remarks":"Total Loss","fire":"Waldo Canyon Fire","geo_score":0.799,"street address":"5515 MAJESTIC DR","id":"a6t2l74tsf3d","geo_precision":"range","state":"Colorado"},"type":"Feature","geometry":{"type":"Point","coordinates":[-104.874338,38.913825]}},{"properties":{"city":"Colorado Springs","remarks":"Total Loss","fire":"Waldo Canyon Fire","geo_score":0.799,"street address":"5517 MAJESTIC DR","id":"a6t2l72uemod","geo_precision":"range","state":"Colorado"},"type":"Feature","geometry":{"type":"Point","coordinates":[-104.874352,38.913834]}},{"properties":{"city":"Colorado Springs","remarks":"Total Loss","fire":"Waldo Canyon Fire","geo_score":0.799,"street address":"5519 MAJESTIC DR","id":"a6t2l7dx62fx","geo_precision":"range","state":"Colorado"},"type":"Feature","geometry":{"type":"Point","coordinates":[-104.874367,38.913843]}},{"properties":{"city":"Colorado Springs","remarks":"Total Loss","fire":"Waldo Canyon Fire","geo_score":0.799,"street address":"5521 MAJESTIC DR","id":"a6t2l74605x8","geo_precision":"range","state":"Colorado"},"type":"Feature","geometry":{"type":"Point","coordinates":[-104.874381,38.913852]}},{"properties":{"city":"Colorado Springs","remarks":"Total Loss","fire":"Waldo Canyon Fire","geo_score":0.799,"street address":"5523 MAJESTIC DR","id":"a6t2l78bw2kh","geo_precision":"range","state":"Colorado"},"type":"Feature","geometry":{"type":"Point","coordinates":[-104.874396,38.913861]}},{"properties":{"city":"Colorado Springs","remarks":"Total Loss","fire":"Waldo Canyon Fire","geo_score":0.799,"street address":"5525 MAJESTIC DR","id":"a6t2l7hcm0kv","geo_precision":"range","state":"Colorado"},"type":"Feature","geometry":{"type":"Point","coordinates":[-104.874411,38.91387]}},{"properties":{"city":"Colorado Springs","remarks":"Total Loss","fire":"Waldo Canyon Fire","geo_score":0.799,"street address":"5527 MAJESTIC DR","id":"a6t2l78s7eei","geo_precision":"range","state":"Colorado"},"type":"Feature","geometry":{"type":"Point","coordinates":[-104.874448,38.913879]}},{"properties":{"city":"Colorado Springs","remarks":"Total Loss","fire":"Waldo Canyon Fire","geo_score":0.799,"street address":"5529 MAJESTIC DR","id":"a6t2l7ecm11y","geo_precision":"range","state":"Colorado"},"type":"Feature","geometry":{"type":"Point","coordinates":[-104.874462,38.913888]}},{"properties":{"city":"Colorado Springs","remarks":"Total Loss","fire":"Waldo Canyon Fire","geo_score":0.799,"street address":"5531 MAJESTIC DR","id":"a6t2l7h0fqq4","geo_precision":"range","state":"Colorado"},"type":"Feature","geometry":{"type":"Point","coordinates":[-104.874477,38.913896]}},{"properties":{"city":"Colorado Springs","remarks":"Total Loss","fire":"Waldo Canyon Fire","geo_score":0.799,"street address":"5533 MAJESTIC DR","id":"a6t2l7cgtmr8","geo_precision":"range","state":"Colorado"},"type":"Feature","geometry":{"type":"Point","coordinates":[-104.874491,38.913905]}},{"properties":{"city":"Colorado Springs","remarks":"Total Loss","fire":"Waldo Canyon Fire","geo_score":0.799,"street address":"5537 MAJESTIC DR","id":"a6t2l7d1jwe5","geo_precision":"range","state":"Colorado"},"type":"Feature","geometry":{"type":"Point","coordinates":[-104.874521,38.913923]}},{"properties":{"city":"Colorado Springs","remarks":"Total Loss","fire":"Waldo Canyon Fire","geo_score":0.799,"street address":"5539 MAJESTIC DR","id":"a6t2l777b6ve","geo_precision":"range","state":"Colorado"},"type":"Feature","geometry":{"type":"Point","coordinates":[-104.874535,38.913932]}},{"properties":{"city":"Colorado Springs","remarks":"Total Loss","fire":"Waldo Canyon Fire","geo_score":0.799,"street address":"5540 MAJESTIC DR","id":"a6t2l78wfyek","geo_precision":"range","state":"Colorado"},"type":"Feature","geometry":{"type":"Point","coordinates":[-104.874833,38.913823]}},{"properties":{"city":"Colorado Springs","remarks":"Total Loss","fire":"Waldo Canyon Fire","geo_score":0.799,"street address":"5541 MAJESTIC DR","id":"a6t2l74x4pd5","geo_precision":"range","state":"Colorado"},"type":"Feature","geometry":{"type":"Point","coordinates":[-104.874606,38.913947]}},{"properties":{"city":"Colorado Springs","remarks":"Total Loss","fire":"Waldo Canyon Fire","geo_score":0.799,"street address":"5542 MAJESTIC DR","id":"a6t2l789luus","geo_precision":"range","state":"Colorado"},"type":"Feature","geometry":{"type":"Point","coordinates":[-104.874853,38.913824]}},{"properties":{"city":"Colorado Springs","remarks":"Total Loss","fire":"Waldo Canyon Fire","geo_score":0.799,"street address":"5543 MAJESTIC DR","id":"a6t2l7bmz52r","geo_precision":"range","state":"Colorado"},"type":"Feature","geometry":{"type":"Point","coordinates":[-104.874623,38.913951]}},{"properties":{"city":"Colorado Springs","remarks":"Total Loss","fire":"Waldo Canyon Fire","geo_score":0.799,"street address":"5544 MAJESTIC DR","id":"a6t2l79po34t","geo_precision":"range","state":"Colorado"},"type":"Feature","geometry":{"type":"Point","coordinates":[-104.874872,38.913826]}},{"properties":{"city":"Colorado Springs","remarks":"Total Loss","fire":"Waldo Canyon Fire","geo_score":0.799,"street address":"5545 MAJESTIC DR","id":"a6t2l74t6z5k","geo_precision":"range","state":"Colorado"},"type":"Feature","geometry":{"type":"Point","coordinates":[-104.87464,38.913954]}},{"properties":{"city":"Colorado Springs","remarks":"Total Loss","fire":"Waldo Canyon Fire","geo_score":0.799,"street address":"5546 MAJESTIC DR","id":"a6t2l77ten3r","geo_precision":"range","state":"Colorado"},"type":"Feature","geometry":{"type":"Point","coordinates":[-104.874928,38.913902]}},{"properties":{"city":"Colorado Springs","remarks":"Total Loss","fire":"Waldo Canyon Fire","geo_score":0.799,"street address":"5547 MAJESTIC DR","id":"a6t2l7ch3hqy","geo_precision":"range","state":"Colorado"},"type":"Feature","geometry":{"type":"Point","coordinates":[-104.874656,38.913957]}},{"properties":{"city":"Colorado Springs","remarks":"Total Loss","fire":"Waldo Canyon Fire","geo_score":0.799,"street address":"5549 MAJESTIC DR","id":"a6t2l7hvsi75","geo_precision":"range","state":"Colorado"},"type":"Feature","geometry":{"type":"Point","coordinates":[-104.874673,38.91396]}},{"properties":{"city":"Colorado Springs","remarks":"Total Loss","fire":"Waldo Canyon Fire","geo_score":0.799,"street address":"5551 MAJESTIC DR","id":"a6t2l745vtui","geo_precision":"range","state":"Colorado"},"type":"Feature","geometry":{"type":"Point","coordinates":[-104.87469,38.913964]}},{"properties":{"city":"Colorado Springs","remarks":"Total Loss","fire":"Waldo Canyon Fire","geo_score":0.799,"street address":"5553 MAJESTIC DR","id":"a6t2l7h9y28x","geo_precision":"range","state":"Colorado"},"type":"Feature","geometry":{"type":"Point","coordinates":[-104.874745,38.913967]}},{"properties":{"city":"Colorado Springs","remarks":"Total Loss","fire":"Waldo Canyon Fire","geo_score":0.799,"street address":"5555 MAJESTIC DR","id":"a6t2l7d58t6q","geo_precision":"range","state":"Colorado"},"type":"Feature","geometry":{"type":"Point","coordinates":[-104.874762,38.913969]}},{"properties":{"city":"Colorado Springs","remarks":"Total Loss","fire":"Waldo Canyon Fire","geo_score":0.799,"street address":"5565 MAJESTIC DR","id":"a6t2l7bq6yj3","geo_precision":"range","state":"Colorado"},"type":"Feature","geometry":{"type":"Point","coordinates":[-104.874848,38.913974]}},{"properties":{"city":"Colorado Springs","remarks":"Total Loss","fire":"Waldo Canyon Fire","geo_score":0.799,"street address":"5567 MAJESTIC DR","id":"a6t2l72ekw1a","geo_precision":"range","state":"Colorado"},"type":"Feature","geometry":{"type":"Point","coordinates":[-104.874865,38.913976]}},{"properties":{"city":"Colorado Springs","remarks":"Total Loss","fire":"Waldo Canyon Fire","geo_score":0.799,"street address":"5569 MAJESTIC DR","id":"a6t2l7ct8mxu","geo_precision":"range","state":"Colorado"},"type":"Feature","geometry":{"type":"Point","coordinates":[-104.874928,38.913902]}},{"properties":{"city":"Colorado Springs","remarks":"Total Loss","fire":"Waldo Canyon Fire","geo_score":0.799,"street address":"5571 MAJESTIC DR","id":"a6t2l75ip8tt","geo_precision":"range","state":"Colorado"},"type":"Feature","geometry":{"type":"Point","coordinates":[-104.873783,38.911747]}},{"properties":{"city":"Colorado Springs","remarks":"Total Loss","fire":"Waldo Canyon Fire","geo_score":0.799,"street address":"5573 MAJESTIC DR","id":"a6t2l734yvbo","geo_precision":"range","state":"Colorado"},"type":"Feature","geometry":{"type":"Point","coordinates":[-104.873705,38.911904]}},{"properties":{"city":"Colorado Springs","remarks":"Total Loss","fire":"Waldo Canyon Fire","geo_score":0.799,"street address":"5575 MAJESTIC DR","id":"a6t2l74ohzmi","geo_precision":"range","state":"Colorado"},"type":"Feature","geometry":{"type":"Point","coordinates":[-104.873703,38.912061]}},{"properties":{"city":"Colorado Springs","remarks":"Total Loss","fire":"Waldo Canyon Fire","geo_score":0.799,"street address":"5577 MAJESTIC DR","id":"a6t2l7f5t08d","geo_precision":"range","state":"Colorado"},"type":"Feature","geometry":{"type":"Point","coordinates":[-104.873699,38.912219]}},{"properties":{"city":"Colorado Springs","remarks":"Total Loss","fire":"Waldo Canyon Fire","geo_score":0.799,"street address":"5579 MAJESTIC DR","id":"a6t2l7966ow7","geo_precision":"range","state":"Colorado"},"type":"Feature","geometry":{"type":"Point","coordinates":[-104.873697,38.912377]}},{"properties":{"city":"Colorado Springs","remarks":"Total Loss","fire":"Waldo Canyon Fire","geo_score":0.799,"street address":"5617 MAJESTIC DR","id":"a6t2l72hkzkz","geo_precision":"range","state":"Colorado"},"type":"Feature","geometry":{"type":"Point","coordinates":[-104.873614,38.911021]}},{"properties":{"city":"Colorado Springs","remarks":"Total Loss","fire":"Waldo Canyon Fire","geo_score":0.799,"street address":"5619 MAJESTIC DR","id":"a6t2l73wlkpt","geo_precision":"range","state":"Colorado"},"type":"Feature","geometry":{"type":"Point","coordinates":[-104.87362,38.911042]}},{"properties":{"city":"Colorado Springs","remarks":"Total Loss","fire":"Waldo Canyon Fire","geo_score":0.799,"street address":"5621 MAJESTIC DR","id":"a6t2l744sh66","geo_precision":"range","state":"Colorado"},"type":"Feature","geometry":{"type":"Point","coordinates":[-104.873627,38.911064]}},{"properties":{"city":"Colorado Springs","remarks":"Total Loss","fire":"Waldo Canyon Fire","geo_score":0.799,"street address":"5623 MAJESTIC DR","id":"a6t2l78rsvqi","geo_precision":"range","state":"Colorado"},"type":"Feature","geometry":{"type":"Point","coordinates":[-104.873633,38.911085]}},{"properties":{"city":"Colorado Springs","remarks":"Total Loss","fire":"Waldo Canyon Fire","geo_score":0.799,"street address":"5625 MAJESTIC DR","id":"a6t2l7ehhuar","geo_precision":"range","state":"Colorado"},"type":"Feature","geometry":{"type":"Point","coordinates":[-104.873639,38.911106]}},{"properties":{"city":"Colorado Springs","remarks":"Total Loss","fire":"Waldo Canyon Fire","geo_score":0.799,"street address":"5633 MAJESTIC DR","id":"a6t2l72h5d4o","geo_precision":"range","state":"Colorado"},"type":"Feature","geometry":{"type":"Point","coordinates":[-104.873676,38.911181]}},{"properties":{"city":"Colorado Springs","remarks":"Total Loss","fire":"Waldo Canyon Fire","geo_score":0.799,"street address":"5635 MAJESTIC DR","id":"a6t2l7g331hu","geo_precision":"range","state":"Colorado"},"type":"Feature","geometry":{"type":"Point","coordinates":[-104.873679,38.911203]}},{"properties":{"city":"Colorado Springs","remarks":"Total Loss","fire":"Waldo Canyon Fire","geo_score":0.799,"street address":"5637 MAJESTIC DR","id":"a6t2l7fr5ze6","geo_precision":"range","state":"Colorado"},"type":"Feature","geometry":{"type":"Point","coordinates":[-104.873682,38.911225]}},{"properties":{"city":"Colorado Springs","remarks":"Total Loss","fire":"Waldo Canyon Fire","geo_score":0.799,"street address":"5641 MAJESTIC DR","id":"a6t2l776wc71","geo_precision":"range","state":"Colorado"},"type":"Feature","geometry":{"type":"Point","coordinates":[-104.873688,38.911269]}},{"properties":{"city":"Colorado Springs","remarks":"Total Loss","fire":"Waldo Canyon Fire","geo_score":0.799,"street address":"5643 MAJESTIC DR","id":"a6t2l7g9jqvf","geo_precision":"range","state":"Colorado"},"type":"Feature","geometry":{"type":"Point","coordinates":[-104.873691,38.911291]}},{"properties":{"city":"Colorado Springs","remarks":"Total Loss","fire":"Waldo Canyon Fire","geo_score":0.799,"street address":"5645 MAJESTIC DR","id":"a6t2l7ed9h0b","geo_precision":"range","state":"Colorado"},"type":"Feature","geometry":{"type":"Point","coordinates":[-104.873694,38.911313]}},{"properties":{"city":"Colorado Springs","remarks":"Total Loss","fire":"Waldo Canyon Fire","geo_score":0.799,"street address":"5647 MAJESTIC DR","id":"a6t2l77euws1","geo_precision":"range","state":"Colorado"},"type":"Feature","geometry":{"type":"Point","coordinates":[-104.873703,38.911326]}},{"properties":{"city":"Colorado Springs","remarks":"Total Loss","fire":"Waldo Canyon Fire","geo_score":0.799,"street address":"5649 MAJESTIC DR","id":"a6t2l782jkfe","geo_precision":"range","state":"Colorado"},"type":"Feature","geometry":{"type":"Point","coordinates":[-104.873704,38.911348]}},{"properties":{"city":"Colorado Springs","remarks":"Total Loss","fire":"Waldo Canyon Fire","geo_score":0.799,"street address":"5651 MAJESTIC DR","id":"a6t2l7gpo51v","geo_precision":"range","state":"Colorado"},"type":"Feature","geometry":{"type":"Point","coordinates":[-104.873704,38.911371]}},{"properties":{"city":"Colorado Springs","remarks":"Total Loss","fire":"Waldo Canyon Fire","geo_score":0.799,"street address":"5653 MAJESTIC DR","id":"a6t2l7fy6c14","geo_precision":"range","state":"Colorado"},"type":"Feature","geometry":{"type":"Point","coordinates":[-104.873704,38.911393]}},{"properties":{"city":"Colorado Springs","remarks":"Total Loss","fire":"Waldo Canyon Fire","geo_score":0.799,"street address":"5655 MAJESTIC DR","id":"a6t2l754ivdc","geo_precision":"range","state":"Colorado"},"type":"Feature","geometry":{"type":"Point","coordinates":[-104.873705,38.911415]}},{"properties":{"city":"Colorado Springs","remarks":"Total Loss","fire":"Waldo Canyon Fire","geo_score":0.799,"street address":"5657 MAJESTIC DR","id":"a6t2l73drmnv","geo_precision":"range","state":"Colorado"},"type":"Feature","geometry":{"type":"Point","coordinates":[-104.873705,38.911437]}},{"properties":{"city":"Colorado Springs","remarks":"Total Loss","fire":"Waldo Canyon Fire","geo_score":0.799,"street address":"5659 MAJESTIC DR","id":"a6t2l7f7onzx","geo_precision":"range","state":"Colorado"},"type":"Feature","geometry":{"type":"Point","coordinates":[-104.873705,38.91146]}},{"properties":{"city":"Colorado Springs","remarks":"Total Loss","fire":"Waldo Canyon Fire","geo_score":0.799,"street address":"5661 MAJESTIC DR","id":"a6t2l7eqp61m","geo_precision":"range","state":"Colorado"},"type":"Feature","geometry":{"type":"Point","coordinates":[-104.873706,38.911482]}},{"properties":{"city":"Colorado Springs","remarks":"Total Loss","fire":"Waldo Canyon Fire","geo_score":0.799,"street address":"5663 MAJESTIC DR","id":"a6t2l71hxqge","geo_precision":"range","state":"Colorado"},"type":"Feature","geometry":{"type":"Point","coordinates":[-104.873706,38.911504]}},{"properties":{"city":"Colorado Springs","remarks":"Total Loss","fire":"Waldo Canyon Fire","geo_score":0.799,"street address":"5665 MAJESTIC DR","id":"a6t2l73qu55t","geo_precision":"range","state":"Colorado"},"type":"Feature","geometry":{"type":"Point","coordinates":[-104.873707,38.911526]}},{"properties":{"city":"Colorado Springs","remarks":"Total Loss","fire":"Waldo Canyon Fire","geo_score":0.799,"street address":"5667 MAJESTIC DR","id":"a6t2l7djv4po","geo_precision":"range","state":"Colorado"},"type":"Feature","geometry":{"type":"Point","coordinates":[-104.873708,38.911549]}},{"properties":{"city":"Colorado Springs","remarks":"Total Loss","fire":"Waldo Canyon Fire","geo_score":0.799,"street address":"5669 MAJESTIC DR","id":"a6t2l75k4e2o","geo_precision":"range","state":"Colorado"},"type":"Feature","geometry":{"type":"Point","coordinates":[-104.873709,38.911571]}},{"properties":{"city":"Colorado Springs","remarks":"Total Loss","fire":"Waldo Canyon Fire","geo_score":0.799,"street address":"5671 MAJESTIC DR","id":"a6t2l7d6b9sc","geo_precision":"range","state":"Colorado"},"type":"Feature","geometry":{"type":"Point","coordinates":[-104.873709,38.911593]}},{"properties":{"city":"Colorado Springs","remarks":"Total Loss","fire":"Waldo Canyon Fire","geo_score":0.799,"street address":"5673 MAJESTIC DR","id":"a6t2l7cxiili","geo_precision":"range","state":"Colorado"},"type":"Feature","geometry":{"type":"Point","coordinates":[-104.87371,38.911615]}},{"properties":{"city":"Colorado Springs","remarks":"Total Loss","fire":"Waldo Canyon Fire","geo_score":0.799,"street address":"5675 MAJESTIC DR","id":"a6t2l72rckr7","geo_precision":"range","state":"Colorado"},"type":"Feature","geometry":{"type":"Point","coordinates":[-104.87371,38.911638]}},{"properties":{"city":"Colorado Springs","remarks":"Total Loss","fire":"Waldo Canyon Fire","geo_score":0.799,"street address":"5677 MAJESTIC DR","id":"a6t2l76e5c3e","geo_precision":"range","state":"Colorado"},"type":"Feature","geometry":{"type":"Point","coordinates":[-104.873711,38.911656]}},{"properties":{"city":"Colorado Springs","remarks":"Total Loss","fire":"Waldo Canyon Fire","geo_score":0.799,"street address":"5679 MAJESTIC DR","id":"a6t2l78zcxrb","geo_precision":"range","state":"Colorado"},"type":"Feature","geometry":{"type":"Point","coordinates":[-104.87371,38.911679]}},{"properties":{"city":"Colorado Springs","remarks":"Total Loss","fire":"Waldo Canyon Fire","geo_score":0.799,"street address":"5681 MAJESTIC DR","id":"a6t2l746k1lf","geo_precision":"range","state":"Colorado"},"type":"Feature","geometry":{"type":"Point","coordinates":[-104.87371,38.911701]}},{"properties":{"city":"Colorado Springs","remarks":"Total Loss","fire":"Waldo Canyon Fire","geo_score":0.799,"street address":"5683 MAJESTIC DR","id":"a6t2l797ixdm","geo_precision":"range","state":"Colorado"},"type":"Feature","geometry":{"type":"Point","coordinates":[-104.873709,38.911723]}},{"properties":{"city":"Colorado Springs","remarks":"Total Loss","fire":"Waldo Canyon Fire","geo_score":0.799,"street address":"5685 MAJESTIC DR","id":"a6t2l7fbow8r","geo_precision":"range","state":"Colorado"},"type":"Feature","geometry":{"type":"Point","coordinates":[-104.873783,38.911747]}},{"properties":{"city":"Colorado Springs","remarks":"Total Loss","fire":"Waldo Canyon Fire","geo_score":0.799,"street address":"1605 MANNING WAY","id":"a6t2l79c3gw8","geo_precision":"range","state":"Colorado"},"type":"Feature","geometry":{"type":"Point","coordinates":[-104.866833,38.926286]}},{"properties":{"city":"Colorado Springs","remarks":"Total Loss","fire":"Waldo Canyon Fire","geo_score":0.799,"street address":"2510 MIRROR LAKE CT","id":"a6t2l7f8lhw7","geo_precision":"range","state":"Colorado"},"type":"Feature","geometry":{"type":"Point","coordinates":[-104.874772,38.913138]}},{"properties":{"city":"Colorado Springs","remarks":"Total Loss","fire":"Waldo Canyon Fire","geo_score":0.799,"street address":"2511 MIRROR LAKE CT","id":"a6t2l77ryjoh","geo_precision":"range","state":"Colorado"},"type":"Feature","geometry":{"type":"Point","coordinates":[-104.874717,38.912998]}},{"properties":{"city":"Colorado Springs","remarks":"Total Loss","fire":"Waldo Canyon Fire","geo_score":0.799,"street address":"2513 MIRROR LAKE CT","id":"a6t2l775izi4","geo_precision":"range","state":"Colorado"},"type":"Feature","geometry":{"type":"Point","coordinates":[-104.874704,38.913003]}},{"properties":{"city":"Colorado Springs","remarks":"Total Loss","fire":"Waldo Canyon Fire","geo_score":0.799,"street address":"2515 MIRROR LAKE CT","id":"a6t2l7auv42h","geo_precision":"range","state":"Colorado"},"type":"Feature","geometry":{"type":"Point","coordinates":[-104.874691,38.913009]}},{"properties":{"city":"Colorado Springs","remarks":"Total Loss","fire":"Waldo Canyon Fire","geo_score":0.799,"street address":"2517 MIRROR LAKE CT","id":"a6t2l7a8x2rx","geo_precision":"range","state":"Colorado"},"type":"Feature","geometry":{"type":"Point","coordinates":[-104.874678,38.913014]}},{"properties":{"city":"Colorado Springs","remarks":"Total Loss","fire":"Waldo Canyon Fire","geo_score":0.799,"street address":"2519 MIRROR LAKE CT","id":"a6t2l7fdkoq1","geo_precision":"range","state":"Colorado"},"type":"Feature","geometry":{"type":"Point","coordinates":[-104.874665,38.913019]}},{"properties":{"city":"Colorado Springs","remarks":"Total Loss","fire":"Waldo Canyon Fire","geo_score":0.799,"street address":"2520 MIRROR LAKE CT","id":"a6t2l73dguui","geo_precision":"range","state":"Colorado"},"type":"Feature","geometry":{"type":"Point","coordinates":[-104.874671,38.913164]}},{"properties":{"city":"Colorado Springs","remarks":"Total Loss","fire":"Waldo Canyon Fire","geo_score":0.799,"street address":"2521 MIRROR LAKE CT","id":"a6t2l7e8j1ml","geo_precision":"range","state":"Colorado"},"type":"Feature","geometry":{"type":"Point","coordinates":[-104.874615,38.913024]}},{"properties":{"city":"Colorado Springs","remarks":"Total Loss","fire":"Waldo Canyon Fire","geo_score":0.799,"street address":"2523 MIRROR LAKE CT","id":"a6t2l7f0nvff","geo_precision":"range","state":"Colorado"},"type":"Feature","geometry":{"type":"Point","coordinates":[-104.874602,38.91303]}},{"properties":{"city":"Colorado Springs","remarks":"Total Loss","fire":"Waldo Canyon Fire","geo_score":0.799,"street address":"2525 MIRROR LAKE CT","id":"a6t2l7eu2bzu","geo_precision":"range","state":"Colorado"},"type":"Feature","geometry":{"type":"Point","coordinates":[-104.874589,38.913035]}},{"properties":{"city":"Colorado Springs","remarks":"Total Loss","fire":"Waldo Canyon Fire","geo_score":0.799,"street address":"2529 MIRROR LAKE CT","id":"a6t2l78gyg9u","geo_precision":"range","state":"Colorado"},"type":"Feature","geometry":{"type":"Point","coordinates":[-104.874563,38.913045]}},{"properties":{"city":"Colorado Springs","remarks":"Total Loss","fire":"Waldo Canyon Fire","geo_score":0.799,"street address":"2530 MIRROR LAKE CT","id":"a6t2l79ruxl9","geo_precision":"range","state":"Colorado"},"type":"Feature","geometry":{"type":"Point","coordinates":[-104.874605,38.91319]}},{"properties":{"city":"Colorado Springs","remarks":"Total Loss","fire":"Waldo Canyon Fire","geo_score":0.799,"street address":"2531 MIRROR LAKE CT","id":"a6t2l79ly1qw","geo_precision":"range","state":"Colorado"},"type":"Feature","geometry":{"type":"Point","coordinates":[-104.87455,38.913051]}},{"properties":{"city":"Colorado Springs","remarks":"Total Loss","fire":"Waldo Canyon Fire","geo_score":0.799,"street address":"2535 MIRROR LAKE CT","id":"a6t2l782sk6p","geo_precision":"range","state":"Colorado"},"type":"Feature","geometry":{"type":"Point","coordinates":[-104.874523,38.913061]}},{"properties":{"city":"Colorado Springs","remarks":"Total Loss","fire":"Waldo Canyon Fire","geo_score":0.799,"street address":"2537 MIRROR LAKE CT","id":"a6t2l72bjqji","geo_precision":"range","state":"Colorado"},"type":"Feature","geometry":{"type":"Point","coordinates":[-104.87451,38.913066]}},{"properties":{"city":"Colorado Springs","remarks":"Total Loss","fire":"Waldo Canyon Fire","geo_score":0.799,"street address":"2539 MIRROR LAKE CT","id":"a6t2l75k6vpq","geo_precision":"range","state":"Colorado"},"type":"Feature","geometry":{"type":"Point","coordinates":[-104.874497,38.913071]}},{"properties":{"city":"Colorado Springs","remarks":"Total Loss","fire":"Waldo Canyon Fire","geo_score":0.799,"street address":"2540 MIRROR LAKE CT","id":"a6t2l7gy37lq","geo_precision":"range","state":"Colorado"},"type":"Feature","geometry":{"type":"Point","coordinates":[-104.87454,38.913216]}},{"properties":{"city":"Colorado Springs","remarks":"Total Loss","fire":"Waldo Canyon Fire","geo_score":0.799,"street address":"2541 MIRROR LAKE CT","id":"a6t2l7h576at","geo_precision":"range","state":"Colorado"},"type":"Feature","geometry":{"type":"Point","coordinates":[-104.874484,38.913077]}},{"properties":{"city":"Colorado Springs","remarks":"Total Loss","fire":"Waldo Canyon Fire","geo_score":0.799,"street address":"2550 MIRROR LAKE CT","id":"a6t2l73z3grt","geo_precision":"range","state":"Colorado"},"type":"Feature","geometry":{"type":"Point","coordinates":[-104.874475,38.913242]}},{"properties":{"city":"Colorado Springs","remarks":"Total Loss","fire":"Waldo Canyon Fire","geo_score":0.799,"street address":"2560 MIRROR LAKE CT","id":"a6t2l7hsxdcp","geo_precision":"range","state":"Colorado"},"type":"Feature","geometry":{"type":"Point","coordinates":[-104.87441,38.913268]}},{"properties":{"city":"Colorado Springs","remarks":"Total Loss","fire":"Waldo Canyon Fire","geo_score":0.799,"street address":"2570 MIRROR LAKE CT","id":"a6t2l7dh8myq","geo_precision":"range","state":"Colorado"},"type":"Feature","geometry":{"type":"Point","coordinates":[-104.874344,38.913294]}},{"properties":{"city":"Colorado Springs","remarks":"Total Loss","fire":"Waldo Canyon Fire","geo_score":0.799,"street address":"5830 RAVINA CT","id":"a6t2l74grmb7","geo_precision":"range","state":"Colorado"},"type":"Feature","geometry":{"type":"Point","coordinates":[-104.87624,38.919693]}},{"properties":{"city":"Colorado Springs","remarks":"Total Loss","fire":"Waldo Canyon Fire","geo_score":0.799,"street address":"5840 RAVINA CT","id":"a6t2l76pofwu","geo_precision":"range","state":"Colorado"},"type":"Feature","geometry":{"type":"Point","coordinates":[-104.876237,38.91961]}},{"properties":{"city":"Colorado Springs","remarks":"Total Loss","fire":"Waldo Canyon Fire","geo_score":0.754,"street address":"5745 REGAL VIEW RD","id":"a6t2l7d89tul","geo_precision":"range","state":"Colorado"},"type":"Feature","geometry":{"type":"Point","coordinates":[-104.871931,38.9179]}},{"properties":{"city":"Colorado Springs","remarks":"Total Loss","fire":"Waldo Canyon Fire","geo_score":0.799,"street address":"2575 ROSSMERE ST","id":"a6t2l7fwfy8m","geo_precision":"range","state":"Colorado"},"type":"Feature","geometry":{"type":"Point","coordinates":[-104.87141,38.923124]}},{"properties":{"city":"Colorado Springs","remarks":"Total Loss","fire":"Waldo Canyon Fire","geo_score":0.799,"street address":"2595 ROSSMERE ST","id":"a6t2l7av74t5","geo_precision":"range","state":"Colorado"},"type":"Feature","geometry":{"type":"Point","coordinates":[-104.870812,38.923]}},{"properties":{"city":"Colorado Springs","remarks":"Total Loss","fire":"Waldo Canyon Fire","geo_score":0.799,"street address":"2615 ROSSMERE ST","id":"a6t2l722i3nr","geo_precision":"range","state":"Colorado"},"type":"Feature","geometry":{"type":"Point","coordinates":[-104.878591,38.923641]}},{"properties":{"city":"Colorado Springs","remarks":"Total Loss","fire":"Waldo Canyon Fire","geo_score":0.799,"street address":"2625 ROSSMERE ST","id":"a6t2l7a5wv0j","geo_precision":"range","state":"Colorado"},"type":"Feature","geometry":{"type":"Point","coordinates":[-104.878185,38.923692]}},{"properties":{"city":"Colorado Springs","remarks":"Total Loss","fire":"Waldo Canyon Fire","geo_score":0.799,"street address":"2680 ROSSMERE ST","id":"a6t2l7bu7k5y","geo_precision":"range","state":"Colorado"},"type":"Feature","geometry":{"type":"Point","coordinates":[-104.879618,38.92331]}},{"properties":{"city":"Colorado Springs","remarks":"Total Loss","fire":"Waldo Canyon Fire","geo_score":0.799,"street address":"2805 ROSSMERE ST","id":"a6t2l7h9ulgn","geo_precision":"range","state":"Colorado"},"type":"Feature","geometry":{"type":"Point","coordinates":[-104.87963,38.918519]}},{"properties":{"city":"Colorado Springs","remarks":"Total Loss","fire":"Waldo Canyon Fire","geo_score":0.799,"street address":"2860 ROSSMERE ST","id":"a6t2l7gmh8vj","geo_precision":"range","state":"Colorado"},"type":"Feature","geometry":{"type":"Point","coordinates":[-104.879997,38.916714]}},{"properties":{"city":"Colorado Springs","remarks":"Total Loss","fire":"Waldo Canyon Fire","geo_score":0.799,"street address":"2910 ROSSMERE ST","id":"a6t2l7euhrve","geo_precision":"range","state":"Colorado"},"type":"Feature","geometry":{"type":"Point","coordinates":[-104.880137,38.915]}},{"properties":{"city":"Colorado Springs","remarks":"Total Loss","fire":"Waldo Canyon Fire","geo_score":0.799,"street address":"2920 ROSSMERE ST","id":"a6t2l7a2auqc","geo_precision":"range","state":"Colorado"},"type":"Feature","geometry":{"type":"Point","coordinates":[-104.88009,38.915152]}},{"properties":{"city":"Colorado Springs","remarks":"Total Loss","fire":"Waldo Canyon Fire","geo_score":0.799,"street address":"6320 SANDRAY CT","id":"a6t2l7gmgnrs","geo_precision":"range","state":"Colorado"},"type":"Feature","geometry":{"type":"Point","coordinates":[-104.881161,38.923457]}},{"properties":{"city":"Colorado Springs","remarks":"Total Loss","fire":"Waldo Canyon Fire","geo_score":0.799,"street address":"6330 SANDRAY CT","id":"a6t2l7cuqxv1","geo_precision":"range","state":"Colorado"},"type":"Feature","geometry":{"type":"Point","coordinates":[-104.88145,38.923424]}},{"properties":{"city":"Colorado Springs","remarks":"Total Loss","fire":"Waldo Canyon Fire","geo_score":0.799,"street address":"6375 SANDRAY CT","id":"a6t2l7bc4lyq","geo_precision":"range","state":"Colorado"},"type":"Feature","geometry":{"type":"Point","coordinates":[-104.882151,38.922718]}},{"properties":{"city":"Colorado Springs","remarks":"Total Loss","fire":"Waldo Canyon Fire","geo_score":0.799,"street address":"6385 SANDRAY CT","id":"a6t2l7d3f7cl","geo_precision":"range","state":"Colorado"},"type":"Feature","geometry":{"type":"Point","coordinates":[-104.882165,38.922524]}},{"properties":{"city":"Colorado Springs","remarks":"Total Loss","fire":"Waldo Canyon Fire","geo_score":0.799,"street address":"2645 STONERIDGE DR","id":"a6t2l77sw3gy","geo_precision":"range","state":"Colorado"},"type":"Feature","geometry":{"type":"Point","coordinates":[-104.872325,38.906777]}},{"properties":{"city":"Colorado Springs","remarks":"Total Loss","fire":"Waldo Canyon Fire","geo_score":0.799,"street address":"2530 TALLESON CT","id":"a6t2l73h805h","geo_precision":"range","state":"Colorado"},"type":"Feature","geometry":{"type":"Point","coordinates":[-104.876175,38.924211]}},{"properties":{"city":"Colorado Springs","remarks":"Total Loss","fire":"Waldo Canyon Fire","geo_score":0.799,"street address":"2540 TALLESON CT","id":"a6t2l75i5smo","geo_precision":"range","state":"Colorado"},"type":"Feature","geometry":{"type":"Point","coordinates":[-104.876549,38.924205]}},{"properties":{"city":"Colorado Springs","remarks":"Total Loss","fire":"Waldo Canyon Fire","geo_score":0.799,"street address":"2550 TALLESON CT","id":"a6t2l74uehz2","geo_precision":"range","state":"Colorado"},"type":"Feature","geometry":{"type":"Point","coordinates":[-104.876897,38.924135]}},{"properties":{"city":"Colorado Springs","remarks":"Total Loss","fire":"Waldo Canyon Fire","geo_score":0.799,"street address":"2560 TALLESON CT","id":"a6t2l7hlhlzv","geo_precision":"range","state":"Colorado"},"type":"Feature","geometry":{"type":"Point","coordinates":[-104.877078,38.923925]}},{"properties":{"city":"Colorado Springs","remarks":"Total Loss","fire":"Waldo Canyon Fire","geo_score":0.799,"street address":"2570 TALLESON CT","id":"a6t2l76y8qrp","geo_precision":"range","state":"Colorado"},"type":"Feature","geometry":{"type":"Point","coordinates":[-104.877177,38.923721]}},{"properties":{"city":"Colorado Springs","remarks":"Total Loss","fire":"Waldo Canyon Fire","geo_score":0.77,"street address":"2510 TAMORA WY","id":"a6t2l7awhvst","geo_precision":"range","state":"Colorado"},"type":"Feature","geometry":{"type":"Point","coordinates":[-104.876027,38.918981]}},{"properties":{"city":"Colorado Springs","remarks":"Total Loss","fire":"Waldo Canyon Fire","geo_score":0.77,"street address":"2530 TAMORA WY","id":"a6t2l75stcki","geo_precision":"range","state":"Colorado"},"type":"Feature","geometry":{"type":"Point","coordinates":[-104.875224,38.918876]}},{"properties":{"city":"Colorado Springs","remarks":"Total Loss","fire":"Waldo Canyon Fire","geo_score":0.77,"street address":"2620 TAMORA WY","id":"a6t2l77ayilr","geo_precision":"range","state":"Colorado"},"type":"Feature","geometry":{"type":"Point","coordinates":[-104.87809,38.919628]}},{"properties":{"city":"Colorado Springs","remarks":"Total Loss","fire":"Waldo Canyon Fire","geo_score":0.799,"street address":"2510 TREVOR LN","id":"a6t2l79tjtd9","geo_precision":"range","state":"Colorado"},"type":"Feature","geometry":{"type":"Point","coordinates":[-104.876418,38.925639]}},{"properties":{"city":"Colorado Springs","remarks":"Total Loss","fire":"Waldo Canyon Fire","geo_score":0.799,"street address":"2530 TREVOR LN","id":"a6t2l76557at","geo_precision":"range","state":"Colorado"},"type":"Feature","geometry":{"type":"Point","coordinates":[-104.876817,38.925576]}},{"properties":{"city":"Colorado Springs","remarks":"Total Loss","fire":"Waldo Canyon Fire","geo_score":0.799,"street address":"2535 TREVOR LN","id":"a6t2l764zfdm","geo_precision":"range","state":"Colorado"},"type":"Feature","geometry":{"type":"Point","coordinates":[-104.876867,38.925417]}},{"properties":{"city":"Colorado Springs","remarks":"Total Loss","fire":"Waldo Canyon Fire","geo_score":0.799,"street address":"2545 TREVOR LN","id":"a6t2l795gb81","geo_precision":"range","state":"Colorado"},"type":"Feature","geometry":{"type":"Point","coordinates":[-104.877184,38.925391]}},{"properties":{"city":"Colorado Springs","remarks":"Total Loss","fire":"Waldo Canyon Fire","geo_score":0.799,"street address":"2555 TREVOR LN","id":"a6t2l7hvx0d6","geo_precision":"range","state":"Colorado"},"type":"Feature","geometry":{"type":"Point","coordinates":[-104.877366,38.92537]}},{"properties":{"city":"Colorado Springs","remarks":"Total Loss","fire":"Waldo Canyon Fire","geo_score":0.799,"street address":"2565 TREVOR LN","id":"a6t2l7aoptjt","geo_precision":"range","state":"Colorado"},"type":"Feature","geometry":{"type":"Point","coordinates":[-104.877548,38.925349]}},{"properties":{"city":"Colorado Springs","remarks":"Total Loss","fire":"Waldo Canyon Fire","geo_score":0.799,"street address":"2575 TREVOR LN","id":"a6t2l7cj1nn1","geo_precision":"range","state":"Colorado"},"type":"Feature","geometry":{"type":"Point","coordinates":[-104.877868,38.925319]}},{"properties":{"city":"Colorado Springs","remarks":"Total Loss","fire":"Waldo Canyon Fire","geo_score":0.799,"street address":"2615 TREVOR LN","id":"a6t2l7fct4el","geo_precision":"range","state":"Colorado"},"type":"Feature","geometry":{"type":"Point","coordinates":[-104.878481,38.924895]}},{"properties":{"city":"Colorado Springs","remarks":"Total Loss","fire":"Waldo Canyon Fire","geo_score":0.799,"street address":"2635 TREVOR LN","id":"a6t2l74za2s1","geo_precision":"range","state":"Colorado"},"type":"Feature","geometry":{"type":"Point","coordinates":[-104.878889,38.924643]}},{"properties":{"city":"Colorado Springs","remarks":"Total Loss","fire":"Waldo Canyon Fire","geo_score":0.799,"street address":"2640 TREVOR LN","id":"a6t2l71l82zr","geo_precision":"range","state":"Colorado"},"type":"Feature","geometry":{"type":"Point","coordinates":[-104.879115,38.924664]}},{"properties":{"city":"Colorado Springs","remarks":"Total Loss","fire":"Waldo Canyon Fire","geo_score":0.763,"street address":"5542 VANTAGE VISTA DR","id":"a6t2l7899z8d","geo_precision":"range","state":"Colorado"},"type":"Feature","geometry":{"type":"Point","coordinates":[-104.870515,38.913872]}},{"properties":{"city":"Colorado Springs","remarks":"Total Loss","fire":"Waldo Canyon Fire","geo_score":0.763,"street address":"5548 VANTAGE VISTA DR","id":"a6t2l7dpwpb6","geo_precision":"range","state":"Colorado"},"type":"Feature","geometry":{"type":"Point","coordinates":[-104.870699,38.913988]}},{"properties":{"city":"Colorado Springs","remarks":"Total Loss","fire":"Waldo Canyon Fire","geo_score":0.763,"street address":"5554 VANTAGE VISTA DR","id":"a6t2l7a37jmh","geo_precision":"range","state":"Colorado"},"type":"Feature","geometry":{"type":"Point","coordinates":[-104.870988,38.914092]}},{"properties":{"city":"Colorado Springs","remarks":"Total Loss","fire":"Waldo Canyon Fire","geo_score":0.763,"street address":"5560 VANTAGE VISTA DR","id":"a6t2l7eoo4j1","geo_precision":"range","state":"Colorado"},"type":"Feature","geometry":{"type":"Point","coordinates":[-104.871226,38.914177]}},{"properties":{"city":"Colorado Springs","remarks":"Total Loss","fire":"Waldo Canyon Fire","geo_score":0.763,"street address":"5578 VANTAGE VISTA DR","id":"a6t2l78tgh8f","geo_precision":"range","state":"Colorado"},"type":"Feature","geometry":{"type":"Point","coordinates":[-104.87197,38.914407]}},{"properties":{"city":"Colorado Springs","remarks":"Total Loss","fire":"Waldo Canyon Fire","geo_score":0.763,"street address":"5620 VANTAGE VISTA DR","id":"a6t2l72ssj7b","geo_precision":"range","state":"Colorado"},"type":"Feature","geometry":{"type":"Point","coordinates":[-104.873312,38.914337]}},{"properties":{"city":"Colorado Springs","remarks":"Total Loss","fire":"Waldo Canyon Fire","geo_score":0.763,"street address":"5630 VANTAGE VISTA DR","id":"a6t2l7flsb87","geo_precision":"range","state":"Colorado"},"type":"Feature","geometry":{"type":"Point","coordinates":[-104.873503,38.91441]}},{"properties":{"city":"Colorado Springs","remarks":"Total Loss","fire":"Waldo Canyon Fire","geo_score":0.763,"street address":"5635 VANTAGE VISTA DR","id":"a6t2l7b34mu2","geo_precision":"range","state":"Colorado"},"type":"Feature","geometry":{"type":"Point","coordinates":[-104.873483,38.914574]}},{"properties":{"city":"Colorado Springs","remarks":"Total Loss","fire":"Waldo Canyon Fire","geo_score":0.763,"street address":"5640 VANTAGE VISTA DR","id":"a6t2l72itaof","geo_precision":"range","state":"Colorado"},"type":"Feature","geometry":{"type":"Point","coordinates":[-104.873681,38.914561]}},{"properties":{"city":"Colorado Springs","remarks":"Total Loss","fire":"Waldo Canyon Fire","geo_score":0.763,"street address":"5645 VANTAGE VISTA DR","id":"a6t2l79xet4v","geo_precision":"range","state":"Colorado"},"type":"Feature","geometry":{"type":"Point","coordinates":[-104.873588,38.914696]}},{"properties":{"city":"Colorado Springs","remarks":"Total Loss","fire":"Waldo Canyon Fire","geo_score":0.763,"street address":"5650 VANTAGE VISTA DR","id":"a6t2l744v0k4","geo_precision":"range","state":"Colorado"},"type":"Feature","geometry":{"type":"Point","coordinates":[-104.873784,38.914728]}},{"properties":{"city":"Colorado Springs","remarks":"Total Loss","fire":"Waldo Canyon Fire","geo_score":0.763,"street address":"5655 VANTAGE VISTA DR","id":"a6t2l7hwwjyu","geo_precision":"range","state":"Colorado"},"type":"Feature","geometry":{"type":"Point","coordinates":[-104.873669,38.914844]}},{"properties":{"city":"Colorado Springs","remarks":"Total Loss","fire":"Waldo Canyon Fire","geo_score":0.763,"street address":"5660 VANTAGE VISTA DR","id":"a6t2l7bqsy35","geo_precision":"range","state":"Colorado"},"type":"Feature","geometry":{"type":"Point","coordinates":[-104.873844,38.91488]}},{"properties":{"city":"Colorado Springs","remarks":"Total Loss","fire":"Waldo Canyon Fire","geo_score":0.763,"street address":"5665 VANTAGE VISTA DR","id":"a6t2l7falg4o","geo_precision":"range","state":"Colorado"},"type":"Feature","geometry":{"type":"Point","coordinates":[-104.873729,38.914996]}},{"properties":{"city":"Colorado Springs","remarks":"Total Loss","fire":"Waldo Canyon Fire","geo_score":0.763,"street address":"5670 VANTAGE VISTA DR","id":"a6t2l7dx209u","geo_precision":"range","state":"Colorado"},"type":"Feature","geometry":{"type":"Point","coordinates":[-104.873932,38.915038]}},{"properties":{"city":"Colorado Springs","remarks":"Total Loss","fire":"Waldo Canyon Fire","geo_score":0.763,"street address":"5675 VANTAGE VISTA DR","id":"a6t2l75uw2p5","geo_precision":"range","state":"Colorado"},"type":"Feature","geometry":{"type":"Point","coordinates":[-104.873808,38.915146]}},{"properties":{"city":"Colorado Springs","remarks":"Total Loss","fire":"Waldo Canyon Fire","geo_score":0.763,"street address":"5680 VANTAGE VISTA DR","id":"a6t2l7fv5s5l","geo_precision":"range","state":"Colorado"},"type":"Feature","geometry":{"type":"Point","coordinates":[-104.873995,38.915194]}},{"properties":{"city":"Colorado Springs","remarks":"Total Loss","fire":"Waldo Canyon Fire","geo_score":0.799,"street address":"5435 WILSON RD","id":"a6t2l77s3qvb","geo_precision":"range","state":"Colorado"},"type":"Feature","geometry":{"type":"Point","coordinates":[-104.870202,38.909671]}},{"properties":{"city":"Colorado Springs","remarks":"Total Loss","fire":"Waldo Canyon Fire","geo_score":0.799,"street address":"5445 WILSON RD","id":"a6t2l7d02f8m","geo_precision":"range","state":"Colorado"},"type":"Feature","geometry":{"type":"Point","coordinates":[-104.870244,38.90938]}},{"properties":{"city":"Colorado Springs","remarks":"Total Loss","fire":"Waldo Canyon Fire","geo_score":0.799,"street address":"5545 WILSON RD","id":"a6t2l71o7qo3","geo_precision":"range","state":"Colorado"},"type":"Feature","geometry":{"type":"Point","coordinates":[-104.871793,38.911764]}},{"properties":{"city":"Colorado Springs","remarks":"Total Loss","fire":"Waldo Canyon Fire","geo_score":0.799,"street address":"5610 WILSON RD","id":"a6t2l7g8icqr","geo_precision":"range","state":"Colorado"},"type":"Feature","geometry":{"type":"Point","coordinates":[-104.873289,38.9151]}},{"properties":{"city":"Colorado Springs","remarks":"Total Loss","fire":"Waldo Canyon Fire","geo_score":0.799,"street address":"5618 WILSON RD","id":"a6t2l7fh6j5z","geo_precision":"range","state":"Colorado"},"type":"Feature","geometry":{"type":"Point","coordinates":[-104.873268,38.915041]}},{"properties":{"city":"Colorado Springs","remarks":"Total Loss","fire":"Waldo Canyon Fire","geo_score":0.799,"street address":"5624 WILSON RD","id":"a6t2l7cj2v07","geo_precision":"range","state":"Colorado"},"type":"Feature","geometry":{"type":"Point","coordinates":[-104.873237,38.914996]}},{"properties":{"city":"Colorado Springs","remarks":"Total Loss","fire":"Waldo Canyon Fire","geo_score":0.799,"street address":"5630 WILSON RD","id":"a6t2l7an60q7","geo_precision":"range","state":"Colorado"},"type":"Feature","geometry":{"type":"Point","coordinates":[-104.873222,38.914952]}},{"properties":{"city":"Colorado Springs","remarks":"Total Loss","fire":"Waldo Canyon Fire","geo_score":0.799,"street address":"5945 WILSON RD","id":"a6t2l7426kna","geo_precision":"range","state":"Colorado"},"type":"Feature","geometry":{"type":"Point","coordinates":[-104.875372,38.92173]}},{"properties":{"city":"Colorado Springs","remarks":"Total Loss","fire":"Waldo Canyon Fire","geo_score":0.799,"street address":"5960 WILSON RD","id":"a6t2l74y119k","geo_precision":"range","state":"Colorado"},"type":"Feature","geometry":{"type":"Point","coordinates":[-104.875666,38.921769]}},{"properties":{"city":"Colorado Springs","remarks":"Total Loss","fire":"Waldo Canyon Fire","geo_score":0.799,"street address":"6025 WILSON RD","id":"a6t2l75isgqc","geo_precision":"range","state":"Colorado"},"type":"Feature","geometry":{"type":"Point","coordinates":[-104.876675,38.922377]}},{"properties":{"city":"Colorado Springs","remarks":"Total Loss","fire":"Waldo Canyon Fire","geo_score":0.799,"street address":"6045 WILSON RD","id":"a6t2l72fqp4x","geo_precision":"range","state":"Colorado"},"type":"Feature","geometry":{"type":"Point","coordinates":[-104.877052,38.922404]}},{"properties":{"city":"Colorado Springs","remarks":"Total Loss","fire":"Waldo Canyon Fire","geo_score":0.799,"street address":"6055 WILSON RD","id":"a6t2l7byrgu9","geo_precision":"range","state":"Colorado"},"type":"Feature","geometry":{"type":"Point","coordinates":[-104.877198,38.922404]}},{"properties":{"city":"Colorado Springs","remarks":"Total Loss","fire":"Waldo Canyon Fire","geo_score":0.799,"street address":"6130 WILSON RD","id":"a6t2l7cs41mt","geo_precision":"range","state":"Colorado"},"type":"Feature","geometry":{"type":"Point","coordinates":[-104.878609,38.922135]}},{"properties":{"city":"Colorado Springs","remarks":"Total Loss","fire":"Waldo Canyon Fire","geo_score":0.799,"street address":"6140 WILSON RD","id":"a6t2l766fy7v","geo_precision":"range","state":"Colorado"},"type":"Feature","geometry":{"type":"Point","coordinates":[-104.878834,38.922169]}},{"properties":{"city":"Colorado Springs","remarks":"Total Loss","fire":"Waldo Canyon Fire","geo_score":0.799,"street address":"6315 WILSON RD","id":"a6t2l76uqeww","geo_precision":"range","state":"Colorado"},"type":"Feature","geometry":{"type":"Point","coordinates":[-104.883361,38.92142]}},{"properties":{"city":"Colorado Springs","remarks":"Total Loss","fire":"Waldo Canyon Fire","geo_score":0.799,"street address":"6325 WILSON RD","id":"a6t2l7474ahr","geo_precision":"range","state":"Colorado"},"type":"Feature","geometry":{"type":"Point","coordinates":[-104.88341,38.921604]}},{"properties":{"city":"Colorado Springs","remarks":"Total Loss","fire":"Waldo Canyon Fire","geo_score":0.799,"street address":"2215 YANKTON PL","id":"a6t2l74cpw46","geo_precision":"range","state":"Colorado"},"type":"Feature","geometry":{"type":"Point","coordinates":[-104.869038,38.923654]}},{"properties":{"city":"Colorado Springs","remarks":"Total Loss","fire":"Waldo Canyon Fire","geo_score":0.799,"street address":"2220 YANKTON PL","id":"a6t2l77edq6y","geo_precision":"range","state":"Colorado"},"type":"Feature","geometry":{"type":"Point","coordinates":[-104.868905,38.923807]}},{"properties":{"city":"Colorado Springs","remarks":"Total Loss","fire":"Waldo Canyon Fire","geo_score":0.799,"street address":"2225 YANKTON PL","id":"a6t2l78yzz8g","geo_precision":"range","state":"Colorado"},"type":"Feature","geometry":{"type":"Point","coordinates":[-104.868857,38.923657]}},{"properties":{"city":"Colorado Springs","remarks":"Total Loss","fire":"Waldo Canyon Fire","geo_score":0.799,"street address":"2230 YANKTON PL","id":"a6t2l791tsx0","geo_precision":"range","state":"Colorado"},"type":"Feature","geometry":{"type":"Point","coordinates":[-104.868785,38.923807]}},{"properties":{"city":"Colorado Springs","remarks":"Total Loss","fire":"Waldo Canyon Fire","geo_score":0.799,"street address":"2235 YANKTON PL","id":"a6t2l7gje5gd","geo_precision":"range","state":"Colorado"},"type":"Feature","geometry":{"type":"Point","coordinates":[-104.868737,38.923656]}},{"properties":{"city":"Colorado Springs","remarks":"Total Loss","fire":"Waldo Canyon Fire","geo_score":0.799,"street address":"2240 YANKTON PL","id":"a6t2l7dzgwdo","geo_precision":"range","state":"Colorado"},"type":"Feature","geometry":{"type":"Point","coordinates":[-104.868665,38.923806]}},{"properties":{"city":"Colorado Springs","remarks":"Total Loss","fire":"Waldo Canyon Fire","geo_score":0.799,"street address":"2250 YANKTON PL","id":"a6t2l79zh0t3","geo_precision":"range","state":"Colorado"},"type":"Feature","geometry":{"type":"Point","coordinates":[-104.868462,38.923802]}},{"properties":{"city":"Colorado Springs","remarks":"Total Loss","fire":"Waldo Canyon Fire","geo_score":0.799,"street address":"2255 YANKTON PL","id":"a6t2l76kb651","geo_precision":"range","state":"Colorado"},"type":"Feature","geometry":{"type":"Point","coordinates":[-104.868422,38.92365]}},{"properties":{"city":"Colorado Springs","remarks":"Total Loss","fire":"Waldo Canyon Fire","geo_score":0.799,"street address":"2260 YANKTON PL","id":"a6t2l7bwo8r7","geo_precision":"range","state":"Colorado"},"type":"Feature","geometry":{"type":"Point","coordinates":[-104.868343,38.923796]}},{"properties":{"city":"Colorado Springs","remarks":"Total Loss","fire":"Waldo Canyon Fire","geo_score":0.799,"street address":"2265 YANKTON PL","id":"a6t2l7ec8jmc","geo_precision":"range","state":"Colorado"},"type":"Feature","geometry":{"type":"Point","coordinates":[-104.868302,38.923644]}},{"properties":{"city":"Colorado Springs","remarks":"Total Loss","fire":"Waldo Canyon Fire","geo_score":0.799,"street address":"2270 YANKTON PL","id":"a6t2l74r2qbv","geo_precision":"range","state":"Colorado"},"type":"Feature","geometry":{"type":"Point","coordinates":[-104.868223,38.923791]}},{"properties":{"city":"Colorado Springs","remarks":"Total Loss","fire":"Waldo Canyon Fire","geo_score":0.799,"street address":"2275 YANKTON PL","id":"a6t2l7fek31b","geo_precision":"range","state":"Colorado"},"type":"Feature","geometry":{"type":"Point","coordinates":[-104.868182,38.923639]}}],"is_temporal":false,"author":{"url":"","metadata":"","contact_name":"","contact_address":"","source":"","contact_phone":""},"source":"","pagination":{"sort":null,"start":0,"total":334,"limit":1000000},"state":"complete","tags":"","published":"2014-08-15T01:51:07-04:00","id":258020}