{"type":"FeatureCollection","data_type":"Dataset","url_type":null,"permissions":[{"permissions":{"download":true,"view":true},"group_id":"everyone"}],"classification":null,"title":"258020","count":334,"stream_id":258099,"contributor":{"url":"http://geocommons.com/users/28467","name":"bheberto"},"data_attributes":null,"calculation_params":null,"icon_link":null,"link":"http://geocommons.com/overlays/258099.json","extent":[-104.917,38.9048,-104.867,38.9381],"geometry_types":["point"],"unique_name":null,"name":"258020","feature_count":334,"description":"","next_feature":null,"is_raster":false,"short_classification":"Y","stats":{},"features":[{"properties":{"city":"Colorado Springs","remarks":"Total Loss","fire":"Waldo Canyon Fire","geo_score":0.897,"street address":"6020 ASHTON PARK PL","zip code":"80919","id":"a6toujp0vgjw","geo_precision":"range","state":"Colorado"},"type":"Feature","geometry":{"type":"Point","coordinates":[-104.872113,38.91967]}},{"properties":{"city":"Colorado Springs","remarks":"Total Loss","fire":"Waldo Canyon Fire","geo_score":0.897,"street address":"6030 ASHTON PARK PL","zip code":"80919","id":"a6touk1e9lu1","geo_precision":"range","state":"Colorado"},"type":"Feature","geometry":{"type":"Point","coordinates":[-104.871974,38.91967]}},{"properties":{"city":"Colorado Springs","remarks":"Total Loss","fire":"Waldo Canyon Fire","geo_score":0.897,"street address":"6040 ASHTON PARK PL","zip code":"80919","id":"a6touk0cj5xg","geo_precision":"range","state":"Colorado"},"type":"Feature","geometry":{"type":"Point","coordinates":[-104.871682,38.919671]}},{"properties":{"city":"Colorado Springs","remarks":"Total Loss","fire":"Waldo Canyon Fire","geo_score":0.897,"street address":"6320 ALABASTER WAY","zip code":"80919","id":"a6toujtkmz3j","geo_precision":"range","state":"Colorado"},"type":"Feature","geometry":{"type":"Point","coordinates":[-104.884563,38.922686]}},{"properties":{"city":"Colorado Springs","remarks":"Total Loss","fire":"Waldo Canyon Fire","geo_score":0.897,"street address":"6050 ASHTON PARK PL","zip code":"80919","id":"a6touju6i3zh","geo_precision":"range","state":"Colorado"},"type":"Feature","geometry":{"type":"Point","coordinates":[-104.87151,38.919677]}},{"properties":{"city":"Colorado Springs","remarks":"Total Loss","fire":"Waldo Canyon Fire","geo_score":0.897,"street address":"6060 ASHTON PARK PL","zip code":"80919","id":"a6toujtu2f6v","geo_precision":"range","state":"Colorado"},"type":"Feature","geometry":{"type":"Point","coordinates":[-104.871352,38.919685]}},{"properties":{"city":"Colorado Springs","remarks":"Total Loss","fire":"Waldo Canyon Fire","geo_score":0.897,"street address":"6365 ASHTON PARK PL","zip code":"80919","id":"a6toujsnekmu","geo_precision":"range","state":"Colorado"},"type":"Feature","geometry":{"type":"Point","coordinates":[-104.868045,38.922516]}},{"properties":{"city":"Colorado Springs","remarks":"Total Loss","fire":"Waldo Canyon Fire","geo_score":0.897,"street address":"6425 ASHTON PARK PL","zip code":"80919","id":"a6toujv5rlls","geo_precision":"range","state":"Colorado"},"type":"Feature","geometry":{"type":"Point","coordinates":[-104.867714,38.9233]}},{"properties":{"city":"Colorado Springs","remarks":"Total Loss","fire":"Waldo Canyon Fire","geo_score":0.897,"street address":"6435 ASHTON PARK PL","zip code":"80919","id":"a6toujxrlx6p","geo_precision":"range","state":"Colorado"},"type":"Feature","geometry":{"type":"Point","coordinates":[-104.867687,38.923461]}},{"properties":{"city":"Colorado Springs","remarks":"Total Loss","fire":"Waldo Canyon Fire","geo_score":0.897,"street address":"6445 ASHTON PARK PL","zip code":"80919","id":"a6touk0ex4iq","geo_precision":"range","state":"Colorado"},"type":"Feature","geometry":{"type":"Point","coordinates":[-104.867647,38.923623]}},{"properties":{"city":"Colorado Springs","remarks":"Total Loss","fire":"Waldo Canyon Fire","geo_score":0.897,"street address":"6455 ASHTON PARK PL","zip code":"80919","id":"a6toujv26hky","geo_precision":"range","state":"Colorado"},"type":"Feature","geometry":{"type":"Point","coordinates":[-104.867618,38.923753]}},{"properties":{"city":"Colorado Springs","remarks":"Total Loss","fire":"Waldo Canyon Fire","geo_score":0.897,"street address":"6460 ASHTON PARK PL","zip code":"80919","id":"a6toujpnmf5x","geo_precision":"range","state":"Colorado"},"type":"Feature","geometry":{"type":"Point","coordinates":[-104.867615,38.925249]}},{"properties":{"city":"Colorado Springs","remarks":"Total Loss","fire":"Waldo Canyon Fire","geo_score":0.897,"street address":"6465 ASHTON PARK PL","zip code":"80919","id":"a6toujs6xki5","geo_precision":"range","state":"Colorado"},"type":"Feature","geometry":{"type":"Point","coordinates":[-104.867592,38.92392]}},{"properties":{"city":"Colorado Springs","remarks":"Total Loss","fire":"Waldo Canyon Fire","geo_score":0.897,"street address":"6485 ASHTON PARK PL","zip code":"80919","id":"a6toujtx39ht","geo_precision":"range","state":"Colorado"},"type":"Feature","geometry":{"type":"Point","coordinates":[-104.867631,38.924255]}},{"properties":{"city":"Colorado Springs","remarks":"Total Loss","fire":"Waldo Canyon Fire","geo_score":0.897,"street address":"6515 ASHTON PARK PL","zip code":"80919","id":"a6toujyr9otx","geo_precision":"range","state":"Colorado"},"type":"Feature","geometry":{"type":"Point","coordinates":[-104.867549,38.924958]}},{"properties":{"city":"Colorado Springs","remarks":"Total Loss","fire":"Waldo Canyon Fire","geo_score":0.897,"street address":"6525 ASHTON PARK PL","zip code":"80919","id":"a6toujmurad0","geo_precision":"range","state":"Colorado"},"type":"Feature","geometry":{"type":"Point","coordinates":[-104.867555,38.924756]}},{"properties":{"city":"Colorado Springs","remarks":"Total Loss","fire":"Waldo Canyon Fire","geo_score":0.897,"street address":"5310 AUBREY WAY","zip code":"80919","id":"a6toujx577fk","geo_precision":"range","state":"Colorado"},"type":"Feature","geometry":{"type":"Point","coordinates":[-104.875355,38.909687]}},{"properties":{"city":"Colorado Springs","remarks":"Total Loss","fire":"Waldo Canyon Fire","geo_score":0.897,"street address":"5345 AUBREY WAY","zip code":"80919","id":"a6toujr2whbe","geo_precision":"range","state":"Colorado"},"type":"Feature","geometry":{"type":"Point","coordinates":[-104.875208,38.910109]}},{"properties":{"city":"Colorado Springs","remarks":"Total Loss","fire":"Waldo Canyon Fire","geo_score":0.897,"street address":"4975 BRAEBURN WAY","zip code":"80919","id":"a6toujxgaxky","geo_precision":"range","state":"Colorado"},"type":"Feature","geometry":{"type":"Point","coordinates":[-104.876494,38.904763]}},{"properties":{"city":"Colorado Springs","remarks":"Total Loss","fire":"Waldo Canyon Fire","geo_score":0.799,"street address":"2515 BROGANS BLUFF DR","zip code":"80919","id":"a6toujlx9zyo","geo_precision":"street","state":"Colorado"},"type":"Feature","geometry":{"type":"Point","coordinates":[-104.874594,38.921246]}},{"properties":{"city":"Colorado Springs","remarks":"Total Loss","fire":"Waldo Canyon Fire","geo_score":0.799,"street address":"2530 BROGANS BLUFF DR","zip code":"80919","id":"a6toujne6g2n","geo_precision":"street","state":"Colorado"},"type":"Feature","geometry":{"type":"Point","coordinates":[-104.87511,38.921099]}},{"properties":{"city":"Colorado Springs","remarks":"Total Loss","fire":"Waldo Canyon Fire","geo_score":0.799,"street address":"2545 BROGANS BLUFF DR","zip code":"80919","id":"a6toujq18c9r","geo_precision":"street","state":"Colorado"},"type":"Feature","geometry":{"type":"Point","coordinates":[-104.880303,38.921417]}},{"properties":{"city":"Colorado Springs","remarks":"Total Loss","fire":"Waldo Canyon Fire","geo_score":0.799,"street address":"2554 BROGANS BLUFF DR","zip code":"80919","id":"a6toujll9pzx","geo_precision":"street","state":"Colorado"},"type":"Feature","geometry":{"type":"Point","coordinates":[-104.879808,38.921299]}},{"properties":{"city":"Colorado Springs","remarks":"Total Loss","fire":"Waldo Canyon Fire","geo_score":0.799,"street address":"2555 BROGANS BLUFF DR","zip code":"80919","id":"a6toujqnm47s","geo_precision":"street","state":"Colorado"},"type":"Feature","geometry":{"type":"Point","coordinates":[-104.8798,38.921449]}},{"properties":{"city":"Colorado Springs","remarks":"Total Loss","fire":"Waldo Canyon Fire","geo_score":0.799,"street address":"2565 BROGANS BLUFF DR","zip code":"80919","id":"a6toujqghxoq","geo_precision":"street","state":"Colorado"},"type":"Feature","geometry":{"type":"Point","coordinates":[-104.879501,38.921447]}},{"properties":{"city":"Colorado Springs","remarks":"Total Loss","fire":"Waldo Canyon Fire","geo_score":0.799,"street address":"2570 BROGANS BLUFF DR","zip code":"80919","id":"a6toujw1upkw","geo_precision":"street","state":"Colorado"},"type":"Feature","geometry":{"type":"Point","coordinates":[-104.879081,38.921297]}},{"properties":{"city":"Colorado Springs","remarks":"Total Loss","fire":"Waldo Canyon Fire","geo_score":0.799,"street address":"2575 BROGANS BLUFF DR","zip code":"80919","id":"a6toujxjfx42","geo_precision":"street","state":"Colorado"},"type":"Feature","geometry":{"type":"Point","coordinates":[-104.878948,38.921447]}},{"properties":{"city":"Colorado Springs","remarks":"Total Loss","fire":"Waldo Canyon Fire","geo_score":0.799,"street address":"2585 BROGANS BLUFF DR","zip code":"80919","id":"a6toujsz46ac","geo_precision":"street","state":"Colorado"},"type":"Feature","geometry":{"type":"Point","coordinates":[-104.878617,38.921447]}},{"properties":{"city":"Colorado Springs","remarks":"Total Loss","fire":"Waldo Canyon Fire","geo_score":0.799,"street address":"2595 BROGANS BLUFF DR","zip code":"80919","id":"a6toujo68uyx","geo_precision":"street","state":"Colorado"},"type":"Feature","geometry":{"type":"Point","coordinates":[-104.878186,38.921447]}},{"properties":{"city":"Colorado Springs","remarks":"Total Loss","fire":"Waldo Canyon Fire","geo_score":0.799,"street address":"2620 BROGANS BLUFF DR","zip code":"80919","id":"a6toujr5afbs","geo_precision":"street","state":"Colorado"},"type":"Feature","geometry":{"type":"Point","coordinates":[-104.876785,38.921304]}},{"properties":{"city":"Colorado Springs","remarks":"Total Loss","fire":"Waldo Canyon Fire","geo_score":0.799,"street address":"2625 BROGANS BLUFF DR","zip code":"80919","id":"a6toujt86cjq","geo_precision":"street","state":"Colorado"},"type":"Feature","geometry":{"type":"Point","coordinates":[-104.876911,38.921459]}},{"properties":{"city":"Colorado Springs","remarks":"Total Loss","fire":"Waldo Canyon Fire","geo_score":0.799,"street address":"2640 BROGANS BLUFF DR","zip code":"80919","id":"a6toujn6bmuc","geo_precision":"street","state":"Colorado"},"type":"Feature","geometry":{"type":"Point","coordinates":[-104.876128,38.921162]}},{"properties":{"city":"Colorado Springs","remarks":"Total Loss","fire":"Waldo Canyon Fire","geo_score":0.799,"street address":"2645 BROGANS BLUFF DR","zip code":"80919","id":"a6toujv2p35t","geo_precision":"street","state":"Colorado"},"type":"Feature","geometry":{"type":"Point","coordinates":[-104.875935,38.92125]}},{"properties":{"city":"Colorado Springs","remarks":"Total Loss","fire":"Waldo Canyon Fire","geo_score":0.799,"street address":"2810 BROGANS BLUFF DR","zip code":"80919","id":"a6toujvn0osj","geo_precision":"street","state":"Colorado"},"type":"Feature","geometry":{"type":"Point","coordinates":[-104.879558,38.91914]}},{"properties":{"city":"Colorado Springs","remarks":"Total Loss","fire":"Waldo Canyon Fire","geo_score":0.799,"street address":"2925 BROGANS BLUFF DR","zip code":"80919","id":"a6toujs5bo58","geo_precision":"street","state":"Colorado"},"type":"Feature","geometry":{"type":"Point","coordinates":[-104.882266,38.919472]}},{"properties":{"city":"Colorado Springs","remarks":"Total Loss","fire":"Waldo Canyon Fire","geo_score":0.799,"street address":"2930 BROGANS BLUFF DR","zip code":"80919","id":"a6toujt29ojb","geo_precision":"street","state":"Colorado"},"type":"Feature","geometry":{"type":"Point","coordinates":[-104.882281,38.919749]}},{"properties":{"city":"Colorado Springs","remarks":"Total Loss","fire":"Waldo Canyon Fire","geo_score":0.799,"street address":"2835 BROGANS BLUFF DR","zip code":"80919","id":"a6toujqtpyhh","geo_precision":"street","state":"Colorado"},"type":"Feature","geometry":{"type":"Point","coordinates":[-104.879846,38.918717]}},{"properties":{"city":"Colorado Springs","remarks":"Total Loss","fire":"Waldo Canyon Fire","geo_score":0.799,"street address":"2975 BROGANS BLUFF DR","zip code":"80919","id":"a6toujtetsg3","geo_precision":"street","state":"Colorado"},"type":"Feature","geometry":{"type":"Point","coordinates":[-104.882644,38.920507]}},{"properties":{"city":"Colorado Springs","remarks":"Total Loss","fire":"Waldo Canyon Fire","geo_score":0.897,"street address":"2220 CAPRA WAY","zip code":"80919","id":"a6toujq2xuh3","geo_precision":"range","state":"Colorado"},"type":"Feature","geometry":{"type":"Point","coordinates":[-104.869998,38.90845]}},{"properties":{"city":"Colorado Springs","remarks":"Total Loss","fire":"Waldo Canyon Fire","geo_score":0.897,"street address":"5345 CHAMBREY CT","zip code":"80919","id":"a6toujqp9haq","geo_precision":"range","state":"Colorado"},"type":"Feature","geometry":{"type":"Point","coordinates":[-104.868353,38.90822]}},{"properties":{"city":"Colorado Springs","remarks":"Total Loss","fire":"Waldo Canyon Fire","geo_score":0.897,"street address":"5350 CHAMBREY CT","zip code":"80919","id":"a6toujzldcn3","geo_precision":"range","state":"Colorado"},"type":"Feature","geometry":{"type":"Point","coordinates":[-104.868573,38.908269]}},{"properties":{"city":"Colorado Springs","remarks":"Total Loss","fire":"Waldo Canyon Fire","geo_score":0.897,"street address":"5410 CHAMBREY CT","zip code":"80919","id":"a6toujlpbkek","geo_precision":"range","state":"Colorado"},"type":"Feature","geometry":{"type":"Point","coordinates":[-104.868847,38.909559]}},{"properties":{"city":"Colorado Springs","remarks":"Total Loss","fire":"Waldo Canyon Fire","geo_score":0.897,"street address":"2215 CHARING CT","zip code":"80919","id":"a6toujwnpaac","geo_precision":"range","state":"Colorado"},"type":"Feature","geometry":{"type":"Point","coordinates":[-104.868091,38.925252]}},{"properties":{"city":"Colorado Springs","remarks":"Total Loss","fire":"Waldo Canyon Fire","geo_score":0.488,"street address":"3330 CHUCKWAGON RD","zip code":"80919","id":"a6toujxz8jfz","geo_precision":"zip","state":"Colorado"},"type":"Feature","geometry":{"type":"Point","coordinates":[-104.917436,38.938149]}},{"properties":{"city":"Colorado Springs","remarks":"Total Loss","fire":"Waldo Canyon Fire","geo_score":0.897,"street address":"2215 COURTNEY DR","zip code":"80919","id":"a6toujsvjdtv","geo_precision":"range","state":"Colorado"},"type":"Feature","geometry":{"type":"Point","coordinates":[-104.867784,38.924394]}},{"properties":{"city":"Colorado Springs","remarks":"Total Loss","fire":"Waldo Canyon Fire","geo_score":0.897,"street address":"2225 COURTNEY DR","zip code":"80919","id":"a6toujv9v7xy","geo_precision":"range","state":"Colorado"},"type":"Feature","geometry":{"type":"Point","coordinates":[-104.867899,38.924398]}},{"properties":{"city":"Colorado Springs","remarks":"Total Loss","fire":"Waldo Canyon Fire","geo_score":0.897,"street address":"2230 COURTNEY DR","zip code":"80919","id":"a6toujv8m69j","geo_precision":"range","state":"Colorado"},"type":"Feature","geometry":{"type":"Point","coordinates":[-104.867964,38.924549]}},{"properties":{"city":"Colorado Springs","remarks":"Total Loss","fire":"Waldo Canyon Fire","geo_score":0.897,"street address":"2235 COURTNEY DR","zip code":"80919","id":"a6toujyau3md","geo_precision":"range","state":"Colorado"},"type":"Feature","geometry":{"type":"Point","coordinates":[-104.868014,38.924401]}},{"properties":{"city":"Colorado Springs","remarks":"Total Loss","fire":"Waldo Canyon Fire","geo_score":0.897,"street address":"2240 COURTNEY DR","zip code":"80919","id":"a6toujw46f1e","geo_precision":"range","state":"Colorado"},"type":"Feature","geometry":{"type":"Point","coordinates":[-104.868079,38.924552]}},{"properties":{"city":"Colorado Springs","remarks":"Total Loss","fire":"Waldo Canyon Fire","geo_score":0.897,"street address":"2245 COURTNEY DR","zip code":"80919","id":"a6toujlm9i40","geo_precision":"range","state":"Colorado"},"type":"Feature","geometry":{"type":"Point","coordinates":[-104.86813,38.924404]}},{"properties":{"city":"Colorado Springs","remarks":"Total Loss","fire":"Waldo Canyon Fire","geo_score":0.897,"street address":"2250 COURTNEY DR","zip code":"80919","id":"a6toujp9s0qg","geo_precision":"range","state":"Colorado"},"type":"Feature","geometry":{"type":"Point","coordinates":[-104.868195,38.924556]}},{"properties":{"city":"Colorado Springs","remarks":"Total Loss","fire":"Waldo Canyon Fire","geo_score":0.897,"street address":"2255 COURTNEY DR","zip code":"80919","id":"a6toujy49gny","geo_precision":"range","state":"Colorado"},"type":"Feature","geometry":{"type":"Point","coordinates":[-104.868245,38.924407]}},{"properties":{"city":"Colorado Springs","remarks":"Total Loss","fire":"Waldo Canyon Fire","geo_score":0.897,"street address":"2260 COURTNEY DR","zip code":"80919","id":"a6toujms9l7y","geo_precision":"range","state":"Colorado"},"type":"Feature","geometry":{"type":"Point","coordinates":[-104.868488,38.924559]}},{"properties":{"city":"Colorado Springs","remarks":"Total Loss","fire":"Waldo Canyon Fire","geo_score":0.897,"street address":"2265 COURTNEY DR","zip code":"80919","id":"a6touk0rgau9","geo_precision":"range","state":"Colorado"},"type":"Feature","geometry":{"type":"Point","coordinates":[-104.86854,38.924411]}},{"properties":{"city":"Colorado Springs","remarks":"Total Loss","fire":"Waldo Canyon Fire","geo_score":0.897,"street address":"2270 COURTNEY DR","zip code":"80919","id":"a6touju46hm4","geo_precision":"range","state":"Colorado"},"type":"Feature","geometry":{"type":"Point","coordinates":[-104.868646,38.924562]}},{"properties":{"city":"Colorado Springs","remarks":"Total Loss","fire":"Waldo Canyon Fire","geo_score":0.897,"street address":"2275 COURTNEY DR","zip code":"80919","id":"a6toujssxrt5","geo_precision":"range","state":"Colorado"},"type":"Feature","geometry":{"type":"Point","coordinates":[-104.868694,38.924413]}},{"properties":{"city":"Colorado Springs","remarks":"Total Loss","fire":"Waldo Canyon Fire","geo_score":0.897,"street address":"2280 COURTNEY DR","zip code":"80919","id":"a6toujtpj6ua","geo_precision":"range","state":"Colorado"},"type":"Feature","geometry":{"type":"Point","coordinates":[-104.868761,38.924564]}},{"properties":{"city":"Colorado Springs","remarks":"Total Loss","fire":"Waldo Canyon Fire","geo_score":0.897,"street address":"2285 COURTNEY DR","zip code":"80919","id":"a6toujtzz1b9","geo_precision":"range","state":"Colorado"},"type":"Feature","geometry":{"type":"Point","coordinates":[-104.868809,38.924414]}},{"properties":{"city":"Colorado Springs","remarks":"Total Loss","fire":"Waldo Canyon Fire","geo_score":0.897,"street address":"2310 COURTNEY DR","zip code":"80919","id":"a6toujx7vjd0","geo_precision":"range","state":"Colorado"},"type":"Feature","geometry":{"type":"Point","coordinates":[-104.869108,38.924568]}},{"properties":{"city":"Colorado Springs","remarks":"Total Loss","fire":"Waldo Canyon Fire","geo_score":0.897,"street address":"2320 COURTNEY DR","zip code":"80919","id":"a6toujze3nv0","geo_precision":"range","state":"Colorado"},"type":"Feature","geometry":{"type":"Point","coordinates":[-104.869223,38.924569]}},{"properties":{"city":"Colorado Springs","remarks":"Total Loss","fire":"Waldo Canyon Fire","geo_score":0.897,"street address":"2335 COURTNEY DR","zip code":"80919","id":"a6toujvadfix","geo_precision":"range","state":"Colorado"},"type":"Feature","geometry":{"type":"Point","coordinates":[-104.869579,38.924424]}},{"properties":{"city":"Colorado Springs","remarks":"Total Loss","fire":"Waldo Canyon Fire","geo_score":0.897,"street address":"2340 COURTNEY DR","zip code":"80919","id":"a6toujpn93ia","geo_precision":"range","state":"Colorado"},"type":"Feature","geometry":{"type":"Point","coordinates":[-104.869642,38.924576]}},{"properties":{"city":"Colorado Springs","remarks":"Total Loss","fire":"Waldo Canyon Fire","geo_score":0.897,"street address":"2350 COURTNEY DR","zip code":"80919","id":"a6toujt1pxm8","geo_precision":"range","state":"Colorado"},"type":"Feature","geometry":{"type":"Point","coordinates":[-104.869758,38.92458]}},{"properties":{"city":"Colorado Springs","remarks":"Total Loss","fire":"Waldo Canyon Fire","geo_score":0.897,"street address":"2360 COURTNEY DR","zip code":"80919","id":"a6toujpny96x","geo_precision":"range","state":"Colorado"},"type":"Feature","geometry":{"type":"Point","coordinates":[-104.869986,38.924566]}},{"properties":{"city":"Colorado Springs","remarks":"Total Loss","fire":"Waldo Canyon Fire","geo_score":0.897,"street address":"2370 COURTNEY DR","zip code":"80919","id":"a6toujrcduky","geo_precision":"range","state":"Colorado"},"type":"Feature","geometry":{"type":"Point","coordinates":[-104.870143,38.924502]}},{"properties":{"city":"Colorado Springs","remarks":"Total Loss","fire":"Waldo Canyon Fire","geo_score":0.897,"street address":"2375 COURTNEY DR","zip code":"80919","id":"a6toujz5y6vd","geo_precision":"range","state":"Colorado"},"type":"Feature","geometry":{"type":"Point","coordinates":[-104.870096,38.924352]}},{"properties":{"city":"Colorado Springs","remarks":"Total Loss","fire":"Waldo Canyon Fire","geo_score":0.897,"street address":"2380 COURTNEY DR","zip code":"80919","id":"a6toujyxbpm7","geo_precision":"range","state":"Colorado"},"type":"Feature","geometry":{"type":"Point","coordinates":[-104.870281,38.924413]}},{"properties":{"city":"Colorado Springs","remarks":"Total Loss","fire":"Waldo Canyon Fire","geo_score":0.897,"street address":"2385 COURTNEY DR","zip code":"80919","id":"a6toujshkffe","geo_precision":"range","state":"Colorado"},"type":"Feature","geometry":{"type":"Point","coordinates":[-104.870194,38.924283]}},{"properties":{"city":"Colorado Springs","remarks":"Total Loss","fire":"Waldo Canyon Fire","geo_score":0.897,"street address":"2390 COURTNEY DR","zip code":"80919","id":"a6toujqq0x9w","geo_precision":"range","state":"Colorado"},"type":"Feature","geometry":{"type":"Point","coordinates":[-104.870371,38.924287]}},{"properties":{"city":"Colorado Springs","remarks":"Total Loss","fire":"Waldo Canyon Fire","geo_score":0.897,"street address":"2395 COURTNEY DR","zip code":"80919","id":"a6toujpp0q2y","geo_precision":"range","state":"Colorado"},"type":"Feature","geometry":{"type":"Point","coordinates":[-104.870241,38.924217]}},{"properties":{"city":"Colorado Springs","remarks":"Total Loss","fire":"Waldo Canyon Fire","geo_score":0.897,"street address":"2410 COURTNEY DR","zip code":"80919","id":"a6toujws36d6","geo_precision":"range","state":"Colorado"},"type":"Feature","geometry":{"type":"Point","coordinates":[-104.870404,38.924044]}},{"properties":{"city":"Colorado Springs","remarks":"Total Loss","fire":"Waldo Canyon Fire","geo_score":0.897,"street address":"2415 COURTNEY DR","zip code":"80919","id":"a6toujn45zq5","geo_precision":"range","state":"Colorado"},"type":"Feature","geometry":{"type":"Point","coordinates":[-104.870257,38.923987]}},{"properties":{"city":"Colorado Springs","remarks":"Total Loss","fire":"Waldo Canyon Fire","geo_score":0.897,"street address":"2425 COURTNEY DR","zip code":"80919","id":"a6toujz9vpto","geo_precision":"range","state":"Colorado"},"type":"Feature","geometry":{"type":"Point","coordinates":[-104.870265,38.923872]}},{"properties":{"city":"Colorado Springs","remarks":"Total Loss","fire":"Waldo Canyon Fire","geo_score":0.897,"street address":"5565 DARIEN WAY","zip code":"80919","id":"a6toujnlho0w","geo_precision":"range","state":"Colorado"},"type":"Feature","geometry":{"type":"Point","coordinates":[-104.870699,38.912233]}},{"properties":{"city":"Colorado Springs","remarks":"Total Loss","fire":"Waldo Canyon Fire","geo_score":0.897,"street address":"5710 HARBOR PINES PT","zip code":"80919","id":"a6toujsqx59w","geo_precision":"range","state":"Colorado"},"type":"Feature","geometry":{"type":"Point","coordinates":[-104.878588,38.913934]}},{"properties":{"city":"Colorado Springs","remarks":"Total Loss","fire":"Waldo Canyon Fire","geo_score":0.897,"street address":"5720 HARBOR PINES PT","zip code":"80919","id":"a6toujtkddf6","geo_precision":"range","state":"Colorado"},"type":"Feature","geometry":{"type":"Point","coordinates":[-104.878313,38.91396]}},{"properties":{"city":"Colorado Springs","remarks":"Total Loss","fire":"Waldo Canyon Fire","geo_score":0.897,"street address":"5730 HARBOR PINES PT","zip code":"80919","id":"a6toujpjo932","geo_precision":"range","state":"Colorado"},"type":"Feature","geometry":{"type":"Point","coordinates":[-104.878023,38.913996]}},{"properties":{"city":"Colorado Springs","remarks":"Total Loss","fire":"Waldo Canyon Fire","geo_score":0.897,"street address":"5735 HARBOR PINES PT","zip code":"80919","id":"a6toujnki560","geo_precision":"range","state":"Colorado"},"type":"Feature","geometry":{"type":"Point","coordinates":[-104.877842,38.913869]}},{"properties":{"city":"Colorado Springs","remarks":"Total Loss","fire":"Waldo Canyon Fire","geo_score":0.897,"street address":"5740 HARBOR PINES PT","zip code":"80919","id":"a6toujvrud8w","geo_precision":"range","state":"Colorado"},"type":"Feature","geometry":{"type":"Point","coordinates":[-104.877685,38.914047]}},{"properties":{"city":"Colorado Springs","remarks":"Total Loss","fire":"Waldo Canyon Fire","geo_score":0.897,"street address":"5745 HARBOR PINES PT","zip code":"80919","id":"a6toujp28rbk","geo_precision":"range","state":"Colorado"},"type":"Feature","geometry":{"type":"Point","coordinates":[-104.87756,38.91392]}},{"properties":{"city":"Colorado Springs","remarks":"Total Loss","fire":"Waldo Canyon Fire","geo_score":0.897,"street address":"5750 HARBOR PINES PT","zip code":"80919","id":"a6toujqw2k3k","geo_precision":"range","state":"Colorado"},"type":"Feature","geometry":{"type":"Point","coordinates":[-104.877396,38.9141]}},{"properties":{"city":"Colorado Springs","remarks":"Total Loss","fire":"Waldo Canyon Fire","geo_score":0.897,"street address":"5760 HARBOR PINES PT","zip code":"80919","id":"a6toujlak8qw","geo_precision":"range","state":"Colorado"},"type":"Feature","geometry":{"type":"Point","coordinates":[-104.877086,38.914148]}},{"properties":{"city":"Colorado Springs","remarks":"Total Loss","fire":"Waldo Canyon Fire","geo_score":0.897,"street address":"5770 HARBOR PINES PT","zip code":"80919","id":"a6toujp7pkv5","geo_precision":"range","state":"Colorado"},"type":"Feature","geometry":{"type":"Point","coordinates":[-104.876776,38.914118]}},{"properties":{"city":"Colorado Springs","remarks":"Total Loss","fire":"Waldo Canyon Fire","geo_score":0.897,"street address":"5780 HARBOR PINES PT","zip code":"80919","id":"a6toujvrn0gd","geo_precision":"range","state":"Colorado"},"type":"Feature","geometry":{"type":"Point","coordinates":[-104.876577,38.913866]}},{"properties":{"city":"Colorado Springs","remarks":"Total Loss","fire":"Waldo Canyon Fire","geo_score":0.897,"street address":"5810 HARBOR PINES PT","zip code":"80919","id":"a6toujyt2dsi","geo_precision":"range","state":"Colorado"},"type":"Feature","geometry":{"type":"Point","coordinates":[-104.877112,38.913366]}},{"properties":{"city":"Colorado Springs","remarks":"Total Loss","fire":"Waldo Canyon Fire","geo_score":0.897,"street address":"5820 HARBOR PINES PT","zip code":"80919","id":"a6toujr4g9rq","geo_precision":"range","state":"Colorado"},"type":"Feature","geometry":{"type":"Point","coordinates":[-104.877347,38.913329]}},{"properties":{"city":"Colorado Springs","remarks":"Total Loss","fire":"Waldo Canyon Fire","geo_score":0.897,"street address":"5125 HEARTHSTONE LN","zip code":"80919","id":"a6toujn9r4fk","geo_precision":"range","state":"Colorado"},"type":"Feature","geometry":{"type":"Point","coordinates":[-104.874883,38.908305]}},{"properties":{"city":"Colorado Springs","remarks":"Total Loss","fire":"Waldo Canyon Fire","geo_score":0.897,"street address":"5135 HEARTHSTONE LN","zip code":"80919","id":"a6toujygbpft","geo_precision":"range","state":"Colorado"},"type":"Feature","geometry":{"type":"Point","coordinates":[-104.874699,38.908196]}},{"properties":{"city":"Colorado Springs","remarks":"Total Loss","fire":"Waldo Canyon Fire","geo_score":0.897,"street address":"5175 HEARTHSTONE LN","zip code":"80919","id":"a6toujn60wzj","geo_precision":"range","state":"Colorado"},"type":"Feature","geometry":{"type":"Point","coordinates":[-104.875262,38.907464]}},{"properties":{"city":"Colorado Springs","remarks":"Total Loss","fire":"Waldo Canyon Fire","geo_score":0.897,"street address":"5185 HEARTHSTONE LN","zip code":"80919","id":"a6toujm7lh76","geo_precision":"range","state":"Colorado"},"type":"Feature","geometry":{"type":"Point","coordinates":[-104.875521,38.907259]}},{"properties":{"city":"Colorado Springs","remarks":"Total Loss","fire":"Waldo Canyon Fire","geo_score":0.897,"street address":"2515 HOT SPRINGS CT","zip code":"80919","id":"a6toujspswsc","geo_precision":"range","state":"Colorado"},"type":"Feature","geometry":{"type":"Point","coordinates":[-104.87463,38.911593]}},{"properties":{"city":"Colorado Springs","remarks":"Total Loss","fire":"Waldo Canyon Fire","geo_score":0.897,"street address":"2517 HOT SPRINGS CT","zip code":"80919","id":"a6toujp1xxbl","geo_precision":"range","state":"Colorado"},"type":"Feature","geometry":{"type":"Point","coordinates":[-104.874614,38.911591]}},{"properties":{"city":"Colorado Springs","remarks":"Total Loss","fire":"Waldo Canyon Fire","geo_score":0.897,"street address":"2519 HOT SPRINGS CT","zip code":"80919","id":"a6toujysmnnz","geo_precision":"range","state":"Colorado"},"type":"Feature","geometry":{"type":"Point","coordinates":[-104.874599,38.91159]}},{"properties":{"city":"Colorado Springs","remarks":"Total Loss","fire":"Waldo Canyon Fire","geo_score":0.897,"street address":"2521 HOT SPRINGS CT","zip code":"80919","id":"a6touk0iow07","geo_precision":"range","state":"Colorado"},"type":"Feature","geometry":{"type":"Point","coordinates":[-104.874515,38.911594]}},{"properties":{"city":"Colorado Springs","remarks":"Total Loss","fire":"Waldo Canyon Fire","geo_score":0.897,"street address":"2523 HOT SPRINGS CT","zip code":"80919","id":"a6toujno17u7","geo_precision":"range","state":"Colorado"},"type":"Feature","geometry":{"type":"Point","coordinates":[-104.874501,38.911599]}},{"properties":{"city":"Colorado Springs","remarks":"Total Loss","fire":"Waldo Canyon Fire","geo_score":0.897,"street address":"2525 HOT SPRINGS CT","zip code":"80919","id":"a6toujyb59fo","geo_precision":"range","state":"Colorado"},"type":"Feature","geometry":{"type":"Point","coordinates":[-104.874486,38.911603]}},{"properties":{"city":"Colorado Springs","remarks":"Total Loss","fire":"Waldo Canyon Fire","geo_score":0.897,"street address":"2527 HOT SPRINGS CT","zip code":"80919","id":"a6toujzb90e9","geo_precision":"range","state":"Colorado"},"type":"Feature","geometry":{"type":"Point","coordinates":[-104.874471,38.911607]}},{"properties":{"city":"Colorado Springs","remarks":"Total Loss","fire":"Waldo Canyon Fire","geo_score":0.897,"street address":"2529 HOT SPRINGS CT","zip code":"80919","id":"a6toukb7vspf","geo_precision":"range","state":"Colorado"},"type":"Feature","geometry":{"type":"Point","coordinates":[-104.874456,38.911611]}},{"properties":{"city":"Colorado Springs","remarks":"Total Loss","fire":"Waldo Canyon Fire","geo_score":0.897,"street address":"2531 HOT SPRINGS CT","zip code":"80919","id":"a6toukavhi0d","geo_precision":"range","state":"Colorado"},"type":"Feature","geometry":{"type":"Point","coordinates":[-104.874442,38.911615]}},{"properties":{"city":"Colorado Springs","remarks":"Total Loss","fire":"Waldo Canyon Fire","geo_score":0.897,"street address":"2539 HOT SPRINGS CT","zip code":"80919","id":"a6toukalxslg","geo_precision":"range","state":"Colorado"},"type":"Feature","geometry":{"type":"Point","coordinates":[-104.874383,38.911631]}},{"properties":{"city":"Colorado Springs","remarks":"Total Loss","fire":"Waldo Canyon Fire","geo_score":0.897,"street address":"2541 HOT SPRINGS CT","zip code":"80919","id":"a6toukeoa9vj","geo_precision":"range","state":"Colorado"},"type":"Feature","geometry":{"type":"Point","coordinates":[-104.874368,38.911635]}},{"properties":{"city":"Colorado Springs","remarks":"Total Loss","fire":"Waldo Canyon Fire","geo_score":0.897,"street address":"2551 HOT SPRINGS CT","zip code":"80919","id":"a6touk7fmxp0","geo_precision":"range","state":"Colorado"},"type":"Feature","geometry":{"type":"Point","coordinates":[-104.874295,38.911655]}},{"properties":{"city":"Colorado Springs","remarks":"Total Loss","fire":"Waldo Canyon Fire","geo_score":0.897,"street address":"2553 HOT SPRINGS CT","zip code":"80919","id":"a6touk7adcaz","geo_precision":"range","state":"Colorado"},"type":"Feature","geometry":{"type":"Point","coordinates":[-104.87428,38.91166]}},{"properties":{"city":"Colorado Springs","remarks":"Total Loss","fire":"Waldo Canyon Fire","geo_score":0.897,"street address":"2555 HOT SPRINGS CT","zip code":"80919","id":"a6touk4aubx1","geo_precision":"range","state":"Colorado"},"type":"Feature","geometry":{"type":"Point","coordinates":[-104.874266,38.911664]}},{"properties":{"city":"Colorado Springs","remarks":"Total Loss","fire":"Waldo Canyon Fire","geo_score":0.897,"street address":"2557 HOT SPRINGS CT","zip code":"80919","id":"a6touk4n5b6k","geo_precision":"range","state":"Colorado"},"type":"Feature","geometry":{"type":"Point","coordinates":[-104.874196,38.911662]}},{"properties":{"city":"Colorado Springs","remarks":"Total Loss","fire":"Waldo Canyon Fire","geo_score":0.897,"street address":"2559 HOT SPRINGS CT","zip code":"80919","id":"a6toukcpggjz","geo_precision":"range","state":"Colorado"},"type":"Feature","geometry":{"type":"Point","coordinates":[-104.874181,38.911662]}},{"properties":{"city":"Colorado Springs","remarks":"Total Loss","fire":"Waldo Canyon Fire","geo_score":0.897,"street address":"2561 HOT SPRINGS CT","zip code":"80919","id":"a6toukaymxot","geo_precision":"range","state":"Colorado"},"type":"Feature","geometry":{"type":"Point","coordinates":[-104.874165,38.911663]}},{"properties":{"city":"Colorado Springs","remarks":"Total Loss","fire":"Waldo Canyon Fire","geo_score":0.897,"street address":"2563 HOT SPRINGS CT","zip code":"80919","id":"a6touk7vzdxu","geo_precision":"range","state":"Colorado"},"type":"Feature","geometry":{"type":"Point","coordinates":[-104.87415,38.911663]}},{"properties":{"city":"Colorado Springs","remarks":"Total Loss","fire":"Waldo Canyon Fire","geo_score":0.897,"street address":"2565 HOT SPRINGS CT","zip code":"80919","id":"a6toukb2ahho","geo_precision":"range","state":"Colorado"},"type":"Feature","geometry":{"type":"Point","coordinates":[-104.874135,38.911664]}},{"properties":{"city":"Colorado Springs","remarks":"Total Loss","fire":"Waldo Canyon Fire","geo_score":0.897,"street address":"2567 HOT SPRINGS CT","zip code":"80919","id":"a6toukatvmts","geo_precision":"range","state":"Colorado"},"type":"Feature","geometry":{"type":"Point","coordinates":[-104.87412,38.911664]}},{"properties":{"city":"Colorado Springs","remarks":"Total Loss","fire":"Waldo Canyon Fire","geo_score":0.897,"street address":"2569 HOT SPRINGS CT","zip code":"80919","id":"a6toukgjr9wo","geo_precision":"range","state":"Colorado"},"type":"Feature","geometry":{"type":"Point","coordinates":[-104.874104,38.911665]}},{"properties":{"city":"Colorado Springs","remarks":"Total Loss","fire":"Waldo Canyon Fire","geo_score":0.897,"street address":"2571 HOT SPRINGS CT","zip code":"80919","id":"a6touk55ihzy","geo_precision":"range","state":"Colorado"},"type":"Feature","geometry":{"type":"Point","coordinates":[-104.874055,38.911665]}},{"properties":{"city":"Colorado Springs","remarks":"Total Loss","fire":"Waldo Canyon Fire","geo_score":0.897,"street address":"2573 HOT SPRINGS CT","zip code":"80919","id":"a6touk9lij6f","geo_precision":"range","state":"Colorado"},"type":"Feature","geometry":{"type":"Point","coordinates":[-104.87404,38.911666]}},{"properties":{"city":"Colorado Springs","remarks":"Total Loss","fire":"Waldo Canyon Fire","geo_score":0.897,"street address":"5775 HUFFMAN CT","zip code":"80919","id":"a6toukarmrc0","geo_precision":"range","state":"Colorado"},"type":"Feature","geometry":{"type":"Point","coordinates":[-104.872741,38.915665]}},{"properties":{"city":"Colorado Springs","remarks":"Total Loss","fire":"Waldo Canyon Fire","geo_score":0.897,"street address":"2450 JENNER CT","zip code":"80919","id":"a6touk4tjxij","geo_precision":"range","state":"Colorado"},"type":"Feature","geometry":{"type":"Point","coordinates":[-104.873725,38.921728]}},{"properties":{"city":"Colorado Springs","remarks":"Total Loss","fire":"Waldo Canyon Fire","geo_score":0.897,"street address":"2460 JENNER CT","zip code":"80919","id":"a6toukdiljc1","geo_precision":"range","state":"Colorado"},"type":"Feature","geometry":{"type":"Point","coordinates":[-104.873856,38.921668]}},{"properties":{"city":"Colorado Springs","remarks":"Total Loss","fire":"Waldo Canyon Fire","geo_score":0.897,"street address":"2470 JENNER CT","zip code":"80919","id":"a6touk413cw7","geo_precision":"range","state":"Colorado"},"type":"Feature","geometry":{"type":"Point","coordinates":[-104.873938,38.921592]}},{"properties":{"city":"Colorado Springs","remarks":"Total Loss","fire":"Waldo Canyon Fire","geo_score":0.897,"street address":"2485 JENNER CT","zip code":"80919","id":"a6toukg8pw1t","geo_precision":"range","state":"Colorado"},"type":"Feature","geometry":{"type":"Point","coordinates":[-104.874117,38.921427]}},{"properties":{"city":"Colorado Springs","remarks":"Total Loss","fire":"Waldo Canyon Fire","geo_score":0.897,"street address":"2505 KARAMY CT","zip code":"80919","id":"a6touk7h98po","geo_precision":"range","state":"Colorado"},"type":"Feature","geometry":{"type":"Point","coordinates":[-104.877219,38.9207]}},{"properties":{"city":"Colorado Springs","remarks":"Total Loss","fire":"Waldo Canyon Fire","geo_score":0.897,"street address":"2545 KARAMY CT","zip code":"80919","id":"a6toukg3vgng","geo_precision":"range","state":"Colorado"},"type":"Feature","geometry":{"type":"Point","coordinates":[-104.878157,38.920613]}},{"properties":{"city":"Colorado Springs","remarks":"Total Loss","fire":"Waldo Canyon Fire","geo_score":0.897,"street address":"2570 KARAMY CT","zip code":"80919","id":"a6touke9qhh4","geo_precision":"range","state":"Colorado"},"type":"Feature","geometry":{"type":"Point","coordinates":[-104.878694,38.920696]}},{"properties":{"city":"Colorado Springs","remarks":"Total Loss","fire":"Waldo Canyon Fire","geo_score":0.897,"street address":"5140 LANAGAN ST","zip code":"80919","id":"a6toukd10gce","geo_precision":"range","state":"Colorado"},"type":"Feature","geometry":{"type":"Point","coordinates":[-104.876366,38.911571]}},{"properties":{"city":"Colorado Springs","remarks":"Total Loss","fire":"Waldo Canyon Fire","geo_score":0.897,"street address":"5155 LANAGAN ST","zip code":"80919","id":"a6touki3nxg9","geo_precision":"range","state":"Colorado"},"type":"Feature","geometry":{"type":"Point","coordinates":[-104.879292,38.90758]}},{"properties":{"city":"Colorado Springs","remarks":"Total Loss","fire":"Waldo Canyon Fire","geo_score":0.897,"street address":"5175 LANAGAN ST","zip code":"80919","id":"a6touk7ot5h1","geo_precision":"range","state":"Colorado"},"type":"Feature","geometry":{"type":"Point","coordinates":[-104.878836,38.90754]}},{"properties":{"city":"Colorado Springs","remarks":"Total Loss","fire":"Waldo Canyon Fire","geo_score":0.897,"street address":"5185 LANAGAN ST","zip code":"80919","id":"a6touk9a7ki1","geo_precision":"range","state":"Colorado"},"type":"Feature","geometry":{"type":"Point","coordinates":[-104.878626,38.907607]}},{"properties":{"city":"Colorado Springs","remarks":"Total Loss","fire":"Waldo Canyon Fire","geo_score":0.897,"street address":"5265 LANAGAN ST","zip code":"80919","id":"a6toukakn6oo","geo_precision":"range","state":"Colorado"},"type":"Feature","geometry":{"type":"Point","coordinates":[-104.877042,38.908334]}},{"properties":{"city":"Colorado Springs","remarks":"Total Loss","fire":"Waldo Canyon Fire","geo_score":0.897,"street address":"5701 LINGER WAY","zip code":"80919","id":"a6touk7nhl7h","geo_precision":"range","state":"Colorado"},"type":"Feature","geometry":{"type":"Point","coordinates":[-104.878352,38.916542]}},{"properties":{"city":"Colorado Springs","remarks":"Total Loss","fire":"Waldo Canyon Fire","geo_score":0.897,"street address":"5705 LINGER WAY","zip code":"80919","id":"a6toukg4ql5w","geo_precision":"range","state":"Colorado"},"type":"Feature","geometry":{"type":"Point","coordinates":[-104.87831,38.916439]}},{"properties":{"city":"Colorado Springs","remarks":"Total Loss","fire":"Waldo Canyon Fire","geo_score":0.897,"street address":"5715 LINGER WAY","zip code":"80919","id":"a6touk3tkot0","geo_precision":"range","state":"Colorado"},"type":"Feature","geometry":{"type":"Point","coordinates":[-104.87838,38.916245]}},{"properties":{"city":"Colorado Springs","remarks":"Total Loss","fire":"Waldo Canyon Fire","geo_score":0.897,"street address":"5720 LINGER WAY","zip code":"80919","id":"a6toukco9z6r","geo_precision":"range","state":"Colorado"},"type":"Feature","geometry":{"type":"Point","coordinates":[-104.878564,38.91618]}},{"properties":{"city":"Colorado Springs","remarks":"Total Loss","fire":"Waldo Canyon Fire","geo_score":0.897,"street address":"5725 LINGER WAY","zip code":"80919","id":"a6toukayx26q","geo_precision":"range","state":"Colorado"},"type":"Feature","geometry":{"type":"Point","coordinates":[-104.878451,38.916052]}},{"properties":{"city":"Colorado Springs","remarks":"Total Loss","fire":"Waldo Canyon Fire","geo_score":0.897,"street address":"5735 LINGER WAY","zip code":"80919","id":"a6toukagxd5c","geo_precision":"range","state":"Colorado"},"type":"Feature","geometry":{"type":"Point","coordinates":[-104.878521,38.915858]}},{"properties":{"city":"Colorado Springs","remarks":"Total Loss","fire":"Waldo Canyon Fire","geo_score":0.897,"street address":"5740 LINGER WAY","zip code":"80919","id":"a6toukaldj44","geo_precision":"range","state":"Colorado"},"type":"Feature","geometry":{"type":"Point","coordinates":[-104.878705,38.915793]}},{"properties":{"city":"Colorado Springs","remarks":"Total Loss","fire":"Waldo Canyon Fire","geo_score":0.897,"street address":"5745 LINGER WAY","zip code":"80919","id":"a6touk442ljd","geo_precision":"range","state":"Colorado"},"type":"Feature","geometry":{"type":"Point","coordinates":[-104.878592,38.915664]}},{"properties":{"city":"Colorado Springs","remarks":"Total Loss","fire":"Waldo Canyon Fire","geo_score":0.897,"street address":"5750 LINGER WAY","zip code":"80919","id":"a6touk7378s7","geo_precision":"range","state":"Colorado"},"type":"Feature","geometry":{"type":"Point","coordinates":[-104.878775,38.915599]}},{"properties":{"city":"Colorado Springs","remarks":"Total Loss","fire":"Waldo Canyon Fire","geo_score":0.897,"street address":"5755 LINGER WAY","zip code":"80919","id":"a6touk4vv4z5","geo_precision":"range","state":"Colorado"},"type":"Feature","geometry":{"type":"Point","coordinates":[-104.878662,38.915471]}},{"properties":{"city":"Colorado Springs","remarks":"Total Loss","fire":"Waldo Canyon Fire","geo_score":0.897,"street address":"5765 LINGER WAY","zip code":"80919","id":"a6touk880j4x","geo_precision":"range","state":"Colorado"},"type":"Feature","geometry":{"type":"Point","coordinates":[-104.87899,38.91532]}},{"properties":{"city":"Colorado Springs","remarks":"Total Loss","fire":"Waldo Canyon Fire","geo_score":0.897,"street address":"5775 LINGER WAY","zip code":"80919","id":"a6toukhi3hd0","geo_precision":"range","state":"Colorado"},"type":"Feature","geometry":{"type":"Point","coordinates":[-104.879192,38.915361]}},{"properties":{"city":"Colorado Springs","remarks":"Total Loss","fire":"Waldo Canyon Fire","geo_score":0.897,"street address":"5785 LINGER WAY","zip code":"80919","id":"a6toukd94ght","geo_precision":"range","state":"Colorado"},"type":"Feature","geometry":{"type":"Point","coordinates":[-104.879395,38.915402]}},{"properties":{"city":"Colorado Springs","remarks":"Total Loss","fire":"Waldo Canyon Fire","geo_score":0.897,"street address":"5795 LINGER WAY","zip code":"80919","id":"a6touk1y8lq5","geo_precision":"range","state":"Colorado"},"type":"Feature","geometry":{"type":"Point","coordinates":[-104.879597,38.915442]}},{"properties":{"city":"Colorado Springs","remarks":"Total Loss","fire":"Waldo Canyon Fire","geo_score":0.897,"street address":"5799 LINGER WAY","zip code":"80919","id":"a6touk9fa91e","geo_precision":"range","state":"Colorado"},"type":"Feature","geometry":{"type":"Point","coordinates":[-104.879881,38.915532]}},{"properties":{"city":"Colorado Springs","remarks":"Total Loss","fire":"Waldo Canyon Fire","geo_score":0.897,"street address":"5463 LIONS GATE LN","zip code":"80919","id":"a6toukb0d7f9","geo_precision":"range","state":"Colorado"},"type":"Feature","geometry":{"type":"Point","coordinates":[-104.87252,38.909874]}},{"properties":{"city":"Colorado Springs","remarks":"Total Loss","fire":"Waldo Canyon Fire","geo_score":0.897,"street address":"5465 LIONS GATE LN","zip code":"80919","id":"a6touke7v6xj","geo_precision":"range","state":"Colorado"},"type":"Feature","geometry":{"type":"Point","coordinates":[-104.87252,38.909836]}},{"properties":{"city":"Colorado Springs","remarks":"Total Loss","fire":"Waldo Canyon Fire","geo_score":0.897,"street address":"5467 LIONS GATE LN","zip code":"80919","id":"a6toukaejjk4","geo_precision":"range","state":"Colorado"},"type":"Feature","geometry":{"type":"Point","coordinates":[-104.872519,38.909798]}},{"properties":{"city":"Colorado Springs","remarks":"Total Loss","fire":"Waldo Canyon Fire","geo_score":0.897,"street address":"5469 LIONS GATE LN","zip code":"80919","id":"a6toukcclwss","geo_precision":"range","state":"Colorado"},"type":"Feature","geometry":{"type":"Point","coordinates":[-104.872518,38.909761]}},{"properties":{"city":"Colorado Springs","remarks":"Total Loss","fire":"Waldo Canyon Fire","geo_score":0.897,"street address":"5471 LIONS GATE LN","zip code":"80919","id":"a6touk3lyg0v","geo_precision":"range","state":"Colorado"},"type":"Feature","geometry":{"type":"Point","coordinates":[-104.872518,38.909723]}},{"properties":{"city":"Colorado Springs","remarks":"Total Loss","fire":"Waldo Canyon Fire","geo_score":0.897,"street address":"5473 LIONS GATE LN","zip code":"80919","id":"a6touk8h7wtr","geo_precision":"range","state":"Colorado"},"type":"Feature","geometry":{"type":"Point","coordinates":[-104.872517,38.909685]}},{"properties":{"city":"Colorado Springs","remarks":"Total Loss","fire":"Waldo Canyon Fire","geo_score":0.897,"street address":"5475 LIONS GATE LN","zip code":"80919","id":"a6toukft2hgj","geo_precision":"range","state":"Colorado"},"type":"Feature","geometry":{"type":"Point","coordinates":[-104.872516,38.909648]}},{"properties":{"city":"Colorado Springs","remarks":"Total Loss","fire":"Waldo Canyon Fire","geo_score":0.897,"street address":"5477 LIONS GATE LN","zip code":"80919","id":"a6touk3on8bm","geo_precision":"range","state":"Colorado"},"type":"Feature","geometry":{"type":"Point","coordinates":[-104.872515,38.90961]}},{"properties":{"city":"Colorado Springs","remarks":"Total Loss","fire":"Waldo Canyon Fire","geo_score":0.897,"street address":"5479 LIONS GATE LN","zip code":"80919","id":"a6toukd0unie","geo_precision":"range","state":"Colorado"},"type":"Feature","geometry":{"type":"Point","coordinates":[-104.872515,38.909573]}},{"properties":{"city":"Colorado Springs","remarks":"Total Loss","fire":"Waldo Canyon Fire","geo_score":0.897,"street address":"5481 LIONS GATE LN","zip code":"80919","id":"a6toukcoh2uv","geo_precision":"range","state":"Colorado"},"type":"Feature","geometry":{"type":"Point","coordinates":[-104.872514,38.909535]}},{"properties":{"city":"Colorado Springs","remarks":"Total Loss","fire":"Waldo Canyon Fire","geo_score":0.897,"street address":"5483 LIONS GATE LN","zip code":"80919","id":"a6touk2g4zd4","geo_precision":"range","state":"Colorado"},"type":"Feature","geometry":{"type":"Point","coordinates":[-104.872586,38.909496]}},{"properties":{"city":"Colorado Springs","remarks":"Total Loss","fire":"Waldo Canyon Fire","geo_score":0.897,"street address":"5485 LIONS GATE LN","zip code":"80919","id":"a6toukfqcxbt","geo_precision":"range","state":"Colorado"},"type":"Feature","geometry":{"type":"Point","coordinates":[-104.873594,38.910744]}},{"properties":{"city":"Colorado Springs","remarks":"Total Loss","fire":"Waldo Canyon Fire","geo_score":0.897,"street address":"5420 MAJESTIC DR","zip code":"80919","id":"a6touk7a7kdg","geo_precision":"range","state":"Colorado"},"type":"Feature","geometry":{"type":"Point","coordinates":[-104.875176,38.913844]}},{"properties":{"city":"Colorado Springs","remarks":"Total Loss","fire":"Waldo Canyon Fire","geo_score":0.897,"street address":"5422 MAJESTIC DR","zip code":"80919","id":"a6toukek932a","geo_precision":"range","state":"Colorado"},"type":"Feature","geometry":{"type":"Point","coordinates":[-104.875196,38.913846]}},{"properties":{"city":"Colorado Springs","remarks":"Total Loss","fire":"Waldo Canyon Fire","geo_score":0.897,"street address":"5428 MAJESTIC DR","zip code":"80919","id":"a6toukf9ymi0","geo_precision":"range","state":"Colorado"},"type":"Feature","geometry":{"type":"Point","coordinates":[-104.875256,38.913851]}},{"properties":{"city":"Colorado Springs","remarks":"Total Loss","fire":"Waldo Canyon Fire","geo_score":0.897,"street address":"5430 MAJESTIC DR","zip code":"80919","id":"a6touk7lc5nz","geo_precision":"range","state":"Colorado"},"type":"Feature","geometry":{"type":"Point","coordinates":[-104.875277,38.913853]}},{"properties":{"city":"Colorado Springs","remarks":"Total Loss","fire":"Waldo Canyon Fire","geo_score":0.897,"street address":"5432 MAJESTIC DR","zip code":"80919","id":"a6touke7ofd4","geo_precision":"range","state":"Colorado"},"type":"Feature","geometry":{"type":"Point","coordinates":[-104.875297,38.913855]}},{"properties":{"city":"Colorado Springs","remarks":"Total Loss","fire":"Waldo Canyon Fire","geo_score":0.897,"street address":"5434 MAJESTIC DR","zip code":"80919","id":"a6toukb3a5ku","geo_precision":"range","state":"Colorado"},"type":"Feature","geometry":{"type":"Point","coordinates":[-104.875317,38.913857]}},{"properties":{"city":"Colorado Springs","remarks":"Total Loss","fire":"Waldo Canyon Fire","geo_score":0.897,"street address":"5436 MAJESTIC DR","zip code":"80919","id":"a6touk4aq8ea","geo_precision":"range","state":"Colorado"},"type":"Feature","geometry":{"type":"Point","coordinates":[-104.875337,38.913859]}},{"properties":{"city":"Colorado Springs","remarks":"Total Loss","fire":"Waldo Canyon Fire","geo_score":0.897,"street address":"5438 MAJESTIC DR","zip code":"80919","id":"a6toukheieyk","geo_precision":"range","state":"Colorado"},"type":"Feature","geometry":{"type":"Point","coordinates":[-104.875357,38.91386]}},{"properties":{"city":"Colorado Springs","remarks":"Total Loss","fire":"Waldo Canyon Fire","geo_score":0.897,"street address":"5440 MAJESTIC DR","zip code":"80919","id":"a6touk1tbb2g","geo_precision":"range","state":"Colorado"},"type":"Feature","geometry":{"type":"Point","coordinates":[-104.875447,38.913937]}},{"properties":{"city":"Colorado Springs","remarks":"Total Loss","fire":"Waldo Canyon Fire","geo_score":0.897,"street address":"5442 MAJESTIC DR","zip code":"80919","id":"a6toukfpx5n9","geo_precision":"range","state":"Colorado"},"type":"Feature","geometry":{"type":"Point","coordinates":[-104.873988,38.913298]}},{"properties":{"city":"Colorado Springs","remarks":"Total Loss","fire":"Waldo Canyon Fire","geo_score":0.897,"street address":"5446 MAJESTIC DR","zip code":"80919","id":"a6touk916xnu","geo_precision":"range","state":"Colorado"},"type":"Feature","geometry":{"type":"Point","coordinates":[-104.874073,38.913302]}},{"properties":{"city":"Colorado Springs","remarks":"Total Loss","fire":"Waldo Canyon Fire","geo_score":0.897,"street address":"5448 MAJESTIC DR","zip code":"80919","id":"a6toukhxrkqx","geo_precision":"range","state":"Colorado"},"type":"Feature","geometry":{"type":"Point","coordinates":[-104.874081,38.913319]}},{"properties":{"city":"Colorado Springs","remarks":"Total Loss","fire":"Waldo Canyon Fire","geo_score":0.897,"street address":"5454 MAJESTIC DR","zip code":"80919","id":"a6touk9vc2jd","geo_precision":"range","state":"Colorado"},"type":"Feature","geometry":{"type":"Point","coordinates":[-104.874106,38.913373]}},{"properties":{"city":"Colorado Springs","remarks":"Total Loss","fire":"Waldo Canyon Fire","geo_score":0.897,"street address":"5456 MAJESTIC DR","zip code":"80919","id":"a6touke0xtft","geo_precision":"range","state":"Colorado"},"type":"Feature","geometry":{"type":"Point","coordinates":[-104.874115,38.913391]}},{"properties":{"city":"Colorado Springs","remarks":"Total Loss","fire":"Waldo Canyon Fire","geo_score":0.897,"street address":"5458 MAJESTIC DR","zip code":"80919","id":"a6touk82qoqa","geo_precision":"range","state":"Colorado"},"type":"Feature","geometry":{"type":"Point","coordinates":[-104.874123,38.913409]}},{"properties":{"city":"Colorado Springs","remarks":"Total Loss","fire":"Waldo Canyon Fire","geo_score":0.897,"street address":"5460 MAJESTIC DR","zip code":"80919","id":"a6toukamf4l9","geo_precision":"range","state":"Colorado"},"type":"Feature","geometry":{"type":"Point","coordinates":[-104.874132,38.913427]}},{"properties":{"city":"Colorado Springs","remarks":"Total Loss","fire":"Waldo Canyon Fire","geo_score":0.897,"street address":"5515 MAJESTIC DR","zip code":"80919","id":"a6touk48gl8g","geo_precision":"range","state":"Colorado"},"type":"Feature","geometry":{"type":"Point","coordinates":[-104.874338,38.913825]}},{"properties":{"city":"Colorado Springs","remarks":"Total Loss","fire":"Waldo Canyon Fire","geo_score":0.897,"street address":"5517 MAJESTIC DR","zip code":"80919","id":"a6touk77o9ty","geo_precision":"range","state":"Colorado"},"type":"Feature","geometry":{"type":"Point","coordinates":[-104.874352,38.913834]}},{"properties":{"city":"Colorado Springs","remarks":"Total Loss","fire":"Waldo Canyon Fire","geo_score":0.897,"street address":"5519 MAJESTIC DR","zip code":"80919","id":"a6toukhxyphl","geo_precision":"range","state":"Colorado"},"type":"Feature","geometry":{"type":"Point","coordinates":[-104.874367,38.913843]}},{"properties":{"city":"Colorado Springs","remarks":"Total Loss","fire":"Waldo Canyon Fire","geo_score":0.897,"street address":"5521 MAJESTIC DR","zip code":"80919","id":"a6toukck0x3h","geo_precision":"range","state":"Colorado"},"type":"Feature","geometry":{"type":"Point","coordinates":[-104.874381,38.913852]}},{"properties":{"city":"Colorado Springs","remarks":"Total Loss","fire":"Waldo Canyon Fire","geo_score":0.897,"street address":"5523 MAJESTIC DR","zip code":"80919","id":"a6toukax8lg6","geo_precision":"range","state":"Colorado"},"type":"Feature","geometry":{"type":"Point","coordinates":[-104.874396,38.913861]}},{"properties":{"city":"Colorado Springs","remarks":"Total Loss","fire":"Waldo Canyon Fire","geo_score":0.897,"street address":"5525 MAJESTIC DR","zip code":"80919","id":"a6touk7k8o6c","geo_precision":"range","state":"Colorado"},"type":"Feature","geometry":{"type":"Point","coordinates":[-104.874411,38.91387]}},{"properties":{"city":"Colorado Springs","remarks":"Total Loss","fire":"Waldo Canyon Fire","geo_score":0.897,"street address":"5527 MAJESTIC DR","zip code":"80919","id":"a6toukclsded","geo_precision":"range","state":"Colorado"},"type":"Feature","geometry":{"type":"Point","coordinates":[-104.874448,38.913879]}},{"properties":{"city":"Colorado Springs","remarks":"Total Loss","fire":"Waldo Canyon Fire","geo_score":0.897,"street address":"5529 MAJESTIC DR","zip code":"80919","id":"a6touk5u2tji","geo_precision":"range","state":"Colorado"},"type":"Feature","geometry":{"type":"Point","coordinates":[-104.874462,38.913888]}},{"properties":{"city":"Colorado Springs","remarks":"Total Loss","fire":"Waldo Canyon Fire","geo_score":0.897,"street address":"5531 MAJESTIC DR","zip code":"80919","id":"a6touk7hn7o1","geo_precision":"range","state":"Colorado"},"type":"Feature","geometry":{"type":"Point","coordinates":[-104.874477,38.913896]}},{"properties":{"city":"Colorado Springs","remarks":"Total Loss","fire":"Waldo Canyon Fire","geo_score":0.897,"street address":"5533 MAJESTIC DR","zip code":"80919","id":"a6touk25azen","geo_precision":"range","state":"Colorado"},"type":"Feature","geometry":{"type":"Point","coordinates":[-104.874491,38.913905]}},{"properties":{"city":"Colorado Springs","remarks":"Total Loss","fire":"Waldo Canyon Fire","geo_score":0.897,"street address":"5537 MAJESTIC DR","zip code":"80919","id":"a6touk755xiw","geo_precision":"range","state":"Colorado"},"type":"Feature","geometry":{"type":"Point","coordinates":[-104.874521,38.913923]}},{"properties":{"city":"Colorado Springs","remarks":"Total Loss","fire":"Waldo Canyon Fire","geo_score":0.897,"street address":"5539 MAJESTIC DR","zip code":"80919","id":"a6touk7gdm2c","geo_precision":"range","state":"Colorado"},"type":"Feature","geometry":{"type":"Point","coordinates":[-104.874535,38.913932]}},{"properties":{"city":"Colorado Springs","remarks":"Total Loss","fire":"Waldo Canyon Fire","geo_score":0.897,"street address":"5540 MAJESTIC DR","zip code":"80919","id":"a6toukayb4ze","geo_precision":"range","state":"Colorado"},"type":"Feature","geometry":{"type":"Point","coordinates":[-104.874833,38.913823]}},{"properties":{"city":"Colorado Springs","remarks":"Total Loss","fire":"Waldo Canyon Fire","geo_score":0.897,"street address":"5541 MAJESTIC DR","zip code":"80919","id":"a6touke53zd8","geo_precision":"range","state":"Colorado"},"type":"Feature","geometry":{"type":"Point","coordinates":[-104.874606,38.913947]}},{"properties":{"city":"Colorado Springs","remarks":"Total Loss","fire":"Waldo Canyon Fire","geo_score":0.897,"street address":"5542 MAJESTIC DR","zip code":"80919","id":"a6touk4n74ss","geo_precision":"range","state":"Colorado"},"type":"Feature","geometry":{"type":"Point","coordinates":[-104.874853,38.913824]}},{"properties":{"city":"Colorado Springs","remarks":"Total Loss","fire":"Waldo Canyon Fire","geo_score":0.897,"street address":"5543 MAJESTIC DR","zip code":"80919","id":"a6touk869g1a","geo_precision":"range","state":"Colorado"},"type":"Feature","geometry":{"type":"Point","coordinates":[-104.874623,38.913951]}},{"properties":{"city":"Colorado Springs","remarks":"Total Loss","fire":"Waldo Canyon Fire","geo_score":0.897,"street address":"5544 MAJESTIC DR","zip code":"80919","id":"a6touk50q31q","geo_precision":"range","state":"Colorado"},"type":"Feature","geometry":{"type":"Point","coordinates":[-104.874872,38.913826]}},{"properties":{"city":"Colorado Springs","remarks":"Total Loss","fire":"Waldo Canyon Fire","geo_score":0.897,"street address":"5545 MAJESTIC DR","zip code":"80919","id":"a6touk6kzlu3","geo_precision":"range","state":"Colorado"},"type":"Feature","geometry":{"type":"Point","coordinates":[-104.87464,38.913954]}},{"properties":{"city":"Colorado Springs","remarks":"Total Loss","fire":"Waldo Canyon Fire","geo_score":0.897,"street address":"5546 MAJESTIC DR","zip code":"80919","id":"a6toukc0c5jt","geo_precision":"range","state":"Colorado"},"type":"Feature","geometry":{"type":"Point","coordinates":[-104.874928,38.913902]}},{"properties":{"city":"Colorado Springs","remarks":"Total Loss","fire":"Waldo Canyon Fire","geo_score":0.897,"street address":"5547 MAJESTIC DR","zip code":"80919","id":"a6touka0vrlp","geo_precision":"range","state":"Colorado"},"type":"Feature","geometry":{"type":"Point","coordinates":[-104.874656,38.913957]}},{"properties":{"city":"Colorado Springs","remarks":"Total Loss","fire":"Waldo Canyon Fire","geo_score":0.897,"street address":"5549 MAJESTIC DR","zip code":"80919","id":"a6toukb5qqwg","geo_precision":"range","state":"Colorado"},"type":"Feature","geometry":{"type":"Point","coordinates":[-104.874673,38.91396]}},{"properties":{"city":"Colorado Springs","remarks":"Total Loss","fire":"Waldo Canyon Fire","geo_score":0.897,"street address":"5551 MAJESTIC DR","zip code":"80919","id":"a6touk2r8281","geo_precision":"range","state":"Colorado"},"type":"Feature","geometry":{"type":"Point","coordinates":[-104.87469,38.913964]}},{"properties":{"city":"Colorado Springs","remarks":"Total Loss","fire":"Waldo Canyon Fire","geo_score":0.897,"street address":"5553 MAJESTIC DR","zip code":"80919","id":"a6toukaudxpo","geo_precision":"range","state":"Colorado"},"type":"Feature","geometry":{"type":"Point","coordinates":[-104.874745,38.913967]}},{"properties":{"city":"Colorado Springs","remarks":"Total Loss","fire":"Waldo Canyon Fire","geo_score":0.897,"street address":"5555 MAJESTIC DR","zip code":"80919","id":"a6touke6xy3r","geo_precision":"range","state":"Colorado"},"type":"Feature","geometry":{"type":"Point","coordinates":[-104.874762,38.913969]}},{"properties":{"city":"Colorado Springs","remarks":"Total Loss","fire":"Waldo Canyon Fire","geo_score":0.897,"street address":"5565 MAJESTIC DR","zip code":"80919","id":"a6toukd1lq3f","geo_precision":"range","state":"Colorado"},"type":"Feature","geometry":{"type":"Point","coordinates":[-104.874848,38.913974]}},{"properties":{"city":"Colorado Springs","remarks":"Total Loss","fire":"Waldo Canyon Fire","geo_score":0.897,"street address":"5567 MAJESTIC DR","zip code":"80919","id":"a6toukaald9e","geo_precision":"range","state":"Colorado"},"type":"Feature","geometry":{"type":"Point","coordinates":[-104.874865,38.913976]}},{"properties":{"city":"Colorado Springs","remarks":"Total Loss","fire":"Waldo Canyon Fire","geo_score":0.897,"street address":"5569 MAJESTIC DR","zip code":"80919","id":"a6toukbwh9vy","geo_precision":"range","state":"Colorado"},"type":"Feature","geometry":{"type":"Point","coordinates":[-104.874928,38.913902]}},{"properties":{"city":"Colorado Springs","remarks":"Total Loss","fire":"Waldo Canyon Fire","geo_score":0.897,"street address":"5571 MAJESTIC DR","zip code":"80919","id":"a6toukb71i0w","geo_precision":"range","state":"Colorado"},"type":"Feature","geometry":{"type":"Point","coordinates":[-104.873783,38.911747]}},{"properties":{"city":"Colorado Springs","remarks":"Total Loss","fire":"Waldo Canyon Fire","geo_score":0.897,"street address":"5573 MAJESTIC DR","zip code":"80919","id":"a6touk5t88h6","geo_precision":"range","state":"Colorado"},"type":"Feature","geometry":{"type":"Point","coordinates":[-104.873705,38.911904]}},{"properties":{"city":"Colorado Springs","remarks":"Total Loss","fire":"Waldo Canyon Fire","geo_score":0.897,"street address":"5575 MAJESTIC DR","zip code":"80919","id":"a6touki07t5t","geo_precision":"range","state":"Colorado"},"type":"Feature","geometry":{"type":"Point","coordinates":[-104.873703,38.912061]}},{"properties":{"city":"Colorado Springs","remarks":"Total Loss","fire":"Waldo Canyon Fire","geo_score":0.897,"street address":"5577 MAJESTIC DR","zip code":"80919","id":"a6touk6m64zw","geo_precision":"range","state":"Colorado"},"type":"Feature","geometry":{"type":"Point","coordinates":[-104.873699,38.912219]}},{"properties":{"city":"Colorado Springs","remarks":"Total Loss","fire":"Waldo Canyon Fire","geo_score":0.897,"street address":"5579 MAJESTIC DR","zip code":"80919","id":"a6toukbwxt85","geo_precision":"range","state":"Colorado"},"type":"Feature","geometry":{"type":"Point","coordinates":[-104.873697,38.912377]}},{"properties":{"city":"Colorado Springs","remarks":"Total Loss","fire":"Waldo Canyon Fire","geo_score":0.897,"street address":"5617 MAJESTIC DR","zip code":"80919","id":"a6toukgs248g","geo_precision":"range","state":"Colorado"},"type":"Feature","geometry":{"type":"Point","coordinates":[-104.873614,38.911021]}},{"properties":{"city":"Colorado Springs","remarks":"Total Loss","fire":"Waldo Canyon Fire","geo_score":0.897,"street address":"5619 MAJESTIC DR","zip code":"80919","id":"a6toukhw5ncw","geo_precision":"range","state":"Colorado"},"type":"Feature","geometry":{"type":"Point","coordinates":[-104.87362,38.911042]}},{"properties":{"city":"Colorado Springs","remarks":"Total Loss","fire":"Waldo Canyon Fire","geo_score":0.897,"street address":"5621 MAJESTIC DR","zip code":"80919","id":"a6touk3288po","geo_precision":"range","state":"Colorado"},"type":"Feature","geometry":{"type":"Point","coordinates":[-104.873627,38.911064]}},{"properties":{"city":"Colorado Springs","remarks":"Total Loss","fire":"Waldo Canyon Fire","geo_score":0.897,"street address":"5623 MAJESTIC DR","zip code":"80919","id":"a6toukea1wz4","geo_precision":"range","state":"Colorado"},"type":"Feature","geometry":{"type":"Point","coordinates":[-104.873633,38.911085]}},{"properties":{"city":"Colorado Springs","remarks":"Total Loss","fire":"Waldo Canyon Fire","geo_score":0.897,"street address":"5625 MAJESTIC DR","zip code":"80919","id":"a6touk9r9tes","geo_precision":"range","state":"Colorado"},"type":"Feature","geometry":{"type":"Point","coordinates":[-104.873639,38.911106]}},{"properties":{"city":"Colorado Springs","remarks":"Total Loss","fire":"Waldo Canyon Fire","geo_score":0.897,"street address":"5633 MAJESTIC DR","zip code":"80919","id":"a6touk20u57d","geo_precision":"range","state":"Colorado"},"type":"Feature","geometry":{"type":"Point","coordinates":[-104.873676,38.911181]}},{"properties":{"city":"Colorado Springs","remarks":"Total Loss","fire":"Waldo Canyon Fire","geo_score":0.897,"street address":"5635 MAJESTIC DR","zip code":"80919","id":"a6touke9rimb","geo_precision":"range","state":"Colorado"},"type":"Feature","geometry":{"type":"Point","coordinates":[-104.873679,38.911203]}},{"properties":{"city":"Colorado Springs","remarks":"Total Loss","fire":"Waldo Canyon Fire","geo_score":0.897,"street address":"5637 MAJESTIC DR","zip code":"80919","id":"a6toukfyce8n","geo_precision":"range","state":"Colorado"},"type":"Feature","geometry":{"type":"Point","coordinates":[-104.873682,38.911225]}},{"properties":{"city":"Colorado Springs","remarks":"Total Loss","fire":"Waldo Canyon Fire","geo_score":0.897,"street address":"5641 MAJESTIC DR","zip code":"80919","id":"a6touk5y7jr5","geo_precision":"range","state":"Colorado"},"type":"Feature","geometry":{"type":"Point","coordinates":[-104.873688,38.911269]}},{"properties":{"city":"Colorado Springs","remarks":"Total Loss","fire":"Waldo Canyon Fire","geo_score":0.897,"street address":"5643 MAJESTIC DR","zip code":"80919","id":"a6toukg1d6gx","geo_precision":"range","state":"Colorado"},"type":"Feature","geometry":{"type":"Point","coordinates":[-104.873691,38.911291]}},{"properties":{"city":"Colorado Springs","remarks":"Total Loss","fire":"Waldo Canyon Fire","geo_score":0.897,"street address":"5645 MAJESTIC DR","zip code":"80919","id":"a6toukg2bkb5","geo_precision":"range","state":"Colorado"},"type":"Feature","geometry":{"type":"Point","coordinates":[-104.873694,38.911313]}},{"properties":{"city":"Colorado Springs","remarks":"Total Loss","fire":"Waldo Canyon Fire","geo_score":0.897,"street address":"5647 MAJESTIC DR","zip code":"80919","id":"a6touk42zcke","geo_precision":"range","state":"Colorado"},"type":"Feature","geometry":{"type":"Point","coordinates":[-104.873703,38.911326]}},{"properties":{"city":"Colorado Springs","remarks":"Total Loss","fire":"Waldo Canyon Fire","geo_score":0.897,"street address":"5649 MAJESTIC DR","zip code":"80919","id":"a6toukf1nmhn","geo_precision":"range","state":"Colorado"},"type":"Feature","geometry":{"type":"Point","coordinates":[-104.873704,38.911348]}},{"properties":{"city":"Colorado Springs","remarks":"Total Loss","fire":"Waldo Canyon Fire","geo_score":0.897,"street address":"5651 MAJESTIC DR","zip code":"80919","id":"a6toukgcfzo1","geo_precision":"range","state":"Colorado"},"type":"Feature","geometry":{"type":"Point","coordinates":[-104.873704,38.911371]}},{"properties":{"city":"Colorado Springs","remarks":"Total Loss","fire":"Waldo Canyon Fire","geo_score":0.897,"street address":"5653 MAJESTIC DR","zip code":"80919","id":"a6touk5z9ced","geo_precision":"range","state":"Colorado"},"type":"Feature","geometry":{"type":"Point","coordinates":[-104.873704,38.911393]}},{"properties":{"city":"Colorado Springs","remarks":"Total Loss","fire":"Waldo Canyon Fire","geo_score":0.897,"street address":"5655 MAJESTIC DR","zip code":"80919","id":"a6toukcos3bv","geo_precision":"range","state":"Colorado"},"type":"Feature","geometry":{"type":"Point","coordinates":[-104.873705,38.911415]}},{"properties":{"city":"Colorado Springs","remarks":"Total Loss","fire":"Waldo Canyon Fire","geo_score":0.897,"street address":"5657 MAJESTIC DR","zip code":"80919","id":"a6touk9tnlc2","geo_precision":"range","state":"Colorado"},"type":"Feature","geometry":{"type":"Point","coordinates":[-104.873705,38.911437]}},{"properties":{"city":"Colorado Springs","remarks":"Total Loss","fire":"Waldo Canyon Fire","geo_score":0.897,"street address":"5659 MAJESTIC DR","zip code":"80919","id":"a6touk7j6303","geo_precision":"range","state":"Colorado"},"type":"Feature","geometry":{"type":"Point","coordinates":[-104.873705,38.91146]}},{"properties":{"city":"Colorado Springs","remarks":"Total Loss","fire":"Waldo Canyon Fire","geo_score":0.897,"street address":"5661 MAJESTIC DR","zip code":"80919","id":"a6touk78ksp8","geo_precision":"range","state":"Colorado"},"type":"Feature","geometry":{"type":"Point","coordinates":[-104.873706,38.911482]}},{"properties":{"city":"Colorado Springs","remarks":"Total Loss","fire":"Waldo Canyon Fire","geo_score":0.897,"street address":"5663 MAJESTIC DR","zip code":"80919","id":"a6touk94fk7q","geo_precision":"range","state":"Colorado"},"type":"Feature","geometry":{"type":"Point","coordinates":[-104.873706,38.911504]}},{"properties":{"city":"Colorado Springs","remarks":"Total Loss","fire":"Waldo Canyon Fire","geo_score":0.897,"street address":"5665 MAJESTIC DR","zip code":"80919","id":"a6toukcs9sz1","geo_precision":"range","state":"Colorado"},"type":"Feature","geometry":{"type":"Point","coordinates":[-104.873707,38.911526]}},{"properties":{"city":"Colorado Springs","remarks":"Total Loss","fire":"Waldo Canyon Fire","geo_score":0.897,"street address":"5667 MAJESTIC DR","zip code":"80919","id":"a6touk65k0z5","geo_precision":"range","state":"Colorado"},"type":"Feature","geometry":{"type":"Point","coordinates":[-104.873708,38.911549]}},{"properties":{"city":"Colorado Springs","remarks":"Total Loss","fire":"Waldo Canyon Fire","geo_score":0.897,"street address":"5669 MAJESTIC DR","zip code":"80919","id":"a6touk3npswk","geo_precision":"range","state":"Colorado"},"type":"Feature","geometry":{"type":"Point","coordinates":[-104.873709,38.911571]}},{"properties":{"city":"Colorado Springs","remarks":"Total Loss","fire":"Waldo Canyon Fire","geo_score":0.897,"street address":"5671 MAJESTIC DR","zip code":"80919","id":"a6touk4thkxx","geo_precision":"range","state":"Colorado"},"type":"Feature","geometry":{"type":"Point","coordinates":[-104.873709,38.911593]}},{"properties":{"city":"Colorado Springs","remarks":"Total Loss","fire":"Waldo Canyon Fire","geo_score":0.897,"street address":"5673 MAJESTIC DR","zip code":"80919","id":"a6touk4un1lq","geo_precision":"range","state":"Colorado"},"type":"Feature","geometry":{"type":"Point","coordinates":[-104.87371,38.911615]}},{"properties":{"city":"Colorado Springs","remarks":"Total Loss","fire":"Waldo Canyon Fire","geo_score":0.897,"street address":"5675 MAJESTIC DR","zip code":"80919","id":"a6touk8lguho","geo_precision":"range","state":"Colorado"},"type":"Feature","geometry":{"type":"Point","coordinates":[-104.87371,38.911638]}},{"properties":{"city":"Colorado Springs","remarks":"Total Loss","fire":"Waldo Canyon Fire","geo_score":0.897,"street address":"5677 MAJESTIC DR","zip code":"80919","id":"a6toukd0x1yx","geo_precision":"range","state":"Colorado"},"type":"Feature","geometry":{"type":"Point","coordinates":[-104.873711,38.911656]}},{"properties":{"city":"Colorado Springs","remarks":"Total Loss","fire":"Waldo Canyon Fire","geo_score":0.897,"street address":"5679 MAJESTIC DR","zip code":"80919","id":"a6touk3wq07t","geo_precision":"range","state":"Colorado"},"type":"Feature","geometry":{"type":"Point","coordinates":[-104.87371,38.911679]}},{"properties":{"city":"Colorado Springs","remarks":"Total Loss","fire":"Waldo Canyon Fire","geo_score":0.897,"street address":"5681 MAJESTIC DR","zip code":"80919","id":"a6toukb7nynt","geo_precision":"range","state":"Colorado"},"type":"Feature","geometry":{"type":"Point","coordinates":[-104.87371,38.911701]}},{"properties":{"city":"Colorado Springs","remarks":"Total Loss","fire":"Waldo Canyon Fire","geo_score":0.897,"street address":"5683 MAJESTIC DR","zip code":"80919","id":"a6toukdcnab5","geo_precision":"range","state":"Colorado"},"type":"Feature","geometry":{"type":"Point","coordinates":[-104.873709,38.911723]}},{"properties":{"city":"Colorado Springs","remarks":"Total Loss","fire":"Waldo Canyon Fire","geo_score":0.897,"street address":"5685 MAJESTIC DR","zip code":"80919","id":"a6touk5w7n74","geo_precision":"range","state":"Colorado"},"type":"Feature","geometry":{"type":"Point","coordinates":[-104.873783,38.911747]}},{"properties":{"city":"Colorado Springs","remarks":"Total Loss","fire":"Waldo Canyon Fire","geo_score":0.897,"street address":"1605 MANNING WAY","zip code":"80919","id":"a6toukfhxu86","geo_precision":"range","state":"Colorado"},"type":"Feature","geometry":{"type":"Point","coordinates":[-104.866833,38.926286]}},{"properties":{"city":"Colorado Springs","remarks":"Total Loss","fire":"Waldo Canyon Fire","geo_score":0.897,"street address":"2510 MIRROR LAKE CT","zip code":"80919","id":"a6toukac5eb1","geo_precision":"range","state":"Colorado"},"type":"Feature","geometry":{"type":"Point","coordinates":[-104.874772,38.913138]}},{"properties":{"city":"Colorado Springs","remarks":"Total Loss","fire":"Waldo Canyon Fire","geo_score":0.897,"street address":"2511 MIRROR LAKE CT","zip code":"80919","id":"a6touk3kodxn","geo_precision":"range","state":"Colorado"},"type":"Feature","geometry":{"type":"Point","coordinates":[-104.874717,38.912998]}},{"properties":{"city":"Colorado Springs","remarks":"Total Loss","fire":"Waldo Canyon Fire","geo_score":0.897,"street address":"2513 MIRROR LAKE CT","zip code":"80919","id":"a6touk3xysmi","geo_precision":"range","state":"Colorado"},"type":"Feature","geometry":{"type":"Point","coordinates":[-104.874704,38.913003]}},{"properties":{"city":"Colorado Springs","remarks":"Total Loss","fire":"Waldo Canyon Fire","geo_score":0.897,"street address":"2515 MIRROR LAKE CT","zip code":"80919","id":"a6toukh57jpk","geo_precision":"range","state":"Colorado"},"type":"Feature","geometry":{"type":"Point","coordinates":[-104.874691,38.913009]}},{"properties":{"city":"Colorado Springs","remarks":"Total Loss","fire":"Waldo Canyon Fire","geo_score":0.897,"street address":"2517 MIRROR LAKE CT","zip code":"80919","id":"a6touk719gv4","geo_precision":"range","state":"Colorado"},"type":"Feature","geometry":{"type":"Point","coordinates":[-104.874678,38.913014]}},{"properties":{"city":"Colorado Springs","remarks":"Total Loss","fire":"Waldo Canyon Fire","geo_score":0.897,"street address":"2519 MIRROR LAKE CT","zip code":"80919","id":"a6touk37ih1o","geo_precision":"range","state":"Colorado"},"type":"Feature","geometry":{"type":"Point","coordinates":[-104.874665,38.913019]}},{"properties":{"city":"Colorado Springs","remarks":"Total Loss","fire":"Waldo Canyon Fire","geo_score":0.897,"street address":"2520 MIRROR LAKE CT","zip code":"80919","id":"a6toukfboe0b","geo_precision":"range","state":"Colorado"},"type":"Feature","geometry":{"type":"Point","coordinates":[-104.874671,38.913164]}},{"properties":{"city":"Colorado Springs","remarks":"Total Loss","fire":"Waldo Canyon Fire","geo_score":0.897,"street address":"2521 MIRROR LAKE CT","zip code":"80919","id":"a6toukhpu7ki","geo_precision":"range","state":"Colorado"},"type":"Feature","geometry":{"type":"Point","coordinates":[-104.874615,38.913024]}},{"properties":{"city":"Colorado Springs","remarks":"Total Loss","fire":"Waldo Canyon Fire","geo_score":0.897,"street address":"2523 MIRROR LAKE CT","zip code":"80919","id":"a6touk6gfdpz","geo_precision":"range","state":"Colorado"},"type":"Feature","geometry":{"type":"Point","coordinates":[-104.874602,38.91303]}},{"properties":{"city":"Colorado Springs","remarks":"Total Loss","fire":"Waldo Canyon Fire","geo_score":0.897,"street address":"2525 MIRROR LAKE CT","zip code":"80919","id":"a6toukdtk3ty","geo_precision":"range","state":"Colorado"},"type":"Feature","geometry":{"type":"Point","coordinates":[-104.874589,38.913035]}},{"properties":{"city":"Colorado Springs","remarks":"Total Loss","fire":"Waldo Canyon Fire","geo_score":0.897,"street address":"2529 MIRROR LAKE CT","zip code":"80919","id":"a6touk8ssne4","geo_precision":"range","state":"Colorado"},"type":"Feature","geometry":{"type":"Point","coordinates":[-104.874563,38.913045]}},{"properties":{"city":"Colorado Springs","remarks":"Total Loss","fire":"Waldo Canyon Fire","geo_score":0.897,"street address":"2530 MIRROR LAKE CT","zip code":"80919","id":"a6touk3wtfuv","geo_precision":"range","state":"Colorado"},"type":"Feature","geometry":{"type":"Point","coordinates":[-104.874605,38.91319]}},{"properties":{"city":"Colorado Springs","remarks":"Total Loss","fire":"Waldo Canyon Fire","geo_score":0.897,"street address":"2531 MIRROR LAKE CT","zip code":"80919","id":"a6toukgtaeu7","geo_precision":"range","state":"Colorado"},"type":"Feature","geometry":{"type":"Point","coordinates":[-104.87455,38.913051]}},{"properties":{"city":"Colorado Springs","remarks":"Total Loss","fire":"Waldo Canyon Fire","geo_score":0.897,"street address":"2535 MIRROR LAKE CT","zip code":"80919","id":"a6touk3wub26","geo_precision":"range","state":"Colorado"},"type":"Feature","geometry":{"type":"Point","coordinates":[-104.874523,38.913061]}},{"properties":{"city":"Colorado Springs","remarks":"Total Loss","fire":"Waldo Canyon Fire","geo_score":0.897,"street address":"2537 MIRROR LAKE CT","zip code":"80919","id":"a6toukezr9l5","geo_precision":"range","state":"Colorado"},"type":"Feature","geometry":{"type":"Point","coordinates":[-104.87451,38.913066]}},{"properties":{"city":"Colorado Springs","remarks":"Total Loss","fire":"Waldo Canyon Fire","geo_score":0.897,"street address":"2539 MIRROR LAKE CT","zip code":"80919","id":"a6toukb8jr8g","geo_precision":"range","state":"Colorado"},"type":"Feature","geometry":{"type":"Point","coordinates":[-104.874497,38.913071]}},{"properties":{"city":"Colorado Springs","remarks":"Total Loss","fire":"Waldo Canyon Fire","geo_score":0.897,"street address":"2540 MIRROR LAKE CT","zip code":"80919","id":"a6toukfeh314","geo_precision":"range","state":"Colorado"},"type":"Feature","geometry":{"type":"Point","coordinates":[-104.87454,38.913216]}},{"properties":{"city":"Colorado Springs","remarks":"Total Loss","fire":"Waldo Canyon Fire","geo_score":0.897,"street address":"2541 MIRROR LAKE CT","zip code":"80919","id":"a6toukawth85","geo_precision":"range","state":"Colorado"},"type":"Feature","geometry":{"type":"Point","coordinates":[-104.874484,38.913077]}},{"properties":{"city":"Colorado Springs","remarks":"Total Loss","fire":"Waldo Canyon Fire","geo_score":0.897,"street address":"2550 MIRROR LAKE CT","zip code":"80919","id":"a6toukdxmwes","geo_precision":"range","state":"Colorado"},"type":"Feature","geometry":{"type":"Point","coordinates":[-104.874475,38.913242]}},{"properties":{"city":"Colorado Springs","remarks":"Total Loss","fire":"Waldo Canyon Fire","geo_score":0.897,"street address":"2560 MIRROR LAKE CT","zip code":"80919","id":"a6toukaqrgml","geo_precision":"range","state":"Colorado"},"type":"Feature","geometry":{"type":"Point","coordinates":[-104.87441,38.913268]}},{"properties":{"city":"Colorado Springs","remarks":"Total Loss","fire":"Waldo Canyon Fire","geo_score":0.897,"street address":"2570 MIRROR LAKE CT","zip code":"80919","id":"a6touk55ka4a","geo_precision":"range","state":"Colorado"},"type":"Feature","geometry":{"type":"Point","coordinates":[-104.874344,38.913294]}},{"properties":{"city":"Colorado Springs","remarks":"Total Loss","fire":"Waldo Canyon Fire","geo_score":0.897,"street address":"5830 RAVINA CT","zip code":"80919","id":"a6touk3hm0ve","geo_precision":"range","state":"Colorado"},"type":"Feature","geometry":{"type":"Point","coordinates":[-104.87624,38.919693]}},{"properties":{"city":"Colorado Springs","remarks":"Total Loss","fire":"Waldo Canyon Fire","geo_score":0.897,"street address":"5840 RAVINA CT","zip code":"80919","id":"a6touk5wn0rr","geo_precision":"range","state":"Colorado"},"type":"Feature","geometry":{"type":"Point","coordinates":[-104.876237,38.91961]}},{"properties":{"city":"Colorado Springs","remarks":"Total Loss","fire":"Waldo Canyon Fire","geo_score":0.852,"street address":"5745 REGAL VIEW RD","zip code":"80919","id":"a6toukek2csa","geo_precision":"range","state":"Colorado"},"type":"Feature","geometry":{"type":"Point","coordinates":[-104.871931,38.9179]}},{"properties":{"city":"Colorado Springs","remarks":"Total Loss","fire":"Waldo Canyon Fire","geo_score":0.897,"street address":"2575 ROSSMERE ST","zip code":"80919","id":"a6touk3k77ap","geo_precision":"range","state":"Colorado"},"type":"Feature","geometry":{"type":"Point","coordinates":[-104.87141,38.923124]}},{"properties":{"city":"Colorado Springs","remarks":"Total Loss","fire":"Waldo Canyon Fire","geo_score":0.897,"street address":"2595 ROSSMERE ST","zip code":"80919","id":"a6touk7d86pw","geo_precision":"range","state":"Colorado"},"type":"Feature","geometry":{"type":"Point","coordinates":[-104.870812,38.923]}},{"properties":{"city":"Colorado Springs","remarks":"Total Loss","fire":"Waldo Canyon Fire","geo_score":0.897,"street address":"2615 ROSSMERE ST","zip code":"80919","id":"a6toukh6kgi4","geo_precision":"range","state":"Colorado"},"type":"Feature","geometry":{"type":"Point","coordinates":[-104.878591,38.923641]}},{"properties":{"city":"Colorado Springs","remarks":"Total Loss","fire":"Waldo Canyon Fire","geo_score":0.897,"street address":"2625 ROSSMERE ST","zip code":"80919","id":"a6touk7bc9so","geo_precision":"range","state":"Colorado"},"type":"Feature","geometry":{"type":"Point","coordinates":[-104.878185,38.923692]}},{"properties":{"city":"Colorado Springs","remarks":"Total Loss","fire":"Waldo Canyon Fire","geo_score":0.897,"street address":"2680 ROSSMERE ST","zip code":"80919","id":"a6toukemjysv","geo_precision":"range","state":"Colorado"},"type":"Feature","geometry":{"type":"Point","coordinates":[-104.879618,38.92331]}},{"properties":{"city":"Colorado Springs","remarks":"Total Loss","fire":"Waldo Canyon Fire","geo_score":0.897,"street address":"2805 ROSSMERE ST","zip code":"80919","id":"a6touk84czod","geo_precision":"range","state":"Colorado"},"type":"Feature","geometry":{"type":"Point","coordinates":[-104.87963,38.918519]}},{"properties":{"city":"Colorado Springs","remarks":"Total Loss","fire":"Waldo Canyon Fire","geo_score":0.897,"street address":"2860 ROSSMERE ST","zip code":"80919","id":"a6touk6860wi","geo_precision":"range","state":"Colorado"},"type":"Feature","geometry":{"type":"Point","coordinates":[-104.879997,38.916714]}},{"properties":{"city":"Colorado Springs","remarks":"Total Loss","fire":"Waldo Canyon Fire","geo_score":0.897,"street address":"2910 ROSSMERE ST","zip code":"80919","id":"a6touk93bmwd","geo_precision":"range","state":"Colorado"},"type":"Feature","geometry":{"type":"Point","coordinates":[-104.880137,38.915]}},{"properties":{"city":"Colorado Springs","remarks":"Total Loss","fire":"Waldo Canyon Fire","geo_score":0.897,"street address":"2920 ROSSMERE ST","zip code":"80919","id":"a6touk4de9qm","geo_precision":"range","state":"Colorado"},"type":"Feature","geometry":{"type":"Point","coordinates":[-104.88009,38.915152]}},{"properties":{"city":"Colorado Springs","remarks":"Total Loss","fire":"Waldo Canyon Fire","geo_score":0.897,"street address":"6320 SANDRAY CT","zip code":"80919","id":"a6touk64ll9h","geo_precision":"range","state":"Colorado"},"type":"Feature","geometry":{"type":"Point","coordinates":[-104.881161,38.923457]}},{"properties":{"city":"Colorado Springs","remarks":"Total Loss","fire":"Waldo Canyon Fire","geo_score":0.897,"street address":"6330 SANDRAY CT","zip code":"80919","id":"a6toukc2199m","geo_precision":"range","state":"Colorado"},"type":"Feature","geometry":{"type":"Point","coordinates":[-104.88145,38.923424]}},{"properties":{"city":"Colorado Springs","remarks":"Total Loss","fire":"Waldo Canyon Fire","geo_score":0.897,"street address":"6375 SANDRAY CT","zip code":"80919","id":"a6toukhizqm2","geo_precision":"range","state":"Colorado"},"type":"Feature","geometry":{"type":"Point","coordinates":[-104.882151,38.922718]}},{"properties":{"city":"Colorado Springs","remarks":"Total Loss","fire":"Waldo Canyon Fire","geo_score":0.897,"street address":"6385 SANDRAY CT","zip code":"80919","id":"a6touk792vv4","geo_precision":"range","state":"Colorado"},"type":"Feature","geometry":{"type":"Point","coordinates":[-104.882165,38.922524]}},{"properties":{"city":"Colorado Springs","remarks":"Total Loss","fire":"Waldo Canyon Fire","geo_score":0.897,"street address":"2645 STONERIDGE DR","zip code":"80919","id":"a6touk6wav0g","geo_precision":"range","state":"Colorado"},"type":"Feature","geometry":{"type":"Point","coordinates":[-104.872325,38.906777]}},{"properties":{"city":"Colorado Springs","remarks":"Total Loss","fire":"Waldo Canyon Fire","geo_score":0.897,"street address":"2530 TALLESON CT","zip code":"80919","id":"a6touk4msnqv","geo_precision":"range","state":"Colorado"},"type":"Feature","geometry":{"type":"Point","coordinates":[-104.876175,38.924211]}},{"properties":{"city":"Colorado Springs","remarks":"Total Loss","fire":"Waldo Canyon Fire","geo_score":0.897,"street address":"2540 TALLESON CT","zip code":"80919","id":"a6toukfq1dh1","geo_precision":"range","state":"Colorado"},"type":"Feature","geometry":{"type":"Point","coordinates":[-104.876549,38.924205]}},{"properties":{"city":"Colorado Springs","remarks":"Total Loss","fire":"Waldo Canyon Fire","geo_score":0.897,"street address":"2550 TALLESON CT","zip code":"80919","id":"a6toukdvbd32","geo_precision":"range","state":"Colorado"},"type":"Feature","geometry":{"type":"Point","coordinates":[-104.876897,38.924135]}},{"properties":{"city":"Colorado Springs","remarks":"Total Loss","fire":"Waldo Canyon Fire","geo_score":0.897,"street address":"2560 TALLESON CT","zip code":"80919","id":"a6toukhok5i9","geo_precision":"range","state":"Colorado"},"type":"Feature","geometry":{"type":"Point","coordinates":[-104.877078,38.923925]}},{"properties":{"city":"Colorado Springs","remarks":"Total Loss","fire":"Waldo Canyon Fire","geo_score":0.897,"street address":"2570 TALLESON CT","zip code":"80919","id":"a6toukaqgo4z","geo_precision":"range","state":"Colorado"},"type":"Feature","geometry":{"type":"Point","coordinates":[-104.877177,38.923721]}},{"properties":{"city":"Colorado Springs","remarks":"Total Loss","fire":"Waldo Canyon Fire","geo_score":0.867,"street address":"2510 TAMORA WY","zip code":"80919","id":"a6toukhj2rky","geo_precision":"range","state":"Colorado"},"type":"Feature","geometry":{"type":"Point","coordinates":[-104.876027,38.918981]}},{"properties":{"city":"Colorado Springs","remarks":"Total Loss","fire":"Waldo Canyon Fire","geo_score":0.867,"street address":"2530 TAMORA WY","zip code":"80919","id":"a6touk6yq16g","geo_precision":"range","state":"Colorado"},"type":"Feature","geometry":{"type":"Point","coordinates":[-104.875224,38.918876]}},{"properties":{"city":"Colorado Springs","remarks":"Total Loss","fire":"Waldo Canyon Fire","geo_score":0.867,"street address":"2620 TAMORA WY","zip code":"80919","id":"a6toukazg6v1","geo_precision":"range","state":"Colorado"},"type":"Feature","geometry":{"type":"Point","coordinates":[-104.87809,38.919628]}},{"properties":{"city":"Colorado Springs","remarks":"Total Loss","fire":"Waldo Canyon Fire","geo_score":0.897,"street address":"2510 TREVOR LN","zip code":"80919","id":"a6touk2ty2k2","geo_precision":"range","state":"Colorado"},"type":"Feature","geometry":{"type":"Point","coordinates":[-104.876418,38.925639]}},{"properties":{"city":"Colorado Springs","remarks":"Total Loss","fire":"Waldo Canyon Fire","geo_score":0.897,"street address":"2530 TREVOR LN","zip code":"80919","id":"a6toukc39e5h","geo_precision":"range","state":"Colorado"},"type":"Feature","geometry":{"type":"Point","coordinates":[-104.876817,38.925576]}},{"properties":{"city":"Colorado Springs","remarks":"Total Loss","fire":"Waldo Canyon Fire","geo_score":0.897,"street address":"2535 TREVOR LN","zip code":"80919","id":"a6toukdgdkvv","geo_precision":"range","state":"Colorado"},"type":"Feature","geometry":{"type":"Point","coordinates":[-104.876867,38.925417]}},{"properties":{"city":"Colorado Springs","remarks":"Total Loss","fire":"Waldo Canyon Fire","geo_score":0.897,"street address":"2545 TREVOR LN","zip code":"80919","id":"a6touk9hs8ti","geo_precision":"range","state":"Colorado"},"type":"Feature","geometry":{"type":"Point","coordinates":[-104.877184,38.925391]}},{"properties":{"city":"Colorado Springs","remarks":"Total Loss","fire":"Waldo Canyon Fire","geo_score":0.897,"street address":"2555 TREVOR LN","zip code":"80919","id":"a6touk42e1le","geo_precision":"range","state":"Colorado"},"type":"Feature","geometry":{"type":"Point","coordinates":[-104.877366,38.92537]}},{"properties":{"city":"Colorado Springs","remarks":"Total Loss","fire":"Waldo Canyon Fire","geo_score":0.897,"street address":"2565 TREVOR LN","zip code":"80919","id":"a6toukh6j4zd","geo_precision":"range","state":"Colorado"},"type":"Feature","geometry":{"type":"Point","coordinates":[-104.877548,38.925349]}},{"properties":{"city":"Colorado Springs","remarks":"Total Loss","fire":"Waldo Canyon Fire","geo_score":0.897,"street address":"2575 TREVOR LN","zip code":"80919","id":"a6touki1pl6p","geo_precision":"range","state":"Colorado"},"type":"Feature","geometry":{"type":"Point","coordinates":[-104.877868,38.925319]}},{"properties":{"city":"Colorado Springs","remarks":"Total Loss","fire":"Waldo Canyon Fire","geo_score":0.897,"street address":"2615 TREVOR LN","zip code":"80919","id":"a6touk84j251","geo_precision":"range","state":"Colorado"},"type":"Feature","geometry":{"type":"Point","coordinates":[-104.878481,38.924895]}},{"properties":{"city":"Colorado Springs","remarks":"Total Loss","fire":"Waldo Canyon Fire","geo_score":0.897,"street address":"2635 TREVOR LN","zip code":"80919","id":"a6toukfnl2qm","geo_precision":"range","state":"Colorado"},"type":"Feature","geometry":{"type":"Point","coordinates":[-104.878889,38.924643]}},{"properties":{"city":"Colorado Springs","remarks":"Total Loss","fire":"Waldo Canyon Fire","geo_score":0.897,"street address":"2640 TREVOR LN","zip code":"80919","id":"a6touk52m0as","geo_precision":"range","state":"Colorado"},"type":"Feature","geometry":{"type":"Point","coordinates":[-104.879115,38.924664]}},{"properties":{"city":"Colorado Springs","remarks":"Total Loss","fire":"Waldo Canyon Fire","geo_score":0.86,"street address":"5542 VANTAGE VISTA DR","zip code":"80919","id":"a6toukf74nmj","geo_precision":"range","state":"Colorado"},"type":"Feature","geometry":{"type":"Point","coordinates":[-104.870515,38.913872]}},{"properties":{"city":"Colorado Springs","remarks":"Total Loss","fire":"Waldo Canyon Fire","geo_score":0.86,"street address":"5548 VANTAGE VISTA DR","zip code":"80919","id":"a6toukdc14et","geo_precision":"range","state":"Colorado"},"type":"Feature","geometry":{"type":"Point","coordinates":[-104.870699,38.913988]}},{"properties":{"city":"Colorado Springs","remarks":"Total Loss","fire":"Waldo Canyon Fire","geo_score":0.86,"street address":"5554 VANTAGE VISTA DR","zip code":"80919","id":"a6touk5qs4sq","geo_precision":"range","state":"Colorado"},"type":"Feature","geometry":{"type":"Point","coordinates":[-104.870988,38.914092]}},{"properties":{"city":"Colorado Springs","remarks":"Total Loss","fire":"Waldo Canyon Fire","geo_score":0.86,"street address":"5560 VANTAGE VISTA DR","zip code":"80919","id":"a6touk8kntpa","geo_precision":"range","state":"Colorado"},"type":"Feature","geometry":{"type":"Point","coordinates":[-104.871226,38.914177]}},{"properties":{"city":"Colorado Springs","remarks":"Total Loss","fire":"Waldo Canyon Fire","geo_score":0.86,"street address":"5578 VANTAGE VISTA DR","zip code":"80919","id":"a6toukhdv7bh","geo_precision":"range","state":"Colorado"},"type":"Feature","geometry":{"type":"Point","coordinates":[-104.87197,38.914407]}},{"properties":{"city":"Colorado Springs","remarks":"Total Loss","fire":"Waldo Canyon Fire","geo_score":0.86,"street address":"5620 VANTAGE VISTA DR","zip code":"80919","id":"a6touke8fhs7","geo_precision":"range","state":"Colorado"},"type":"Feature","geometry":{"type":"Point","coordinates":[-104.873312,38.914337]}},{"properties":{"city":"Colorado Springs","remarks":"Total Loss","fire":"Waldo Canyon Fire","geo_score":0.86,"street address":"5630 VANTAGE VISTA DR","zip code":"80919","id":"a6toukdov9qc","geo_precision":"range","state":"Colorado"},"type":"Feature","geometry":{"type":"Point","coordinates":[-104.873503,38.91441]}},{"properties":{"city":"Colorado Springs","remarks":"Total Loss","fire":"Waldo Canyon Fire","geo_score":0.86,"street address":"5635 VANTAGE VISTA DR","zip code":"80919","id":"a6toukh7vrf7","geo_precision":"range","state":"Colorado"},"type":"Feature","geometry":{"type":"Point","coordinates":[-104.873483,38.914574]}},{"properties":{"city":"Colorado Springs","remarks":"Total Loss","fire":"Waldo Canyon Fire","geo_score":0.86,"street address":"5640 VANTAGE VISTA DR","zip code":"80919","id":"a6toukdky8n1","geo_precision":"range","state":"Colorado"},"type":"Feature","geometry":{"type":"Point","coordinates":[-104.873681,38.914561]}},{"properties":{"city":"Colorado Springs","remarks":"Total Loss","fire":"Waldo Canyon Fire","geo_score":0.86,"street address":"5645 VANTAGE VISTA DR","zip code":"80919","id":"a6toukgj8uh7","geo_precision":"range","state":"Colorado"},"type":"Feature","geometry":{"type":"Point","coordinates":[-104.873588,38.914696]}},{"properties":{"city":"Colorado Springs","remarks":"Total Loss","fire":"Waldo Canyon Fire","geo_score":0.86,"street address":"5650 VANTAGE VISTA DR","zip code":"80919","id":"a6toukfmgq0g","geo_precision":"range","state":"Colorado"},"type":"Feature","geometry":{"type":"Point","coordinates":[-104.873784,38.914728]}},{"properties":{"city":"Colorado Springs","remarks":"Total Loss","fire":"Waldo Canyon Fire","geo_score":0.86,"street address":"5655 VANTAGE VISTA DR","zip code":"80919","id":"a6toukanyrvr","geo_precision":"range","state":"Colorado"},"type":"Feature","geometry":{"type":"Point","coordinates":[-104.873669,38.914844]}},{"properties":{"city":"Colorado Springs","remarks":"Total Loss","fire":"Waldo Canyon Fire","geo_score":0.86,"street address":"5660 VANTAGE VISTA DR","zip code":"80919","id":"a6touk1y35c3","geo_precision":"range","state":"Colorado"},"type":"Feature","geometry":{"type":"Point","coordinates":[-104.873844,38.91488]}},{"properties":{"city":"Colorado Springs","remarks":"Total Loss","fire":"Waldo Canyon Fire","geo_score":0.86,"street address":"5665 VANTAGE VISTA DR","zip code":"80919","id":"a6toukddkyba","geo_precision":"range","state":"Colorado"},"type":"Feature","geometry":{"type":"Point","coordinates":[-104.873729,38.914996]}},{"properties":{"city":"Colorado Springs","remarks":"Total Loss","fire":"Waldo Canyon Fire","geo_score":0.86,"street address":"5670 VANTAGE VISTA DR","zip code":"80919","id":"a6touk4jazhw","geo_precision":"range","state":"Colorado"},"type":"Feature","geometry":{"type":"Point","coordinates":[-104.873932,38.915038]}},{"properties":{"city":"Colorado Springs","remarks":"Total Loss","fire":"Waldo Canyon Fire","geo_score":0.86,"street address":"5675 VANTAGE VISTA DR","zip code":"80919","id":"a6touk6mtgha","geo_precision":"range","state":"Colorado"},"type":"Feature","geometry":{"type":"Point","coordinates":[-104.873808,38.915146]}},{"properties":{"city":"Colorado Springs","remarks":"Total Loss","fire":"Waldo Canyon Fire","geo_score":0.86,"street address":"5680 VANTAGE VISTA DR","zip code":"80919","id":"a6touka7w8yj","geo_precision":"range","state":"Colorado"},"type":"Feature","geometry":{"type":"Point","coordinates":[-104.873995,38.915194]}},{"properties":{"city":"Colorado Springs","remarks":"Total Loss","fire":"Waldo Canyon Fire","geo_score":0.897,"street address":"5435 WILSON RD","zip code":"80919","id":"a6touk6xbrtp","geo_precision":"range","state":"Colorado"},"type":"Feature","geometry":{"type":"Point","coordinates":[-104.870202,38.909671]}},{"properties":{"city":"Colorado Springs","remarks":"Total Loss","fire":"Waldo Canyon Fire","geo_score":0.897,"street address":"5445 WILSON RD","zip code":"80919","id":"a6toukamfa7m","geo_precision":"range","state":"Colorado"},"type":"Feature","geometry":{"type":"Point","coordinates":[-104.870244,38.90938]}},{"properties":{"city":"Colorado Springs","remarks":"Total Loss","fire":"Waldo Canyon Fire","geo_score":0.897,"street address":"5545 WILSON RD","zip code":"80919","id":"a6toukclyqpr","geo_precision":"range","state":"Colorado"},"type":"Feature","geometry":{"type":"Point","coordinates":[-104.871793,38.911764]}},{"properties":{"city":"Colorado Springs","remarks":"Total Loss","fire":"Waldo Canyon Fire","geo_score":0.897,"street address":"5610 WILSON RD","zip code":"80919","id":"a6touk4udsli","geo_precision":"range","state":"Colorado"},"type":"Feature","geometry":{"type":"Point","coordinates":[-104.873289,38.9151]}},{"properties":{"city":"Colorado Springs","remarks":"Total Loss","fire":"Waldo Canyon Fire","geo_score":0.897,"street address":"5618 WILSON RD","zip code":"80919","id":"a6touki1q6p6","geo_precision":"range","state":"Colorado"},"type":"Feature","geometry":{"type":"Point","coordinates":[-104.873268,38.915041]}},{"properties":{"city":"Colorado Springs","remarks":"Total Loss","fire":"Waldo Canyon Fire","geo_score":0.897,"street address":"5624 WILSON RD","zip code":"80919","id":"a6touk1ogutl","geo_precision":"range","state":"Colorado"},"type":"Feature","geometry":{"type":"Point","coordinates":[-104.873237,38.914996]}},{"properties":{"city":"Colorado Springs","remarks":"Total Loss","fire":"Waldo Canyon Fire","geo_score":0.897,"street address":"5630 WILSON RD","zip code":"80919","id":"a6toukhkazri","geo_precision":"range","state":"Colorado"},"type":"Feature","geometry":{"type":"Point","coordinates":[-104.873222,38.914952]}},{"properties":{"city":"Colorado Springs","remarks":"Total Loss","fire":"Waldo Canyon Fire","geo_score":0.897,"street address":"5945 WILSON RD","zip code":"80919","id":"a6toukfp3sfa","geo_precision":"range","state":"Colorado"},"type":"Feature","geometry":{"type":"Point","coordinates":[-104.875372,38.92173]}},{"properties":{"city":"Colorado Springs","remarks":"Total Loss","fire":"Waldo Canyon Fire","geo_score":0.897,"street address":"5960 WILSON RD","zip code":"80919","id":"a6touk2tphw3","geo_precision":"range","state":"Colorado"},"type":"Feature","geometry":{"type":"Point","coordinates":[-104.875666,38.921769]}},{"properties":{"city":"Colorado Springs","remarks":"Total Loss","fire":"Waldo Canyon Fire","geo_score":0.897,"street address":"6025 WILSON RD","zip code":"80919","id":"a6touk8b5jhh","geo_precision":"range","state":"Colorado"},"type":"Feature","geometry":{"type":"Point","coordinates":[-104.876675,38.922377]}},{"properties":{"city":"Colorado Springs","remarks":"Total Loss","fire":"Waldo Canyon Fire","geo_score":0.897,"street address":"6045 WILSON RD","zip code":"80919","id":"a6touk5288vo","geo_precision":"range","state":"Colorado"},"type":"Feature","geometry":{"type":"Point","coordinates":[-104.877052,38.922404]}},{"properties":{"city":"Colorado Springs","remarks":"Total Loss","fire":"Waldo Canyon Fire","geo_score":0.897,"street address":"6055 WILSON RD","zip code":"80919","id":"a6toukex20yp","geo_precision":"range","state":"Colorado"},"type":"Feature","geometry":{"type":"Point","coordinates":[-104.877198,38.922404]}},{"properties":{"city":"Colorado Springs","remarks":"Total Loss","fire":"Waldo Canyon Fire","geo_score":0.897,"street address":"6130 WILSON RD","zip code":"80919","id":"a6toukgkniy4","geo_precision":"range","state":"Colorado"},"type":"Feature","geometry":{"type":"Point","coordinates":[-104.878609,38.922135]}},{"properties":{"city":"Colorado Springs","remarks":"Total Loss","fire":"Waldo Canyon Fire","geo_score":0.897,"street address":"6140 WILSON RD","zip code":"80919","id":"a6touk3x0lrw","geo_precision":"range","state":"Colorado"},"type":"Feature","geometry":{"type":"Point","coordinates":[-104.878834,38.922169]}},{"properties":{"city":"Colorado Springs","remarks":"Total Loss","fire":"Waldo Canyon Fire","geo_score":0.897,"street address":"6315 WILSON RD","zip code":"80919","id":"a6touk2g0sd8","geo_precision":"range","state":"Colorado"},"type":"Feature","geometry":{"type":"Point","coordinates":[-104.883361,38.92142]}},{"properties":{"city":"Colorado Springs","remarks":"Total Loss","fire":"Waldo Canyon Fire","geo_score":0.897,"street address":"6325 WILSON RD","zip code":"80919","id":"a6touk5m0c58","geo_precision":"range","state":"Colorado"},"type":"Feature","geometry":{"type":"Point","coordinates":[-104.88341,38.921604]}},{"properties":{"city":"Colorado Springs","remarks":"Total Loss","fire":"Waldo Canyon Fire","geo_score":0.897,"street address":"2215 YANKTON PL","zip code":"80919","id":"a6touk37q1pi","geo_precision":"range","state":"Colorado"},"type":"Feature","geometry":{"type":"Point","coordinates":[-104.869038,38.923654]}},{"properties":{"city":"Colorado Springs","remarks":"Total Loss","fire":"Waldo Canyon Fire","geo_score":0.897,"street address":"2220 YANKTON PL","zip code":"80919","id":"a6touk4b8tyj","geo_precision":"range","state":"Colorado"},"type":"Feature","geometry":{"type":"Point","coordinates":[-104.868905,38.923807]}},{"properties":{"city":"Colorado Springs","remarks":"Total Loss","fire":"Waldo Canyon Fire","geo_score":0.897,"street address":"2225 YANKTON PL","zip code":"80919","id":"a6toukbzvm2a","geo_precision":"range","state":"Colorado"},"type":"Feature","geometry":{"type":"Point","coordinates":[-104.868857,38.923657]}},{"properties":{"city":"Colorado Springs","remarks":"Total Loss","fire":"Waldo Canyon Fire","geo_score":0.897,"street address":"2230 YANKTON PL","zip code":"80919","id":"a6toukc7hiru","geo_precision":"range","state":"Colorado"},"type":"Feature","geometry":{"type":"Point","coordinates":[-104.868785,38.923807]}},{"properties":{"city":"Colorado Springs","remarks":"Total Loss","fire":"Waldo Canyon Fire","geo_score":0.897,"street address":"2235 YANKTON PL","zip code":"80919","id":"a6touk3ue16p","geo_precision":"range","state":"Colorado"},"type":"Feature","geometry":{"type":"Point","coordinates":[-104.868737,38.923656]}},{"properties":{"city":"Colorado Springs","remarks":"Total Loss","fire":"Waldo Canyon Fire","geo_score":0.897,"street address":"2240 YANKTON PL","zip code":"80919","id":"a6touk57cent","geo_precision":"range","state":"Colorado"},"type":"Feature","geometry":{"type":"Point","coordinates":[-104.868665,38.923806]}},{"properties":{"city":"Colorado Springs","remarks":"Total Loss","fire":"Waldo Canyon Fire","geo_score":0.897,"street address":"2250 YANKTON PL","zip code":"80919","id":"a6touk2dplat","geo_precision":"range","state":"Colorado"},"type":"Feature","geometry":{"type":"Point","coordinates":[-104.868462,38.923802]}},{"properties":{"city":"Colorado Springs","remarks":"Total Loss","fire":"Waldo Canyon Fire","geo_score":0.897,"street address":"2255 YANKTON PL","zip code":"80919","id":"a6toukfwg355","geo_precision":"range","state":"Colorado"},"type":"Feature","geometry":{"type":"Point","coordinates":[-104.868422,38.92365]}},{"properties":{"city":"Colorado Springs","remarks":"Total Loss","fire":"Waldo Canyon Fire","geo_score":0.897,"street address":"2260 YANKTON PL","zip code":"80919","id":"a6toukf6o0sj","geo_precision":"range","state":"Colorado"},"type":"Feature","geometry":{"type":"Point","coordinates":[-104.868343,38.923796]}},{"properties":{"city":"Colorado Springs","remarks":"Total Loss","fire":"Waldo Canyon Fire","geo_score":0.897,"street address":"2265 YANKTON PL","zip code":"80919","id":"a6touk4uh419","geo_precision":"range","state":"Colorado"},"type":"Feature","geometry":{"type":"Point","coordinates":[-104.868302,38.923644]}},{"properties":{"city":"Colorado Springs","remarks":"Total Loss","fire":"Waldo Canyon Fire","geo_score":0.897,"street address":"2270 YANKTON PL","zip code":"80919","id":"a6toukabah8n","geo_precision":"range","state":"Colorado"},"type":"Feature","geometry":{"type":"Point","coordinates":[-104.868223,38.923791]}},{"properties":{"city":"Colorado Springs","remarks":"Total Loss","fire":"Waldo Canyon Fire","geo_score":0.897,"street address":"2275 YANKTON PL","zip code":"80919","id":"a6touk2qvqqf","geo_precision":"range","state":"Colorado"},"type":"Feature","geometry":{"type":"Point","coordinates":[-104.868182,38.923639]}}],"is_temporal":false,"author":{"url":"","metadata":"","contact_name":"","contact_address":"","source":"","contact_phone":""},"source":"","pagination":{"sort":null,"start":0,"total":334,"limit":1000000},"state":"complete","tags":"","published":"2014-08-15T01:56:44-04:00","id":258099}