{"type":"FeatureCollection","data_type":"Dataset","url_type":null,"permissions":[{"permissions":{"download":true,"view":true},"group_id":"everyone"}],"classification":null,"title":"with zips","count":30,"stream_id":258097,"contributor":{"url":"http://geocommons.com/users/28467","name":"bheberto"},"data_attributes":null,"calculation_params":null,"icon_link":null,"link":"http://geocommons.com/overlays/258097.json","extent":[-104.885,38.9048,-104.868,38.9252],"geometry_types":["point"],"unique_name":null,"name":"with zips","feature_count":30,"description":"","next_feature":null,"is_raster":false,"short_classification":"Y","stats":{},"features":[{"properties":{"city":"Colorado Springs","remarks":"Total Loss","fire":"Waldo Canyon Fire","geo_score":0.897,"street address":"6020 ASHTON PARK PL","zip code":"80919","id":"a6tocfom5ux8","geo_precision":"range","state":"Colorado"},"type":"Feature","geometry":{"type":"Point","coordinates":[-104.872113,38.91967]}},{"properties":{"city":"Colorado Springs","remarks":"Total Loss","fire":"Waldo Canyon Fire","geo_score":0.897,"street address":"6030 ASHTON PARK PL","zip code":"80919","id":"a6tocfan48wn","geo_precision":"range","state":"Colorado"},"type":"Feature","geometry":{"type":"Point","coordinates":[-104.871974,38.91967]}},{"properties":{"city":"Colorado Springs","remarks":"Total Loss","fire":"Waldo Canyon Fire","geo_score":0.897,"street address":"6040 ASHTON PARK PL","zip code":"80919","id":"a6tocfj9zszr","geo_precision":"range","state":"Colorado"},"type":"Feature","geometry":{"type":"Point","coordinates":[-104.871682,38.919671]}},{"properties":{"city":"Colorado Springs","remarks":"Total Loss","fire":"Waldo Canyon Fire","geo_score":0.897,"street address":"6320 ALABASTER WAY","zip code":"80919","id":"a6tocfoshsnu","geo_precision":"range","state":"Colorado"},"type":"Feature","geometry":{"type":"Point","coordinates":[-104.884563,38.922686]}},{"properties":{"city":"Colorado Springs","remarks":"Total Loss","fire":"Waldo Canyon Fire","geo_score":0.897,"street address":"6050 ASHTON PARK PL","zip code":"80919","id":"a6tocfn5o3ro","geo_precision":"range","state":"Colorado"},"type":"Feature","geometry":{"type":"Point","coordinates":[-104.87151,38.919677]}},{"properties":{"city":"Colorado Springs","remarks":"Total Loss","fire":"Waldo Canyon Fire","geo_score":0.897,"street address":"6060 ASHTON PARK PL","zip code":"80919","id":"a6tocfggnmve","geo_precision":"range","state":"Colorado"},"type":"Feature","geometry":{"type":"Point","coordinates":[-104.871352,38.919685]}},{"properties":{"city":"Colorado Springs","remarks":"Total Loss","fire":"Waldo Canyon Fire","geo_score":0.897,"street address":"6365 ASHTON PARK PL","zip code":"80919","id":"a6tocfhgxml2","geo_precision":"range","state":"Colorado"},"type":"Feature","geometry":{"type":"Point","coordinates":[-104.868045,38.922516]}},{"properties":{"city":"Colorado Springs","remarks":"Total Loss","fire":"Waldo Canyon Fire","geo_score":0.897,"street address":"6425 ASHTON PARK PL","zip code":"80919","id":"a6tocfo8tr5t","geo_precision":"range","state":"Colorado"},"type":"Feature","geometry":{"type":"Point","coordinates":[-104.867714,38.9233]}},{"properties":{"city":"Colorado Springs","remarks":"Total Loss","fire":"Waldo Canyon Fire","geo_score":0.897,"street address":"6435 ASHTON PARK PL","zip code":"80919","id":"a6tocfl9gk94","geo_precision":"range","state":"Colorado"},"type":"Feature","geometry":{"type":"Point","coordinates":[-104.867687,38.923461]}},{"properties":{"city":"Colorado Springs","remarks":"Total Loss","fire":"Waldo Canyon Fire","geo_score":0.897,"street address":"6445 ASHTON PARK PL","zip code":"80919","id":"a6tocfkno7i3","geo_precision":"range","state":"Colorado"},"type":"Feature","geometry":{"type":"Point","coordinates":[-104.867647,38.923623]}},{"properties":{"city":"Colorado Springs","remarks":"Total Loss","fire":"Waldo Canyon Fire","geo_score":0.897,"street address":"6455 ASHTON PARK PL","zip code":"80919","id":"a6tocflyri9x","geo_precision":"range","state":"Colorado"},"type":"Feature","geometry":{"type":"Point","coordinates":[-104.867618,38.923753]}},{"properties":{"city":"Colorado Springs","remarks":"Total Loss","fire":"Waldo Canyon Fire","geo_score":0.897,"street address":"6460 ASHTON PARK PL","zip code":"80919","id":"a6tocfnn1nzy","geo_precision":"range","state":"Colorado"},"type":"Feature","geometry":{"type":"Point","coordinates":[-104.867615,38.925249]}},{"properties":{"city":"Colorado Springs","remarks":"Total Loss","fire":"Waldo Canyon Fire","geo_score":0.897,"street address":"6465 ASHTON PARK PL","zip code":"80919","id":"a6tocf9p9ha8","geo_precision":"range","state":"Colorado"},"type":"Feature","geometry":{"type":"Point","coordinates":[-104.867592,38.92392]}},{"properties":{"city":"Colorado Springs","remarks":"Total Loss","fire":"Waldo Canyon Fire","geo_score":0.897,"street address":"6485 ASHTON PARK PL","zip code":"80919","id":"a6tocfgo09tx","geo_precision":"range","state":"Colorado"},"type":"Feature","geometry":{"type":"Point","coordinates":[-104.867631,38.924255]}},{"properties":{"city":"Colorado Springs","remarks":"Total Loss","fire":"Waldo Canyon Fire","geo_score":0.897,"street address":"6515 ASHTON PARK PL","zip code":"80919","id":"a6tocfo9w83o","geo_precision":"range","state":"Colorado"},"type":"Feature","geometry":{"type":"Point","coordinates":[-104.867549,38.924958]}},{"properties":{"city":"Colorado Springs","remarks":"Total Loss","fire":"Waldo Canyon Fire","geo_score":0.897,"street address":"6525 ASHTON PARK PL","zip code":"80919","id":"a6tocfkac3y0","geo_precision":"range","state":"Colorado"},"type":"Feature","geometry":{"type":"Point","coordinates":[-104.867555,38.924756]}},{"properties":{"city":"Colorado Springs","remarks":"Total Loss","fire":"Waldo Canyon Fire","geo_score":0.897,"street address":"5310 AUBREY WAY","zip code":"80919","id":"a6tocfbe7bty","geo_precision":"range","state":"Colorado"},"type":"Feature","geometry":{"type":"Point","coordinates":[-104.875355,38.909687]}},{"properties":{"city":"Colorado Springs","remarks":"Total Loss","fire":"Waldo Canyon Fire","geo_score":0.897,"street address":"5345 AUBREY WAY","zip code":"80919","id":"a6tocfek0k57","geo_precision":"range","state":"Colorado"},"type":"Feature","geometry":{"type":"Point","coordinates":[-104.875208,38.910109]}},{"properties":{"city":"Colorado Springs","remarks":"Total Loss","fire":"Waldo Canyon Fire","geo_score":0.897,"street address":"4975 BRAEBURN WAY","zip code":"80919","id":"a6tocfgvm2n2","geo_precision":"range","state":"Colorado"},"type":"Feature","geometry":{"type":"Point","coordinates":[-104.876494,38.904763]}},{"properties":{"city":"Colorado Springs","remarks":"Total Loss","fire":"Waldo Canyon Fire","geo_score":0.799,"street address":"2515 BROGANS BLUFF DR","zip code":"80919","id":"a6tocfcxu9va","geo_precision":"street","state":"Colorado"},"type":"Feature","geometry":{"type":"Point","coordinates":[-104.874594,38.921246]}},{"properties":{"city":"Colorado Springs","remarks":"Total Loss","fire":"Waldo Canyon Fire","geo_score":0.799,"street address":"2530 BROGANS BLUFF DR","zip code":"80919","id":"a6tocfmdv4i3","geo_precision":"street","state":"Colorado"},"type":"Feature","geometry":{"type":"Point","coordinates":[-104.87511,38.921099]}},{"properties":{"city":"Colorado Springs","remarks":"Total Loss","fire":"Waldo Canyon Fire","geo_score":0.799,"street address":"2545 BROGANS BLUFF DR","zip code":"80919","id":"a6tocfhbmuej","geo_precision":"street","state":"Colorado"},"type":"Feature","geometry":{"type":"Point","coordinates":[-104.880303,38.921417]}},{"properties":{"city":"Colorado Springs","remarks":"Total Loss","fire":"Waldo Canyon Fire","geo_score":0.799,"street address":"2554 BROGANS BLUFF DR","zip code":"80919","id":"a6tocfe4q3b6","geo_precision":"street","state":"Colorado"},"type":"Feature","geometry":{"type":"Point","coordinates":[-104.879808,38.921299]}},{"properties":{"city":"Colorado Springs","remarks":"Total Loss","fire":"Waldo Canyon Fire","geo_score":0.799,"street address":"2555 BROGANS BLUFF DR","zip code":"80919","id":"a6tocfle7ff1","geo_precision":"street","state":"Colorado"},"type":"Feature","geometry":{"type":"Point","coordinates":[-104.8798,38.921449]}},{"properties":{"city":"Colorado Springs","remarks":"Total Loss","fire":"Waldo Canyon Fire","geo_score":0.799,"street address":"2565 BROGANS BLUFF DR","zip code":"80919","id":"a6tocfcrf8hz","geo_precision":"street","state":"Colorado"},"type":"Feature","geometry":{"type":"Point","coordinates":[-104.879501,38.921447]}},{"properties":{"city":"Colorado Springs","remarks":"Total Loss","fire":"Waldo Canyon Fire","geo_score":0.799,"street address":"2570 BROGANS BLUFF DR","zip code":"80919","id":"a6tocfgj0xfo","geo_precision":"street","state":"Colorado"},"type":"Feature","geometry":{"type":"Point","coordinates":[-104.879081,38.921297]}},{"properties":{"city":"Colorado Springs","remarks":"Total Loss","fire":"Waldo Canyon Fire","geo_score":0.799,"street address":"2575 BROGANS BLUFF DR","zip code":"80919","id":"a6tocfaoav7s","geo_precision":"street","state":"Colorado"},"type":"Feature","geometry":{"type":"Point","coordinates":[-104.878948,38.921447]}},{"properties":{"city":"Colorado Springs","remarks":"Total Loss","fire":"Waldo Canyon Fire","geo_score":0.799,"street address":"2585 BROGANS BLUFF DR","zip code":"80919","id":"a6tocffeduci","geo_precision":"street","state":"Colorado"},"type":"Feature","geometry":{"type":"Point","coordinates":[-104.878617,38.921447]}},{"properties":{"city":"Colorado Springs","remarks":"Total Loss","fire":"Waldo Canyon Fire","geo_score":0.799,"street address":"2595 BROGANS BLUFF DR","zip code":"80919","id":"a6tocfd33kug","geo_precision":"street","state":"Colorado"},"type":"Feature","geometry":{"type":"Point","coordinates":[-104.878186,38.921447]}},{"properties":{"city":"Colorado Springs","remarks":"Total Loss","fire":"Waldo Canyon Fire","geo_score":0.799,"street address":"2620 BROGANS BLUFF DR","zip code":"80919","id":"a6tocfcajtbh","geo_precision":"street","state":"Colorado"},"type":"Feature","geometry":{"type":"Point","coordinates":[-104.876785,38.921304]}}],"is_temporal":false,"author":{"url":"","metadata":"","contact_name":"","contact_address":"","source":"","contact_phone":""},"source":"","pagination":{"sort":null,"start":0,"total":30,"limit":1000000},"state":"complete","tags":"","published":"2014-08-15T01:56:43-04:00","id":258097}