{"type":"FeatureCollection","data_type":"Dataset","url_type":null,"permissions":[{"permissions":{"download":true,"view":true},"group_id":"everyone"}],"classification":null,"title":"Garden_To_Go_Stops","count":16,"stream_id":258486,"contributor":{"url":"http://geocommons.com/users/48522","name":"aedonica"},"data_attributes":null,"calculation_params":null,"icon_link":null,"link":"http://geocommons.com/overlays/258486.json","extent":[-86.1713,39.7417,-86.1021,39.8965],"geometry_types":["point"],"unique_name":null,"name":"Garden_To_Go_Stops","feature_count":16,"description":"","next_feature":null,"is_raster":false,"short_classification":"Y","stats":{"time":{"max":"2030/01/01 17:00:00 -0500","variance":69120000.0,"mean":"2030/01/01 14:00:00 -0500","stdev":8313.84387633061,"min":"2030/01/01 11:00:00 -0500","median":"2030/01/01 15:00:00 -0500"}},"features":[{"properties":{"city":"Indianapolis","weekday":"Wednesday","stop":"John J. Barton Annex","time":{"end_time":"2030/01/01 12:00:00 -0500","original":"11:00 AM","granularity":"hour","time":"2030/01/01 11:00:00 -0500"},"column_7":null,"geo_score":0.5,"id":"a6v8s993co99","address":"501 N. East St.","geo_precision":"street","state":"IN"},"type":"Feature","geometry":{"type":"Point","coordinates":[-86.144644,39.74388]}},{"properties":{"city":"Indianapolis","weekday":"Wednesday","stop":"Indianapolis Senior Center","time":{"end_time":"2030/01/01 14:00:00 -0500","original":"1:00 PM","granularity":"hour","time":"2030/01/01 13:00:00 -0500"},"column_7":null,"geo_score":0.462,"id":"a6v8s8tuignn","address":"708 E. Michigan St","geo_precision":"street","state":"IN"},"type":"Feature","geometry":{"type":"Point","coordinates":[-86.156009,39.774071]}},{"properties":{"city":"Indianapolis","weekday":"Wednesday","stop":"Lugar Tower Apartments","time":{"end_time":"2030/01/01 16:00:00 -0500","original":"3:00 PM","granularity":"hour","time":"2030/01/01 15:00:00 -0500"},"column_7":null,"geo_score":0.902,"id":"a6v8s92if6hm","address":"901 Fort Wayne Ave","geo_precision":"range","state":"IN"},"type":"Feature","geometry":{"type":"Point","coordinates":[-86.151857,39.778636]}},{"properties":{"city":"Indianapolis","weekday":"Wednesday","stop":"La Plaza/CAFE","time":{"end_time":"2030/01/01 18:00:00 -0500","original":"5:00 PM","granularity":"hour","time":"2030/01/01 17:00:00 -0500"},"column_7":null,"geo_score":0.673,"id":"a6v8s978rwki","address":"38th St. and Post Rd","geo_precision":"street","state":"IN"},"type":"Feature","geometry":{"type":"Point","coordinates":[-86.117691,39.825319]}},{"properties":{"city":"Indianapolis","weekday":"Thursday","stop":"Goodwin Plaza Apartments","time":{"end_time":"2030/01/01 12:00:00 -0500","original":"11:00 AM","granularity":"hour","time":"2030/01/01 11:00:00 -0500"},"column_7":null,"geo_score":0.429,"id":"a6v8s8z81l1z","address":"601 W. St. Clair","geo_precision":"street","state":"IN"},"type":"Feature","geometry":{"type":"Point","coordinates":[-86.123926,39.801719]}},{"properties":{"city":"Indianapolis","weekday":"Thursday","stop":"Southeast Community Services","time":{"end_time":"2030/01/01 14:00:00 -0500","original":"1:00 PM","granularity":"hour","time":"2030/01/01 13:00:00 -0500"},"column_7":null,"geo_score":0.902,"id":"a6v8s8ur6mdl","address":"901 Shelby St.","geo_precision":"range","state":"IN"},"type":"Feature","geometry":{"type":"Point","coordinates":[-86.139794,39.753887]}},{"properties":{"city":"Indianapolis","weekday":"Thursday","stop":"Flanner House","time":{"end_time":"2030/01/01 16:00:00 -0500","original":"3:00 PM","granularity":"hour","time":"2030/01/01 15:00:00 -0500"},"column_7":null,"geo_score":0.551,"id":"a6v8s99rz7au","address":"2424 Dr. Martin Luther King Jr. Dr.","geo_precision":"street","state":"IN"},"type":"Feature","geometry":{"type":"Point","coordinates":[-86.170909,39.896533]}},{"properties":{"city":"Indianapolis","weekday":"Thursday","stop":"Mary Rigg Neighborhood Center","time":{"end_time":"2030/01/01 18:00:00 -0500","original":"5:00 PM","granularity":"hour","time":"2030/01/01 17:00:00 -0500"},"column_7":null,"geo_score":0.468,"id":"a6v8s905zlv3","address":"1920 W. Morris St.","geo_precision":"street","state":"IN"},"type":"Feature","geometry":{"type":"Point","coordinates":[-86.164377,39.751657]}},{"properties":{"city":"Indianapolis","weekday":"Friday","stop":"Blackburn Terrace","time":{"end_time":"2030/01/01 12:00:00 -0500","original":"11:00 AM","granularity":"hour","time":"2030/01/01 11:00:00 -0500"},"column_7":null,"geo_score":0.902,"id":"a6v8s98i9s0g","address":"3091 Baltimore Ave.","geo_precision":"range","state":"IN"},"type":"Feature","geometry":{"type":"Point","coordinates":[-86.126128,39.810845]}},{"properties":{"city":"Indianapolis","weekday":"Friday","stop":"Kenwood Place Apartments","time":{"end_time":"2030/01/01 14:00:00 -0500","original":"1:00 PM","granularity":"hour","time":"2030/01/01 13:00:00 -0500"},"column_7":null,"geo_score":0.476,"id":"a6v8s8utb45j","address":"105 W. 23rd St.","geo_precision":"street","state":"IN"},"type":"Feature","geometry":{"type":"Point","coordinates":[-86.159067,39.799096]}},{"properties":{"city":"Indianapolis","weekday":"Friday","stop":"Indiana Avenue Apartments","time":{"end_time":"2030/01/01 16:00:00 -0500","original":"3:00 PM","granularity":"hour","time":"2030/01/01 15:00:00 -0500"},"column_7":null,"geo_score":0.902,"id":"a6v8s902jar4","address":"825 Indiana Ave","geo_precision":"range","state":"IN"},"type":"Feature","geometry":{"type":"Point","coordinates":[-86.171301,39.778397]}},{"properties":{"city":"Indianapolis","weekday":"Friday","stop":"Haughville Library","time":{"end_time":"2030/01/01 18:00:00 -0500","original":"5:00 PM","granularity":"hour","time":"2030/01/01 17:00:00 -0500"},"column_7":null,"geo_score":0.462,"id":"a6v8s90kg4ij","address":"2121 W. Michigan St.","geo_precision":"street","state":"IN"},"type":"Feature","geometry":{"type":"Point","coordinates":[-86.158425,39.774125]}},{"properties":{"city":"Indianapolis","weekday":"Saturday","stop":"Shepherd Community Center","time":{"end_time":"2030/01/01 12:00:00 -0500","original":"11:00 AM","granularity":"hour","time":"2030/01/01 11:00:00 -0500"},"column_7":null,"geo_score":0.459,"id":"a6v8s935kem7","address":"4107 E. Washington St.","geo_precision":"street","state":"IN"},"type":"Feature","geometry":{"type":"Point","coordinates":[-86.168411,39.767345]}},{"properties":{"city":"Indianapolis","weekday":"Saturday","stop":"Spruce Manor Apartments","time":{"end_time":"2030/01/01 14:00:00 -0500","original":"1:00 PM","granularity":"hour","time":"2030/01/01 13:00:00 -0500"},"column_7":null,"geo_score":0.902,"id":"a6v8s8vyyyyw","address":"1840 Perkins Ave.","geo_precision":"range","state":"IN"},"type":"Feature","geometry":{"type":"Point","coordinates":[-86.111485,39.741719]}},{"properties":{"city":"Indianapolis","weekday":"Saturday","stop":"Mt. Zion Apartments","time":{"end_time":"2030/01/01 16:00:00 -0500","original":"3:00 PM","granularity":"hour","time":"2030/01/01 15:00:00 -0500"},"column_7":null,"geo_score":0.707,"id":"a6v8s98zph0r","address":"3655 Boulevard Place","geo_precision":"street","state":"IN"},"type":"Feature","geometry":{"type":"Point","coordinates":[-86.163021,39.793119]}},{"properties":{"city":"Indianapolis","weekday":"Saturday","stop":"Villages at Mill Crossing","time":{"end_time":"2030/01/01 18:00:00 -0500","original":"5:00 PM","granularity":"hour","time":"2030/01/01 17:00:00 -0500"},"column_7":null,"geo_score":0.572,"id":"a6v8s8wrdqba","address":"3615 Sherman Forest Dr.","geo_precision":"street","state":"IN"},"type":"Feature","geometry":{"type":"Point","coordinates":[-86.102125,39.879532]}}],"is_temporal":true,"author":{"url":"","metadata":"","contact_name":"","contact_address":"","source":"","contact_phone":""},"source":"","pagination":{"sort":null,"start":0,"total":16,"limit":1000000},"state":"complete","tags":"","published":"2014-08-15T02:25:53-04:00","id":258486}