{"type":"FeatureCollection","data_type":"Dataset","url_type":null,"permissions":[{"permissions":{"download":true,"view":true},"group_id":"everyone"}],"classification":null,"title":"China_data","count":31,"stream_id":258895,"contributor":{"url":"http://geocommons.com/users/47620","name":"aliciajwarren"},"data_attributes":null,"calculation_params":null,"icon_link":null,"link":"http://geocommons.com/overlays/258895.json","extent":[0.0,0.0,0.0,0.0],"geometry_types":[],"unique_name":null,"name":"China_data","feature_count":31,"description":"","next_feature":null,"is_raster":false,"short_classification":"Y","stats":{"total population":{"max":17550000,"variance":14153355861629.9,"mean":5113197.67741936,"stdev":3762094.61093549,"min":290030,"median":4319000},"he enrollment":{"max":1637551,"variance":169533573710.613,"mean":574144.290322581,"stdev":411744.549096418,"min":21357,"median":471930}},"features":[{"properties":{"region":"Beijing","total population":17550000,"geo_score":0.0,"percent of population":"0.9%","he enrollment":161598,"id":"a6wye93m25mc","geo_precision":"unmatched"},"type":"Feature","geometry":null},{"properties":{"region":"Tianjin","total population":12281600,"geo_score":0.0,"percent of population":"1.1%","he enrollment":130478,"id":"a6wye980x0xx","geo_precision":"unmatched"},"type":"Feature","geometry":null},{"properties":{"region":"Hebei","total population":7034400,"geo_score":0.0,"percent of population":"15.7%","he enrollment":1103881,"id":"a6wye96rr6pj","geo_precision":"unmatched"},"type":"Feature","geometry":null},{"properties":{"region":"Shanxi","total population":3427360,"geo_score":0.0,"percent of population":"16.1%","he enrollment":552169,"id":"a6wye93fivau","geo_precision":"unmatched"},"type":"Feature","geometry":null},{"properties":{"region":"Inner Mongolia","total population":2422070,"geo_score":0.0,"percent of population":"13.5%","he enrollment":326956,"id":"a6wye93x466n","geo_precision":"unmatched"},"type":"Feature","geometry":null},{"properties":{"region":"Liaoning","total population":4319000,"geo_score":0.0,"percent of population":"10.3%","he enrollment":443912,"id":"a6wye927n8h7","geo_precision":"unmatched"},"type":"Feature","geometry":null},{"properties":{"region":"Jilin","total population":2739550,"geo_score":0.0,"percent of population":"11.8%","he enrollment":322897,"id":"a6wye91lmla5","geo_precision":"unmatched"},"type":"Feature","geometry":null},{"properties":{"region":"Heilongjiang","total population":3826000,"geo_score":0.0,"percent of population":"10.2%","he enrollment":389955,"id":"a6wye97r02zp","geo_precision":"unmatched"},"type":"Feature","geometry":null},{"properties":{"region":"Shanghai","total population":1921000,"geo_score":0.0,"percent of population":"9.2%","he enrollment":176581,"id":"a6wye94thnyz","geo_precision":"unmatched"},"type":"Feature","geometry":null},{"properties":{"region":"Jiangsu","total population":7725000,"geo_score":0.0,"percent of population":"13.6%","he enrollment":1048163,"id":"a6wye93iv7yb","geo_precision":"unmatched"},"type":"Feature","geometry":null},{"properties":{"region":"Zhejiang","total population":5180000,"geo_score":0.0,"percent of population":"12.1%","he enrollment":627707,"id":"a6wye9drtee7","geo_precision":"unmatched"},"type":"Feature","geometry":null},{"properties":{"region":"Anhui","total population":6131000,"geo_score":0.0,"percent of population":"14.1%","he enrollment":862605,"id":"a6wye8zze2lz","geo_precision":"unmatched"},"type":"Feature","geometry":null},{"properties":{"region":"Fujian","total population":3627000,"geo_score":0.0,"percent of population":"14.9%","he enrollment":540020,"id":"a6wye97ika35","geo_precision":"unmatched"},"type":"Feature","geometry":null},{"properties":{"region":"Jiangxi","total population":4432158,"geo_score":0.0,"percent of population":"14.4%","he enrollment":639022,"id":"a6wye90my06g","geo_precision":"unmatched"},"type":"Feature","geometry":null},{"properties":{"region":"Shandong","total population":9470300,"geo_score":0.0,"percent of population":"12.3%","he enrollment":1165052,"id":"a6wye91xr0y6","geo_precision":"unmatched"},"type":"Feature","geometry":null},{"properties":{"region":"Henan","total population":9487000,"geo_score":0.0,"percent of population":"17.3%","he enrollment":1637551,"id":"a6wye928hslv","geo_precision":"unmatched"},"type":"Feature","geometry":null},{"properties":{"region":"Hubei","total population":5720000,"geo_score":0.0,"percent of population":"18.2%","he enrollment":1041759,"id":"a6wye961hfe7","geo_precision":"unmatched"},"type":"Feature","geometry":null},{"properties":{"region":"Hunan","total population":6406000,"geo_score":0.0,"percent of population":"12.6%","he enrollment":808731,"id":"a6wye97zv4yi","geo_precision":"unmatched"},"type":"Feature","geometry":null},{"properties":{"region":"Guangdong","total population":9638000,"geo_score":0.0,"percent of population":"12.5%","he enrollment":1204622,"id":"a6wye96h82ix","geo_precision":"unmatched"},"type":"Feature","geometry":null},{"properties":{"region":"Guangxi","total population":4856000,"geo_score":0.0,"percent of population":"13.0%","he enrollment":628888,"id":"a6wye91cjsgy","geo_precision":"unmatched"},"type":"Feature","geometry":null},{"properties":{"region":"Hainan","total population":864070,"geo_score":0.0,"percent of population":"14.1%","he enrollment":121591,"id":"a6wye97nahyh","geo_precision":"unmatched"},"type":"Feature","geometry":null},{"properties":{"region":"Chongqing","total population":2859000,"geo_score":0.0,"percent of population":"14.9%","he enrollment":425270,"id":"a6wye98jopyv","geo_precision":"unmatched"},"type":"Feature","geometry":null},{"properties":{"region":"Sichuan","total population":8185000,"geo_score":0.0,"percent of population":"14.7%","he enrollment":1203150,"id":"a6wye94h7gcq","geo_precision":"unmatched"},"type":"Feature","geometry":null},{"properties":{"region":"Guizhou","total population":3798000,"geo_score":0.0,"percent of population":"10.2%","he enrollment":386865,"id":"a6wye97rpd1r","geo_precision":"unmatched"},"type":"Feature","geometry":null},{"properties":{"region":"Yunnan","total population":4571000,"geo_score":0.0,"percent of population":"10.3%","he enrollment":471930,"id":"a6wye99nhy47","geo_precision":"unmatched"},"type":"Feature","geometry":null},{"properties":{"region":"Tibet","total population":290030,"geo_score":0.0,"percent of population":"7.4%","he enrollment":21357,"id":"a6wye92wl7sn","geo_precision":"unmatched"},"type":"Feature","geometry":null},{"properties":{"region":"Shaanxi","total population":3772000,"geo_score":0.0,"percent of population":"16.6%","he enrollment":625507,"id":"a6wye9edurht","geo_precision":"unmatched"},"type":"Feature","geometry":null},{"properties":{"region":"Gansu","total population":2635460,"geo_score":0.0,"percent of population":"12.9%","he enrollment":339878,"id":"a6wye951p63r","geo_precision":"unmatched"},"type":"Feature","geometry":null},{"properties":{"region":"Qinghai","total population":557300,"geo_score":0.0,"percent of population":"13.7%","he enrollment":76375,"id":"a6wye972bm6g","geo_precision":"unmatched"},"type":"Feature","geometry":null},{"properties":{"region":"Ningxia","total population":625200,"geo_score":0.0,"percent of population":"15.4%","he enrollment":96448,"id":"a6wye92ew4jp","geo_precision":"unmatched"},"type":"Feature","geometry":null},{"properties":{"region":"Xinjiang","total population":2158630,"geo_score":0.0,"percent of population":"10.1%","he enrollment":217555,"id":"a6wye956zyw3","geo_precision":"unmatched"},"type":"Feature","geometry":null}],"is_temporal":false,"author":{"url":"","metadata":null,"contact_name":null,"contact_address":null,"source":null,"contact_phone":null},"source":"","pagination":{"sort":null,"start":0,"total":31,"limit":1000000},"state":"complete","tags":"","published":"2014-08-15T02:57:34-04:00","id":258895}