{"type":"FeatureCollection","data_type":"Dataset","url_type":null,"permissions":[{"permissions":{"download":true,"view":true},"group_id":"everyone"}],"classification":null,"title":"Sites 07-10-2012-2","count":198,"stream_id":260136,"contributor":{"url":"http://geocommons.com/users/33693","name":"pg8767"},"data_attributes":null,"calculation_params":null,"icon_link":null,"link":"http://geocommons.com/overlays/260136.json","extent":[-149.033,29.05,-67.0408,61.5422],"geometry_types":["point"],"unique_name":null,"name":"Sites 07-10-2012-2","feature_count":198,"description":"","next_feature":null,"is_raster":false,"short_classification":"Y","stats":{"active":{"max":1,"variance":0.199353945546838,"mean":0.272727272727273,"stdev":0.446490700403534,"min":0,"median":0}},"features":[{"properties":{"city":"Aberdeen","geo_score":0.571,"id":"a71b9p3hmcrs","geo_precision":"city","state":"MS","active":0},"type":"Feature","geometry":{"type":"Point","coordinates":[-118.253432,36.97799]}},{"properties":{"city":"Aberdeen","geo_score":0.571,"id":"a71b9p5hgk7t","geo_precision":"city","state":"SD","active":0},"type":"Feature","geometry":{"type":"Point","coordinates":[-118.253432,36.97799]}},{"properties":{"city":"Abilene","geo_score":0.571,"id":"a71b9p53y42q","geo_precision":"city","state":"TX","active":0},"type":"Feature","geometry":{"type":"Point","coordinates":[-99.80213,32.344457]}},{"properties":{"city":"Albany","geo_score":0.571,"id":"a71b9ovrveyb","geo_precision":"city","state":"GA","active":0},"type":"Feature","geometry":{"type":"Point","coordinates":[-82.910991,36.242044]}},{"properties":{"city":"Albany","geo_score":0.571,"id":"a71b9p49djt8","geo_precision":"city","state":"NY","active":0},"type":"Feature","geometry":{"type":"Point","coordinates":[-82.910991,36.242044]}},{"properties":{"city":"Alexandria","geo_score":0.0,"id":"a71b9ovgbo2u","geo_precision":"unmatched","state":"LA","active":0},"type":"Feature","geometry":null},{"properties":{"city":"Allentown","geo_score":0.571,"id":"a71b9ozlflaw","geo_precision":"city","state":"PA","active":0},"type":"Feature","geometry":{"type":"Point","coordinates":[-85.4577,30.031592]}},{"properties":{"city":"Amarillo","geo_score":0.571,"id":"a71b9ovzxj4f","geo_precision":"city","state":"TX","active":0},"type":"Feature","geometry":{"type":"Point","coordinates":[-101.831297,35.221997]}},{"properties":{"city":"Anchorage","geo_score":0.571,"id":"a71b9p1f03um","geo_precision":"city","state":"AK","active":0},"type":"Feature","geometry":{"type":"Point","coordinates":[-90.614261,32.931518]}},{"properties":{"city":"Arlington","geo_score":0.571,"id":"a71b9p6mgt4g","geo_precision":"city","state":"TX","active":0},"type":"Feature","geometry":{"type":"Point","coordinates":[-80.833404,36.227357]}},{"properties":{"city":"Asheville","geo_score":0.571,"id":"a71b9p9ttkoh","geo_precision":"city","state":"NC","active":1},"type":"Feature","geometry":{"type":"Point","coordinates":[-99.216494,38.305013]}},{"properties":{"city":"Ashveille","geo_score":0.571,"id":"a71b9oy8ac6m","geo_precision":"city","state":"NC","active":1},"type":"Feature","geometry":{"type":"Point","coordinates":[-99.216494,38.305013]}},{"properties":{"city":"Athens","geo_score":0.571,"id":"a71b9p9a4dkf","geo_precision":"city","state":"GA","active":0},"type":"Feature","geometry":{"type":"Point","coordinates":[-118.281184,33.920015]}},{"properties":{"city":"Atlanta","geo_score":0.571,"id":"a71b9p8q3uxz","geo_precision":"city","state":"GA","active":0},"type":"Feature","geometry":{"type":"Point","coordinates":[-73.170671,40.641767]}},{"properties":{"city":"Augusta","geo_score":0.571,"id":"a71b9p7206iy","geo_precision":"city","state":"GA","active":0},"type":"Feature","geometry":{"type":"Point","coordinates":[-77.674714,39.367879]}},{"properties":{"city":"Baltimore","geo_score":0.571,"id":"a71b9otziirm","geo_precision":"city","state":"MD","active":1},"type":"Feature","geometry":{"type":"Point","coordinates":[-85.757987,30.143814]}},{"properties":{"city":"Bangor","geo_score":0.571,"id":"a71b9p4pkfkh","geo_precision":"city","state":"ME","active":0},"type":"Feature","geometry":{"type":"Point","coordinates":[-83.438795,38.043417]}},{"properties":{"city":"Baton Rouge","geo_score":0.571,"id":"a71b9paalk4x","geo_precision":"city","state":"LA","active":0},"type":"Feature","geometry":{"type":"Point","coordinates":[-96.005794,43.186085]}},{"properties":{"city":"Beckley","geo_score":0.571,"id":"a71b9p7ii92v","geo_precision":"city","state":"WV","active":1},"type":"Feature","geometry":{"type":"Point","coordinates":[-87.001665,33.75566]}},{"properties":{"city":"Benbrook","geo_score":0.571,"id":"a71b9oyvgd56","geo_precision":"city","state":"TX","active":0},"type":"Feature","geometry":{"type":"Point","coordinates":[-97.460576,32.673188]}},{"properties":{"city":"Bend","geo_score":0.571,"id":"a71b9ozucw3p","geo_precision":"city","state":"OR","active":0},"type":"Feature","geometry":{"type":"Point","coordinates":[-83.128226,36.90009]}},{"properties":{"city":"Billings","geo_score":0.571,"id":"a71b9oy0k9ju","geo_precision":"city","state":"MT","active":0},"type":"Feature","geometry":{"type":"Point","coordinates":[-91.58857,30.566266]}},{"properties":{"city":"Bluefield","geo_score":0.571,"id":"a71b9p1m3cjv","geo_precision":"city","state":"WV","active":1},"type":"Feature","geometry":{"type":"Point","coordinates":[-103.126111,46.819805]}},{"properties":{"city":"Boise","geo_score":0.571,"id":"a71b9oz3jim7","geo_precision":"city","state":"ID","active":0},"type":"Feature","geometry":{"type":"Point","coordinates":[-85.144681,37.33868]}},{"properties":{"city":"Boston","geo_score":0.571,"id":"a71b9oy09gkl","geo_precision":"city","state":"MA","active":0},"type":"Feature","geometry":{"type":"Point","coordinates":[-81.559563,41.263389]}},{"properties":{"city":"Bowling Green","geo_score":0.571,"id":"a71b9p77ackq","geo_precision":"city","state":"KY","active":0},"type":"Feature","geometry":{"type":"Point","coordinates":[-87.939683,42.375121]}},{"properties":{"city":"Brattleboro","geo_score":0.571,"id":"a71b9ozevz94","geo_precision":"city","state":"VT","active":1},"type":"Feature","geometry":{"type":"Point","coordinates":[-72.760753,42.884281]}},{"properties":{"city":"Bratttleboro","geo_score":0.571,"id":"a71b9p9axktw","geo_precision":"city","state":"VT","active":1},"type":"Feature","geometry":{"type":"Point","coordinates":[-72.760753,42.884281]}},{"properties":{"city":"Bridgeport","geo_score":0.571,"id":"a71b9p0j6boj","geo_precision":"city","state":"CT","active":1},"type":"Feature","geometry":{"type":"Point","coordinates":[-111.996545,34.72141]}},{"properties":{"city":"Browning","geo_score":0.571,"id":"a71b9oxu5ut4","geo_precision":"city","state":"MT","active":1},"type":"Feature","geometry":{"type":"Point","coordinates":[-85.585233,37.948395]}},{"properties":{"city":"Brunswick","geo_score":0.571,"id":"a71b9p6fpz1f","geo_precision":"city","state":"GA","active":1},"type":"Feature","geometry":{"type":"Point","coordinates":[-81.492883,31.230428]}},{"properties":{"city":"Burlington","geo_score":0.571,"id":"a71b9p8exqhr","geo_precision":"city","state":"VT","active":1},"type":"Feature","geometry":{"type":"Point","coordinates":[-93.228236,36.379512]}},{"properties":{"city":"Butte","geo_score":0.571,"id":"a71b9p1dl41f","geo_precision":"city","state":"MT","active":1},"type":"Feature","geometry":{"type":"Point","coordinates":[-149.033333,61.542222]}},{"properties":{"city":"Camden","geo_score":0.571,"id":"a71b9ov3mxhf","geo_precision":"city","state":"NJ","active":0},"type":"Feature","geometry":{"type":"Point","coordinates":[-69.029238,44.12613]}},{"properties":{"city":"Cape Girardeau","geo_score":0.571,"id":"a71b9p3k14x2","geo_precision":"city","state":"MO","active":0},"type":"Feature","geometry":{"type":"Point","coordinates":[-122.140491,38.785596]}},{"properties":{"city":"Casper","geo_score":0.571,"id":"a71b9p2klzqk","geo_precision":"city","state":"WY","active":0},"type":"Feature","geometry":{"type":"Point","coordinates":[-106.312561,42.859875]}},{"properties":{"city":"Cedar Rapids","geo_score":0.571,"id":"a71b9p3f5ibf","geo_precision":"city","state":"IA","active":0},"type":"Feature","geometry":{"type":"Point","coordinates":[-76.010219,38.978168]}},{"properties":{"city":"Charleston","geo_score":0.571,"id":"a71b9pafajy8","geo_precision":"city","state":"WV","active":1},"type":"Feature","geometry":{"type":"Point","coordinates":[-74.399023,42.802852]}},{"properties":{"city":"Cheyenne","geo_score":0.571,"id":"a71b9ozj137t","geo_precision":"city","state":"WY","active":0},"type":"Feature","geometry":{"type":"Point","coordinates":[-98.90997,47.761272]}},{"properties":{"city":"Chicago","geo_score":0.571,"id":"a71b9ov8s8fl","geo_precision":"city","state":"IL","active":0},"type":"Feature","geometry":{"type":"Point","coordinates":[-80.227981,37.044622]}},{"properties":{"city":"Chula Vista","geo_score":0.571,"id":"a71b9p2lj54n","geo_precision":"city","state":"CA","active":1},"type":"Feature","geometry":{"type":"Point","coordinates":[-85.879695,34.462588]}},{"properties":{"city":"Cincinnati","geo_score":0.571,"id":"a71b9p1ij3n1","geo_precision":"city","state":"OH","active":0},"type":"Feature","geometry":{"type":"Point","coordinates":[-75.955301,42.565932]}},{"properties":{"city":"Clarksburg","geo_score":0.571,"id":"a71b9p03q7rk","geo_precision":"city","state":"WV","active":1},"type":"Feature","geometry":{"type":"Point","coordinates":[-121.052444,38.654904]}},{"properties":{"city":"Coeur D'Alene","geo_score":0.571,"id":"a71b9oujrrdy","geo_precision":"city","state":"ID","active":0},"type":"Feature","geometry":{"type":"Point","coordinates":[-91.327376,41.183639]}},{"properties":{"city":"Columbus","geo_score":0.571,"id":"a71b9p6zproo","geo_precision":"city","state":"GA","active":0},"type":"Feature","geometry":{"type":"Point","coordinates":[-82.123534,35.261201]}},{"properties":{"city":"Columbus","geo_score":0.571,"id":"a71b9p1g6h4x","geo_precision":"city","state":"OH","active":0},"type":"Feature","geometry":{"type":"Point","coordinates":[-82.123534,35.261201]}},{"properties":{"city":"Concord","geo_score":0.571,"id":"a71b9p9rtwea","geo_precision":"city","state":"NH","active":0},"type":"Feature","geometry":{"type":"Point","coordinates":[-83.491024,38.686185]}},{"properties":{"city":"Dallas","geo_score":0.571,"id":"a71b9oxi4ngh","geo_precision":"city","state":"TX","active":0},"type":"Feature","geometry":{"type":"Point","coordinates":[-86.660547,33.849544]}},{"properties":{"city":"Danville","geo_score":0.571,"id":"a71b9p4shafp","geo_precision":"city","state":"IL","active":0},"type":"Feature","geometry":{"type":"Point","coordinates":[-119.09066,36.248561]}},{"properties":{"city":"Dayton","geo_score":0.571,"id":"a71b9p6rtcf6","geo_precision":"city","state":"OH","active":0},"type":"Feature","geometry":{"type":"Point","coordinates":[-121.872199,39.648495]}},{"properties":{"city":"Denver","geo_score":0.571,"id":"a71b9p7v8lzg","geo_precision":"city","state":"CO","active":1},"type":"Feature","geometry":{"type":"Point","coordinates":[-83.055736,39.193122]}},{"properties":{"city":"Denver","geo_score":0.571,"id":"a71b9p37zw75","geo_precision":"city","state":"CO","active":0},"type":"Feature","geometry":{"type":"Point","coordinates":[-83.055736,39.193122]}},{"properties":{"city":"Detroit","geo_score":0.571,"id":"a71b9p4evb5m","geo_precision":"city","state":"MI","active":0},"type":"Feature","geometry":{"type":"Point","coordinates":[-97.120851,38.935]}},{"properties":{"city":"Dover","geo_score":0.571,"id":"a71b9oum5qoc","geo_precision":"city","state":"DE","active":1},"type":"Feature","geometry":{"type":"Point","coordinates":[-84.947733,39.241443]}},{"properties":{"city":"Dublin","geo_score":0.571,"id":"a71b9p9ek1op","geo_precision":"city","state":"GA","active":0},"type":"Feature","geometry":{"type":"Point","coordinates":[-82.938121,32.459291]}},{"properties":{"city":"Durham","geo_score":0.571,"id":"a71b9p0qqr4n","geo_precision":"city","state":"NC","active":0},"type":"Feature","geometry":{"type":"Point","coordinates":[-99.682177,35.717616]}},{"properties":{"city":"El Centro","geo_score":0.571,"id":"a71b9p49s4jj","geo_precision":"city","state":"CA","active":1},"type":"Feature","geometry":{"type":"Point","coordinates":[-91.575268,41.910425]}},{"properties":{"city":"El Dorado","geo_score":0.571,"id":"a71b9oz1624b","geo_precision":"city","state":"AR","active":0},"type":"Feature","geometry":{"type":"Point","coordinates":[-96.628043,31.851272]}},{"properties":{"city":"El Paso","geo_score":0.571,"id":"a71b9p6xzkrv","geo_precision":"city","state":"TX","active":0},"type":"Feature","geometry":{"type":"Point","coordinates":[-91.116233,34.955371]}},{"properties":{"city":"Elkins","geo_score":0.571,"id":"a71b9p5ejvtz","geo_precision":"city","state":"WV","active":1},"type":"Feature","geometry":{"type":"Point","coordinates":[-86.264711,39.076161]}},{"properties":{"city":"Erie","geo_score":0.571,"id":"a71b9p89p1td","geo_precision":"city","state":"PA","active":0},"type":"Feature","geometry":{"type":"Point","coordinates":[-84.574656,35.647574]}},{"properties":{"city":"Fayetteville","geo_score":0.571,"id":"a71b9oxokoba","geo_precision":"city","state":"AR","active":0},"type":"Feature","geometry":{"type":"Point","coordinates":[-81.094259,38.063982]}},{"properties":{"city":"Flagstaff","geo_score":0.571,"id":"a71b9ozt0qa0","geo_precision":"city","state":"AZ","active":1},"type":"Feature","geometry":{"type":"Point","coordinates":[-82.027252,30.855314]}},{"properties":{"city":"Fort Smith","geo_score":0.571,"id":"a71b9ozz2e4c","geo_precision":"city","state":"AR","active":0},"type":"Feature","geometry":{"type":"Point","coordinates":[-98.399458,29.049969]}},{"properties":{"city":"Fort Wayne","geo_score":0.571,"id":"a71b9ozdqob0","geo_precision":"city","state":"IN","active":0},"type":"Feature","geometry":{"type":"Point","coordinates":[-91.954583,34.458984]}},{"properties":{"city":"Fort Worth","geo_score":0.571,"id":"a71b9ouodqk1","geo_precision":"city","state":"TX","active":0},"type":"Feature","geometry":{"type":"Point","coordinates":[-98.399458,29.049969]}},{"properties":{"city":"Gainesville","geo_score":0.571,"id":"a71b9oznbrh4","geo_precision":"city","state":"FL","active":0},"type":"Feature","geometry":{"type":"Point","coordinates":[-92.734319,32.135436]}},{"properties":{"city":"Gainsville","geo_score":0.571,"id":"a71b9p770j58","geo_precision":"city","state":"GA","active":0},"type":"Feature","geometry":{"type":"Point","coordinates":[-92.734319,32.135436]}},{"properties":{"city":"Glasgow","geo_score":0.571,"id":"a71b9p9r3q6h","geo_precision":"city","state":"MT","active":0},"type":"Feature","geometry":{"type":"Point","coordinates":[-91.780445,40.940858]}},{"properties":{"city":"Great Falls","geo_score":0.571,"id":"a71b9ovvh4xv","geo_precision":"city","state":"MT","active":1},"type":"Feature","geometry":{"type":"Point","coordinates":[-84.885746,30.219088]}},{"properties":{"city":"Green Bay","geo_score":0.571,"id":"a71b9p9ww8v4","geo_precision":"city","state":"WI","active":1},"type":"Feature","geometry":{"type":"Point","coordinates":[-96.57222,34.12204]}},{"properties":{"city":"Greenbelt - Cherrywood","geo_score":0.571,"id":"a71b9p949msc","geo_precision":"city","state":"MD","active":1},"type":"Feature","geometry":{"type":"Point","coordinates":[-117.271602,47.827395]}},{"properties":{"city":"Greenbelt - Edmonston","geo_score":0.571,"id":"a71b9p1j5p3f","geo_precision":"city","state":"MD","active":1},"type":"Feature","geometry":{"type":"Point","coordinates":[-93.224091,38.309469]}},{"properties":{"city":"Greensboro","geo_score":0.571,"id":"a71b9oyg65v1","geo_precision":"city","state":"NC","active":0},"type":"Feature","geometry":{"type":"Point","coordinates":[-77.883885,39.484265]}},{"properties":{"city":"Greenville","geo_score":0.571,"id":"a71b9oz8vlpo","geo_precision":"city","state":"MS","active":0},"type":"Feature","geometry":{"type":"Point","coordinates":[-90.052862,32.249314]}},{"properties":{"city":"Greenville","geo_score":0.571,"id":"a71b9p8ad6fu","geo_precision":"city","state":"SC","active":1},"type":"Feature","geometry":{"type":"Point","coordinates":[-90.052862,32.249314]}},{"properties":{"city":"Hammond","geo_score":0.571,"id":"a71b9p4emrey","geo_precision":"city","state":"IN","active":0},"type":"Feature","geometry":{"type":"Point","coordinates":[-86.378873,34.143985]}},{"properties":{"city":"Hammond","geo_score":0.571,"id":"a71b9owtsf7t","geo_precision":"city","state":"LA","active":0},"type":"Feature","geometry":{"type":"Point","coordinates":[-86.378873,34.143985]}},{"properties":{"city":"Hannibal","geo_score":0.571,"id":"a71b9p5kb6m1","geo_precision":"city","state":"MO","active":0},"type":"Feature","geometry":{"type":"Point","coordinates":[-76.306549,43.324451]}},{"properties":{"city":"Hardin","geo_score":0.571,"id":"a71b9p0776wx","geo_precision":"city","state":"MT","active":0},"type":"Feature","geometry":{"type":"Point","coordinates":[-92.475461,42.847479]}},{"properties":{"city":"Harrison","geo_score":0.571,"id":"a71b9p6ddodt","geo_precision":"city","state":"AR","active":0},"type":"Feature","geometry":{"type":"Point","coordinates":[-98.528068,43.409186]}},{"properties":{"city":"Hartford","geo_score":0.571,"id":"a71b9p7y0078","geo_precision":"city","state":"CT","active":0},"type":"Feature","geometry":{"type":"Point","coordinates":[-83.44906,32.285718]}},{"properties":{"city":"Helena","geo_score":0.571,"id":"a71b9ozzjos3","geo_precision":"city","state":"MT","active":1},"type":"Feature","geometry":{"type":"Point","coordinates":[-91.39345,31.871272]}},{"properties":{"city":"Hopkinsville","geo_score":0.571,"id":"a71b9ox4nolw","geo_precision":"city","state":"KY","active":0},"type":"Feature","geometry":{"type":"Point","coordinates":[-75.704374,37.791239]}},{"properties":{"city":"Hot Springs","geo_score":0.571,"id":"a71b9p25l73k","geo_precision":"city","state":"AR","active":0},"type":"Feature","geometry":{"type":"Point","coordinates":[-122.329813,45.519009]}},{"properties":{"city":"Houma","geo_score":0.571,"id":"a71b9p1ymnw1","geo_precision":"city","state":"LA","active":0},"type":"Feature","geometry":{"type":"Point","coordinates":[-87.873472,39.718148]}},{"properties":{"city":"Huntington","geo_score":0.571,"id":"a71b9p12223a","geo_precision":"city","state":"WV","active":1},"type":"Feature","geometry":{"type":"Point","coordinates":[-75.861867,43.976174]}},{"properties":{"city":"Jefferson City","geo_score":0.571,"id":"a71b9ovd2cbo","geo_precision":"city","state":"MO","active":1},"type":"Feature","geometry":{"type":"Point","coordinates":[-86.644431,33.541771]}},{"properties":{"city":"Johnstown","geo_score":0.571,"id":"a71b9ov3dzz6","geo_precision":"city","state":"PA","active":0},"type":"Feature","geometry":{"type":"Point","coordinates":[-76.463563,38.329013]}},{"properties":{"city":"Kansas City","geo_score":0.571,"id":"a71b9p9zj06d","geo_precision":"city","state":"MO","active":0},"type":"Feature","geometry":{"type":"Point","coordinates":[-84.93687,31.593502]}},{"properties":{"city":"Kyle","geo_score":0.571,"id":"a71b9oyhr7cx","geo_precision":"city","state":"SD","active":0},"type":"Feature","geometry":{"type":"Point","coordinates":[-89.036721,31.70044]}},{"properties":{"city":"Lafayette","geo_score":0.571,"id":"a71b9otym5ds","geo_precision":"city","state":"IN","active":0},"type":"Feature","geometry":{"type":"Point","coordinates":[-89.97363,41.109823]}},{"properties":{"city":"Lafayette","geo_score":0.571,"id":"a71b9p9wgm8t","geo_precision":"city","state":"LA","active":0},"type":"Feature","geometry":{"type":"Point","coordinates":[-89.97363,41.109823]}},{"properties":{"city":"Lake Charles","geo_score":0.571,"id":"a71b9p3lqb5t","geo_precision":"city","state":"LA","active":0},"type":"Feature","geometry":{"type":"Point","coordinates":[-85.214934,31.965715]}},{"properties":{"city":"Lander","geo_score":0.571,"id":"a71b9p3do7r6","geo_precision":"city","state":"WY","active":0},"type":"Feature","geometry":{"type":"Point","coordinates":[-104.861962,39.531381]}},{"properties":{"city":"Lexington","geo_score":0.0,"id":"a71b9ovo85ck","geo_precision":"unmatched","state":"KY","active":0},"type":"Feature","geometry":null},{"properties":{"city":"Linwood","geo_score":0.571,"id":"a71b9p8k4iye","geo_precision":"city","state":"NJ","active":0},"type":"Feature","geometry":{"type":"Point","coordinates":[-86.185268,36.157834]}},{"properties":{"city":"Lisle","geo_score":0.571,"id":"a71b9p0kvv3k","geo_precision":"city","state":"IL","active":1},"type":"Feature","geometry":{"type":"Point","coordinates":[-75.951055,39.619557]}},{"properties":{"city":"Louisville","geo_score":0.571,"id":"a71b9p0rc5fk","geo_precision":"city","state":"KY","active":0},"type":"Feature","geometry":{"type":"Point","coordinates":[-93.544653,38.348633]}},{"properties":{"city":"Lubbock","geo_score":0.571,"id":"a71b9p29mvii","geo_precision":"city","state":"TX","active":0},"type":"Feature","geometry":{"type":"Point","coordinates":[-67.040767,44.904288]}},{"properties":{"city":"Macon","geo_score":0.571,"id":"a71b9p8ri8pf","geo_precision":"city","state":"GA","active":0},"type":"Feature","geometry":{"type":"Point","coordinates":[-77.997521,36.507009]}},{"properties":{"city":"Manchester","geo_score":0.571,"id":"a71b9p9gcn68","geo_precision":"city","state":"NH","active":0},"type":"Feature","geometry":{"type":"Point","coordinates":[-73.865968,41.684538]}},{"properties":{"city":"Manhattan","geo_score":0.571,"id":"a71b9p13z580","geo_precision":"city","state":"NY","active":1},"type":"Feature","geometry":{"type":"Point","coordinates":[-111.374118,45.771228]}},{"properties":{"city":"Marietta","geo_score":0.571,"id":"a71b9p0l83w5","geo_precision":"city","state":"GA","active":0},"type":"Feature","geometry":{"type":"Point","coordinates":[-116.861027,33.44204]}},{"properties":{"city":"Martinsburg","geo_score":0.571,"id":"a71b9ovjxztm","geo_precision":"city","state":"WV","active":1},"type":"Feature","geometry":{"type":"Point","coordinates":[-84.030741,35.025084]}},{"properties":{"city":"Mcalester","geo_score":0.571,"id":"a71b9pa8apgz","geo_precision":"city","state":"OK","active":0},"type":"Feature","geometry":{"type":"Point","coordinates":[-77.306056,40.651725]}},{"properties":{"city":"Medford","geo_score":0.571,"id":"a71b9oxoy2xv","geo_precision":"city","state":"OR","active":0},"type":"Feature","geometry":{"type":"Point","coordinates":[-72.637078,40.922326]}},{"properties":{"city":"Medina","geo_score":0.571,"id":"a71b9oy88qyy","geo_precision":"city","state":"OH","active":0},"type":"Feature","geometry":{"type":"Point","coordinates":[-88.023079,37.403383]}},{"properties":{"city":"Milwaukee","geo_score":0.571,"id":"a71b9p4icwkc","geo_precision":"city","state":"WI","active":1},"type":"Feature","geometry":{"type":"Point","coordinates":[-87.958409,43.011264]}},{"properties":{"city":"Mission","geo_score":0.571,"id":"a71b9p630mqm","geo_precision":"city","state":"SD","active":0},"type":"Feature","geometry":{"type":"Point","coordinates":[-82.597899,30.039958]}},{"properties":{"city":"Missoula","geo_score":0.571,"id":"a71b9p6ygxta","geo_precision":"city","state":"MT","active":1},"type":"Feature","geometry":{"type":"Point","coordinates":[-77.778885,37.475149]}},{"properties":{"city":"Monroe","geo_score":0.571,"id":"a71b9p7px40t","geo_precision":"city","state":"LA","active":0},"type":"Feature","geometry":{"type":"Point","coordinates":[-122.590813,37.990757]}},{"properties":{"city":"Moscow","geo_score":0.571,"id":"a71b9p4onmj8","geo_precision":"city","state":"ID","active":0},"type":"Feature","geometry":{"type":"Point","coordinates":[-82.824054,38.308138]}},{"properties":{"city":"Muskogee","geo_score":0.571,"id":"a71b9oxonmx6","geo_precision":"city","state":"OK","active":0},"type":"Feature","geometry":{"type":"Point","coordinates":[-95.50025,35.70582]}},{"properties":{"city":"New Haven","geo_score":0.571,"id":"a71b9oxstl6v","geo_precision":"city","state":"CT","active":0},"type":"Feature","geometry":{"type":"Point","coordinates":[-87.75342,43.848328]}},{"properties":{"city":"New York","geo_score":0.571,"id":"a71b9p9mm4jh","geo_precision":"city","state":"NY","active":0},"type":"Feature","geometry":{"type":"Point","coordinates":[-93.259932,40.85167]}},{"properties":{"city":"Newark","geo_score":0.571,"id":"a71b9ovwa9p0","geo_precision":"city","state":"NJ","active":0},"type":"Feature","geometry":{"type":"Point","coordinates":[-75.701277,39.614737]}},{"properties":{"city":"Newark","geo_score":0.571,"id":"a71b9p5235l5","geo_precision":"city","state":"NJ","active":1},"type":"Feature","geometry":{"type":"Point","coordinates":[-75.701277,39.614737]}},{"properties":{"city":"Newnan","geo_score":0.571,"id":"a71b9p3gj2b9","geo_precision":"city","state":"GA","active":0},"type":"Feature","geometry":{"type":"Point","coordinates":[-84.819397,33.369595]}},{"properties":{"city":"NewOrleans","geo_score":0.571,"id":"a71b9oyqdq4d","geo_precision":"city","state":"LA","active":0},"type":"Feature","geometry":{"type":"Point","coordinates":[-79.927553,41.879778]}},{"properties":{"city":"Ogden","geo_score":0.571,"id":"a71b9oxthdsx","geo_precision":"city","state":"UT","active":0},"type":"Feature","geometry":{"type":"Point","coordinates":[-81.094525,34.862641]}},{"properties":{"city":"Ogden","geo_score":0.571,"id":"a71b9p04gt6y","geo_precision":"city","state":"UT","active":1},"type":"Feature","geometry":{"type":"Point","coordinates":[-81.094525,34.862641]}},{"properties":{"city":"Okmulgee","geo_score":0.571,"id":"a71b9ozegn2z","geo_precision":"city","state":"OK","active":0},"type":"Feature","geometry":{"type":"Point","coordinates":[-87.043882,32.796516]}},{"properties":{"city":"Owensboro","geo_score":0.571,"id":"a71b9p9ajk8i","geo_precision":"city","state":"KY","active":0},"type":"Feature","geometry":{"type":"Point","coordinates":[-86.961577,39.037144]}},{"properties":{"city":"Oxford","geo_score":0.571,"id":"a71b9p7wo9o4","geo_precision":"city","state":"MS","active":0},"type":"Feature","geometry":{"type":"Point","coordinates":[-89.966028,40.100737]}},{"properties":{"city":"Paducah","geo_score":0.571,"id":"a71b9p4z84i6","geo_precision":"city","state":"KY","active":0},"type":"Feature","geometry":{"type":"Point","coordinates":[-100.298633,34.02174]}},{"properties":{"city":"Panama City","geo_score":0.571,"id":"a71b9p35ztp8","geo_precision":"city","state":"FL","active":0},"type":"Feature","geometry":{"type":"Point","coordinates":[-84.93687,31.593502]}},{"properties":{"city":"Parkersburg","geo_score":0.571,"id":"a71b9p3y3xn8","geo_precision":"city","state":"WV","active":1},"type":"Feature","geometry":{"type":"Point","coordinates":[-90.32676,31.04629]}},{"properties":{"city":"Paterson","geo_score":0.571,"id":"a71b9oxxv962","geo_precision":"city","state":"NJ","active":0},"type":"Feature","geometry":{"type":"Point","coordinates":[-91.236983,35.25881]}},{"properties":{"city":"Pensacola","geo_score":0.571,"id":"a71b9ou7df01","geo_precision":"city","state":"FL","active":0},"type":"Feature","geometry":{"type":"Point","coordinates":[-87.256471,30.424838]}},{"properties":{"city":"Peoria","geo_score":0.571,"id":"a71b9p8pw082","geo_precision":"city","state":"IL","active":0},"type":"Feature","geometry":{"type":"Point","coordinates":[-90.680934,31.141565]}},{"properties":{"city":"Philadelphia","geo_score":0.571,"id":"a71b9p46l9rs","geo_precision":"city","state":"PA","active":0},"type":"Feature","geometry":{"type":"Point","coordinates":[-85.845535,39.781432]}},{"properties":{"city":"Phoenix","geo_score":0.571,"id":"a71b9oxn2cxw","geo_precision":"city","state":"AZ","active":1},"type":"Feature","geometry":{"type":"Point","coordinates":[-99.251676,40.464046]}},{"properties":{"city":"Pierre","geo_score":0.571,"id":"a71b9ovgb5qn","geo_precision":"city","state":"SD","active":0},"type":"Feature","geometry":{"type":"Point","coordinates":[-90.680934,31.141565]}},{"properties":{"city":"Plano","geo_score":0.571,"id":"a71b9oylrpdf","geo_precision":"city","state":"TX","active":0},"type":"Feature","geometry":{"type":"Point","coordinates":[-90.743705,30.041815]}},{"properties":{"city":"Pocatello","geo_score":0.571,"id":"a71b9oy8jipx","geo_precision":"city","state":"ID","active":0},"type":"Feature","geometry":{"type":"Point","coordinates":[-112.259807,42.770177]}},{"properties":{"city":"Portland","geo_score":0.571,"id":"a71b9oys7z8z","geo_precision":"city","state":"ME","active":0},"type":"Feature","geometry":{"type":"Point","coordinates":[-85.036335,34.057321]}},{"properties":{"city":"Portland","geo_score":0.571,"id":"a71b9p7z83l9","geo_precision":"city","state":"OR","active":0},"type":"Feature","geometry":{"type":"Point","coordinates":[-85.036335,34.057321]}},{"properties":{"city":"Poughkeepsie","geo_score":0.0,"id":"a71b9pa3xi4j","geo_precision":"unmatched","state":"NY","active":1},"type":"Feature","geometry":null},{"properties":{"city":"Prescott","geo_score":0.571,"id":"a71b9ox1d0hy","geo_precision":"city","state":"AZ","active":1},"type":"Feature","geometry":{"type":"Point","coordinates":[-112.307777,34.668291]}},{"properties":{"city":"Queens","geo_score":0.571,"id":"a71b9p1ldsl4","geo_precision":"city","state":"NY","active":0},"type":"Feature","geometry":{"type":"Point","coordinates":[-88.292167,35.110079]}},{"properties":{"city":"Raliegh","geo_score":0.571,"id":"a71b9p8hfa20","geo_precision":"city","state":"NC","active":0},"type":"Feature","geometry":{"type":"Point","coordinates":[-82.293464,36.034279]}},{"properties":{"city":"Rapid City","geo_score":0.571,"id":"a71b9p6qk08t","geo_precision":"city","state":"SD","active":0},"type":"Feature","geometry":{"type":"Point","coordinates":[-84.93687,31.593502]}},{"properties":{"city":"Reading","geo_score":0.571,"id":"a71b9p71sd54","geo_precision":"city","state":"PA","active":0},"type":"Feature","geometry":{"type":"Point","coordinates":[-88.854241,41.0667]}},{"properties":{"city":"Rock Island","geo_score":0.571,"id":"a71b9oxmhs6m","geo_precision":"city","state":"IL","active":0},"type":"Feature","geometry":{"type":"Point","coordinates":[-87.14779,39.009212]}},{"properties":{"city":"Rockingham","geo_score":0.0,"id":"a71b9p9zoffm","geo_precision":"unmatched","state":"NC","active":0},"type":"Feature","geometry":null},{"properties":{"city":"Rome","geo_score":0.571,"id":"a71b9p2ylwgm","geo_precision":"city","state":"GA","active":0},"type":"Feature","geometry":{"type":"Point","coordinates":[-89.997886,38.135051]}},{"properties":{"city":"Rutland - 151 West St","geo_score":0.571,"id":"a71b9p2a8891","geo_precision":"city","state":"VT","active":1},"type":"Feature","geometry":{"type":"Point","coordinates":[-122.492866,45.343455]}},{"properties":{"city":"Rutland","geo_score":0.571,"id":"a71b9p75t1i8","geo_precision":"city","state":"VT","active":1},"type":"Feature","geometry":{"type":"Point","coordinates":[-122.492866,45.343455]}},{"properties":{"city":"Salem","geo_score":0.571,"id":"a71b9p4eh4xx","geo_precision":"city","state":"OR","active":0},"type":"Feature","geometry":{"type":"Point","coordinates":[-70.278122,44.900612]}},{"properties":{"city":"Salisbury","geo_score":0.571,"id":"a71b9p6vzrwy","geo_precision":"city","state":"MD","active":1},"type":"Feature","geometry":{"type":"Point","coordinates":[-87.67708,46.474936]}},{"properties":{"city":"Salisbury","geo_score":0.571,"id":"a71b9p0sq3m5","geo_precision":"city","state":"NC","active":0},"type":"Feature","geometry":{"type":"Point","coordinates":[-87.67708,46.474936]}},{"properties":{"city":"Salt Lake City","geo_score":0.571,"id":"a71b9p3r6z5t","geo_precision":"city","state":"UT","active":0},"type":"Feature","geometry":{"type":"Point","coordinates":[-124.122749,43.583767]}},{"properties":{"city":"San Angelo","geo_score":0.571,"id":"a71b9oyjdnpa","geo_precision":"city","state":"TX","active":0},"type":"Feature","geometry":{"type":"Point","coordinates":[-94.853566,36.496191]}},{"properties":{"city":"San Antonio","geo_score":0.571,"id":"a71b9p22zszl","geo_precision":"city","state":"TX","active":1},"type":"Feature","geometry":{"type":"Point","coordinates":[-90.465678,38.362555]}},{"properties":{"city":"San Diego","geo_score":0.571,"id":"a71b9p1xqsyb","geo_precision":"city","state":"CA","active":0},"type":"Feature","geometry":{"type":"Point","coordinates":[-88.886169,34.20594]}},{"properties":{"city":"San Diego","geo_score":0.571,"id":"a71b9oweic74","geo_precision":"city","state":"CA","active":1},"type":"Feature","geometry":{"type":"Point","coordinates":[-88.886169,34.20594]}},{"properties":{"city":"San Diego","geo_score":0.571,"id":"a71b9oy235b8","geo_precision":"city","state":"CA","active":1},"type":"Feature","geometry":{"type":"Point","coordinates":[-88.886169,34.20594]}},{"properties":{"city":"Savannah","geo_score":0.571,"id":"a71b9p4hnzd0","geo_precision":"city","state":"GA","active":1},"type":"Feature","geometry":{"type":"Point","coordinates":[-83.259593,35.309266]}},{"properties":{"city":"Shreveport","geo_score":0.571,"id":"a71b9p6ho0n8","geo_precision":"city","state":"LA","active":0},"type":"Feature","geometry":{"type":"Point","coordinates":[-93.750228,32.498202]}},{"properties":{"city":"Sierra Vista","geo_score":0.571,"id":"a71b9p5dle7b","geo_precision":"city","state":"AZ","active":1},"type":"Feature","geometry":{"type":"Point","coordinates":[-82.058753,39.684513]}},{"properties":{"city":"Sioux Falls","geo_score":0.571,"id":"a71b9owtipk7","geo_precision":"city","state":"SD","active":0},"type":"Feature","geometry":{"type":"Point","coordinates":[-84.885746,30.219088]}},{"properties":{"city":"South Bend","geo_score":0.571,"id":"a71b9ou22zhd","geo_precision":"city","state":"IN","active":0},"type":"Feature","geometry":{"type":"Point","coordinates":[-83.128226,36.90009]}},{"properties":{"city":"Spokane","geo_score":0.571,"id":"a71b9p9v7zik","geo_precision":"city","state":"WA","active":0},"type":"Feature","geometry":{"type":"Point","coordinates":[-91.460396,31.699331]}},{"properties":{"city":"Springfield","geo_score":0.571,"id":"a71b9ouekt8z","geo_precision":"city","state":"IL","active":1},"type":"Feature","geometry":{"type":"Point","coordinates":[-122.329813,45.519009]}},{"properties":{"city":"Springfield","geo_score":0.571,"id":"a71b9p6g1lpf","geo_precision":"city","state":"MO","active":1},"type":"Feature","geometry":{"type":"Point","coordinates":[-122.329813,45.519009]}},{"properties":{"city":"St George","geo_score":0.571,"id":"a71b9p68fmem","geo_precision":"city","state":"UT","active":0},"type":"Feature","geometry":{"type":"Point","coordinates":[-119.860117,47.079243]}},{"properties":{"city":"St Louis","geo_score":0.571,"id":"a71b9owcz06q","geo_precision":"city","state":"MO","active":0},"type":"Feature","geometry":{"type":"Point","coordinates":[-91.846798,33.455113]}},{"properties":{"city":"St. Croix","geo_score":0.571,"id":"a71b9owag8z5","geo_precision":"city","state":"VI","active":0},"type":"Feature","geometry":{"type":"Point","coordinates":[-122.481647,38.517964]}},{"properties":{"city":"St. Thomas","geo_score":0.571,"id":"a71b9ovdrwz3","geo_precision":"city","state":"VI","active":0},"type":"Feature","geometry":{"type":"Point","coordinates":[-84.93687,31.593502]}},{"properties":{"city":"Statesboro","geo_score":0.571,"id":"a71b9p552nlb","geo_precision":"city","state":"GA","active":0},"type":"Feature","geometry":{"type":"Point","coordinates":[-81.288713,37.681781]}},{"properties":{"city":"Statesville","geo_score":0.571,"id":"a71b9p8yjkxz","geo_precision":"city","state":"NC","active":0},"type":"Feature","geometry":{"type":"Point","coordinates":[-80.930908,35.785413]}},{"properties":{"city":"Syracuse","geo_score":0.571,"id":"a71b9ou31p0z","geo_precision":"city","state":"NY","active":0},"type":"Feature","geometry":{"type":"Point","coordinates":[-101.751732,37.986428]}},{"properties":{"city":"Tallahassee","geo_score":0.571,"id":"a71b9p9xs3k4","geo_precision":"city","state":"FL","active":0},"type":"Feature","geometry":{"type":"Point","coordinates":[-84.203379,30.418514]}},{"properties":{"city":"Texarkana","geo_score":0.0,"id":"a71b9ox50rhx","geo_precision":"unmatched","state":"AR","active":0},"type":"Feature","geometry":null},{"properties":{"city":"Timber Lake","geo_score":0.571,"id":"a71b9p5oehgz","geo_precision":"city","state":"SD","active":0},"type":"Feature","geometry":{"type":"Point","coordinates":[-85.214934,31.965715]}},{"properties":{"city":"Tinton Falls","geo_score":0.571,"id":"a71b9p0j7gup","geo_precision":"city","state":"NJ","active":0},"type":"Feature","geometry":{"type":"Point","coordinates":[-84.885746,30.219088]}},{"properties":{"city":"Toledo","geo_score":0.571,"id":"a71b9p89ulbt","geo_precision":"city","state":"OH","active":0},"type":"Feature","geometry":{"type":"Point","coordinates":[-90.475938,35.618969]}},{"properties":{"city":"Trenton","geo_score":0.571,"id":"a71b9p410znc","geo_precision":"city","state":"NJ","active":0},"type":"Feature","geometry":{"type":"Point","coordinates":[-85.50208,34.871687]}},{"properties":{"city":"Tucker","geo_score":0.571,"id":"a71b9ozkqk4f","geo_precision":"city","state":"GA","active":1},"type":"Feature","geometry":{"type":"Point","coordinates":[-87.30662,39.039488]}},{"properties":{"city":"Tucson","geo_score":0.571,"id":"a71b9p1qtsxw","geo_precision":"city","state":"AZ","active":0},"type":"Feature","geometry":{"type":"Point","coordinates":[-79.85382,40.372069]}},{"properties":{"city":"Tulsa","geo_score":0.571,"id":"a71b9p6br39t","geo_precision":"city","state":"OK","active":0},"type":"Feature","geometry":{"type":"Point","coordinates":[-86.660547,33.849544]}},{"properties":{"city":"Tupelo","geo_score":0.571,"id":"a71b9p8p4r9s","geo_precision":"city","state":"MS","active":0},"type":"Feature","geometry":{"type":"Point","coordinates":[-88.683828,34.291889]}},{"properties":{"city":"Tuscaloosa","geo_score":0.571,"id":"a71b9p9rczdj","geo_precision":"city","state":"AL","active":1},"type":"Feature","geometry":{"type":"Point","coordinates":[-87.597599,33.241899]}},{"properties":{"city":"Twin Falls","geo_score":0.571,"id":"a71b9p00pvnx","geo_precision":"city","state":"ID","active":0},"type":"Feature","geometry":{"type":"Point","coordinates":[-84.885746,30.219088]}},{"properties":{"city":"Tyler","geo_score":0.571,"id":"a71b9ouiq7yv","geo_precision":"city","state":"TX","active":0},"type":"Feature","geometry":{"type":"Point","coordinates":[-112.443504,34.823077]}},{"properties":{"city":"Urbana","geo_score":0.571,"id":"a71b9p4b1jls","geo_precision":"city","state":"IL","active":0},"type":"Feature","geometry":{"type":"Point","coordinates":[-94.956878,30.560479]}},{"properties":{"city":"Valdosta","geo_score":0.571,"id":"a71b9p3w1yo1","geo_precision":"city","state":"GA","active":0},"type":"Feature","geometry":{"type":"Point","coordinates":[-90.294281,38.690051]}},{"properties":{"city":"Vernal","geo_score":0.571,"id":"a71b9p5nykmf","geo_precision":"city","state":"UT","active":0},"type":"Feature","geometry":{"type":"Point","coordinates":[-119.196644,39.489212]}},{"properties":{"city":"Vista","geo_score":0.571,"id":"a71b9oxzjiqn","geo_precision":"city","state":"CA","active":1},"type":"Feature","geometry":{"type":"Point","coordinates":[-123.588772,46.833154]}},{"properties":{"city":"Waycross","geo_score":0.571,"id":"a71b9p95qmwf","geo_precision":"city","state":"GA","active":0},"type":"Feature","geometry":{"type":"Point","coordinates":[-78.180826,34.851002]}},{"properties":{"city":"Wheeling","geo_score":0.571,"id":"a71b9p092a56","geo_precision":"city","state":"WV","active":1},"type":"Feature","geometry":{"type":"Point","coordinates":[-80.647599,40.102703]}},{"properties":{"city":"Wichita Falls","geo_score":0.571,"id":"a71b9ou75376","geo_precision":"city","state":"TX","active":0},"type":"Feature","geometry":{"type":"Point","coordinates":[-84.885746,30.219088]}},{"properties":{"city":"Wilmington","geo_score":0.571,"id":"a71b9p71z3nc","geo_precision":"city","state":"DE","active":1},"type":"Feature","geometry":{"type":"Point","coordinates":[-80.973723,32.003548]}},{"properties":{"city":"Wilson","geo_score":0.571,"id":"a71b9p94pqf9","geo_precision":"city","state":"NC","active":0},"type":"Feature","geometry":{"type":"Point","coordinates":[-79.270317,39.432318]}},{"properties":{"city":"Winston Salem","geo_score":0.571,"id":"a71b9ozzst9x","geo_precision":"city","state":"NC","active":0},"type":"Feature","geometry":{"type":"Point","coordinates":[-93.617688,34.311212]}},{"properties":{"city":"Woodland Hills","geo_score":0.571,"id":"a71b9p3cqosh","geo_precision":"city","state":"CA","active":0},"type":"Feature","geometry":{"type":"Point","coordinates":[-89.675635,36.050627]}},{"properties":{"city":"Yakima","geo_score":0.571,"id":"a71b9ov815oq","geo_precision":"city","state":"WA","active":0},"type":"Feature","geometry":{"type":"Point","coordinates":[-83.324902,37.983419]}}],"is_temporal":false,"author":{"url":"","metadata":"","contact_name":"","contact_address":"","source":"","contact_phone":""},"source":"","pagination":{"sort":null,"start":0,"total":198,"limit":1000000},"state":"complete","tags":"","published":"2014-08-14T14:56:34-04:00","id":260136}