{"type":"FeatureCollection","data_type":"Dataset","url_type":null,"permissions":[{"permissions":{"download":true,"view":true},"group_id":"everyone"}],"classification":null,"title":"Social Media by Station","count":145,"stream_id":260289,"contributor":{"url":"http://geocommons.com/users/34919","name":"Brionnevg"},"data_attributes":null,"calculation_params":null,"icon_link":null,"link":"http://geocommons.com/overlays/260289.json","extent":[-168.022,13.4443,144.786,64.6441],"geometry_types":["point"],"unique_name":null,"name":"Social Media by Station","feature_count":145,"description":"","next_feature":null,"is_raster":false,"short_classification":"Y","stats":{},"features":[{"properties":{"city":"Birmingham","flickr":"http://www.flickr.com/photos/aptv/","station name":"APT","twitter":"https://twitter.com/#!/@aptv","youtube":"http://www.youtube.com/user/AlabamaPublicTV","url":"http://www.aptv.org/","pinterest":null,"geo_score":0.714,"id":"a720grzrndm1","geo_precision":"city","state":"Alabama","facebook":"https://www.facebook.com/PublicTelevision"},"type":"Feature","geometry":{"type":"Point","coordinates":[-86.801904,33.456412]}},{"properties":{"city":"Fairbanks","flickr":null,"station name":"AlaskaOne","twitter":null,"youtube":null,"url":"http://www.alaskaone.org/","pinterest":null,"geo_score":0.714,"id":"a720grznxj8b","geo_precision":"city","state":"Alaska","facebook":"https://www.facebook.com/pages/KUAC/132219969921?ref=ts"},"type":"Feature","geometry":{"type":"Point","coordinates":[-147.522052,64.644047]}},{"properties":{"city":"Anchorage","flickr":"http://www.flickr.com/photos/alaskapublic/","station name":"KAKM","twitter":"https://twitter.com/#!/@kakm","youtube":"http://www.youtube.com/user/AZpublicmedia","url":"http://www.alaskapublic.org/","pinterest":null,"geo_score":0.714,"id":"a720gscjnkcf","geo_precision":"city","state":"Alaska","facebook":"https://www.facebook.com/alaskapublic"},"type":"Feature","geometry":{"type":"Point","coordinates":[-149.486981,61.287624]}},{"properties":{"city":"Juneau","flickr":null,"station name":"KTOO","twitter":"https://twitter.com/#!/KTOOpublicradio","youtube":null,"url":"http://www.ktoo.org/","pinterest":null,"geo_score":0.714,"id":"a720grxtkrdl","geo_precision":"city","state":"Alaska","facebook":"https://www.facebook.com/groups/19413043386/"},"type":"Feature","geometry":{"type":"Point","coordinates":[-134.523946,58.373561]}},{"properties":{"city":"Tucson","flickr":"http://www.flickr.com/photos/azpublicmedia/","station name":"Arizona Public Media","twitter":"https://twitter.com/#!/@azpmnews","youtube":"http://www.youtube.com/user/AZpublicmedia","url":"http://www.azpm.org/news/","pinterest":null,"geo_score":0.714,"id":"a720grzqtdbu","geo_precision":"city","state":"Arizona","facebook":"https://www.facebook.com/azpublicmedia"},"type":"Feature","geometry":{"type":"Point","coordinates":[-110.970869,32.217975]}},{"properties":{"city":"Phoenix","flickr":"http://www.flickr.com/photos/arizonapbs/","station name":"Eight, PBS","twitter":"https://twitter.com/#!/arizonapbs","youtube":"http://www.youtube.com/user/AZPBS","url":"http://www.azpbs.org/","pinterest":null,"geo_score":0.0,"id":"a720gs8iew5i","geo_precision":"unmatched","state":"Arizona","facebook":"https://www.facebook.com/arizonapbs"},"type":"Feature","geometry":null},{"properties":{"city":"Conway","flickr":"http://www.flickr.com/photos/aetntv/","station name":"Arkansas Educational TV Network","twitter":"https://twitter.com/#!/@aetn","youtube":"http://www.youtube.com/user/AETNTV","url":"http://www.aetn.org","pinterest":null,"geo_score":0.714,"id":"a720gsd8mtxo","geo_precision":"city","state":"Arkansas","facebook":"https://www.facebook.com/aetntv"},"type":"Feature","geometry":{"type":"Point","coordinates":[-92.376466,35.146446]}},{"properties":{"city":"Redding","flickr":null,"station name":"KIXE","twitter":"https://twitter.com/#!/KIXETV","youtube":"http://www.youtube.com/user/KIXEChannel9","url":"http://www.kixe.org/","pinterest":null,"geo_score":0.714,"id":"a720gryxlxxt","geo_precision":"city","state":"California","facebook":"https://www.facebook.com/KIXETV9"},"type":"Feature","geometry":{"type":"Point","coordinates":[-122.456982,40.675738]}},{"properties":{"city":"San Diego","flickr":"http://www.flickr.com/photos/kpbs/","station name":"KPBS","twitter":"https://twitter.com/#!/@kpbs","youtube":"http://www.youtube.com/user/KPBSSanDiego","url":"http://www.kpbs.org/","pinterest":null,"geo_score":0.714,"id":"a720gs204c8j","geo_precision":"city","state":"California","facebook":"https://www.facebook.com/KPBSSanDiego"},"type":"Feature","geometry":{"type":"Point","coordinates":[-117.174366,32.7211]}},{"properties":{"city":"San Francisco","flickr":"http://www.flickr.com/groups/kqedphoto/","station name":"KQED","twitter":"https://twitter.com/#!/@kqed","youtube":"http://www.youtube.com/user/KQEDondemand","url":"http://www.kqed.org/","pinterest":"http://pinterest.com/kqed/","geo_score":0.714,"id":"a720gs8wqbi7","geo_precision":"city","state":"California","facebook":"https://www.facebook.com/KQED"},"type":"Feature","geometry":{"type":"Point","coordinates":[-118.298662,33.786594]}},{"properties":{"city":"San Bernardino","flickr":null,"station name":"KVCR","twitter":"https://twitter.com/#!/@KVCR","youtube":null,"url":"http://kvcr.org/","pinterest":null,"geo_score":0.714,"id":"a720gs30wncj","geo_precision":"city","state":"California","facebook":"https://www.facebook.com/KVCR.TVFM"},"type":"Feature","geometry":{"type":"Point","coordinates":[-117.289765,34.108345]}},{"properties":{"city":"Sacramento","flickr":"http://www.flickr.com/photos/kvie/","station name":"KVIE","twitter":"https://twitter.com/#!/@kviepbs","youtube":"http://www.youtube.com/user/KVIEvideo","url":"http://www.kvie.org/","pinterest":null,"geo_score":0.714,"id":"a720gsaju29m","geo_precision":"city","state":"California","facebook":"https://www.facebook.com/KVIEPBS"},"type":"Feature","geometry":{"type":"Point","coordinates":[-121.555406,38.380456]}},{"properties":{"city":"Costa Mesa","flickr":"http://www.flickr.com/photos/pbssocal/","station name":"PBS SoCal","twitter":"https://twitter.com/#!/@PBSSoCal","youtube":"http://www.youtube.com/user/KOCETV","url":"http://www.pbssocal.org/","pinterest":"http://pinterest.com/pbssocal/","geo_score":0.714,"id":"a720gs971h8a","geo_precision":"city","state":"California","facebook":"https://www.facebook.com/PBSSoCal"},"type":"Feature","geometry":{"type":"Point","coordinates":[-115.967051,34.839964]}},{"properties":{"city":"Fresno","flickr":"http://www.flickr.com/photos/54799357@N03/","station name":"ValleyPBS","twitter":null,"youtube":"http://www.youtube.com/user/KVPTPBS","url":"http://www.valleypbs.org/support/","pinterest":null,"geo_score":0.714,"id":"a720grz80x7j","geo_precision":"city","state":"California","facebook":"https://www.facebook.com/KVPT.PBS"},"type":"Feature","geometry":{"type":"Point","coordinates":[-119.801015,36.8411]}},{"properties":{"city":"Denver","flickr":null,"station name":"Colorado Public TV","twitter":"https://twitter.com/#!/@ColoPublicTV","youtube":"http://www.youtube.com/user/ColoradoPublicTV","url":"http://www.cpt12.org/","pinterest":"http://pinterest.com/cpt12/","geo_score":0.714,"id":"a720gsd5yd91","geo_precision":"city","state":"Colorado","facebook":"https://www.facebook.com/CPT12"},"type":"Feature","geometry":{"type":"Point","coordinates":[-104.856808,39.726303]}},{"properties":{"city":"Denver","flickr":"http://www.flickr.com/photos/40891049@N05/","station name":"Rocky Mountain PBS","twitter":"https://twitter.com/#!/@rmpbs","youtube":"http://www.youtube.com/user/rockymtnpbs","url":"http://www.rmpbs.org/","pinterest":"http://pinterest.com/rockymtnpbs/","geo_score":0.714,"id":"a720gs3huf1y","geo_precision":"city","state":"Colorado","facebook":"https://www.facebook.com/rmpbs"},"type":"Feature","geometry":{"type":"Point","coordinates":[-104.856808,39.726303]}},{"properties":{"city":"Hartford","flickr":"http://www.flickr.com/photos/cpbn-cptv/","station name":"Connecticut Public Broadcasting Network","twitter":"https://twitter.com/#!/@cpbn","youtube":"http://www.youtube.com/user/cptv","url":"http://www.cpbn.org/","pinterest":null,"geo_score":0.714,"id":"a720gs2lhe6t","geo_precision":"city","state":"Connecticut","facebook":"https://www.facebook.com/connecticutpublictelevision?sid=67cdda85174ed6bb5caefc7bbb272860&amp;ref=s"},"type":"Feature","geometry":{"type":"Point","coordinates":[-72.677099,41.78007]}},{"properties":{"city":"Arlington","flickr":null,"station name":"WETA","twitter":"https://twitter.com/#!/@wetatvfm","youtube":"http://www.youtube.com/user/wetatv26","url":"http://www.weta.org/","pinterest":null,"geo_score":0.714,"id":"a720gs1r213r","geo_precision":"city","state":"Virginia","facebook":"https://www.facebook.com/wetatvfm"},"type":"Feature","geometry":{"type":"Point","coordinates":[-77.099113,38.885484]}},{"properties":{"city":"Tampa","flickr":null,"station name":"WEDU","twitter":"https://twitter.com/#!/wedupbs","youtube":"http://www.youtube.com/user/WEDUSocialMedia","url":"http://www.wedu.org/","pinterest":null,"geo_score":0.714,"id":"a720gs0l67q7","geo_precision":"city","state":"Florida","facebook":"https://www.facebook.com/wedupublicmedia"},"type":"Feature","geometry":{"type":"Point","coordinates":[-82.582035,27.996097]}},{"properties":{"city":"Tallahassee","flickr":"http://www.flickr.com/photos/wfsumedia/","station name":"WFSU","twitter":"https://twitter.com/#!/@wfsumedia","youtube":"http://www.youtube.com/WFSUoutloud","url":"http://www.wfsu.org/","pinterest":null,"geo_score":0.714,"id":"a720gs2hk04z","geo_precision":"city","state":"Florida","facebook":"https://www.facebook.com/WFSUMedia"},"type":"Feature","geometry":{"type":"Point","coordinates":[-84.203379,30.418514]}},{"properties":{"city":"Fort Myers","flickr":null,"station name":"WGCU","twitter":"https://twitter.com/#!/@WGCU","youtube":"http://www.youtube.com/user/wgcu","url":"http://www.wgcu.org/","pinterest":null,"geo_score":0.714,"id":"a720gsct4bov","geo_precision":"city","state":"Florida","facebook":"https://www.facebook.com/wgcupublicmedia"},"type":"Feature","geometry":{"type":"Point","coordinates":[-81.863698,26.561465]}},{"properties":{"city":"Jacksonville","flickr":null,"station name":"WJCT","twitter":"http://twitter.com/#!/wjctjax","youtube":"http://www.youtube.com/user/WJCTTV?ob=5","url":"http://www.wjct.org/","pinterest":null,"geo_score":0.0,"id":"a720gs1s38hm","geo_precision":"unmatched","state":"Florida","facebook":"https://www.facebook.com/WJCTPublicBroadcasting"},"type":"Feature","geometry":null},{"properties":{"city":"Miami","flickr":null,"station name":"WLRN","twitter":"http://twitter.com/#!/@WLRN","youtube":"http://www.youtube.com/user/artstreetmiami","url":"http://www.wlrn.org/","pinterest":null,"geo_score":0.714,"id":"a720gsbizcbc","geo_precision":"city","state":"Florida","facebook":"https://www.facebook.com/pages/WLRN-Public-Radio-and-Television/28348730201"},"type":"Feature","geometry":{"type":"Point","coordinates":[-80.193659,25.774266]}},{"properties":{"city":"Miami","flickr":"http://www.flickr.com/photos/48757806@N04","station name":"WPBT","twitter":"https://twitter.com/#!/@wpbt2","youtube":null,"url":"http://www.wpbt2.org/","pinterest":"http://pinterest.com/wpbt2/","geo_score":0.714,"id":"a720gs9oymr9","geo_precision":"city","state":"Florida","facebook":"https://www.facebook.com/WPBT2"},"type":"Feature","geometry":{"type":"Point","coordinates":[-80.193659,25.774266]}},{"properties":{"city":"Pensacola","flickr":"http://www.flickr.com/photos/wsre/sets/","station name":"WSRE","twitter":"https://twitter.com/#!/@wsretv","youtube":"http://www.youtube.com/wsretv","url":"http://www.wsre.org/","pinterest":null,"geo_score":0.714,"id":"a720gs73tq2y","geo_precision":"city","state":"Florida","facebook":"https://www.facebook.com/wsretv"},"type":"Feature","geometry":{"type":"Point","coordinates":[-87.256471,30.424838]}},{"properties":{"city":"Orlando","flickr":null,"station name":"WUCF","twitter":"https://twitter.com/#!/wucftv","youtube":null,"url":"http://wucftv.org/","pinterest":null,"geo_score":0.714,"id":"a720gs71k2ix","geo_precision":"city","state":"Florida","facebook":"https://www.facebook.com/WUCFTV"},"type":"Feature","geometry":{"type":"Point","coordinates":[-81.373291,28.545179]}},{"properties":{"city":"Tampa","flickr":"http://www.flickr.com/photos/8646089@N06/","station name":"WUSF","twitter":"https://twitter.com/#!/@WUSF","youtube":"http://www.youtube.com/user/WUSFChannel","url":"http://www.wusf.usf.edu/","pinterest":null,"geo_score":0.714,"id":"a720gs9gsltw","geo_precision":"city","state":"Florida","facebook":"https://www.facebook.com/WUSF?ref=ts%40pages%2FWUSF-Public-Broadcasting%2F59716525118%3Fsk%3Dinfo"},"type":"Feature","geometry":{"type":"Point","coordinates":[-82.582035,27.996097]}},{"properties":{"city":"Boynton Beach","flickr":"http://www.flickr.com/photos/11936289@N08/","station name":"WXEL","twitter":"https://twitter.com/#!/wxeltv","youtube":"http://www.youtube.com/user/wxeltv","url":"http://www.wxel.org/","pinterest":null,"geo_score":0.714,"id":"a720gs8v3zb8","geo_precision":"city","state":"Florida","facebook":"https://www.facebook.com/WXELTV42"},"type":"Feature","geometry":{"type":"Point","coordinates":[-80.430269,26.645895]}},{"properties":{"city":"Atlanta","flickr":"http://www.flickr.com/photos/gpbnews/","station name":"Georgia Public Broadcasting","twitter":"https://twitter.com/#!/gpbnews","youtube":"http://www.youtube.com/user/gpbweb","url":"http://www.gpb.org/","pinterest":null,"geo_score":0.714,"id":"a720gsacy4kk","geo_precision":"city","state":"Georgia","facebook":"https://www.facebook.com/gpbmedia"},"type":"Feature","geometry":{"type":"Point","coordinates":[-84.47405,33.844371]}},{"properties":{"city":"Atlanta","flickr":null,"station name":"Public Broadcasting Atlanta","twitter":"https://twitter.com/#!/wabenews","youtube":"http://www.youtube.com/user/pba30ondemand","url":"http://www.pba.org/","pinterest":null,"geo_score":0.714,"id":"a720gs0c45ek","geo_precision":"city","state":"Georgia","facebook":"https://www.facebook.com/pba30"},"type":"Feature","geometry":{"type":"Point","coordinates":[-84.47405,33.844371]}},{"properties":{"city":"Barrigada","flickr":null,"station name":"PBS Guam","twitter":"https://twitter.com/#!/pbsguam","youtube":"http://www.youtube.com/user/pbsguam","url":"http://pbsguam.org/","pinterest":null,"geo_score":0.714,"id":"a720gs7tagwr","geo_precision":"city","state":"Guam","facebook":null},"type":"Feature","geometry":{"type":"Point","coordinates":[144.786297,13.444257]}},{"properties":{"city":"Honolulu","flickr":"http://www.flickr.com/photos/21812821@N05/","station name":"PBS Hawaii","twitter":"https://twitter.com/#!/@pbshawaii","youtube":"http://www.youtube.com/user/PBSHawaiiorg","url":"http://www.pbshawaii.org/home/index.php","pinterest":null,"geo_score":0.714,"id":"a720gs34ux6t","geo_precision":"city","state":"Hawaii","facebook":"https://www.facebook.com/PBSHawaii"},"type":"Feature","geometry":{"type":"Point","coordinates":[-168.021815,24.859832]}},{"properties":{"city":"Boise","flickr":null,"station name":"Idaho Public TV","twitter":"https://twitter.com/#!/@IdahoPublicTV","youtube":"http://www.youtube.com/user/IdahoPTV","url":"http://idahoptv.org/","pinterest":null,"geo_score":0.714,"id":"a720gsasp68e","geo_precision":"city","state":"Idaho","facebook":"https://www.facebook.com/idahoptv"},"type":"Feature","geometry":{"type":"Point","coordinates":[-116.272921,43.603768]}},{"properties":{"city":"Chicago","flickr":"http://www.flickr.com/photos/30801051@N06/","station name":"Lakeshore Public TV","twitter":"https://twitter.com/#!/@lakeshoreptv","youtube":null,"url":"http://www.lakeshoreptv.com/","pinterest":null,"geo_score":0.714,"id":"a720gs71nove","geo_precision":"city","state":"Illinois","facebook":"https://www.facebook.com/LakeshorePTV"},"type":"Feature","geometry":{"type":"Point","coordinates":[-87.68732,41.811929]}},{"properties":{"city":"Charleston","flickr":null,"station name":"WEIU","twitter":"https://twitter.com/#!/WEIU1","youtube":"http://www.youtube.com/user/weiutv","url":"http://www.weiu.net/","pinterest":null,"geo_score":0.714,"id":"a720gs2l8mjb","geo_precision":"city","state":"Illinois","facebook":"https://www.facebook.com/pages/WEIU-TV-Public-Broadcasting-Station/102191876487910"},"type":"Feature","geometry":{"type":"Point","coordinates":[-88.160348,39.499622]}},{"properties":{"city":"Urbana","flickr":"http://www.flickr.com/photos/willradiotv/","station name":"WILL","twitter":"https://twitter.com/#!/willpublicmedia","youtube":"http://www.youtube.com/user/WILLAMFMTV","url":"http://will.illinois.edu/","pinterest":null,"geo_score":0.714,"id":"a720gs9mxck6","geo_precision":"city","state":"Illinois","facebook":"https://www.facebook.com/WILLradiotvonline?ref=mf"},"type":"Feature","geometry":{"type":"Point","coordinates":[-89.04063,37.974495]}},{"properties":{"city":"Moline","flickr":null,"station name":"WQPT","twitter":"https://twitter.com/#!/@wqpt","youtube":"http://www.youtube.com/user/WQPTPBS","url":"http://www.wqpt.org/","pinterest":null,"geo_score":0.714,"id":"a720gs83247i","geo_precision":"city","state":"Illinois","facebook":"https://www.facebook.com/pages/WQPT-Quad-Cities-PBS/152046043220"},"type":"Feature","geometry":{"type":"Point","coordinates":[-90.595736,41.420305]}},{"properties":{"city":"Springfield","flickr":null,"station name":"WSEC","twitter":"https://twitter.com/#!/WSECTV","youtube":"http://www.youtube.com/user/NetworkKnowledge","url":"http://networkknowledge.tv/","pinterest":null,"geo_score":0.714,"id":"a720gs0x2geu","geo_precision":"city","state":"Illinois","facebook":"https://www.facebook.com/pages/WSEC-TVPBS-Springfield/375086934592?ref=ts%2Fabout%2Fwsec-on-facebook"},"type":"Feature","geometry":{"type":"Point","coordinates":[-88.252639,42.367273]}},{"properties":{"city":"Carbondale","flickr":null,"station name":"WSIU","twitter":"https://twitter.com/#!/@wsiutv","youtube":"http://www.flickr.com/photos/wsiu/","url":"http://www.wsiu.org/","pinterest":null,"geo_score":0.714,"id":"a720gs0sxuq4","geo_precision":"city","state":"Illinois","facebook":"https://www.facebook.com/wsiutv"},"type":"Feature","geometry":{"type":"Point","coordinates":[-89.387286,37.77452]}},{"properties":{"city":"Chicago","flickr":"http://www.flickr.com/photos/wttwchannel11/","station name":"WTTW","twitter":"https://twitter.com/#!/@wttw","youtube":"http://www.youtube.com/wttwchicago/","url":"http://www.wttw.com/","pinterest":null,"geo_score":0.714,"id":"a720grxw72jw","geo_precision":"city","state":"Illinois","facebook":"https://www.facebook.com/wttw11"},"type":"Feature","geometry":{"type":"Point","coordinates":[-87.68732,41.811929]}},{"properties":{"city":"Peoria","flickr":"http://www.flickr.com/photos/37649425@N08/","station name":"WTVP","twitter":"https://twitter.com/#!/@WTVPKU","youtube":"http://www.youtube.com/user/WTVP","url":"http://www.wtvp.org/index.asp","pinterest":null,"geo_score":0.714,"id":"a720gsa5s42o","geo_precision":"city","state":"Illinois","facebook":"https://www.facebook.com/wtvp.org"},"type":"Feature","geometry":{"type":"Point","coordinates":[-89.589847,40.693137]}},{"properties":{"city":"Chicago","flickr":null,"station name":"WYCC","twitter":"https://twitter.com/#!/@WYCC","youtube":"http://www.youtube.com/user/20WiseTV?ob=5","url":"http://www.wycc.org/","pinterest":null,"geo_score":0.714,"id":"a720gs1in46k","geo_precision":"city","state":"Illinois","facebook":"https://www.facebook.com/WYCCTV20"},"type":"Feature","geometry":{"type":"Point","coordinates":[-87.68732,41.811929]}},{"properties":{"city":"Fort Wayne","flickr":null,"station name":"PBS39","twitter":"https://twitter.com/#!/pbs39ftwayne","youtube":"http://www.youtube.com/user/PBS39?ob=5","url":"http://www.wfwa.org/","pinterest":null,"geo_score":0.714,"id":"a720gs9hsxp6","geo_precision":"city","state":"Indiana","facebook":"https://www.facebook.com/pages/PBS39-Fort-Wayne/331001506073"},"type":"Feature","geometry":{"type":"Point","coordinates":[-85.12886,41.130604]}},{"properties":{"city":"Indianapolis","flickr":"http://www.flickr.com/photos/wfyi_indianapolis/","station name":"WFYI","twitter":"https://twitter.com/#!/@wfyi","youtube":"http://www.youtube.com/user/WFYIOnline","url":"http://www.wfyi.org/","pinterest":null,"geo_score":0.714,"id":"a720gscrc22q","geo_precision":"city","state":"Indiana","facebook":"https://www.facebook.com/WFYI.Indianapolis"},"type":"Feature","geometry":{"type":"Point","coordinates":[-86.13216,39.775092]}},{"properties":{"city":"Muncie","flickr":null,"station name":"WIPB","twitter":"https://twitter.com/#!/wipb","youtube":null,"url":"http://www.bsu.edu/wipb/","pinterest":null,"geo_score":0.714,"id":"a720gs0grhhn","geo_precision":"city","state":"Indiana","facebook":"https://www.facebook.com/WIPBTV?ref=mf"},"type":"Feature","geometry":{"type":"Point","coordinates":[-85.389874,40.142124]}},{"properties":{"city":"Evansville","flickr":"http://www.flickr.com/photos/49922791@N06/","station name":"WNIN","twitter":"https://twitter.com/#!/@wnin","youtube":null,"url":"http://www.wnin.org/","pinterest":null,"geo_score":0.714,"id":"a720gs1zgiw8","geo_precision":"city","state":"Indiana","facebook":"https://www.facebook.com/pages/WNIN/38719144665"},"type":"Feature","geometry":{"type":"Point","coordinates":[-87.574963,37.997128]}},{"properties":{"city":"South Bend","flickr":null,"station name":"WNIT","twitter":"https://twitter.com/#!/@wnitpublictv","youtube":"http://www.youtube.com/user/WNITpublicTelevision#p/u","url":"http://www.wnit.org/","pinterest":null,"geo_score":0.714,"id":"a720gsaingxu","geo_precision":"city","state":"Indiana","facebook":"https://www.facebook.com/wnitpublictv"},"type":"Feature","geometry":{"type":"Point","coordinates":[-86.250268,39.523937]}},{"properties":{"city":"Bloomington","flickr":"http://www.flickr.com/photos/wfiupublicradio/","station name":"WTIU","twitter":"https://twitter.com/#!/@wtiu","youtube":"http://www.youtube.com/wtiu","url":"http://indianapublicmedia.org/tv/","pinterest":null,"geo_score":0.714,"id":"a720gs4tsnl8","geo_precision":"city","state":"Indiana","facebook":"https://www.facebook.com/wtiupublictv"},"type":"Feature","geometry":{"type":"Point","coordinates":[-87.221819,39.779078]}},{"properties":{"city":"Johnston","flickr":"http://www.flickr.com/photos/iowapublictelevision","station name":"IPTV","twitter":"https://twitter.com/#!/@iowapublictv","youtube":"http://www.youtube.com/IowaPublicTelevision","url":"http://www.iptv.org/","pinterest":null,"geo_score":0.714,"id":"a720gs91089r","geo_precision":"city","state":"Iowa","facebook":"https://www.facebook.com/iowapublictelevision"},"type":"Feature","geometry":{"type":"Point","coordinates":[-93.732559,41.714435]}},{"properties":{"city":"Moline","flickr":null,"station name":"WQPT","twitter":"https://twitter.com/#!/@wqpt","youtube":"http://www.youtube.com/user/WQPTPBS","url":"http://www.wqpt.org/","pinterest":null,"geo_score":0.714,"id":"a720gs7nw9yn","geo_precision":"city","state":"Illinois","facebook":"https://www.facebook.com/pages/WQPT-Quad-Cities-PBS/152046043220"},"type":"Feature","geometry":{"type":"Point","coordinates":[-90.595736,41.420305]}},{"properties":{"city":"Kansas City","flickr":"http://www.flickr.com/photos/50499794@N07/","station name":"KCPT","twitter":"https://twitter.com/#!/@KCPT/","youtube":"http://www.youtube.com/user/kcptonline","url":"http://kcpt.org/","pinterest":null,"geo_score":0.714,"id":"a720gsbcyk3v","geo_precision":"city","state":"Kansas","facebook":"https://www.facebook.com/kcpt19"},"type":"Feature","geometry":{"type":"Point","coordinates":[-94.630384,39.103053]}},{"properties":{"city":"Wichita","flickr":"http://www.flickr.com/photos/kpts/","station name":"KPTS","twitter":"https://twitter.com/#!/@kpts","youtube":"http://www.youtube.com/user/kptspromotions","url":"http://www.kpts.org/","pinterest":null,"geo_score":0.714,"id":"a720gs6t2bwz","geo_precision":"city","state":"Kansas","facebook":"https://www.facebook.com/KPTS.TV8?ref=search&amp;sid=1057253288.466443066..1&amp;v=wall"},"type":"Feature","geometry":{"type":"Point","coordinates":[-97.258997,37.651974]}},{"properties":{"city":"Topeka","flickr":null,"station name":"KTWU","twitter":"https://twitter.com/#!/@ktwu11","youtube":"http://www.youtube.com/user/KTWUtube","url":"http://www.ktwu.org/","pinterest":null,"geo_score":0.714,"id":"a720gryek9l2","geo_precision":"city","state":"Kansas","facebook":"https://www.facebook.com/pages/ktwu11/352540997706"},"type":"Feature","geometry":{"type":"Point","coordinates":[-95.780662,38.988075]}},{"properties":{"city":"Bunker Hill","flickr":null,"station name":"SHPTV","twitter":"https://twitter.com/#!/SmokyHillsPTV","youtube":"http://www.youtube.com/SmokyHillsPTV","url":"http://www.smokyhillstv.org/","pinterest":null,"geo_score":0.714,"id":"a720gs6hgitz","geo_precision":"city","state":"Kansas","facebook":"https://www.facebook.com/SmokyHillsPublicTelevision"},"type":"Feature","geometry":{"type":"Point","coordinates":[-100.600786,38.578991]}},{"properties":{"city":"Lexington","flickr":"http://www.flickr.com/groups/ket_photos/","station name":"KET","twitter":"https://twitter.com/#!/@tweetKET","youtube":"http://www.youtube.com/KETVideos","url":"http://www.ket.org/","pinterest":"http://pinterest.com/KETofficial/","geo_score":0.0,"id":"a720gs8lkgb1","geo_precision":"unmatched","state":"Kentucky","facebook":"https://www.facebook.com/KET"},"type":"Feature","geometry":null},{"properties":{"city":"Baton Rouge","flickr":"http://www.flickr.com/photos/lpbtv/","station name":"LPB","twitter":"https://twitter.com/#!/@lpborg","youtube":"http://www.youtube.com/lpbtv","url":"http://beta.lpb.org/index.php/","pinterest":"http://pinterest.com/lpbpin/","geo_score":0.714,"id":"a720gsdaperw","geo_precision":"city","state":"Louisiana","facebook":"https://www.facebook.com/LPB123?ref=ts"},"type":"Feature","geometry":{"type":"Point","coordinates":[-92.176237,30.159092]}},{"properties":{"city":"Metairie","flickr":null,"station name":"WLAE","twitter":"https://twitter.com/#!/@wlaetv","youtube":null,"url":"http://www.wlae.com/","pinterest":null,"geo_score":0.714,"id":"a720grzk5mn3","geo_precision":"city","state":"Louisiana","facebook":"https://www.facebook.com/wlaetv?ref=mf"},"type":"Feature","geometry":{"type":"Point","coordinates":[-90.161821,29.984643]}},{"properties":{"city":"Metairie","flickr":null,"station name":"WYES","twitter":"https://twitter.com/#!/@WYESTV","youtube":null,"url":"http://www.wyes.org/","pinterest":null,"geo_score":0.714,"id":"a720gs09c533","geo_precision":"city","state":"Louisiana","facebook":"https://www.facebook.com/wyes.neworleans?ref=name"},"type":"Feature","geometry":{"type":"Point","coordinates":[-90.161821,29.984643]}},{"properties":{"city":"Lewiston","flickr":"http://www.flickr.com/photos/mpbn/","station name":"MPBN","twitter":"https://twitter.com/#!/@mpbnnews","youtube":"http://www.youtube.com/user/MPBN","url":"http://www.mpbn.net/","pinterest":null,"geo_score":0.714,"id":"a720grx8t6h9","geo_precision":"city","state":"Maine","facebook":"https://www.facebook.com/MainePublicBroadcastingNetwork"},"type":"Feature","geometry":{"type":"Point","coordinates":[-70.298388,44.046185]}},{"properties":{"city":"Owings Mills","flickr":null,"station name":"MPT","twitter":"https://twitter.com/#!/@marylandpubtv","youtube":"http://www.youtube.com/user/MarylandPublicTV","url":"http://www.mpt.org/","pinterest":"http://pinterest.com/marylandpubtv/","geo_score":0.714,"id":"a720gs2fofau","geo_precision":"city","state":"Maryland","facebook":"https://www.facebook.com/MarylandPublicTelevision"},"type":"Feature","geometry":{"type":"Point","coordinates":[-76.787696,39.429055]}},{"properties":{"city":"Boston","flickr":"http://www.flickr.com/photos/wgbh/","station name":"WGBH","twitter":"https://twitter.com/#!/wgbh","youtube":null,"url":"http://www.wgbh.org/","pinterest":null,"geo_score":0.714,"id":"a720gs04dpzt","geo_precision":"city","state":"Massachusetts","facebook":"https://www.facebook.com/WGBHBoston"},"type":"Feature","geometry":{"type":"Point","coordinates":[-71.026964,42.370567]}},{"properties":{"city":"Springfield","flickr":"http://www.flickr.com/photos/wgby/","station name":"WGBY","twitter":"https://twitter.com/#!/@wgby","youtube":"http://www.youtube.com/user/wgby","url":"http://www.wgby.org/","pinterest":null,"geo_score":0.714,"id":"a720gs5i3dfa","geo_precision":"city","state":"Massachusetts","facebook":"https://www.facebook.com/wgbytv"},"type":"Feature","geometry":{"type":"Point","coordinates":[-72.604842,42.170731]}},{"properties":{"city":"Wixom","flickr":"http://www.flickr.com/photos/dptvphotos/","station name":"Detroit Public TV","twitter":"https://twitter.com/#!/@detroitpublictv","youtube":"http://www.youtube.com/detroitpublictv","url":"http://www.dptv.org/","pinterest":null,"geo_score":0.0,"id":"a720grzz2hrq","geo_precision":"unmatched","state":"Michigan","facebook":"https://www.facebook.com/detroitpublictv"},"type":"Feature","geometry":null},{"properties":{"city":"Mount Pleasant","flickr":null,"station name":"WCMU","twitter":"https://twitter.com/#!/wcmunews","youtube":null,"url":"http://www.wcmu.org","pinterest":null,"geo_score":0.714,"id":"a720gs4vsvbl","geo_precision":"city","state":"Michigan","facebook":"https://www.facebook.com/cmupublicbroadcasting?ref=s"},"type":"Feature","geometry":{"type":"Point","coordinates":[-84.588061,43.509752]}},{"properties":{"city":"University Center","flickr":"http://www.flickr.com/photos/wdcq/","station name":"WDCQ","twitter":"https://twitter.com/#!/@wdcq","youtube":"http://www.youtube.com/user/wdcqtv","url":"http://www3.delta.edu/broadcasting/","pinterest":null,"geo_score":0.714,"id":"a720gs3xfjbr","geo_precision":"city","state":"Michigan","facebook":"https://www.facebook.com/wdcqtv"},"type":"Feature","geometry":{"type":"Point","coordinates":[-88.435676,47.105482]}},{"properties":{"city":"Grand Rapids","flickr":"http://www.flickr.com/photos/wgvu/sets/","station name":"WGVU","twitter":"https://twitter.com/#!/WGVUPublicMedia","youtube":"http://www.youtube.com/user/WGVU35","url":"http://www.wgvu.org/","pinterest":"http://pinterest.com/wgvupublicmedia/","geo_score":0.714,"id":"a720gry9dr4u","geo_precision":"city","state":"Michigan","facebook":"https://www.facebook.com/pages/WGVU/101191063709?ref=ts"},"type":"Feature","geometry":{"type":"Point","coordinates":[-85.306756,46.158336]}},{"properties":{"city":"East Lansing","flickr":"http://www.flickr.com/photos/wkar/","station name":"WKAR","twitter":"https://twitter.com/#!/@wkar","youtube":"http://www.youtube.com/wkar","url":"http://wkar.org/","pinterest":null,"geo_score":0.714,"id":"a720gsd3c0el","geo_precision":"city","state":"Michigan","facebook":"https://www.facebook.com/WKARPUBLICMEDIA"},"type":"Feature","geometry":{"type":"Point","coordinates":[-84.555535,42.732535]}},{"properties":{"city":"Marquette","flickr":null,"station name":"WNMU Public TV 13","twitter":"https://twitter.com/#!/@wnmutv","youtube":"http://www.youtube.com/user/wnmunews?ob=5","url":"http://wnmutv.nmu.edu/","pinterest":null,"geo_score":0.714,"id":"a720gs4kj61n","geo_precision":"city","state":"Michigan","facebook":"https://www.facebook.com/wnmutv"},"type":"Feature","geometry":{"type":"Point","coordinates":[-87.615282,46.593435]}},{"properties":{"city":"Austin","flickr":"http://www.flickr.com/photos/ksmq/","station name":"KSMQ","twitter":"https://twitter.com/#!/@ksmq","youtube":"http://www.youtube.com/user/ksmq","url":"http://www.ksmq.org/","pinterest":null,"geo_score":0.714,"id":"a720grzrqvp4","geo_precision":"city","state":"Minnesota","facebook":"https://www.facebook.com/KSMQPBS"},"type":"Feature","geometry":{"type":"Point","coordinates":[-92.976818,43.699305]}},{"properties":{"city":"Appleton","flickr":"http://www.flickr.com/photos/ksmq/","station name":"Pioneer Public TV","twitter":"https://twitter.com/#!/@PioneerPublicTV","youtube":"http://www.youtube.com/user/PioneerPTV","url":"http://www.pioneer.org/","pinterest":null,"geo_score":0.714,"id":"a720gs4un7np","geo_precision":"city","state":"Minnesota","facebook":"https://www.facebook.com/pioneerpublictv"},"type":"Feature","geometry":{"type":"Point","coordinates":[-95.95757,45.282008]}},{"properties":{"city":"Twin Cities","flickr":"http://www.flickr.com/photos/tpt-events/","station name":"TPT","twitter":"https://twitter.com/#!/@tpt","youtube":"http://www.youtube.com/user/tptweb","url":"http://www.tpt.org/","pinterest":null,"geo_score":0.714,"id":"a720gscr9ctt","geo_precision":"city","state":"Minnesota","facebook":"https://www.facebook.com/tptpbs"},"type":"Feature","geometry":{"type":"Point","coordinates":[-92.894239,45.513447]}},{"properties":{"city":"Duluth","flickr":null,"station name":"WDSE / WRPT","twitter":"https://twitter.com/#!/wdse_wrpt","youtube":null,"url":"http://www.wdse.org/","pinterest":null,"geo_score":0.714,"id":"a720gs63lnec","geo_precision":"city","state":"Minnesota","facebook":"https://www.facebook.com/wdse.wrpt.pbs"},"type":"Feature","geometry":{"type":"Point","coordinates":[-92.001934,47.005566]}},{"properties":{"city":"Jackson","flickr":"http://www.flickr.com/photos/mpbonline/sets/","station name":"MPBN","twitter":"https://twitter.com/#!/@mpbonline","youtube":"http://www.youtube.com/user/MSPublicBroadcasting","url":"http://www.mpbonline.org/","pinterest":null,"geo_score":0.0,"id":"a720gsctvt7s","geo_precision":"unmatched","state":"Mississippi","facebook":"https://www.facebook.com/MPBOnline"},"type":"Feature","geometry":null},{"properties":{"city":"Warrensburg","flickr":null,"station name":"KMOS","twitter":null,"youtube":"http://www.youtube.com/user/KMOSTV","url":"http://www.kmos.org/","pinterest":null,"geo_score":0.714,"id":"a720gs9yzclb","geo_precision":"city","state":"Missouri","facebook":"https://www.facebook.com/kmostv"},"type":"Feature","geometry":{"type":"Point","coordinates":[-93.811697,38.769906]}},{"properties":{"city":"Saint Louis","flickr":null,"station name":"KETC","twitter":"https://twitter.com/#!/theninenetwork","youtube":"http://www.youtube.com/ketc9","url":"http://ninenet.org/","pinterest":null,"geo_score":0.714,"id":"a720gs70fvwt","geo_precision":"city","state":"Missouri","facebook":"https://www.facebook.com/TheNineNetwork"},"type":"Feature","geometry":{"type":"Point","coordinates":[-92.254481,38.251613]}},{"properties":{"city":"Springfield","flickr":null,"station name":"Ozarks Public TV","twitter":"https://twitter.com/#!/@optv","youtube":"http://www.youtube.com/user/OzarksPublicTV","url":"http://www.optv.org/","pinterest":null,"geo_score":0.714,"id":"a720gs3f1t1g","geo_precision":"city","state":"Missouri","facebook":"https://www.facebook.com/OPTV"},"type":"Feature","geometry":{"type":"Point","coordinates":[-92.02405,37.762541]}},{"properties":{"city":"Bozeman","flickr":null,"station name":"Montana PBS","twitter":null,"youtube":null,"url":"http://www.montanapbs.org/","pinterest":null,"geo_score":0.714,"id":"a720gs1drqtv","geo_precision":"city","state":"Montana","facebook":"https://www.facebook.com/MontanaPBS"},"type":"Feature","geometry":{"type":"Point","coordinates":[-111.168212,45.809998]}},{"properties":{"city":"Lincoln","flickr":"http://www.flickr.com/photos/53011861@N06/","station name":"NET","twitter":"https://twitter.com/#!/@NETNebraska","youtube":"http://www.youtube.com/netnebraska","url":"http://www.netnebraska.org/","pinterest":null,"geo_score":0.714,"id":"a720gs2hd78m","geo_precision":"city","state":"Nebraska","facebook":"https://www.facebook.com/netnewsnebraska"},"type":"Feature","geometry":{"type":"Point","coordinates":[-96.823133,40.865142]}},{"properties":{"city":"Reno","flickr":null,"station name":"KNPB","twitter":"https://twitter.com/#!/@knpb","youtube":"http://www.youtube.com/user/knpbpbs?ob=5","url":"http://www.knpb.org/","pinterest":null,"geo_score":0.714,"id":"a720gs3x7si4","geo_precision":"city","state":"Nevada","facebook":"https://www.facebook.com/KNPBPublicBroadcasting"},"type":"Feature","geometry":{"type":"Point","coordinates":[-119.704614,39.65558]}},{"properties":{"city":"Las Vegas","flickr":"http://www.flickr.com/photos/vegaspbs/","station name":"Vegas PBS","twitter":"https://twitter.com/#!/@vegaspbs","youtube":"http://www.youtube.com/user/vegaspbs","url":"http://www.vegaspbs.org/","pinterest":null,"geo_score":0.714,"id":"a720grx4m4fr","geo_precision":"city","state":"Nevada","facebook":"https://www.facebook.com/vegaspbs?rf=110447282316667"},"type":"Feature","geometry":{"type":"Point","coordinates":[-115.10647,36.17372]}},{"properties":{"city":"Durham","flickr":"http://www.flickr.com/photos/nhptv/","station name":"NHPTV","twitter":"https://twitter.com/#!/@NHPublicTV","youtube":"http://www.youtube.com/user/nhptvadmin","url":"http://www.nhptv.org/","pinterest":"http://pinterest.com/nhptv/","geo_score":0.714,"id":"a720gs1dtvnd","geo_precision":"city","state":"New Hampshire","facebook":"https://www.facebook.com/NHPTV"},"type":"Feature","geometry":{"type":"Point","coordinates":[-70.962843,43.165772]}},{"properties":{"city":"New York","flickr":"http://www.flickr.com/photos/newjerseynetwork/","station name":"NJN","twitter":"https://twitter.com/#!/NJTVonline","youtube":"http://www.youtube.com/njnpublictelevision","url":"http://www.njtvonline.org/","pinterest":null,"geo_score":0.714,"id":"a720gs6qmedj","geo_precision":"city","state":"New York","facebook":"https://www.facebook.com/NJNPublicTV"},"type":"Feature","geometry":{"type":"Point","coordinates":[-74.005973,40.714269]}},{"properties":{"city":"Santa Fe","flickr":null,"station name":"KENW","twitter":"https://twitter.com/#!/KENWPublicMedia","youtube":null,"url":"http://kenw.org/","pinterest":null,"geo_score":0.714,"id":"a720gs24xqbs","geo_precision":"city","state":"New Mexico","facebook":"https://www.facebook.com/kenw.enmu"},"type":"Feature","geometry":{"type":"Point","coordinates":[-105.982146,35.697473]}},{"properties":{"city":"Albuquerque","flickr":"http://www.flickr.com/photos/knme/","station name":"NMPBS (formerly KNME)","twitter":"https://twitter.com/#!/NMPBS","youtube":"http://www.youtube.com/user/knmedotorg","url":"http://www.newmexicopbs.org/","pinterest":"http://pinterest.com/nmpbs/","geo_score":0.714,"id":"a720gs2o0bga","geo_precision":"city","state":"New Mexico","facebook":"https://www.facebook.com/NewMexicoPBS"},"type":"Feature","geometry":{"type":"Point","coordinates":[-106.651137,35.084491]}},{"properties":{"city":"Las Cruces","flickr":null,"station name":"KRWG","twitter":"https://twitter.com/#!/@krwg","youtube":"http://www.youtube.com/user/KRWGnews?ob=5","url":"http://www.krwg.org/","pinterest":null,"geo_score":0.714,"id":"a720gs0vgh7q","geo_precision":"city","state":"New Mexico","facebook":"https://www.facebook.com/pages/KRWG/144752845590316"},"type":"Feature","geometry":{"type":"Point","coordinates":[-105.836957,34.652009]}},{"properties":{"city":"Plattsburgh","flickr":"http://www.flickr.com/photos/mountainlakepbs/","station name":"Mtn Lake PBS","twitter":"https://twitter.com/#!/@mountainlakepbs","youtube":"http://www.youtube.com/mountainlakepbs","url":"http://www.mountainlake.org/","pinterest":null,"geo_score":0.714,"id":"a720gs9nni3e","geo_precision":"city","state":"New York","facebook":"https://www.facebook.com/mlpbs?ref=ts"},"type":"Feature","geometry":{"type":"Point","coordinates":[-73.637104,44.71187]}},{"properties":{"city":"Syracuse","flickr":null,"station name":"WCNY","twitter":"https://twitter.com/#!/@wcny","youtube":"http://www.youtube.com/wcnyconnected","url":"http://www.wcny.org/","pinterest":null,"geo_score":0.714,"id":"a720gs7x22ub","geo_precision":"city","state":"New York","facebook":"https://www.facebook.com/WCNYCONNECTED"},"type":"Feature","geometry":{"type":"Point","coordinates":[-76.197701,43.02143]}},{"properties":{"city":"Long Island","flickr":"http://www.flickr.com/photos/wliw21/","station name":"WLIW21","twitter":"https://twitter.com/#!/@wliw21","youtube":"http://www.youtube.com/user/wliw21","url":"http://www.wliw.org/","pinterest":null,"geo_score":0.714,"id":"a720gsa953k6","geo_precision":"city","state":"New York","facebook":"https://www.facebook.com/WLIW21"},"type":"Feature","geometry":{"type":"Point","coordinates":[-77.646948,43.277284]}},{"properties":{"city":"Troy","flickr":"http://www.flickr.com/photos/53315989@N03/","station name":"WMHT","twitter":"https://twitter.com/#!/@WMHTPubMedia","youtube":"http://www.youtube.com/wmhttv","url":"http://www.wmht.org/","pinterest":null,"geo_score":0.714,"id":"a720gs48t8iu","geo_precision":"city","state":"New York","facebook":"https://www.facebook.com/PublicMediaWMHT"},"type":"Feature","geometry":{"type":"Point","coordinates":[-76.802178,42.991176]}},{"properties":{"city":"Buffalo","flickr":null,"station name":"WNED","twitter":"https://twitter.com/#!/@wnedtv","youtube":"http://www.youtube.com/watch?v=2g9_FggazkY&amp;lr=1&amp;uid=N8tDK98j963MHZ5BJ15CeA","url":"http://www.wned.org/","pinterest":null,"geo_score":0.714,"id":"a720gs15ue5d","geo_precision":"city","state":"New York","facebook":"https://www.facebook.com/WNEDtelevision"},"type":"Feature","geometry":{"type":"Point","coordinates":[-78.832706,42.929303]}},{"properties":{"city":"New York","flickr":"http://www.flickr.com/photos/13wnet/","station name":"WNET/Thirteen","twitter":"https://twitter.com/#!/@thirteenNY","youtube":"http://www.youtube.com/user/ThirteenWNET","url":"http://www.thirteen.org/","pinterest":"http://pinterest.com/thirteenwnet/","geo_score":0.714,"id":"a720gs6sw9x7","geo_precision":"city","state":"New York","facebook":"https://www.facebook.com/wnet-thirteen"},"type":"Feature","geometry":{"type":"Point","coordinates":[-74.005973,40.714269]}},{"properties":{"city":"Watertown","flickr":null,"station name":"WPBS","twitter":null,"youtube":"http://www.youtube.com/user/WPBSTelevision","url":"http://www.wpbstv.org/","pinterest":null,"geo_score":0.714,"id":"a720grxi6kqx","geo_precision":"city","state":"New York","facebook":"https://www.facebook.com/pages/WPBS-TV/174169057009?ref=ts"},"type":"Feature","geometry":{"type":"Point","coordinates":[-76.016589,44.072542]}},{"properties":{"city":"Vestal","flickr":"http://www.flickr.com/groups/wskgpictureproject/pool/","station name":"WSKG","twitter":"https://twitter.com/#!/wskg","youtube":"http://www.youtube.com/user/wskg","url":"http://www.wskg.org/","pinterest":null,"geo_score":0.714,"id":"a720gsa5g1ix","geo_precision":"city","state":"New York","facebook":"https://www.facebook.com/WSKGPublicBroadcasting"},"type":"Feature","geometry":{"type":"Point","coordinates":[-76.027088,42.055476]}},{"properties":{"city":"Rochester","flickr":"http://www.flickr.com/photos/wxxi/","station name":"WXXI","twitter":"https://twitter.com/#!/@wxxirochester","youtube":"http://www.youtube.com/user/wxxitube","url":"http://interactive.wxxi.org/","pinterest":null,"geo_score":0.714,"id":"a720gs0m6kxm","geo_precision":"city","state":"New York","facebook":"https://www.facebook.com/WXXIrochester"},"type":"Feature","geometry":{"type":"Point","coordinates":[-77.684264,43.286024]}},{"properties":{"city":"Durham","flickr":"http://www.flickr.com/photos/unc-tv/","station name":"UNC-TV","twitter":"https://twitter.com/#!/@unctv","youtube":"http://www.youtube.com/user/exploreUNCTV","url":"http://www.unctv.org/","pinterest":null,"geo_score":0.714,"id":"a720gs5jqrx1","geo_precision":"city","state":"North Carolina","facebook":"https://www.facebook.com/unctv"},"type":"Feature","geometry":{"type":"Point","coordinates":[-78.906933,35.981803]}},{"properties":{"city":"Charlotte","flickr":null,"station name":"WTVI","twitter":"https://twitter.com/#!/@wtvi","youtube":null,"url":"http://www.wtvi.org/","pinterest":null,"geo_score":0.714,"id":"a720gs91yjf5","geo_precision":"city","state":"North Carolina","facebook":"https://www.facebook.com/wtvicharlotte"},"type":"Feature","geometry":{"type":"Point","coordinates":[-80.804151,35.26002]}},{"properties":{"city":"Cincinnati","flickr":null,"station name":"CET","twitter":"https://twitter.com/#!/@cetconnect","youtube":"http://www.youtube.com/user/cetconnect?blend=7&amp;ob=5","url":"http://www.cetconnect.org/","pinterest":null,"geo_score":0.714,"id":"a720gs5vameg","geo_precision":"city","state":"Ohio","facebook":"https://www.facebook.com/CETconnect"},"type":"Feature","geometry":{"type":"Point","coordinates":[-84.53822,39.166759]}},{"properties":{"city":"Cleveland","flickr":"http://www.flickr.com/photos/ideastream/","station name":"WVIZ / Ideastream","twitter":"https://twitter.com/#!/WVIZ","youtube":"http://www.youtube.com/wvizpbs","url":"http://www.wviz.org/","pinterest":null,"geo_score":0.714,"id":"a720grzj8z5q","geo_precision":"city","state":"Ohio","facebook":"https://www.facebook.com/wvizpbs"},"type":"Feature","geometry":{"type":"Point","coordinates":[-81.599648,41.523401]}},{"properties":{"city":"Dayton","flickr":"http://www.flickr.com/photos/thinktv/","station name":"ThinkTV","twitter":"https://twitter.com/#!/@ThinkTV","youtube":"http://www.youtube.com/user/ThinkTVPBS","url":"http://www.thinktv.org/","pinterest":null,"geo_score":0.714,"id":"a720grxz98bv","geo_precision":"city","state":"Ohio","facebook":"https://www.facebook.com/thinktv"},"type":"Feature","geometry":{"type":"Point","coordinates":[-84.268593,39.750471]}},{"properties":{"city":"Bowling Green","flickr":null,"station name":"WGBU","twitter":"https://twitter.com/#!/@WBGU","youtube":"http://www.youtube.com/user/WBGUTV?ob=5","url":"http://wbgu.org/","pinterest":null,"geo_score":0.714,"id":"a720grzno14d","geo_precision":"city","state":"Ohio","facebook":"https://www.facebook.com/WBGUTV"},"type":"Feature","geometry":{"type":"Point","coordinates":[-81.895974,40.76339]}},{"properties":{"city":"Kent","flickr":null,"station name":"Western Reserve PBS","twitter":"https://twitter.com/#!/WR_PBS","youtube":"http://www.youtube.com/user/westernreservepbs","url":"http://www.westernreservepublicmedia.org/","pinterest":null,"geo_score":0.714,"id":"a720gs394ggh","geo_precision":"city","state":"Ohio","facebook":"https://www.facebook.com/WesternReservePublicMedia"},"type":"Feature","geometry":{"type":"Point","coordinates":[-80.616195,41.756356]}},{"properties":{"city":"Toledo","flickr":null,"station name":"WGTE","twitter":"https://twitter.com/#!/@wgtepublic","youtube":"http://www.youtube.com/user/WGTEPreviews","url":"http://www.wgte.org/wgte/","pinterest":null,"geo_score":0.714,"id":"a720gs1tr6p5","geo_precision":"city","state":"Ohio","facebook":"https://www.facebook.com/wgtepublic?ref=mf"},"type":"Feature","geometry":{"type":"Point","coordinates":[-84.124257,41.58568]}},{"properties":{"city":"Athens","flickr":null,"station name":"WOUB","twitter":"https://twitter.com/#!/@woub","youtube":"http://www.youtube.com/woubpbs","url":"http://woub.org/","pinterest":null,"geo_score":0.714,"id":"a720grxea9fj","geo_precision":"city","state":"Ohio","facebook":"https://www.facebook.com/pages/WOUB-Public-Media/376137337431"},"type":"Feature","geometry":{"type":"Point","coordinates":[-82.013803,39.339279]}},{"properties":{"city":"Columbus","flickr":"http://www.flickr.com/photos/wosu","station name":"WOSU","twitter":"https://twitter.com/#!/@wosu/","youtube":"http://www.youtube.com/wosucolumbus/","url":"http://beta.wosu.org/","pinterest":null,"geo_score":0.714,"id":"a720gscd0g5j","geo_precision":"city","state":"Ohio","facebook":"https://www.facebook.com/wosupublicmedia"},"type":"Feature","geometry":{"type":"Point","coordinates":[-84.15053,40.97793]}},{"properties":{"city":"Oklahoma City","flickr":null,"station name":"OETA","twitter":"https://twitter.com/#!/@oetaok","youtube":"http://www.youtube.com/user/oklahomanews","url":"http://www.oeta.tv/","pinterest":null,"geo_score":0.714,"id":"a720gs44xw54","geo_precision":"city","state":"Oklahoma","facebook":"https://www.facebook.com/pages/OETA-The-Oklahoma-Network/79591051299"},"type":"Feature","geometry":{"type":"Point","coordinates":[-97.562817,35.491608]}},{"properties":{"city":"Portland","flickr":"http://www.flickr.com/photos/opbphotos/","station name":"OPB","twitter":"https://twitter.com/#!/@OPB","youtube":"http://www.youtube.com/user/OPBWeb","url":"http://opb.org/","pinterest":null,"geo_score":0.714,"id":"a720gsbzkucw","geo_precision":"city","state":"Oregon","facebook":"https://www.facebook.com/oregonpublicbroadcasting"},"type":"Feature","geometry":{"type":"Point","coordinates":[-122.693157,45.498931]}},{"properties":{"city":"Philadelphia","flickr":"http://www.flickr.com/photos/whyy/","station name":"WHYY","twitter":"https://twitter.com/#!/@whyy","youtube":"http://www.youtube.com/whyyphila","url":"http://whyy.org/","pinterest":"http://pinterest.com/whyypublicmedia/","geo_score":0.714,"id":"a720grzabsas","geo_precision":"city","state":"Pennsylvania","facebook":"https://www.facebook.com/whyypublicmedia"},"type":"Feature","geometry":{"type":"Point","coordinates":[-75.11787,40.001811]}},{"properties":{"city":"Harrisburg","flickr":"http://www.flickr.com/photos/witf_election/","station name":"WITF","twitter":"https://twitter.com/#!/@witfnews","youtube":"http://www.youtube.com/user/witfnewmedia","url":"http://www.witf.org/news","pinterest":"http://pinterest.com/witf/","geo_score":0.714,"id":"a720gsag5bhq","geo_precision":"city","state":"Pennsylvania","facebook":"https://www.facebook.com/witf.org"},"type":"Feature","geometry":{"type":"Point","coordinates":[-76.869644,40.264589]}},{"properties":{"city":"Bethlehem","flickr":"http://www.flickr.com/photos/pbs39/","station name":"WLVT","twitter":null,"youtube":"http://www.youtube.com/user/PBS39","url":"http://www.wlvt.org/","pinterest":null,"geo_score":0.714,"id":"a720grynqbxr","geo_precision":"city","state":"Pennsylvania","facebook":"https://www.facebook.com/pages/PBS39/69577522666"},"type":"Feature","geometry":{"type":"Point","coordinates":[-78.730307,40.86173]}},{"properties":{"city":"University Park","flickr":"http://www.flickr.com/photos/wpsuphotos/","station name":"WPSU","twitter":"https://twitter.com/#!/@WPSU","youtube":"http://www.youtube.com/user/wpsu","url":"http://wpsu.org/","pinterest":null,"geo_score":0.714,"id":"a720gsbonic1","geo_precision":"city","state":"Pennsylvania","facebook":"https://www.facebook.com/wpsu.org"},"type":"Feature","geometry":{"type":"Point","coordinates":[-77.862339,40.799672]}},{"properties":{"city":"Pittsburgh","flickr":"http://www.flickr.com/photos/wqed/","station name":"WQED","twitter":"https://twitter.com/#!/@WQED","youtube":"http://www.youtube.com/WQEDPittsburgh","url":"http://www.wqed.org/index_full.php","pinterest":null,"geo_score":0.714,"id":"a720gs5jsdz9","geo_precision":"city","state":"Pennsylvania","facebook":"https://www.facebook.com/WQEDPittsburgh"},"type":"Feature","geometry":{"type":"Point","coordinates":[-80.024817,40.434436]}},{"properties":{"city":"Pittston","flickr":"http://www.flickr.com/photos/wvia/","station name":"WVIA","twitter":"https://twitter.com/#!/@WVIATVFM","youtube":"http://www.youtube.com/user/WVIATVFM","url":"http://www.wvia.org/","pinterest":null,"geo_score":0.714,"id":"a720grygyiif","geo_precision":"city","state":"Pennsylvania","facebook":"https://www.facebook.com/WVIATVFM"},"type":"Feature","geometry":{"type":"Point","coordinates":[-75.66491,40.236485]}},{"properties":{"city":"Providence","flickr":null,"station name":"RIPBS","twitter":"https://twitter.com/#!/ripbs36","youtube":"http://www.youtube.com/user/rhodeislandpbs","url":"http://www.ripbs.org/","pinterest":null,"geo_score":0.714,"id":"a720gsaj1b7x","geo_precision":"city","state":"Rhode Island","facebook":"https://www.facebook.com/pages/Rhode-Island-PBS/84438595184"},"type":"Feature","geometry":{"type":"Point","coordinates":[-71.414451,41.82275]}},{"properties":{"city":"Columbia","flickr":"http://www.flickr.com/photos/southcarolinaetv/","station name":"SCETV","twitter":"http://twitter.com/#!/@scetv","youtube":"http://www.youtube.com/user/SouthCarolinaETV/","url":"http://www.scetv.org/","pinterest":null,"geo_score":0.714,"id":"a720gs985kns","geo_precision":"city","state":"South Carolina","facebook":"https://www.facebook.com/SouthCarolinaETV"},"type":"Feature","geometry":{"type":"Point","coordinates":[-81.024864,33.987454]}},{"properties":{"city":"Vermillion","flickr":"http://www.flickr.com/photos/sdpb","station name":"SDPB","twitter":"https://twitter.com/#!/@sodakpb","youtube":"http://www.youtube.com/user/SDPBdotORG","url":"http://www.sdpb.org/","pinterest":null,"geo_score":0.714,"id":"a720gsbriauk","geo_precision":"city","state":"South Dakota","facebook":"https://www.facebook.com/SoDakPB"},"type":"Feature","geometry":{"type":"Point","coordinates":[-96.973318,42.854124]}},{"properties":{"city":"Knoxville","flickr":"http://www.flickr.com/photos/etptv/","station name":"East Tenn PB","twitter":"https://twitter.com/#!/@EastTennPBS","youtube":"http://www.youtube.com/EastTennesseePBS","url":"http://www.easttennesseepbs.org/","pinterest":null,"geo_score":0.0,"id":"a720gscshfzo","geo_precision":"unmatched","state":"Tennessee","facebook":"https://www.facebook.com/EastTennesseePBS"},"type":"Feature","geometry":null},{"properties":{"city":"Nashville","flickr":null,"station name":"NPTV","twitter":"https://twitter.com/#!/@npt8","youtube":"http://www.youtube.com/wnptvideos","url":"http://www.wnpt.org/index.php","pinterest":null,"geo_score":0.714,"id":"a720gs6ycnjh","geo_precision":"city","state":"Tennessee","facebook":"https://www.facebook.com/nashvillepublictelevision"},"type":"Feature","geometry":{"type":"Point","coordinates":[-86.778098,36.165688]}},{"properties":{"city":"Cookeville","flickr":"http://www.flickr.com/groups/wctetv/","station name":"WCTE","twitter":"https://twitter.com/#!/@WCTE","youtube":"http://www.youtube.com/user/wctevideo","url":"http://www.wcte.org/","pinterest":null,"geo_score":0.714,"id":"a720gs0nzu22","geo_precision":"city","state":"Tennessee","facebook":"https://www.facebook.com/WCTETV"},"type":"Feature","geometry":{"type":"Point","coordinates":[-85.542327,36.217846]}},{"properties":{"city":"Cordova","flickr":null,"station name":"WKNO","twitter":"https://twitter.com/#!/@wkno_TV","youtube":"http://www.youtube.com/user/WKNOPBS","url":"http://www.wkno.org/","pinterest":null,"geo_score":0.714,"id":"a720gs2l30rf","geo_precision":"city","state":"Tennessee","facebook":"https://www.facebook.com/WKNOTV"},"type":"Feature","geometry":{"type":"Point","coordinates":[-89.900314,35.104589]}},{"properties":{"city":"Martin","flickr":null,"station name":"WLJT","twitter":"https://twitter.com/#!/@wljt","youtube":"http://www.youtube.com/user/WLJTvideo?ob=5","url":"http://wljt.org/","pinterest":null,"geo_score":0.714,"id":"a720gs6yomev","geo_precision":"city","state":"Tennessee","facebook":"https://www.facebook.com/WLJTDT"},"type":"Feature","geometry":{"type":"Point","coordinates":[-88.782561,36.324103]}},{"properties":{"city":"Chattanooga","flickr":null,"station name":"WTCI","twitter":"https://twitter.com/#!/@wtci","youtube":null,"url":"http://wtcitv.org/","pinterest":null,"geo_score":0.714,"id":"a720gs6c0ll0","geo_precision":"city","state":"Tennessee","facebook":"https://www.facebook.com/pages/WTCI-TV/29358876780"},"type":"Feature","geometry":{"type":"Point","coordinates":[-85.206426,35.017818]}},{"properties":{"city":"Midland","flickr":null,"station name":"BasinPBS","twitter":"https://twitter.com/#!/@basinpbs","youtube":"http://www.youtube.com/user/BasinPBS","url":"http://www.basinpbs.org/","pinterest":"http://pinterest.com/basinpbs/","geo_score":0.714,"id":"a720gs1p8hur","geo_precision":"city","state":"Texas","facebook":"https://www.facebook.com/BasinPBS"},"type":"Feature","geometry":{"type":"Point","coordinates":[-102.091276,31.861876]}},{"properties":{"city":"Houston","flickr":"http://www.flickr.com/photos/houstonpbs/","station name":"Houston PBS","twitter":"https://twitter.com/#!/@HoustonPBS","youtube":"http://www.youtube.com/user/HoustonPBS","url":"http://www.houstonpbs.org/","pinterest":null,"geo_score":0.714,"id":"a720gs3oa7i1","geo_precision":"city","state":"Texas","facebook":"https://www.facebook.com/houstonpbs"},"type":"Feature","geometry":{"type":"Point","coordinates":[-96.919704,29.845783]}},{"properties":{"city":"Amarillo","flickr":"http://www.flickr.com/photos/kacvtv/","station name":"KACV","twitter":"https://twitter.com/#!/@kacvtv","youtube":"http://www.youtube.com/user/kacvtv","url":"http://www.kacv.org/","pinterest":null,"geo_score":0.714,"id":"a720gs1pq8tk","geo_precision":"city","state":"Texas","facebook":"https://www.facebook.com/KACVTV"},"type":"Feature","geometry":{"type":"Point","coordinates":[-101.831297,35.221997]}},{"properties":{"city":"College Station","flickr":null,"station name":"KAMU","twitter":"https://twitter.com/#!/KAMUTVFM","youtube":null,"url":"http://www.kamu.tamu.edu/","pinterest":null,"geo_score":0.714,"id":"a720gsbmwpfj","geo_precision":"city","state":"Texas","facebook":"https://www.facebook.com/KAMUfanpage"},"type":"Feature","geometry":{"type":"Point","coordinates":[-96.289328,30.582241]}},{"properties":{"city":"El Paso","flickr":"http://www.flickr.com/photos/blastbeyond/","station name":"KCOS","twitter":"https://twitter.com/#!/@kcostv","youtube":"http://www.youtube.com/user/PBS","url":"http://www.kcostv.org/","pinterest":null,"geo_score":0.714,"id":"a720grz019iq","geo_precision":"city","state":"Texas","facebook":"https://www.facebook.com/kcostv"},"type":"Feature","geometry":{"type":"Point","coordinates":[-99.561747,32.342351]}},{"properties":{"city":"Corpus Christi","flickr":"http://www.flickr.com/photos/25461329@N02/","station name":"KEDT","twitter":"https://twitter.com/#!/@KEDT_TV_RADIO","youtube":null,"url":"http://www.kedt.org/","pinterest":null,"geo_score":0.714,"id":"a720grxibwgd","geo_precision":"city","state":"Texas","facebook":"https://www.facebook.com/pages/KEDT-TVRadio/199029810812?ref=ts"},"type":"Feature","geometry":{"type":"Point","coordinates":[-94.367813,32.027962]}},{"properties":{"city":"Dallas","flickr":null,"station name":"KERA","twitter":"https://twitter.com/#!/@keratx","youtube":"http://www.youtube.com/kerapublicmedia","url":"http://www.kera.org/","pinterest":null,"geo_score":0.714,"id":"a720gs4eez3m","geo_precision":"city","state":"Texas","facebook":"https://www.facebook.com/keratx"},"type":"Feature","geometry":{"type":"Point","coordinates":[-96.240533,32.370699]}},{"properties":{"city":"San Antonio","flickr":"http://www.flickr.com/photos/21034347@N05/","station name":"KLRN","twitter":"https://twitter.com/#!/@klrn","youtube":"http://www.youtube.com/user/KLRNTV","url":"http://www.klrn.org/","pinterest":null,"geo_score":0.714,"id":"a720gsbuzga2","geo_precision":"city","state":"Texas","facebook":"https://www.facebook.com/klrntv?ref=nf"},"type":"Feature","geometry":{"type":"Point","coordinates":[-102.192713,33.770506]}},{"properties":{"city":"Austin","flickr":"http://www.flickr.com/photos/klru/","station name":"KLRU","twitter":"https://twitter.com/#!/@klru","youtube":"http://www.youtube.com/user/KLRU","url":"http://www.klru.org/","pinterest":null,"geo_score":0.714,"id":"a720gs9m2xbr","geo_precision":"city","state":"Texas","facebook":"https://www.facebook.com/KLRUAustinPBS"},"type":"Feature","geometry":{"type":"Point","coordinates":[-97.771258,30.326374]}},{"properties":{"city":"Provo","flickr":null,"station name":"KBYU","twitter":"https://twitter.com/#!/@kbyueleven","youtube":"http://www.youtube.com/user/KBYUEleven","url":"http://www.kbyutv.org/","pinterest":null,"geo_score":0.714,"id":"a720gs3c1gx6","geo_precision":"city","state":"Utah","facebook":"https://www.facebook.com/KBYUeleven"},"type":"Feature","geometry":{"type":"Point","coordinates":[-111.695558,40.235053]}},{"properties":{"city":"Salt Lake City","flickr":null,"station name":"KUED","twitter":"https://twitter.com/#!/@kued","youtube":"http://www.youtube.com/user/KUEDCHANNEL7?ob=5","url":"http://www.kued.org/","pinterest":null,"geo_score":0.714,"id":"a720gs4v7kdg","geo_precision":"city","state":"Utah","facebook":"https://www.facebook.com/kuedchannel7"},"type":"Feature","geometry":{"type":"Point","coordinates":[-111.900719,40.756095]}},{"properties":{"city":"Colchester","flickr":null,"station name":"VPT","twitter":"https://twitter.com/#!/VermontPublicTV","youtube":"http://www.youtube.com/VermontPublicTV","url":"http://www.vpt.org/","pinterest":"http://pinterest.com/VermontPublicTV/","geo_score":0.714,"id":"a720grwydlh7","geo_precision":"city","state":"Vermont","facebook":"https://www.facebook.com/VermontPublicTV"},"type":"Feature","geometry":{"type":"Point","coordinates":[-73.165092,44.49518]}},{"properties":{"city":"St Thomas","flickr":"http://www.flickr.com/photos/43098642@N03/","station name":"WTJX","twitter":"https://twitter.com/#!/@wtjx","youtube":"http://www.youtube.com/wtjx","url":"http://wtjx.org/","pinterest":null,"geo_score":0.0,"id":"a720gs9c589k","geo_precision":"unmatched","state":"Virgin Islands","facebook":"https://www.facebook.com/wtjx"},"type":"Feature","geometry":null},{"properties":{"city":"Tacoma","flickr":null,"station name":"KBTC","twitter":"https://twitter.com/#!/KBTCtv","youtube":null,"url":"http://www.kbtc.org/","pinterest":null,"geo_score":0.714,"id":"a720gs9ne6q1","geo_precision":"city","state":"Washington","facebook":"https://www.facebook.com/KBTCtv"},"type":"Feature","geometry":{"type":"Point","coordinates":[-122.444335,47.253671]}},{"properties":{"city":"Seattle","flickr":"http://www.flickr.com/photos/kcts9/","station name":"KCTS9","twitter":"https://twitter.com/#!/@kcts9","youtube":"http://www.youtube.com/user/KCTS9","url":"http://kcts9.org/","pinterest":null,"geo_score":0.714,"id":"a720gs3c47hf","geo_precision":"city","state":"Washington","facebook":"https://www.facebook.com/KCTS9"},"type":"Feature","geometry":{"type":"Point","coordinates":[-121.803388,47.432251]}},{"properties":{"city":"Spokane","flickr":"http://www.flickr.com/photos/friendsofksps/","station name":"KSPS","twitter":"https://twitter.com/#!/@kspspublictv","youtube":"http://www.youtube.com/user/kspstv","url":"http://www.ksps.org/","pinterest":null,"geo_score":0.714,"id":"a720gsbum9x2","geo_precision":"city","state":"Washington","facebook":"https://www.facebook.com/ksps"},"type":"Feature","geometry":{"type":"Point","coordinates":[-117.435997,47.66264]}},{"properties":{"city":"Pullman","flickr":null,"station name":"NWPTV","twitter":"https://twitter.com/#!/@NWPTV","youtube":"http://www.youtube.com/northwestpublictv","url":"http://nwptv.org/","pinterest":null,"geo_score":0.714,"id":"a720gs3doxr3","geo_precision":"city","state":"Washington","facebook":"https://www.facebook.com/pages/Northwest-Public-Television/106271202768238"},"type":"Feature","geometry":{"type":"Point","coordinates":[-117.317741,46.82748]}},{"properties":{"city":"Harrisonburg","flickr":null,"station name":"WVPT","twitter":"https://twitter.com/#!/@wvpt","youtube":"http://www.youtube.com/user/wvpt","url":"http://www.wvpt.net/","pinterest":null,"geo_score":0.714,"id":"a720gsb6sj32","geo_precision":"city","state":"Virginia","facebook":"https://www.facebook.com/pages/WVPT-Virginias-Public-Television/99847512274"},"type":"Feature","geometry":{"type":"Point","coordinates":[-78.877137,38.422777]}},{"properties":{"city":"Norfolk","flickr":null,"station name":"WHRO","twitter":"https://twitter.com/#!/@WHRO","youtube":"http://www.youtube.com/user/WHROTV","url":"http://www.whro.org/home/","pinterest":null,"geo_score":0.714,"id":"a720gs2k9yjb","geo_precision":"city","state":"Virginia","facebook":"https://www.facebook.com/whropublicmedia"},"type":"Feature","geometry":{"type":"Point","coordinates":[-76.208521,36.895911]}},{"properties":{"city":"Roanoke","flickr":null,"station name":"Blue Ridge","twitter":"https://twitter.com/#!/blueridgepbs","youtube":"http://www.youtube.com/user/BlueRidgePBS","url":"http://www.blueridgepbs.org/","pinterest":null,"geo_score":0.714,"id":"a720gs9pe26s","geo_precision":"city","state":"Virginia","facebook":"https://www.facebook.com/pages/Blue-Ridge-PBS/33202055655"},"type":"Feature","geometry":{"type":"Point","coordinates":[-79.95786,37.274175]}},{"properties":{"city":"Charleston","flickr":null,"station name":"WV Public Broadcasting","twitter":"https://twitter.com/#!/wvpubnews","youtube":"http://www.youtube.com/user/WVPublicBroadcasting","url":"http://www.wvpubcast.org/","pinterest":null,"geo_score":0.714,"id":"a720gs2w5g6m","geo_precision":"city","state":"West Virginia","facebook":"https://www.facebook.com/wvpubcast"},"type":"Feature","geometry":{"type":"Point","coordinates":[-77.860278,39.313538]}},{"properties":{"city":"Milwaukee","flickr":null,"station name":"MPTV","twitter":"https://twitter.com/#!/InsideMPTV10_36","youtube":"http://www.youtube.com/user/MPTV1036","url":"http://www.mptv.org/","pinterest":null,"geo_score":0.714,"id":"a720grykugq9","geo_precision":"city","state":"Wisconsin","facebook":"https://www.facebook.com/pages/Milwaukee-Public-Television/46081763207"},"type":"Feature","geometry":{"type":"Point","coordinates":[-87.958409,43.011264]}},{"properties":{"city":"Madison","flickr":"http://www.flickr.com/photos/wisconsinpublictelevision/","station name":"WPT","twitter":"https://twitter.com/#!/@wispublictv","youtube":"http://www.youtube.com/user/bemoretunedin","url":"http://wpt.org/","pinterest":null,"geo_score":0.714,"id":"a720gs92otu2","geo_precision":"city","state":"Wisconsin","facebook":"https://www.facebook.com/WisconsinPublicTelevision"},"type":"Feature","geometry":{"type":"Point","coordinates":[-89.423861,43.06956]}},{"properties":{"city":"Riverton","flickr":null,"station name":"WyoPBS","twitter":"https://twitter.com/#!/@WyomingPBS","youtube":"http://www.youtube.com/user/WyoPBS","url":"http://www.wyomingpbs.org/","pinterest":null,"geo_score":0.714,"id":"a720grzq9jrp","geo_precision":"city","state":"Wyoming","facebook":"https://www.facebook.com/WyomingPBS"},"type":"Feature","geometry":{"type":"Point","coordinates":[-108.925734,43.180647]}}],"is_temporal":false,"author":{"url":"","metadata":"","contact_name":"","contact_address":"","source":"","contact_phone":""},"source":"","pagination":{"sort":null,"start":0,"total":145,"limit":1000000},"state":"complete","tags":"","published":"2014-08-14T15:09:37-04:00","id":260289}