{"type":"FeatureCollection","data_type":"Dataset","url_type":null,"permissions":[{"permissions":{"download":true,"view":true},"group_id":"everyone"}],"classification":null,"title":"Annual PM 2008 2014 BAU","count":327,"stream_id":260720,"contributor":{"url":"http://geocommons.com/users/38841","name":"gmstella"},"data_attributes":null,"calculation_params":null,"icon_link":null,"link":"http://geocommons.com/overlays/260720.json","extent":[-98.4861,33.9915,-68.2609,46.9338],"geometry_types":["point"],"unique_name":null,"name":"Annual PM 2008 2014 BAU","feature_count":327,"description":"","next_feature":null,"is_raster":false,"short_classification":"Y","stats":{"lon":{"max":-68.2609,"variance":53.4283253745463,"mean":-83.2275107889909,"stdev":7.30946820052911,"min":-98.486111,"median":-83.148754},"monitor id":{"max":551330027,"variance":1.76513416867204e+16,"mean":327378333.262997,"stdev":132858351.96449,"min":10331002,"median":340390004},"2008 dv":{"max":18.33,"variance":3.94614099735465,"mean":11.7893577981651,"stdev":1.9864896167246,"min":5.1,"median":12.02},"lat":{"max":46.933754,"variance":8.83979784036404,"mean":39.8564973149847,"stdev":2.97317975244754,"min":33.991509,"median":40.111975},"2014 dv":{"max":16.6,"variance":2.75753488677511,"mean":10.5284097859327,"stdev":1.66058269495232,"min":4.64,"median":10.72}},"features":[{"properties":{"column_4":"Colbert, Alabama","lon":-87.650556,"monitor id":10331002,"county":"Colbert","2008 dv":12.21,"id":"a73axwpzmdnk","lat":34.760556,"state":"Alabama","2014 dv":10.72},"type":"Feature","geometry":{"type":"Point","coordinates":[-87.650556,34.760556]}},{"properties":{"column_4":"Madison, Alabama","lon":-86.58637,"monitor id":10890014,"county":"Madison","2008 dv":12.92,"id":"a73axwnrat21","lat":34.68767,"state":"Alabama","2014 dv":11.07},"type":"Feature","geometry":{"type":"Point","coordinates":[-86.58637,34.68767]}},{"properties":{"column_4":"Morgan, Alabama","lon":-86.976939,"monitor id":11030011,"county":"Morgan","2008 dv":12.7,"id":"a73axwh5o6tq","lat":34.518735,"state":"Alabama","2014 dv":11.01},"type":"Feature","geometry":{"type":"Point","coordinates":[-86.976939,34.518735]}},{"properties":{"column_4":"Crittenden, Arkansas","lon":-90.193141,"monitor id":50350005,"county":"Crittenden","2008 dv":12.43,"id":"a73axwo4a85t","lat":35.197288,"state":"Arkansas","2014 dv":11.13},"type":"Feature","geometry":{"type":"Point","coordinates":[-90.193141,35.197288]}},{"properties":{"column_4":"Faulkner, Arkansas","lon":-92.427859,"monitor id":50450002,"county":"Faulkner","2008 dv":11.69,"id":"a73axwtj6muf","lat":35.105193,"state":"Arkansas","2014 dv":10.78},"type":"Feature","geometry":{"type":"Point","coordinates":[-92.427859,35.105193]}},{"properties":{"column_4":"Jackson, Arkansas","lon":-91.189506,"monitor id":50670001,"county":"Jackson","2008 dv":11.42,"id":"a73axwhwskg4","lat":35.638169,"state":"Arkansas","2014 dv":10.24},"type":"Feature","geometry":{"type":"Point","coordinates":[-91.189506,35.638169]}},{"properties":{"column_4":"Pope, Arkansas","lon":-93.10005,"monitor id":51150003,"county":"Pope","2008 dv":12.11,"id":"a73axwn6j052","lat":35.259775,"state":"Arkansas","2014 dv":11.25},"type":"Feature","geometry":{"type":"Point","coordinates":[-93.10005,35.259775]}},{"properties":{"column_4":"Pulaski, Arkansas","lon":-92.281296,"monitor id":51190007,"county":"Pulaski","2008 dv":12.18,"id":"a73axwlm74al","lat":34.756189,"state":"Arkansas","2014 dv":11.18},"type":"Feature","geometry":{"type":"Point","coordinates":[-92.281296,34.756189]}},{"properties":{"column_4":"Sebastian, Arkansas","lon":-94.424288,"monitor id":51310008,"county":"Sebastian","2008 dv":11.47,"id":"a73axwq4l9v1","lat":35.389672,"state":"Arkansas","2014 dv":10.71},"type":"Feature","geometry":{"type":"Point","coordinates":[-94.424288,35.389672]}},{"properties":{"column_4":"White, Arkansas","lon":-91.715596,"monitor id":51450001,"county":"White","2008 dv":11.19,"id":"a73axwic2uhy","lat":35.24894,"state":"Arkansas","2014 dv":10.31},"type":"Feature","geometry":{"type":"Point","coordinates":[-91.715596,35.24894]}},{"properties":{"column_4":"Fairfield, Connecticut","lon":-73.194722,"monitor id":90010010,"county":"Fairfield","2008 dv":12.35,"id":"a73axwgw2vjc","lat":41.170833,"state":"Connecticut","2014 dv":11.36},"type":"Feature","geometry":{"type":"Point","coordinates":[-73.194722,41.170833]}},{"properties":{"column_4":"Hartford, Connecticut","lon":-72.631667,"monitor id":90031003,"county":"Hartford","2008 dv":10.08,"id":"a73axwr48vi5","lat":41.784722,"state":"Connecticut","2014 dv":9.25},"type":"Feature","geometry":{"type":"Point","coordinates":[-72.631667,41.784722]}},{"properties":{"column_4":"Litchfield, Connecticut","lon":-73.297222,"monitor id":90050005,"county":"Litchfield","2008 dv":7.33,"id":"a73axwqo3mt2","lat":41.821389,"state":"Connecticut","2014 dv":6.63},"type":"Feature","geometry":{"type":"Point","coordinates":[-73.297222,41.821389]}},{"properties":{"column_4":"New Haven, Connecticut","lon":-72.916944,"monitor id":90091123,"county":"New Haven","2008 dv":12.24,"id":"a73axwu1m1sh","lat":41.310833,"state":"Connecticut","2014 dv":11.22},"type":"Feature","geometry":{"type":"Point","coordinates":[-72.916944,41.310833]}},{"properties":{"column_4":"New London, Connecticut","lon":-72.076667,"monitor id":90113002,"county":"New London","2008 dv":10.11,"id":"a73axwrik9ek","lat":41.524167,"state":"Connecticut","2014 dv":9.24},"type":"Feature","geometry":{"type":"Point","coordinates":[-72.076667,41.524167]}},{"properties":{"column_4":"Kent, Delaware","lon":-75.518056,"monitor id":100010003,"county":"Kent","2008 dv":11.71,"id":"a73axwtk7mn7","lat":39.155,"state":"Delaware","2014 dv":10.29},"type":"Feature","geometry":{"type":"Point","coordinates":[-75.518056,39.155]}},{"properties":{"column_4":"New Castle, Delaware","lon":-75.558056,"monitor id":100032004,"county":"New Castle","2008 dv":14.17,"id":"a73axwicrsqb","lat":39.739444,"state":"Delaware","2014 dv":12.64},"type":"Feature","geometry":{"type":"Point","coordinates":[-75.558056,39.739444]}},{"properties":{"column_4":"Sussex, Delaware","lon":-75.613056,"monitor id":100051002,"county":"Sussex","2008 dv":12.72,"id":"a73axwnurq9z","lat":38.644444,"state":"Delaware","2014 dv":11.1},"type":"Feature","geometry":{"type":"Point","coordinates":[-75.613056,38.644444]}},{"properties":{"column_4":"District of Columbia, District Of Columbia","lon":-77.0325,"monitor id":110010042,"county":"District of Columbia","2008 dv":13.1,"id":"a73axwgzb8bg","lat":38.880833,"state":"District Of Columbia","2014 dv":11.23},"type":"Feature","geometry":{"type":"Point","coordinates":[-77.0325,38.880833]}},{"properties":{"column_4":"Hall, Georgia","lon":-83.8139,"monitor id":131390003,"county":"Hall","2008 dv":13.03,"id":"a73axwj3uqcg","lat":34.300342,"state":"Georgia","2014 dv":11.08},"type":"Feature","geometry":{"type":"Point","coordinates":[-83.8139,34.300342]}},{"properties":{"column_4":"Champaign, Illinois","lon":-88.372549,"monitor id":170191001,"county":"Champaign","2008 dv":11.74,"id":"a73axwh7ggmv","lat":40.052242,"state":"Illinois","2014 dv":10.48},"type":"Feature","geometry":{"type":"Point","coordinates":[-88.372549,40.052242]}},{"properties":{"column_4":"Cook, Illinois","lon":-87.749928,"monitor id":170310052,"county":"Cook","2008 dv":14.05,"id":"a73axwkrllnn","lat":41.965485,"state":"Illinois","2014 dv":12.99},"type":"Feature","geometry":{"type":"Point","coordinates":[-87.749928,41.965485]}},{"properties":{"column_4":"DuPage, Illinois","lon":-88.152534,"monitor id":170434002,"county":"DuPage","2008 dv":12.57,"id":"a73axwlxpmo1","lat":41.771071,"state":"Illinois","2014 dv":11.54},"type":"Feature","geometry":{"type":"Point","coordinates":[-88.152534,41.771071]}},{"properties":{"column_4":"Hamilton, Illinois","lon":-88.624943,"monitor id":170650002,"county":"Hamilton","2008 dv":12.34,"id":"a73axwktkx1b","lat":38.082155,"state":"Illinois","2014 dv":10.89},"type":"Feature","geometry":{"type":"Point","coordinates":[-88.624943,38.082155]}},{"properties":{"column_4":"Jersey, Illinois","lon":-90.32408,"monitor id":170831001,"county":"Jersey","2008 dv":11.62,"id":"a73axwev1dd2","lat":39.110539,"state":"Illinois","2014 dv":10.4},"type":"Feature","geometry":{"type":"Point","coordinates":[-90.32408,39.110539]}},{"properties":{"column_4":"Kane, Illinois","lon":-88.329374,"monitor id":170890007,"county":"Kane","2008 dv":12.49,"id":"a73axwl6netc","lat":41.784717,"state":"Illinois","2014 dv":11.49},"type":"Feature","geometry":{"type":"Point","coordinates":[-88.329374,41.784717]}},{"properties":{"column_4":"Lake, Illinois","lon":-87.810047,"monitor id":170971007,"county":"Lake","2008 dv":10.62,"id":"a73axwm0rpel","lat":42.467573,"state":"Illinois","2014 dv":9.7},"type":"Feature","geometry":{"type":"Point","coordinates":[-87.810047,42.467573]}},{"properties":{"column_4":"McHenry, Illinois","lon":-88.242207,"monitor id":171110001,"county":"McHenry","2008 dv":11.15,"id":"a73axwj1r2nv","lat":42.221442,"state":"Illinois","2014 dv":10.19},"type":"Feature","geometry":{"type":"Point","coordinates":[-88.242207,42.221442]}},{"properties":{"column_4":"McLean, Illinois","lon":-88.996896,"monitor id":171132003,"county":"McLean","2008 dv":11.49,"id":"a73axwn8aw9o","lat":40.518735,"state":"Illinois","2014 dv":10.35},"type":"Feature","geometry":{"type":"Point","coordinates":[-88.996896,40.518735]}},{"properties":{"column_4":"Macon, Illinois","lon":-88.925594,"monitor id":171150013,"county":"Macon","2008 dv":12.72,"id":"a73axwosfr11","lat":39.866834,"state":"Illinois","2014 dv":11.42},"type":"Feature","geometry":{"type":"Point","coordinates":[-88.925594,39.866834]}},{"properties":{"column_4":"Madison, Illinois","lon":-90.139675,"monitor id":171191007,"county":"Madison","2008 dv":15.71,"id":"a73axwiwi8qu","lat":38.704534,"state":"Illinois","2014 dv":14.39},"type":"Feature","geometry":{"type":"Point","coordinates":[-90.139675,38.704534]}},{"properties":{"column_4":"Peoria, Illinois","lon":-89.584737,"monitor id":171430037,"county":"Peoria","2008 dv":12.09,"id":"a73axwq0lquz","lat":40.697007,"state":"Illinois","2014 dv":11.07},"type":"Feature","geometry":{"type":"Point","coordinates":[-89.584737,40.697007]}},{"properties":{"column_4":"Randolph, Illinois","lon":-89.788459,"monitor id":171570001,"county":"Randolph","2008 dv":12.01,"id":"a73axwtks7qo","lat":38.176278,"state":"Illinois","2014 dv":10.8},"type":"Feature","geometry":{"type":"Point","coordinates":[-89.788459,38.176278]}},{"properties":{"column_4":"Rock Island, Illinois","lon":-90.51735,"monitor id":171613002,"county":"Rock Island","2008 dv":11.16,"id":"a73axwteautj","lat":41.514727,"state":"Illinois","2014 dv":10.12},"type":"Feature","geometry":{"type":"Point","coordinates":[-90.51735,41.514727]}},{"properties":{"column_4":"Saint Clair, Illinois","lon":-90.160477,"monitor id":171630010,"county":"Saint Clair","2008 dv":14.21,"id":"a73axwjlkza2","lat":38.612034,"state":"Illinois","2014 dv":12.99},"type":"Feature","geometry":{"type":"Point","coordinates":[-90.160477,38.612034]}},{"properties":{"column_4":"Sangamon, Illinois","lon":-89.644164,"monitor id":171670012,"county":"Sangamon","2008 dv":11.88,"id":"a73axwm5rmct","lat":39.831921,"state":"Illinois","2014 dv":10.66},"type":"Feature","geometry":{"type":"Point","coordinates":[-89.644164,39.831921]}},{"properties":{"column_4":"Will, Illinois","lon":-88.116474,"monitor id":171971002,"county":"Will","2008 dv":12.8,"id":"a73axwt9hr94","lat":41.526885,"state":"Illinois","2014 dv":11.72},"type":"Feature","geometry":{"type":"Point","coordinates":[-88.116474,41.526885]}},{"properties":{"column_4":"Winnebago, Illinois","lon":-89.092767,"monitor id":172010013,"county":"Winnebago","2008 dv":11.82,"id":"a73axwuedv6r","lat":42.263081,"state":"Illinois","2014 dv":10.93},"type":"Feature","geometry":{"type":"Point","coordinates":[-89.092767,42.263081]}},{"properties":{"column_4":"Allen, Indiana","lon":-85.101944,"monitor id":180030004,"county":"Allen","2008 dv":12.32,"id":"a73axwhiuarl","lat":41.094722,"state":"Indiana","2014 dv":11.24},"type":"Feature","geometry":{"type":"Point","coordinates":[-85.101944,41.094722]}},{"properties":{"column_4":"Clark, Indiana","lon":-85.740153,"monitor id":180190006,"county":"Clark","2008 dv":15.27,"id":"a73axwtk1q0w","lat":38.277675,"state":"Indiana","2014 dv":13.46},"type":"Feature","geometry":{"type":"Point","coordinates":[-85.740153,38.277675]}},{"properties":{"column_4":"Delaware, Indiana","lon":-85.387999,"monitor id":180350006,"county":"Delaware","2008 dv":12.25,"id":"a73axwthka5z","lat":40.201141,"state":"Indiana","2014 dv":10.98},"type":"Feature","geometry":{"type":"Point","coordinates":[-85.387999,40.201141]}},{"properties":{"column_4":"Dubois, Indiana","lon":-86.928322,"monitor id":180370005,"county":"Dubois","2008 dv":13.71,"id":"a73axwfz7pig","lat":38.404778,"state":"Indiana","2014 dv":12.0},"type":"Feature","geometry":{"type":"Point","coordinates":[-86.928322,38.404778]}},{"properties":{"column_4":"Floyd, Indiana","lon":-85.834167,"monitor id":180431004,"county":"Floyd","2008 dv":13.57,"id":"a73axwj0i88b","lat":38.308056,"state":"Indiana","2014 dv":11.84},"type":"Feature","geometry":{"type":"Point","coordinates":[-85.834167,38.308056]}},{"properties":{"column_4":"Howard, Indiana","lon":-86.132879,"monitor id":180670003,"county":"Howard","2008 dv":12.44,"id":"a73axwjd216u","lat":40.485479,"state":"Indiana","2014 dv":11.19},"type":"Feature","geometry":{"type":"Point","coordinates":[-86.132879,40.485479]}},{"properties":{"column_4":"Knox, Indiana","lon":-87.484733,"monitor id":180830004,"county":"Knox","2008 dv":12.85,"id":"a73axwulxlyi","lat":38.740882,"state":"Indiana","2014 dv":11.42},"type":"Feature","geometry":{"type":"Point","coordinates":[-87.484733,38.740882]}},{"properties":{"column_4":"Lake, Indiana","lon":-87.342991,"monitor id":180890031,"county":"Lake","2008 dv":13.33,"id":"a73axwmmxoc6","lat":41.598505,"state":"Indiana","2014 dv":12.43},"type":"Feature","geometry":{"type":"Point","coordinates":[-87.342991,41.598505]}},{"properties":{"column_4":"LaPorte, Indiana","lon":-86.891216,"monitor id":180910011,"county":"LaPorte","2008 dv":11.52,"id":"a73axwebwcum","lat":41.707212,"state":"Indiana","2014 dv":10.58},"type":"Feature","geometry":{"type":"Point","coordinates":[-86.891216,41.707212]}},{"properties":{"column_4":"Madison, Indiana","lon":-85.679952,"monitor id":180950009,"county":"Madison","2008 dv":12.58,"id":"a73axwrxmgb3","lat":40.111975,"state":"Indiana","2014 dv":11.27},"type":"Feature","geometry":{"type":"Point","coordinates":[-85.679952,40.111975]}},{"properties":{"column_4":"Marion, Indiana","lon":-86.214628,"monitor id":180970081,"county":"Marion","2008 dv":14.68,"id":"a73axwogyes4","lat":39.788903,"state":"Indiana","2014 dv":13.26},"type":"Feature","geometry":{"type":"Point","coordinates":[-86.214628,39.788903]}},{"properties":{"column_4":"Porter, Indiana","lon":-87.199167,"monitor id":181270024,"county":"Porter","2008 dv":12.16,"id":"a73axwshbnvt","lat":41.6175,"state":"Indiana","2014 dv":11.23},"type":"Feature","geometry":{"type":"Point","coordinates":[-87.199167,41.6175]}},{"properties":{"column_4":"St. Joseph, Indiana","lon":-86.207826,"monitor id":181410014,"county":"St. Joseph","2008 dv":12.02,"id":"a73axwix5waa","lat":41.66346,"state":"Indiana","2014 dv":11.14},"type":"Feature","geometry":{"type":"Point","coordinates":[-86.207826,41.66346]}},{"properties":{"column_4":"Spencer, Indiana","lon":-86.983214,"monitor id":181470009,"county":"Spencer","2008 dv":12.97,"id":"a73axwkst000","lat":38.167523,"state":"Indiana","2014 dv":11.29},"type":"Feature","geometry":{"type":"Point","coordinates":[-86.983214,38.167523]}},{"properties":{"column_4":"Tippecanoe, Indiana","lon":-86.8525,"monitor id":181570008,"county":"Tippecanoe","2008 dv":12.2,"id":"a73axwftau11","lat":40.431639,"state":"Indiana","2014 dv":10.92},"type":"Feature","geometry":{"type":"Point","coordinates":[-86.8525,40.431639]}},{"properties":{"column_4":"Vanderburgh, Indiana","lon":-87.569444,"monitor id":181630012,"county":"Vanderburgh","2008 dv":13.66,"id":"a73axwkcws8m","lat":38.021667,"state":"Indiana","2014 dv":12.32},"type":"Feature","geometry":{"type":"Point","coordinates":[-87.569444,38.021667]}},{"properties":{"column_4":"Vigo, Indiana","lon":-87.401389,"monitor id":181670018,"county":"Vigo","2008 dv":13.16,"id":"a73axwpoyy6w","lat":39.486111,"state":"Indiana","2014 dv":11.65},"type":"Feature","geometry":{"type":"Point","coordinates":[-87.401389,39.486111]}},{"properties":{"column_4":"Black Hawk, Iowa","lon":-92.343889,"monitor id":190130008,"county":"Black Hawk","2008 dv":10.92,"id":"a73axwierxrx","lat":42.493056,"state":"Iowa","2014 dv":9.89},"type":"Feature","geometry":{"type":"Point","coordinates":[-92.343889,42.493056]}},{"properties":{"column_4":"Clinton, Iowa","lon":-90.177574,"monitor id":190450021,"county":"Clinton","2008 dv":11.67,"id":"a73axwf4f42b","lat":41.874999,"state":"Iowa","2014 dv":10.64},"type":"Feature","geometry":{"type":"Point","coordinates":[-90.177574,41.874999]}},{"properties":{"column_4":"Johnson, Iowa","lon":-91.503478,"monitor id":191032001,"county":"Johnson","2008 dv":11.28,"id":"a73axwq472my","lat":41.657232,"state":"Iowa","2014 dv":10.3},"type":"Feature","geometry":{"type":"Point","coordinates":[-91.503478,41.657232]}},{"properties":{"column_4":"Linn, Iowa","lon":-91.678611,"monitor id":191130037,"county":"Linn","2008 dv":10.38,"id":"a73axwi9d5pl","lat":42.008333,"state":"Iowa","2014 dv":9.38},"type":"Feature","geometry":{"type":"Point","coordinates":[-91.678611,42.008333]}},{"properties":{"column_4":"Montgomery, Iowa","lon":-95.044951,"monitor id":191370002,"county":"Montgomery","2008 dv":9.54,"id":"a73axwim80pu","lat":40.969112,"state":"Iowa","2014 dv":8.72},"type":"Feature","geometry":{"type":"Point","coordinates":[-95.044951,40.969112]}},{"properties":{"column_4":"Muscatine, Iowa","lon":-91.067814,"monitor id":191390015,"county":"Muscatine","2008 dv":12.86,"id":"a73axwlrfwd5","lat":41.400948,"state":"Iowa","2014 dv":11.78},"type":"Feature","geometry":{"type":"Point","coordinates":[-91.067814,41.400948]}},{"properties":{"column_4":"Palo Alto, Iowa","lon":-94.693518,"monitor id":191471002,"county":"Palo Alto","2008 dv":9.02,"id":"a73axwrdz5eu","lat":43.123704,"state":"Iowa","2014 dv":8.2},"type":"Feature","geometry":{"type":"Point","coordinates":[-94.693518,43.123704]}},{"properties":{"column_4":"Polk, Iowa","lon":-93.6433,"monitor id":191530030,"county":"Polk","2008 dv":10.03,"id":"a73axwgpuxp7","lat":41.603183,"state":"Iowa","2014 dv":9.11},"type":"Feature","geometry":{"type":"Point","coordinates":[-93.6433,41.603183]}},{"properties":{"column_4":"Pottawattamie, Iowa","lon":-95.896124,"monitor id":191550009,"county":"Pottawattamie","2008 dv":10.79,"id":"a73axwis9mhm","lat":41.264171,"state":"Iowa","2014 dv":10.64},"type":"Feature","geometry":{"type":"Point","coordinates":[-95.896124,41.264171]}},{"properties":{"column_4":"Scott, Iowa","lon":-90.618755,"monitor id":191630019,"county":"Scott","2008 dv":13.85,"id":"a73axwobprnj","lat":41.517772,"state":"Iowa","2014 dv":12.77},"type":"Feature","geometry":{"type":"Point","coordinates":[-90.618755,41.517772]}},{"properties":{"column_4":"Van Buren, Iowa","lon":-92.006318,"monitor id":191770006,"county":"Van Buren","2008 dv":10.03,"id":"a73axwqqdbmv","lat":40.695078,"state":"Iowa","2014 dv":9.21},"type":"Feature","geometry":{"type":"Point","coordinates":[-92.006318,40.695078]}},{"properties":{"column_4":"Woodbury, Iowa","lon":-96.387903,"monitor id":191930017,"county":"Woodbury","2008 dv":10.27,"id":"a73axwitkkxi","lat":42.517968,"state":"Iowa","2014 dv":9.6},"type":"Feature","geometry":{"type":"Point","coordinates":[-96.387903,42.517968]}},{"properties":{"column_4":"Wright, Iowa","lon":-93.655976,"monitor id":191970004,"county":"Wright","2008 dv":9.79,"id":"a73axwqzo1lk","lat":42.695391,"state":"Iowa","2014 dv":8.88},"type":"Feature","geometry":{"type":"Point","coordinates":[-93.655976,42.695391]}},{"properties":{"column_4":"Johnson, Kansas","lon":-94.686944,"monitor id":200910007,"county":"Johnson","2008 dv":9.69,"id":"a73axwelhdax","lat":38.974444,"state":"Kansas","2014 dv":8.84},"type":"Feature","geometry":{"type":"Point","coordinates":[-94.686944,38.974444]}},{"properties":{"column_4":"Linn, Kansas","lon":-94.731944,"monitor id":201070002,"county":"Linn","2008 dv":10.12,"id":"a73axwk1jzhp","lat":38.135833,"state":"Kansas","2014 dv":9.26},"type":"Feature","geometry":{"type":"Point","coordinates":[-94.731944,38.135833]}},{"properties":{"column_4":"Sedgwick, Kansas","lon":-97.313889,"monitor id":201730010,"county":"Sedgwick","2008 dv":9.5,"id":"a73axwu3mxvx","lat":37.701111,"state":"Kansas","2014 dv":8.76},"type":"Feature","geometry":{"type":"Point","coordinates":[-97.313889,37.701111]}},{"properties":{"column_4":"Sumner, Kansas","lon":-97.366389,"monitor id":201910002,"county":"Sumner","2008 dv":9.03,"id":"a73axwgt36sh","lat":37.476944,"state":"Kansas","2014 dv":8.32},"type":"Feature","geometry":{"type":"Point","coordinates":[-97.366389,37.476944]}},{"properties":{"column_4":"Wyandotte, Kansas","lon":-94.635556,"monitor id":202090021,"county":"Wyandotte","2008 dv":11.21,"id":"a73axwqnni5f","lat":39.1175,"state":"Kansas","2014 dv":10.32},"type":"Feature","geometry":{"type":"Point","coordinates":[-94.635556,39.1175]}},{"properties":{"column_4":"Bell, Kentucky","lon":-83.736944,"monitor id":210130002,"county":"Bell","2008 dv":13.83,"id":"a73axwsbttxu","lat":36.608056,"state":"Kentucky","2014 dv":11.82},"type":"Feature","geometry":{"type":"Point","coordinates":[-83.736944,36.608056]}},{"properties":{"column_4":"Boyd, Kentucky","lon":-82.640556,"monitor id":210190017,"county":"Boyd","2008 dv":13.38,"id":"a73axwj6p9z8","lat":38.459167,"state":"Kentucky","2014 dv":11.52},"type":"Feature","geometry":{"type":"Point","coordinates":[-82.640556,38.459167]}},{"properties":{"column_4":"Bullitt, Kentucky","lon":-85.713056,"monitor id":210290006,"county":"Bullitt","2008 dv":14.05,"id":"a73axwiw3eg5","lat":37.985556,"state":"Kentucky","2014 dv":12.2},"type":"Feature","geometry":{"type":"Point","coordinates":[-85.713056,37.985556]}},{"properties":{"column_4":"Carter, Kentucky","lon":-82.988333,"monitor id":210430500,"county":"Carter","2008 dv":11.51,"id":"a73axwlrug1a","lat":38.238333,"state":"Kentucky","2014 dv":9.79},"type":"Feature","geometry":{"type":"Point","coordinates":[-82.988333,38.238333]}},{"properties":{"column_4":"Christian, Kentucky","lon":-87.323611,"monitor id":210470006,"county":"Christian","2008 dv":12.83,"id":"a73axwnbq0p4","lat":36.911667,"state":"Kentucky","2014 dv":11.25},"type":"Feature","geometry":{"type":"Point","coordinates":[-87.323611,36.911667]}},{"properties":{"column_4":"Daviess, Kentucky","lon":-87.075556,"monitor id":210590005,"county":"Daviess","2008 dv":13.08,"id":"a73axwo00gv8","lat":37.780833,"state":"Kentucky","2014 dv":11.37},"type":"Feature","geometry":{"type":"Point","coordinates":[-87.075556,37.780833]}},{"properties":{"column_4":"Fayette, Kentucky","lon":-84.5075,"monitor id":210670014,"county":"Fayette","2008 dv":13.35,"id":"a73axwohh9pf","lat":38.038889,"state":"Kentucky","2014 dv":11.45},"type":"Feature","geometry":{"type":"Point","coordinates":[-84.5075,38.038889]}},{"properties":{"column_4":"Franklin, Kentucky","lon":-84.8385,"monitor id":210730006,"county":"Franklin","2008 dv":12.48,"id":"a73axwinbpj0","lat":38.219361,"state":"Kentucky","2014 dv":10.6},"type":"Feature","geometry":{"type":"Point","coordinates":[-84.8385,38.219361]}},{"properties":{"column_4":"Hardin, Kentucky","lon":-85.851667,"monitor id":210930006,"county":"Hardin","2008 dv":13.28,"id":"a73axwo879yc","lat":37.706389,"state":"Kentucky","2014 dv":11.33},"type":"Feature","geometry":{"type":"Point","coordinates":[-85.851667,37.706389]}},{"properties":{"column_4":"Henderson, Kentucky","lon":-87.463333,"monitor id":211010014,"county":"Henderson","2008 dv":13.17,"id":"a73axwg2vv01","lat":37.871389,"state":"Kentucky","2014 dv":11.68},"type":"Feature","geometry":{"type":"Point","coordinates":[-87.463333,37.871389]}},{"properties":{"column_4":"Jefferson, Kentucky","lon":-85.77935,"monitor id":211110044,"county":"Jefferson","2008 dv":14.47,"id":"a73axwigrzuz","lat":38.19113,"state":"Kentucky","2014 dv":12.63},"type":"Feature","geometry":{"type":"Point","coordinates":[-85.77935,38.19113]}},{"properties":{"column_4":"Kenton, Kentucky","lon":-84.525,"monitor id":211170007,"county":"Kenton","2008 dv":13.09,"id":"a73axwq981ph","lat":39.0725,"state":"Kentucky","2014 dv":11.44},"type":"Feature","geometry":{"type":"Point","coordinates":[-84.525,39.0725]}},{"properties":{"column_4":"McCracken, Kentucky","lon":-88.637778,"monitor id":211451004,"county":"McCracken","2008 dv":13.1,"id":"a73axwsjouqz","lat":37.065556,"state":"Kentucky","2014 dv":11.54},"type":"Feature","geometry":{"type":"Point","coordinates":[-88.637778,37.065556]}},{"properties":{"column_4":"Madison, Kentucky","lon":-84.285556,"monitor id":211510003,"county":"Madison","2008 dv":12.03,"id":"a73axwtctt14","lat":37.738056,"state":"Kentucky","2014 dv":10.19},"type":"Feature","geometry":{"type":"Point","coordinates":[-84.285556,37.738056]}},{"properties":{"column_4":"Ohio, Kentucky","lon":-86.956097,"monitor id":211830032,"county":"Ohio","2008 dv":13.04,"id":"a73axwje4kw5","lat":37.319725,"state":"Kentucky","2014 dv":11.46},"type":"Feature","geometry":{"type":"Point","coordinates":[-86.956097,37.319725]}},{"properties":{"column_4":"Pike, Kentucky","lon":-82.535278,"monitor id":211950002,"county":"Pike","2008 dv":12.67,"id":"a73axwps5pbb","lat":37.482778,"state":"Kentucky","2014 dv":10.72},"type":"Feature","geometry":{"type":"Point","coordinates":[-82.535278,37.482778]}},{"properties":{"column_4":"Androscoggin, Maine","lon":-70.214219,"monitor id":230010011,"county":"Androscoggin","2008 dv":8.75,"id":"a73axwmsxaqm","lat":44.089406,"state":"Maine","2014 dv":8.33},"type":"Feature","geometry":{"type":"Point","coordinates":[-70.214219,44.089406]}},{"properties":{"column_4":"Cumberland, Maine","lon":-70.255601,"monitor id":230050015,"county":"Cumberland","2008 dv":9.89,"id":"a73axwgf0i95","lat":43.667954,"state":"Maine","2014 dv":9.41},"type":"Feature","geometry":{"type":"Point","coordinates":[-70.255601,43.667954]}},{"properties":{"column_4":"Hancock, Maine","lon":-68.2609,"monitor id":230090103,"county":"Hancock","2008 dv":5.1,"id":"a73axwmniw16","lat":44.37705,"state":"Maine","2014 dv":4.82},"type":"Feature","geometry":{"type":"Point","coordinates":[-68.2609,44.37705]}},{"properties":{"column_4":"Kennebec, Maine","lon":-69.786717,"monitor id":230110016,"county":"Kennebec","2008 dv":8.72,"id":"a73axwu0a11n","lat":44.312319,"state":"Maine","2014 dv":8.27},"type":"Feature","geometry":{"type":"Point","coordinates":[-69.786717,44.312319]}},{"properties":{"column_4":"Oxford, Maine","lon":-70.546319,"monitor id":230172011,"county":"Oxford","2008 dv":9.39,"id":"a73axwml4qlw","lat":44.551419,"state":"Maine","2014 dv":8.93},"type":"Feature","geometry":{"type":"Point","coordinates":[-70.546319,44.551419]}},{"properties":{"column_4":"Penobscot, Maine","lon":-68.769107,"monitor id":230190002,"county":"Penobscot","2008 dv":8.32,"id":"a73axwj4fnlr","lat":44.798796,"state":"Maine","2014 dv":7.81},"type":"Feature","geometry":{"type":"Point","coordinates":[-68.769107,44.798796]}},{"properties":{"column_4":"Anne Arundel, Maryland","lon":-76.627933,"monitor id":240031003,"county":"Anne Arundel","2008 dv":13.25,"id":"a73axwr1seap","lat":39.169533,"state":"Maryland","2014 dv":11.75},"type":"Feature","geometry":{"type":"Point","coordinates":[-76.627933,39.169533]}},{"properties":{"column_4":"Baltimore, Maryland","lon":-76.474444,"monitor id":240053001,"county":"Baltimore","2008 dv":13.64,"id":"a73axwkg8ylo","lat":39.310833,"state":"Maryland","2014 dv":11.98},"type":"Feature","geometry":{"type":"Point","coordinates":[-76.474444,39.310833]}},{"properties":{"column_4":"Cecil, Maryland","lon":-75.86,"monitor id":240150003,"county":"Cecil","2008 dv":12.05,"id":"a73axwnx3iw0","lat":39.701111,"state":"Maryland","2014 dv":10.42},"type":"Feature","geometry":{"type":"Point","coordinates":[-75.86,39.701111]}},{"properties":{"column_4":"Harford, Maryland","lon":-76.296667,"monitor id":240251001,"county":"Harford","2008 dv":11.66,"id":"a73axwsdmv5r","lat":39.41,"state":"Maryland","2014 dv":10.02},"type":"Feature","geometry":{"type":"Point","coordinates":[-76.296667,39.41]}},{"properties":{"column_4":"Montgomery, Maryland","lon":-77.106944,"monitor id":240313001,"county":"Montgomery","2008 dv":11.29,"id":"a73axwmhwcvt","lat":39.114444,"state":"Maryland","2014 dv":9.61},"type":"Feature","geometry":{"type":"Point","coordinates":[-77.106944,39.114444]}},{"properties":{"column_4":"Prince George's, Maryland","lon":-76.74417,"monitor id":240338003,"county":"Prince George's","2008 dv":11.92,"id":"a73axwfter03","lat":38.81194,"state":"Maryland","2014 dv":10.14},"type":"Feature","geometry":{"type":"Point","coordinates":[-76.74417,38.81194]}},{"properties":{"column_4":"Washington, Maryland","lon":-77.721944,"monitor id":240430009,"county":"Washington","2008 dv":12.19,"id":"a73axwns80qs","lat":39.565556,"state":"Maryland","2014 dv":10.45},"type":"Feature","geometry":{"type":"Point","coordinates":[-77.721944,39.565556]}},{"properties":{"column_4":"Baltimore (City), Maryland","lon":-76.547616,"monitor id":245100008,"county":"Baltimore (City)","2008 dv":14.04,"id":"a73axwp6alnz","lat":39.28768,"state":"Maryland","2014 dv":12.45},"type":"Feature","geometry":{"type":"Point","coordinates":[-76.547616,39.28768]}},{"properties":{"column_4":"Berkshire, Massachusetts","lon":-73.258025,"monitor id":250035001,"county":"Berkshire","2008 dv":9.7,"id":"a73axwr70bqn","lat":42.447381,"state":"Massachusetts","2014 dv":9.04},"type":"Feature","geometry":{"type":"Point","coordinates":[-73.258025,42.447381]}},{"properties":{"column_4":"Bristol, Massachusetts","lon":-71.169171,"monitor id":250051004,"county":"Bristol","2008 dv":8.77,"id":"a73axwt04coj","lat":41.683279,"state":"Massachusetts","2014 dv":7.95},"type":"Feature","geometry":{"type":"Point","coordinates":[-71.169171,41.683279]}},{"properties":{"column_4":"Essex, Massachusetts","lon":-71.164951,"monitor id":250096001,"county":"Essex","2008 dv":9.13,"id":"a73axwg11o56","lat":42.698245,"state":"Massachusetts","2014 dv":8.45},"type":"Feature","geometry":{"type":"Point","coordinates":[-71.164951,42.698245]}},{"properties":{"column_4":"Hampden, Massachusetts","lon":-72.590614,"monitor id":250130016,"county":"Hampden","2008 dv":11.43,"id":"a73axwr6pqz1","lat":42.108581,"state":"Massachusetts","2014 dv":10.59},"type":"Feature","geometry":{"type":"Point","coordinates":[-72.590614,42.108581]}},{"properties":{"column_4":"Middlesex, Massachusetts","lon":-71.362068,"monitor id":250170009,"county":"Middlesex","2008 dv":8.65,"id":"a73axwmy3biu","lat":42.62668,"state":"Massachusetts","2014 dv":7.96},"type":"Feature","geometry":{"type":"Point","coordinates":[-71.362068,42.62668]}},{"properties":{"column_4":"Plymouth, Massachusetts","lon":-71.0148,"monitor id":250230004,"county":"Plymouth","2008 dv":9.33,"id":"a73axwf1u237","lat":42.082028,"state":"Massachusetts","2014 dv":8.49},"type":"Feature","geometry":{"type":"Point","coordinates":[-71.0148,42.082028]}},{"properties":{"column_4":"Suffolk, Massachusetts","lon":-71.0542,"monitor id":250250043,"county":"Suffolk","2008 dv":11.42,"id":"a73axwlmvcfr","lat":42.3631,"state":"Massachusetts","2014 dv":10.64},"type":"Feature","geometry":{"type":"Point","coordinates":[-71.0542,42.3631]}},{"properties":{"column_4":"Worcester, Massachusetts","lon":-71.794186,"monitor id":250270023,"county":"Worcester","2008 dv":10.67,"id":"a73axwnv9fu4","lat":42.263877,"state":"Massachusetts","2014 dv":9.82},"type":"Feature","geometry":{"type":"Point","coordinates":[-71.794186,42.263877]}},{"properties":{"column_4":"Allegan, Michigan","lon":-86.148577,"monitor id":260050003,"county":"Allegan","2008 dv":10.94,"id":"a73axwgr6duo","lat":42.767786,"state":"Michigan","2014 dv":9.92},"type":"Feature","geometry":{"type":"Point","coordinates":[-86.148577,42.767786]}},{"properties":{"column_4":"Bay, Michigan","lon":-83.890721,"monitor id":260170014,"county":"Bay","2008 dv":9.73,"id":"a73axwt8jcqy","lat":43.571391,"state":"Michigan","2014 dv":8.88},"type":"Feature","geometry":{"type":"Point","coordinates":[-83.890721,43.571391]}},{"properties":{"column_4":"Berrien, Michigan","lon":-86.309694,"monitor id":260210014,"county":"Berrien","2008 dv":10.75,"id":"a73axwpzvyzl","lat":42.19779,"state":"Michigan","2014 dv":9.8},"type":"Feature","geometry":{"type":"Point","coordinates":[-86.309694,42.19779]}},{"properties":{"column_4":"Genesee, Michigan","lon":-83.670159,"monitor id":260490021,"county":"Genesee","2008 dv":10.58,"id":"a73axwt1qnaj","lat":43.047224,"state":"Michigan","2014 dv":9.52},"type":"Feature","geometry":{"type":"Point","coordinates":[-83.670159,43.047224]}},{"properties":{"column_4":"Ingham, Michigan","lon":-84.534633,"monitor id":260650012,"county":"Ingham","2008 dv":10.93,"id":"a73axwt0c0xb","lat":42.738618,"state":"Michigan","2014 dv":9.82},"type":"Feature","geometry":{"type":"Point","coordinates":[-84.534633,42.738618]}},{"properties":{"column_4":"Kalamazoo, Michigan","lon":-85.54189,"monitor id":260770008,"county":"Kalamazoo","2008 dv":12.02,"id":"a73axwqgd8vo","lat":42.278067,"state":"Michigan","2014 dv":11.0},"type":"Feature","geometry":{"type":"Point","coordinates":[-85.54189,42.278067]}},{"properties":{"column_4":"Kent, Michigan","lon":-85.671339,"monitor id":260810020,"county":"Kent","2008 dv":11.79,"id":"a73axwlbhgxp","lat":42.984173,"state":"Michigan","2014 dv":10.72},"type":"Feature","geometry":{"type":"Point","coordinates":[-85.671339,42.984173]}},{"properties":{"column_4":"Macomb, Michigan","lon":-82.793463,"monitor id":260990009,"county":"Macomb","2008 dv":11.28,"id":"a73axwnxo75i","lat":42.731394,"state":"Michigan","2014 dv":10.26},"type":"Feature","geometry":{"type":"Point","coordinates":[-82.793463,42.731394]}},{"properties":{"column_4":"Missaukee, Michigan","lon":-84.891865,"monitor id":261130001,"county":"Missaukee","2008 dv":7.37,"id":"a73axwhkjf9k","lat":44.310555,"state":"Michigan","2014 dv":6.8},"type":"Feature","geometry":{"type":"Point","coordinates":[-84.891865,44.310555]}},{"properties":{"column_4":"Monroe, Michigan","lon":-83.471944,"monitor id":261150005,"county":"Monroe","2008 dv":12.38,"id":"a73axwmdsz39","lat":41.763889,"state":"Michigan","2014 dv":11.16},"type":"Feature","geometry":{"type":"Point","coordinates":[-83.471944,41.763889]}},{"properties":{"column_4":"Muskegon, Michigan","lon":-86.23858,"monitor id":261210040,"county":"Muskegon","2008 dv":10.48,"id":"a73axwpd4g0w","lat":43.233061,"state":"Michigan","2014 dv":9.57},"type":"Feature","geometry":{"type":"Point","coordinates":[-86.23858,43.233061]}},{"properties":{"column_4":"Oakland, Michigan","lon":-83.183199,"monitor id":261250001,"county":"Oakland","2008 dv":12.1,"id":"a73axwgr8sz6","lat":42.463063,"state":"Michigan","2014 dv":10.97},"type":"Feature","geometry":{"type":"Point","coordinates":[-83.183199,42.463063]}},{"properties":{"column_4":"Ottawa, Michigan","lon":-85.852734,"monitor id":261390005,"county":"Ottawa","2008 dv":11.5,"id":"a73axwroetis","lat":42.894451,"state":"Michigan","2014 dv":10.47},"type":"Feature","geometry":{"type":"Point","coordinates":[-85.852734,42.894451]}},{"properties":{"column_4":"St. Clair, Michigan","lon":-82.456229,"monitor id":261470005,"county":"St. Clair","2008 dv":11.85,"id":"a73axwghqqo0","lat":42.953336,"state":"Michigan","2014 dv":10.84},"type":"Feature","geometry":{"type":"Point","coordinates":[-82.456229,42.953336]}},{"properties":{"column_4":"Washtenaw, Michigan","lon":-83.599602,"monitor id":261610008,"county":"Washtenaw","2008 dv":12.19,"id":"a73axwio2cdj","lat":42.240565,"state":"Michigan","2014 dv":11.05},"type":"Feature","geometry":{"type":"Point","coordinates":[-83.599602,42.240565]}},{"properties":{"column_4":"Wayne, Michigan","lon":-83.148754,"monitor id":261630033,"county":"Wayne","2008 dv":15.44,"id":"a73axwruvxzy","lat":42.306674,"state":"Michigan","2014 dv":14.19},"type":"Feature","geometry":{"type":"Point","coordinates":[-83.148754,42.306674]}},{"properties":{"column_4":"Dakota, Minnesota","lon":-93.23725,"monitor id":270370470,"county":"Dakota","2008 dv":9.27,"id":"a73axwfyfthx","lat":44.73846,"state":"Minnesota","2014 dv":8.57},"type":"Feature","geometry":{"type":"Point","coordinates":[-93.23725,44.73846]}},{"properties":{"column_4":"Hennepin, Minnesota","lon":-93.29874,"monitor id":270531007,"county":"Hennepin","2008 dv":9.87,"id":"a73axwpjl664","lat":45.03972,"state":"Minnesota","2014 dv":9.16},"type":"Feature","geometry":{"type":"Point","coordinates":[-93.29874,45.03972]}},{"properties":{"column_4":"Ramsey, Minnesota","lon":-93.01708,"monitor id":271230866,"county":"Ramsey","2008 dv":10.95,"id":"a73axwopxjmi","lat":44.89926,"state":"Minnesota","2014 dv":10.26},"type":"Feature","geometry":{"type":"Point","coordinates":[-93.01708,44.89926]}},{"properties":{"column_4":"Saint Louis, Minnesota","lon":-92.13354,"monitor id":271377551,"county":"Saint Louis","2008 dv":7.62,"id":"a73axwth15zi","lat":46.76643,"state":"Minnesota","2014 dv":7.28},"type":"Feature","geometry":{"type":"Point","coordinates":[-92.13354,46.76643]}},{"properties":{"column_4":"Scott, Minnesota","lon":-93.512534,"monitor id":271390505,"county":"Scott","2008 dv":9.12,"id":"a73axwq30t1l","lat":44.791437,"state":"Minnesota","2014 dv":8.38},"type":"Feature","geometry":{"type":"Point","coordinates":[-93.512534,44.791437]}},{"properties":{"column_4":"Stearns, Minnesota","lon":-94.13345,"monitor id":271453052,"county":"Stearns","2008 dv":8.35,"id":"a73axwjzbwf2","lat":45.549839,"state":"Minnesota","2014 dv":7.76},"type":"Feature","geometry":{"type":"Point","coordinates":[-94.13345,45.549839]}},{"properties":{"column_4":"DeSoto, Mississippi","lon":-89.98783,"monitor id":280330002,"county":"DeSoto","2008 dv":11.93,"id":"a73axwjdahx2","lat":34.82166,"state":"Mississippi","2014 dv":10.59},"type":"Feature","geometry":{"type":"Point","coordinates":[-89.98783,34.82166]}},{"properties":{"column_4":"Buchanan, Missouri","lon":-94.858584,"monitor id":290210005,"county":"Buchanan","2008 dv":11.99,"id":"a73axweg4dim","lat":39.741694,"state":"Missouri","2014 dv":11.17},"type":"Feature","geometry":{"type":"Point","coordinates":[-94.858584,39.741694]}},{"properties":{"column_4":"Cass, Missouri","lon":-94.58,"monitor id":290370003,"county":"Cass","2008 dv":10.27,"id":"a73axwt27mge","lat":38.770278,"state":"Missouri","2014 dv":9.32},"type":"Feature","geometry":{"type":"Point","coordinates":[-94.58,38.770278]}},{"properties":{"column_4":"Clay, Missouri","lon":-94.376623,"monitor id":290470005,"county":"Clay","2008 dv":10.55,"id":"a73axwuc6pxv","lat":39.30309,"state":"Missouri","2014 dv":9.6},"type":"Feature","geometry":{"type":"Point","coordinates":[-94.376623,39.30309]}},{"properties":{"column_4":"Greene, Missouri","lon":-93.284874,"monitor id":290770032,"county":"Greene","2008 dv":11.07,"id":"a73axwkisans","lat":37.199541,"state":"Missouri","2014 dv":10.12},"type":"Feature","geometry":{"type":"Point","coordinates":[-93.284874,37.199541]}},{"properties":{"column_4":"Jackson, Missouri","lon":-94.570796,"monitor id":290950034,"county":"Jackson","2008 dv":11.86,"id":"a73axwem9win","lat":39.104758,"state":"Missouri","2014 dv":10.9},"type":"Feature","geometry":{"type":"Point","coordinates":[-94.570796,39.104758]}},{"properties":{"column_4":"Sainte Genevieve, Missouri","lon":-90.051204,"monitor id":291860006,"county":"Sainte Genevieve","2008 dv":12.19,"id":"a73axwm27n7n","lat":37.967281,"state":"Missouri","2014 dv":11.0},"type":"Feature","geometry":{"type":"Point","coordinates":[-90.051204,37.967281]}},{"properties":{"column_4":"Saint Louis, Missouri","lon":-90.350659,"monitor id":291892003,"county":"Saint Louis","2008 dv":12.27,"id":"a73axwshvvj0","lat":38.649771,"state":"Missouri","2014 dv":11.09},"type":"Feature","geometry":{"type":"Point","coordinates":[-90.350659,38.649771]}},{"properties":{"column_4":"St. Louis City, Missouri","lon":-90.185059,"monitor id":295100087,"county":"St. Louis City","2008 dv":13.55,"id":"a73axwj9cpxf","lat":38.642857,"state":"Missouri","2014 dv":12.3},"type":"Feature","geometry":{"type":"Point","coordinates":[-90.185059,38.642857]}},{"properties":{"column_4":"Douglas, Nebraska","lon":-95.973128,"monitor id":310550019,"county":"Douglas","2008 dv":9.29,"id":"a73axwha55x0","lat":41.245947,"state":"Nebraska","2014 dv":9.14},"type":"Feature","geometry":{"type":"Point","coordinates":[-95.973128,41.245947]}},{"properties":{"column_4":"Hall, Nebraska","lon":-98.364967,"monitor id":310790004,"county":"Hall","2008 dv":7.78,"id":"a73axwh0jcx6","lat":40.942099,"state":"Nebraska","2014 dv":7.14},"type":"Feature","geometry":{"type":"Point","coordinates":[-98.364967,40.942099]}},{"properties":{"column_4":"Lancaster, Nebraska","lon":-96.68302,"monitor id":311090022,"county":"Lancaster","2008 dv":8.05,"id":"a73axwgshrjz","lat":40.81259,"state":"Nebraska","2014 dv":7.34},"type":"Feature","geometry":{"type":"Point","coordinates":[-96.68302,40.81259]}},{"properties":{"column_4":"Sarpy, Nebraska","lon":-95.955835,"monitor id":311530007,"county":"Sarpy","2008 dv":9.36,"id":"a73axwn9xa8o","lat":41.133613,"state":"Nebraska","2014 dv":9.22},"type":"Feature","geometry":{"type":"Point","coordinates":[-95.955835,41.133613]}},{"properties":{"column_4":"Washington, Nebraska","lon":-96.146753,"monitor id":311770002,"county":"Washington","2008 dv":8.63,"id":"a73axwh94eni","lat":41.551136,"state":"Nebraska","2014 dv":7.95},"type":"Feature","geometry":{"type":"Point","coordinates":[-96.146753,41.551136]}},{"properties":{"column_4":"Belknap, New Hampshire","lon":-71.496361,"monitor id":330012004,"county":"Belknap","2008 dv":6.77,"id":"a73axwgntzry","lat":43.566111,"state":"New Hampshire","2014 dv":6.21},"type":"Feature","geometry":{"type":"Point","coordinates":[-71.496361,43.566111]}},{"properties":{"column_4":"Cheshire, New Hampshire","lon":-72.272389,"monitor id":330050007,"county":"Cheshire","2008 dv":11.0,"id":"a73axwuc72bg","lat":42.930472,"state":"New Hampshire","2014 dv":10.28},"type":"Feature","geometry":{"type":"Point","coordinates":[-72.272389,42.930472]}},{"properties":{"column_4":"Grafton, New Hampshire","lon":-72.309583,"monitor id":330090010,"county":"Grafton","2008 dv":7.76,"id":"a73axwtuqptd","lat":43.629611,"state":"New Hampshire","2014 dv":7.2},"type":"Feature","geometry":{"type":"Point","coordinates":[-72.309583,43.629611]}},{"properties":{"column_4":"Hillsborough, New Hampshire","lon":-71.444583,"monitor id":330111015,"county":"Hillsborough","2008 dv":9.57,"id":"a73axwmcxq4l","lat":42.762056,"state":"New Hampshire","2014 dv":8.83},"type":"Feature","geometry":{"type":"Point","coordinates":[-71.444583,42.762056]}},{"properties":{"column_4":"Merrimack, New Hampshire","lon":-71.458306,"monitor id":330131006,"county":"Merrimack","2008 dv":9.26,"id":"a73axwt6pn3f","lat":43.13244,"state":"New Hampshire","2014 dv":8.49},"type":"Feature","geometry":{"type":"Point","coordinates":[-71.458306,43.13244]}},{"properties":{"column_4":"Rockingham, New Hampshire","lon":-70.748,"monitor id":330150014,"county":"Rockingham","2008 dv":8.56,"id":"a73axwluudym","lat":43.075333,"state":"New Hampshire","2014 dv":7.99},"type":"Feature","geometry":{"type":"Point","coordinates":[-70.748,43.075333]}},{"properties":{"column_4":"Sullivan, New Hampshire","lon":-72.338333,"monitor id":330190003,"county":"Sullivan","2008 dv":8.94,"id":"a73axwfi1slq","lat":43.364444,"state":"New Hampshire","2014 dv":8.33},"type":"Feature","geometry":{"type":"Point","coordinates":[-72.338333,43.364444]}},{"properties":{"column_4":"Atlantic, New Jersey","lon":-74.431219,"monitor id":340011006,"county":"Atlantic","2008 dv":11.07,"id":"a73axwqusi0v","lat":39.363528,"state":"New Jersey","2014 dv":10.03},"type":"Feature","geometry":{"type":"Point","coordinates":[-74.431219,39.363528]}},{"properties":{"column_4":"Bergen, New Jersey","lon":-73.973314,"monitor id":340030003,"county":"Bergen","2008 dv":12.21,"id":"a73axwjw31ev","lat":40.852256,"state":"New Jersey","2014 dv":11.03},"type":"Feature","geometry":{"type":"Point","coordinates":[-73.973314,40.852256]}},{"properties":{"column_4":"Camden, New Jersey","lon":-75.050008,"monitor id":340071007,"county":"Camden","2008 dv":12.68,"id":"a73axwlbykv0","lat":39.989036,"state":"New Jersey","2014 dv":11.31},"type":"Feature","geometry":{"type":"Point","coordinates":[-75.050008,39.989036]}},{"properties":{"column_4":"Hudson, New Jersey","lon":-74.031718,"monitor id":340172002,"county":"Hudson","2008 dv":14.09,"id":"a73axwnkmoht","lat":40.772793,"state":"New Jersey","2014 dv":12.93},"type":"Feature","geometry":{"type":"Point","coordinates":[-74.031718,40.772793]}},{"properties":{"column_4":"Mercer, New Jersey","lon":-74.763167,"monitor id":340210008,"county":"Mercer","2008 dv":11.9,"id":"a73axwo8086k","lat":40.222411,"state":"New Jersey","2014 dv":10.67},"type":"Feature","geometry":{"type":"Point","coordinates":[-74.763167,40.222411]}},{"properties":{"column_4":"Middlesex, New Jersey","lon":-74.422515,"monitor id":340230006,"county":"Middlesex","2008 dv":11.29,"id":"a73axwrqahjq","lat":40.472786,"state":"New Jersey","2014 dv":10.15},"type":"Feature","geometry":{"type":"Point","coordinates":[-74.422515,40.472786]}},{"properties":{"column_4":"Morris, New Jersey","lon":-74.483817,"monitor id":340270004,"county":"Morris","2008 dv":10.31,"id":"a73axwhcv7uc","lat":40.801584,"state":"New Jersey","2014 dv":9.22},"type":"Feature","geometry":{"type":"Point","coordinates":[-74.483817,40.801584]}},{"properties":{"column_4":"Ocean, New Jersey","lon":-74.170447,"monitor id":340292002,"county":"Ocean","2008 dv":10.19,"id":"a73axwslucbm","lat":39.994908,"state":"New Jersey","2014 dv":9.15},"type":"Feature","geometry":{"type":"Point","coordinates":[-74.170447,39.994908]}},{"properties":{"column_4":"Passaic, New Jersey","lon":-74.168092,"monitor id":340310005,"county":"Passaic","2008 dv":12.26,"id":"a73axwgymbmg","lat":40.918381,"state":"New Jersey","2014 dv":11.03},"type":"Feature","geometry":{"type":"Point","coordinates":[-74.168092,40.918381]}},{"properties":{"column_4":"Union, New Jersey","lon":-74.208365,"monitor id":340390004,"county":"Union","2008 dv":13.59,"id":"a73axws2xyda","lat":40.64144,"state":"New Jersey","2014 dv":12.44},"type":"Feature","geometry":{"type":"Point","coordinates":[-74.208365,40.64144]}},{"properties":{"column_4":"Warren, New Jersey","lon":-75.180525,"monitor id":340410006,"county":"Warren","2008 dv":11.84,"id":"a73axwppkwlt","lat":40.699207,"state":"New Jersey","2014 dv":10.58},"type":"Feature","geometry":{"type":"Point","coordinates":[-75.180525,40.699207]}},{"properties":{"column_4":"Bronx, New York","lon":-73.92009,"monitor id":360050080,"county":"Bronx","2008 dv":14.34,"id":"a73axwnxnghi","lat":40.83606,"state":"New York","2014 dv":13.15},"type":"Feature","geometry":{"type":"Point","coordinates":[-73.92009,40.83606]}},{"properties":{"column_4":"Chautauqua, New York","lon":-79.58961,"monitor id":360130011,"county":"Chautauqua","2008 dv":8.65,"id":"a73axwgkosmf","lat":42.29071,"state":"New York","2014 dv":7.62},"type":"Feature","geometry":{"type":"Point","coordinates":[-79.58961,42.29071]}},{"properties":{"column_4":"Erie, New York","lon":-78.809526,"monitor id":360290005,"county":"Erie","2008 dv":11.11,"id":"a73axwm5b52x","lat":42.876907,"state":"New York","2014 dv":10.22},"type":"Feature","geometry":{"type":"Point","coordinates":[-78.809526,42.876907]}},{"properties":{"column_4":"Essex, New York","lon":-73.8589,"monitor id":360310003,"county":"Essex","2008 dv":5.1,"id":"a73axwoyb6kd","lat":44.39308,"state":"New York","2014 dv":4.64},"type":"Feature","geometry":{"type":"Point","coordinates":[-73.8589,44.39308]}},{"properties":{"column_4":"Kings, New York","lon":-73.94771,"monitor id":360470122,"county":"Kings","2008 dv":12.87,"id":"a73axwpgrubq","lat":40.71961,"state":"New York","2014 dv":11.85},"type":"Feature","geometry":{"type":"Point","coordinates":[-73.94771,40.71961]}},{"properties":{"column_4":"Monroe, New York","lon":-77.54817,"monitor id":360551007,"county":"Monroe","2008 dv":9.47,"id":"a73axwmywfth","lat":43.14618,"state":"New York","2014 dv":8.73},"type":"Feature","geometry":{"type":"Point","coordinates":[-77.54817,43.14618]}},{"properties":{"column_4":"Nassau, New York","lon":-73.73388,"monitor id":360590008,"county":"Nassau","2008 dv":10.89,"id":"a73axwt8u9ko","lat":40.63103,"state":"New York","2014 dv":9.99},"type":"Feature","geometry":{"type":"Point","coordinates":[-73.73388,40.63103]}},{"properties":{"column_4":"New York, New York","lon":-73.93432,"monitor id":360610079,"county":"New York","2008 dv":12.77,"id":"a73axwrb0mri","lat":40.7997,"state":"New York","2014 dv":11.7},"type":"Feature","geometry":{"type":"Point","coordinates":[-73.93432,40.7997]}},{"properties":{"column_4":"Niagara, New York","lon":-79.00106,"monitor id":360632008,"county":"Niagara","2008 dv":10.33,"id":"a73axwecha4k","lat":43.08218,"state":"New York","2014 dv":9.47},"type":"Feature","geometry":{"type":"Point","coordinates":[-79.00106,43.08218]}},{"properties":{"column_4":"Onondaga, New York","lon":-76.05921,"monitor id":360671015,"county":"Onondaga","2008 dv":8.73,"id":"a73axwt2xznm","lat":43.05235,"state":"New York","2014 dv":7.89},"type":"Feature","geometry":{"type":"Point","coordinates":[-76.05921,43.05235]}},{"properties":{"column_4":"Orange, New York","lon":-74.00885,"monitor id":360710002,"county":"Orange","2008 dv":9.95,"id":"a73axwnvx8fu","lat":41.49916,"state":"New York","2014 dv":9.05},"type":"Feature","geometry":{"type":"Point","coordinates":[-74.00885,41.49916]}},{"properties":{"column_4":"Queens, New York","lon":-73.82153,"monitor id":360810124,"county":"Queens","2008 dv":11.33,"id":"a73axws2l3tv","lat":40.73614,"state":"New York","2014 dv":10.33},"type":"Feature","geometry":{"type":"Point","coordinates":[-73.82153,40.73614]}},{"properties":{"column_4":"Richmond, New York","lon":-74.13719,"monitor id":360850055,"county":"Richmond","2008 dv":12.43,"id":"a73axwnxfsfk","lat":40.63307,"state":"New York","2014 dv":11.38},"type":"Feature","geometry":{"type":"Point","coordinates":[-74.13719,40.63307]}},{"properties":{"column_4":"St. Lawrence, New York","lon":-74.95151,"monitor id":360893001,"county":"St. Lawrence","2008 dv":5.95,"id":"a73axwgbgs9l","lat":44.67811,"state":"New York","2014 dv":5.49},"type":"Feature","geometry":{"type":"Point","coordinates":[-74.95151,44.67811]}},{"properties":{"column_4":"Steuben, New York","lon":-77.20978,"monitor id":361010003,"county":"Steuben","2008 dv":8.1,"id":"a73axwqbcccs","lat":42.09142,"state":"New York","2014 dv":7.13},"type":"Feature","geometry":{"type":"Point","coordinates":[-77.20978,42.09142]}},{"properties":{"column_4":"Suffolk, New York","lon":-73.41919,"monitor id":361030002,"county":"Suffolk","2008 dv":10.45,"id":"a73axwpmhwxe","lat":40.74529,"state":"New York","2014 dv":9.56},"type":"Feature","geometry":{"type":"Point","coordinates":[-73.41919,40.74529]}},{"properties":{"column_4":"Westchester, New York","lon":-73.76575,"monitor id":361191002,"county":"Westchester","2008 dv":11.22,"id":"a73axwmln12h","lat":40.93149,"state":"New York","2014 dv":10.16},"type":"Feature","geometry":{"type":"Point","coordinates":[-73.76575,40.93149]}},{"properties":{"column_4":"Alamance, North Carolina","lon":-79.407821,"monitor id":370010002,"county":"Alamance","2008 dv":12.88,"id":"a73axwug4zmg","lat":36.089004,"state":"North Carolina","2014 dv":10.95},"type":"Feature","geometry":{"type":"Point","coordinates":[-79.407821,36.089004]}},{"properties":{"column_4":"Buncombe, North Carolina","lon":-82.583333,"monitor id":370210034,"county":"Buncombe","2008 dv":11.21,"id":"a73axwfzpx82","lat":35.6075,"state":"North Carolina","2014 dv":9.51},"type":"Feature","geometry":{"type":"Point","coordinates":[-82.583333,35.6075]}},{"properties":{"column_4":"Caswell, North Carolina","lon":-79.467417,"monitor id":370330001,"county":"Caswell","2008 dv":12.32,"id":"a73axwede5gs","lat":36.307033,"state":"North Carolina","2014 dv":10.38},"type":"Feature","geometry":{"type":"Point","coordinates":[-79.467417,36.307033]}},{"properties":{"column_4":"Catawba, North Carolina","lon":-81.365556,"monitor id":370350004,"county":"Catawba","2008 dv":14.18,"id":"a73axwumkljh","lat":35.728889,"state":"North Carolina","2014 dv":12.06},"type":"Feature","geometry":{"type":"Point","coordinates":[-81.365556,35.728889]}},{"properties":{"column_4":"Chatham, North Carolina","lon":-79.159722,"monitor id":370370004,"county":"Chatham","2008 dv":11.79,"id":"a73axwqa1cic","lat":35.757222,"state":"North Carolina","2014 dv":9.99},"type":"Feature","geometry":{"type":"Point","coordinates":[-79.159722,35.757222]}},{"properties":{"column_4":"Cumberland, North Carolina","lon":-78.953112,"monitor id":370510009,"county":"Cumberland","2008 dv":12.99,"id":"a73axwotzfd2","lat":35.041416,"state":"North Carolina","2014 dv":11.35},"type":"Feature","geometry":{"type":"Point","coordinates":[-78.953112,35.041416]}},{"properties":{"column_4":"Davidson, North Carolina","lon":-80.2625,"monitor id":370570002,"county":"Davidson","2008 dv":14.45,"id":"a73axwthm21o","lat":35.814444,"state":"North Carolina","2014 dv":12.33},"type":"Feature","geometry":{"type":"Point","coordinates":[-80.2625,35.814444]}},{"properties":{"column_4":"Duplin, North Carolina","lon":-77.960781,"monitor id":370610002,"county":"Duplin","2008 dv":10.5,"id":"a73axwm5jqcn","lat":34.954823,"state":"North Carolina","2014 dv":9.1},"type":"Feature","geometry":{"type":"Point","coordinates":[-77.960781,34.954823]}},{"properties":{"column_4":"Edgecombe, North Carolina","lon":-77.75007,"monitor id":370650004,"county":"Edgecombe","2008 dv":11.84,"id":"a73axwf8bvtc","lat":35.93355,"state":"North Carolina","2014 dv":10.15},"type":"Feature","geometry":{"type":"Point","coordinates":[-77.75007,35.93355]}},{"properties":{"column_4":"Forsyth, North Carolina","lon":-80.226667,"monitor id":370670022,"county":"Forsyth","2008 dv":13.28,"id":"a73axwfewa0k","lat":36.110556,"state":"North Carolina","2014 dv":11.1},"type":"Feature","geometry":{"type":"Point","coordinates":[-80.226667,36.110556]}},{"properties":{"column_4":"Gaston, North Carolina","lon":-81.153333,"monitor id":370710016,"county":"Gaston","2008 dv":13.34,"id":"a73axwu0to0m","lat":35.253056,"state":"North Carolina","2014 dv":11.27},"type":"Feature","geometry":{"type":"Point","coordinates":[-81.153333,35.253056]}},{"properties":{"column_4":"Jackson, North Carolina","lon":-83.278056,"monitor id":370990006,"county":"Jackson","2008 dv":11.54,"id":"a73axwhaawdm","lat":35.466667,"state":"North Carolina","2014 dv":9.73},"type":"Feature","geometry":{"type":"Point","coordinates":[-83.278056,35.466667]}},{"properties":{"column_4":"Lenoir, North Carolina","lon":-77.568792,"monitor id":371070004,"county":"Lenoir","2008 dv":10.44,"id":"a73axwivkkfd","lat":35.231459,"state":"North Carolina","2014 dv":9.03},"type":"Feature","geometry":{"type":"Point","coordinates":[-77.568792,35.231459]}},{"properties":{"column_4":"McDowell, North Carolina","lon":-81.993789,"monitor id":371110004,"county":"McDowell","2008 dv":12.98,"id":"a73axwudwny7","lat":35.687404,"state":"North Carolina","2014 dv":11.13},"type":"Feature","geometry":{"type":"Point","coordinates":[-81.993789,35.687404]}},{"properties":{"column_4":"Martin, North Carolina","lon":-76.89782,"monitor id":371170001,"county":"Martin","2008 dv":10.57,"id":"a73axwprzy6u","lat":35.81069,"state":"North Carolina","2014 dv":9.05},"type":"Feature","geometry":{"type":"Point","coordinates":[-76.89782,35.81069]}},{"properties":{"column_4":"Mecklenburg, North Carolina","lon":-80.866983,"monitor id":371190042,"county":"Mecklenburg","2008 dv":13.85,"id":"a73axwhua5ib","lat":35.151283,"state":"North Carolina","2014 dv":11.77},"type":"Feature","geometry":{"type":"Point","coordinates":[-80.866983,35.151283]}},{"properties":{"column_4":"Mitchell, North Carolina","lon":-82.073333,"monitor id":371210001,"county":"Mitchell","2008 dv":11.88,"id":"a73axwexsp6i","lat":35.915278,"state":"North Carolina","2014 dv":10.05},"type":"Feature","geometry":{"type":"Point","coordinates":[-82.073333,35.915278]}},{"properties":{"column_4":"Montgomery, North Carolina","lon":-79.84,"monitor id":371230001,"county":"Montgomery","2008 dv":11.64,"id":"a73axweif7wp","lat":35.26,"state":"North Carolina","2014 dv":9.78},"type":"Feature","geometry":{"type":"Point","coordinates":[-79.84,35.26]}},{"properties":{"column_4":"Pitt, North Carolina","lon":-77.386111,"monitor id":371470005,"county":"Pitt","2008 dv":11.3,"id":"a73axwrsca3k","lat":35.594167,"state":"North Carolina","2014 dv":9.74},"type":"Feature","geometry":{"type":"Point","coordinates":[-77.386111,35.594167]}},{"properties":{"column_4":"Robeson, North Carolina","lon":-78.990278,"monitor id":371550005,"county":"Robeson","2008 dv":12.26,"id":"a73axwrb1m7r","lat":34.6425,"state":"North Carolina","2014 dv":10.61},"type":"Feature","geometry":{"type":"Point","coordinates":[-78.990278,34.6425]}},{"properties":{"column_4":"Rowan, North Carolina","lon":-80.395039,"monitor id":371590021,"county":"Rowan","2008 dv":13.56,"id":"a73axws5sl7d","lat":35.551868,"state":"North Carolina","2014 dv":11.61},"type":"Feature","geometry":{"type":"Point","coordinates":[-80.395039,35.551868]}},{"properties":{"column_4":"Swain, North Carolina","lon":-83.443697,"monitor id":371730002,"county":"Swain","2008 dv":12.1,"id":"a73axwr0ysqa","lat":35.435509,"state":"North Carolina","2014 dv":10.22},"type":"Feature","geometry":{"type":"Point","coordinates":[-83.443697,35.435509]}},{"properties":{"column_4":"Wake, North Carolina","lon":-78.574167,"monitor id":371830014,"county":"Wake","2008 dv":12.78,"id":"a73axwgxo6h3","lat":35.856111,"state":"North Carolina","2014 dv":10.97},"type":"Feature","geometry":{"type":"Point","coordinates":[-78.574167,35.856111]}},{"properties":{"column_4":"Watauga, North Carolina","lon":-81.663056,"monitor id":371890003,"county":"Watauga","2008 dv":10.67,"id":"a73axwsszgk1","lat":36.221944,"state":"North Carolina","2014 dv":8.86},"type":"Feature","geometry":{"type":"Point","coordinates":[-81.663056,36.221944]}},{"properties":{"column_4":"Wayne, North Carolina","lon":-77.993893,"monitor id":371910005,"county":"Wayne","2008 dv":12.31,"id":"a73axwicr5ty","lat":35.369214,"state":"North Carolina","2014 dv":10.74},"type":"Feature","geometry":{"type":"Point","coordinates":[-77.993893,35.369214]}},{"properties":{"column_4":"Cass, North Dakota","lon":-96.85535,"monitor id":380171004,"county":"Cass","2008 dv":7.99,"id":"a73axwioz43o","lat":46.933754,"state":"North Dakota","2014 dv":7.48},"type":"Feature","geometry":{"type":"Point","coordinates":[-96.85535,46.933754]}},{"properties":{"column_4":"Athens, Ohio","lon":-81.908611,"monitor id":390090003,"county":"Athens","2008 dv":11.77,"id":"a73axwp5amm2","lat":39.4425,"state":"Ohio","2014 dv":9.97},"type":"Feature","geometry":{"type":"Point","coordinates":[-81.908611,39.4425]}},{"properties":{"column_4":"Butler, Ohio","lon":-84.353889,"monitor id":390170003,"county":"Butler","2008 dv":14.4,"id":"a73axwsqwssb","lat":39.493611,"state":"Ohio","2014 dv":12.7},"type":"Feature","geometry":{"type":"Point","coordinates":[-84.353889,39.493611]}},{"properties":{"column_4":"Clark, Ohio","lon":-83.809722,"monitor id":390230005,"county":"Clark","2008 dv":13.46,"id":"a73axwin3b0s","lat":39.928889,"state":"Ohio","2014 dv":11.88},"type":"Feature","geometry":{"type":"Point","coordinates":[-83.809722,39.928889]}},{"properties":{"column_4":"Clermont, Ohio","lon":-84.144193,"monitor id":390250022,"county":"Clermont","2008 dv":12.82,"id":"a73axwth9vgh","lat":39.082319,"state":"Ohio","2014 dv":11.27},"type":"Feature","geometry":{"type":"Point","coordinates":[-84.144193,39.082319]}},{"properties":{"column_4":"Cuyahoga, Ohio","lon":-81.681944,"monitor id":390350038,"county":"Cuyahoga","2008 dv":15.08,"id":"a73axwllzc95","lat":41.476944,"state":"Ohio","2014 dv":13.64},"type":"Feature","geometry":{"type":"Point","coordinates":[-81.681944,41.476944]}},{"properties":{"column_4":"Franklin, Ohio","lon":-82.993056,"monitor id":390490024,"county":"Franklin","2008 dv":13.66,"id":"a73axwp66ujx","lat":39.998333,"state":"Ohio","2014 dv":11.91},"type":"Feature","geometry":{"type":"Point","coordinates":[-82.993056,39.998333]}},{"properties":{"column_4":"Greene, Ohio","lon":-83.886944,"monitor id":390570005,"county":"Greene","2008 dv":12.27,"id":"a73axwf7jm9k","lat":39.808056,"state":"Ohio","2014 dv":10.68},"type":"Feature","geometry":{"type":"Point","coordinates":[-83.886944,39.808056]}},{"properties":{"column_4":"Hamilton, Ohio","lon":-84.478889,"monitor id":390610014,"county":"Hamilton","2008 dv":15.71,"id":"a73axwttum57","lat":39.194167,"state":"Ohio","2014 dv":14.04},"type":"Feature","geometry":{"type":"Point","coordinates":[-84.478889,39.194167]}},{"properties":{"column_4":"Jefferson, Ohio","lon":-80.606389,"monitor id":390811001,"county":"Jefferson","2008 dv":14.77,"id":"a73axwl4hktg","lat":40.321944,"state":"Ohio","2014 dv":13.05},"type":"Feature","geometry":{"type":"Point","coordinates":[-80.606389,40.321944]}},{"properties":{"column_4":"Lake, Ohio","lon":-81.241944,"monitor id":390853002,"county":"Lake","2008 dv":12.28,"id":"a73axwfx1hmt","lat":41.7225,"state":"Ohio","2014 dv":11.01},"type":"Feature","geometry":{"type":"Point","coordinates":[-81.241944,41.7225]}},{"properties":{"column_4":"Lorain, Ohio","lon":-82.114444,"monitor id":390933002,"county":"Lorain","2008 dv":11.89,"id":"a73axwivwi3r","lat":41.463056,"state":"Ohio","2014 dv":10.86},"type":"Feature","geometry":{"type":"Point","coordinates":[-82.114444,41.463056]}},{"properties":{"column_4":"Lucas, Ohio","lon":-83.546667,"monitor id":390950024,"county":"Lucas","2008 dv":13.11,"id":"a73axwpxwuat","lat":41.644167,"state":"Ohio","2014 dv":11.8},"type":"Feature","geometry":{"type":"Point","coordinates":[-83.546667,41.644167]}},{"properties":{"column_4":"Mahoning, Ohio","lon":-80.658426,"monitor id":390990014,"county":"Mahoning","2008 dv":13.57,"id":"a73axwtd7rn3","lat":41.095868,"state":"Ohio","2014 dv":12.18},"type":"Feature","geometry":{"type":"Point","coordinates":[-80.658426,41.095868]}},{"properties":{"column_4":"Medina, Ohio","lon":-81.911667,"monitor id":391030003,"county":"Medina","2008 dv":12.11,"id":"a73axwrwlcja","lat":41.102778,"state":"Ohio","2014 dv":10.71},"type":"Feature","geometry":{"type":"Point","coordinates":[-81.911667,41.102778]}},{"properties":{"column_4":"Montgomery, Ohio","lon":-84.187778,"monitor id":391130032,"county":"Montgomery","2008 dv":14.15,"id":"a73axwt7obqs","lat":39.760278,"state":"Ohio","2014 dv":12.62},"type":"Feature","geometry":{"type":"Point","coordinates":[-84.187778,39.760278]}},{"properties":{"column_4":"Portage, Ohio","lon":-81.235,"monitor id":391330002,"county":"Portage","2008 dv":12.59,"id":"a73axwq1xqz0","lat":41.164167,"state":"Ohio","2014 dv":11.11},"type":"Feature","geometry":{"type":"Point","coordinates":[-81.235,41.164167]}},{"properties":{"column_4":"Preble, Ohio","lon":-84.720833,"monitor id":391351001,"county":"Preble","2008 dv":12.67,"id":"a73axwm2z5am","lat":39.835556,"state":"Ohio","2014 dv":11.16},"type":"Feature","geometry":{"type":"Point","coordinates":[-84.720833,39.835556]}},{"properties":{"column_4":"Scioto, Ohio","lon":-82.9175,"monitor id":391450013,"county":"Scioto","2008 dv":13.48,"id":"a73axwu0gjij","lat":38.754167,"state":"Ohio","2014 dv":11.69},"type":"Feature","geometry":{"type":"Point","coordinates":[-82.9175,38.754167]}},{"properties":{"column_4":"Summit, Ohio","lon":-81.468611,"monitor id":391530017,"county":"Summit","2008 dv":14.04,"id":"a73axwkmbkrs","lat":41.063333,"state":"Ohio","2014 dv":12.59},"type":"Feature","geometry":{"type":"Point","coordinates":[-81.468611,41.063333]}},{"properties":{"column_4":"Trumbull, Ohio","lon":-80.7875,"monitor id":391550007,"county":"Trumbull","2008 dv":13.3,"id":"a73axwsflmrp","lat":41.214167,"state":"Ohio","2014 dv":11.91},"type":"Feature","geometry":{"type":"Point","coordinates":[-80.7875,41.214167]}},{"properties":{"column_4":"Caddo, Oklahoma","lon":-98.252778,"monitor id":400159008,"county":"Caddo","2008 dv":8.47,"id":"a73axwlw4a1q","lat":35.111944,"state":"Oklahoma","2014 dv":7.93},"type":"Feature","geometry":{"type":"Point","coordinates":[-98.252778,35.111944]}},{"properties":{"column_4":"Mayes, Oklahoma","lon":-95.310616,"monitor id":400970186,"county":"Mayes","2008 dv":11.52,"id":"a73axwmz09tk","lat":36.304624,"state":"Oklahoma","2014 dv":10.74},"type":"Feature","geometry":{"type":"Point","coordinates":[-95.310616,36.304624]}},{"properties":{"column_4":"Muskogee, Oklahoma","lon":-95.377669,"monitor id":401010169,"county":"Muskogee","2008 dv":11.58,"id":"a73axwigptiq","lat":35.755273,"state":"Oklahoma","2014 dv":10.79},"type":"Feature","geometry":{"type":"Point","coordinates":[-95.377669,35.755273]}},{"properties":{"column_4":"Oklahoma, Oklahoma","lon":-97.475083,"monitor id":401091037,"county":"Oklahoma","2008 dv":10.14,"id":"a73axwrp6n31","lat":35.614131,"state":"Oklahoma","2014 dv":9.31},"type":"Feature","geometry":{"type":"Point","coordinates":[-97.475083,35.614131]}},{"properties":{"column_4":"Ottawa, Oklahoma","lon":-94.838889,"monitor id":401159004,"county":"Ottawa","2008 dv":11.24,"id":"a73axwsg1fbu","lat":36.922222,"state":"Oklahoma","2014 dv":10.37},"type":"Feature","geometry":{"type":"Point","coordinates":[-94.838889,36.922222]}},{"properties":{"column_4":"Sequoyah, Oklahoma","lon":-94.830059,"monitor id":401359015,"county":"Sequoyah","2008 dv":11.91,"id":"a73axwof8ice","lat":35.581174,"state":"Oklahoma","2014 dv":11.08},"type":"Feature","geometry":{"type":"Point","coordinates":[-94.830059,35.581174]}},{"properties":{"column_4":"Tulsa, Oklahoma","lon":-95.976537,"monitor id":401431127,"county":"Tulsa","2008 dv":11.31,"id":"a73axwh7prrh","lat":36.204902,"state":"Oklahoma","2014 dv":10.53},"type":"Feature","geometry":{"type":"Point","coordinates":[-95.976537,36.204902]}},{"properties":{"column_4":"Adams, Pennsylvania","lon":-77.30968,"monitor id":420010001,"county":"Adams","2008 dv":11.85,"id":"a73axwebi28m","lat":39.92002,"state":"Pennsylvania","2014 dv":10.13},"type":"Feature","geometry":{"type":"Point","coordinates":[-77.30968,39.92002]}},{"properties":{"column_4":"Allegheny, Pennsylvania","lon":-79.868137,"monitor id":420030064,"county":"Allegheny","2008 dv":18.33,"id":"a73axwmtk75b","lat":40.323744,"state":"Pennsylvania","2014 dv":16.6},"type":"Feature","geometry":{"type":"Point","coordinates":[-79.868137,40.323744]}},{"properties":{"column_4":"Beaver, Pennsylvania","lon":-80.316442,"monitor id":420070014,"county":"Beaver","2008 dv":14.93,"id":"a73axwlob9yq","lat":40.747796,"state":"Pennsylvania","2014 dv":13.53},"type":"Feature","geometry":{"type":"Point","coordinates":[-80.316442,40.747796]}},{"properties":{"column_4":"Berks, Pennsylvania","lon":-75.9686,"monitor id":420110011,"county":"Berks","2008 dv":13.56,"id":"a73axwmow9tz","lat":40.38335,"state":"Pennsylvania","2014 dv":12.24},"type":"Feature","geometry":{"type":"Point","coordinates":[-75.9686,40.38335]}},{"properties":{"column_4":"Bucks, Pennsylvania","lon":-74.882222,"monitor id":420170012,"county":"Bucks","2008 dv":12.61,"id":"a73axwjj8oti","lat":40.107222,"state":"Pennsylvania","2014 dv":11.29},"type":"Feature","geometry":{"type":"Point","coordinates":[-74.882222,40.107222]}},{"properties":{"column_4":"Cambria, Pennsylvania","lon":-78.915,"monitor id":420210011,"county":"Cambria","2008 dv":14.35,"id":"a73axwlz5rbq","lat":40.309722,"state":"Pennsylvania","2014 dv":12.45},"type":"Feature","geometry":{"type":"Point","coordinates":[-78.915,40.309722]}},{"properties":{"column_4":"Centre, Pennsylvania","lon":-77.877028,"monitor id":420270100,"county":"Centre","2008 dv":11.36,"id":"a73axwgr84nc","lat":40.811389,"state":"Pennsylvania","2014 dv":9.7},"type":"Feature","geometry":{"type":"Point","coordinates":[-77.877028,40.811389]}},{"properties":{"column_4":"Cumberland, Pennsylvania","lon":-77.18675,"monitor id":420410101,"county":"Cumberland","2008 dv":13.24,"id":"a73axwm3hs3y","lat":40.246528,"state":"Pennsylvania","2014 dv":11.58},"type":"Feature","geometry":{"type":"Point","coordinates":[-77.18675,40.246528]}},{"properties":{"column_4":"Dauphin, Pennsylvania","lon":-76.844722,"monitor id":420430401,"county":"Dauphin","2008 dv":13.8,"id":"a73axwhvby5u","lat":40.245,"state":"Pennsylvania","2014 dv":11.93},"type":"Feature","geometry":{"type":"Point","coordinates":[-76.844722,40.245]}},{"properties":{"column_4":"Delaware, Pennsylvania","lon":-75.3725,"monitor id":420450002,"county":"Delaware","2008 dv":14.09,"id":"a73axwoab2ya","lat":39.835556,"state":"Pennsylvania","2014 dv":12.64},"type":"Feature","geometry":{"type":"Point","coordinates":[-75.3725,39.835556]}},{"properties":{"column_4":"Erie, Pennsylvania","lon":-80.038611,"monitor id":420490003,"county":"Erie","2008 dv":11.36,"id":"a73axwgax18h","lat":42.14175,"state":"Pennsylvania","2014 dv":10.15},"type":"Feature","geometry":{"type":"Point","coordinates":[-80.038611,42.14175]}},{"properties":{"column_4":"Lackawanna, Pennsylvania","lon":-75.623056,"monitor id":420692006,"county":"Lackawanna","2008 dv":10.65,"id":"a73axwrhn38a","lat":41.442778,"state":"Pennsylvania","2014 dv":9.38},"type":"Feature","geometry":{"type":"Point","coordinates":[-75.623056,41.442778]}},{"properties":{"column_4":"Lancaster, Pennsylvania","lon":-76.283333,"monitor id":420710007,"county":"Lancaster","2008 dv":14.48,"id":"a73axwgxxxxu","lat":40.046667,"state":"Pennsylvania","2014 dv":12.72},"type":"Feature","geometry":{"type":"Point","coordinates":[-76.283333,40.046667]}},{"properties":{"column_4":"Mercer, Pennsylvania","lon":-80.484779,"monitor id":420850100,"county":"Mercer","2008 dv":12.2,"id":"a73axwr7pz13","lat":41.215014,"state":"Pennsylvania","2014 dv":10.84},"type":"Feature","geometry":{"type":"Point","coordinates":[-80.484779,41.215014]}},{"properties":{"column_4":"Montgomery, Pennsylvania","lon":-75.309167,"monitor id":420910013,"county":"Montgomery","2008 dv":12.26,"id":"a73axwjeg133","lat":40.112222,"state":"Pennsylvania","2014 dv":10.81},"type":"Feature","geometry":{"type":"Point","coordinates":[-75.309167,40.112222]}},{"properties":{"column_4":"Northampton, Pennsylvania","lon":-75.341111,"monitor id":420950025,"county":"Northampton","2008 dv":12.77,"id":"a73axwgr2c0a","lat":40.628056,"state":"Pennsylvania","2014 dv":11.41},"type":"Feature","geometry":{"type":"Point","coordinates":[-75.341111,40.628056]}},{"properties":{"column_4":"Philadelphia, Pennsylvania","lon":-75.097778,"monitor id":421010004,"county":"Philadelphia","2008 dv":13.43,"id":"a73axwrijlc6","lat":40.008889,"state":"Pennsylvania","2014 dv":12.01},"type":"Feature","geometry":{"type":"Point","coordinates":[-75.097778,40.008889]}},{"properties":{"column_4":"Washington, Pennsylvania","lon":-79.902222,"monitor id":421250005,"county":"Washington","2008 dv":14.35,"id":"a73axwez5l1o","lat":40.146667,"state":"Pennsylvania","2014 dv":12.38},"type":"Feature","geometry":{"type":"Point","coordinates":[-79.902222,40.146667]}},{"properties":{"column_4":"Westmoreland, Pennsylvania","lon":-79.505667,"monitor id":421290008,"county":"Westmoreland","2008 dv":14.08,"id":"a73axwerj0el","lat":40.304694,"state":"Pennsylvania","2014 dv":11.96},"type":"Feature","geometry":{"type":"Point","coordinates":[-79.505667,40.304694]}},{"properties":{"column_4":"York, Pennsylvania","lon":-76.699444,"monitor id":421330008,"county":"York","2008 dv":14.58,"id":"a73axwpeb2cg","lat":39.965278,"state":"Pennsylvania","2014 dv":12.72},"type":"Feature","geometry":{"type":"Point","coordinates":[-76.699444,39.965278]}},{"properties":{"column_4":"Kent, Rhode Island","lon":-71.7199,"monitor id":440030002,"county":"Kent","2008 dv":7.73,"id":"a73axwp4jijj","lat":41.6156,"state":"Rhode Island","2014 dv":6.96},"type":"Feature","geometry":{"type":"Point","coordinates":[-71.7199,41.6156]}},{"properties":{"column_4":"Providence, Rhode Island","lon":-71.379944,"monitor id":440070026,"county":"Providence","2008 dv":11.39,"id":"a73axwlzm0hp","lat":41.874655,"state":"Rhode Island","2014 dv":10.51},"type":"Feature","geometry":{"type":"Point","coordinates":[-71.379944,41.874655]}},{"properties":{"column_4":"Chesterfield, South Carolina","lon":-80.198787,"monitor id":450250001,"county":"Chesterfield","2008 dv":11.96,"id":"a73axwq8bhqz","lat":34.615367,"state":"South Carolina","2014 dv":10.29},"type":"Feature","geometry":{"type":"Point","coordinates":[-80.198787,34.615367]}},{"properties":{"column_4":"Florence, South Carolina","lon":-79.850404,"monitor id":450410002,"county":"Florence","2008 dv":12.05,"id":"a73axws7rpxj","lat":34.167636,"state":"South Carolina","2014 dv":10.49},"type":"Feature","geometry":{"type":"Point","coordinates":[-79.850404,34.167636]}},{"properties":{"column_4":"Greenville, South Carolina","lon":-82.402918,"monitor id":450450008,"county":"Greenville","2008 dv":14.21,"id":"a73axwejp7e3","lat":34.838814,"state":"South Carolina","2014 dv":12.26},"type":"Feature","geometry":{"type":"Point","coordinates":[-82.402918,34.838814]}},{"properties":{"column_4":"Lexington, South Carolina","lon":-81.15495,"monitor id":450630008,"county":"Lexington","2008 dv":13.65,"id":"a73axwg9hoo0","lat":34.051017,"state":"South Carolina","2014 dv":11.88},"type":"Feature","geometry":{"type":"Point","coordinates":[-81.15495,34.051017]}},{"properties":{"column_4":"Oconee, South Carolina","lon":-83.2377,"monitor id":450730001,"county":"Oconee","2008 dv":10.46,"id":"a73axwmcxfto","lat":34.805261,"state":"South Carolina","2014 dv":8.62},"type":"Feature","geometry":{"type":"Point","coordinates":[-83.2377,34.805261]}},{"properties":{"column_4":"Richland, South Carolina","lon":-81.024141,"monitor id":450790019,"county":"Richland","2008 dv":13.25,"id":"a73axwsq9n0w","lat":33.991509,"state":"South Carolina","2014 dv":11.48},"type":"Feature","geometry":{"type":"Point","coordinates":[-81.024141,33.991509]}},{"properties":{"column_4":"Spartanburg, South Carolina","lon":-82.005211,"monitor id":450830010,"county":"Spartanburg","2008 dv":13.29,"id":"a73axwkja1pj","lat":34.926839,"state":"South Carolina","2014 dv":11.33},"type":"Feature","geometry":{"type":"Point","coordinates":[-82.005211,34.926839]}},{"properties":{"column_4":"Brookings, South Dakota","lon":-96.80071,"monitor id":460110002,"county":"Brookings","2008 dv":8.52,"id":"a73axwu0grvb","lat":44.310283,"state":"South Dakota","2014 dv":7.88},"type":"Feature","geometry":{"type":"Point","coordinates":[-96.80071,44.310283]}},{"properties":{"column_4":"Brown, South Dakota","lon":-98.486111,"monitor id":460130003,"county":"Brown","2008 dv":7.93,"id":"a73axwmkidwc","lat":45.4625,"state":"South Dakota","2014 dv":7.37},"type":"Feature","geometry":{"type":"Point","coordinates":[-98.486111,45.4625]}},{"properties":{"column_4":"Codington, South Dakota","lon":-97.128802,"monitor id":460290002,"county":"Codington","2008 dv":9.5,"id":"a73axwrmp7oy","lat":44.89965,"state":"South Dakota","2014 dv":8.9},"type":"Feature","geometry":{"type":"Point","coordinates":[-97.128802,44.89965]}},{"properties":{"column_4":"Minnehaha, South Dakota","lon":-96.726435,"monitor id":460990006,"county":"Minnehaha","2008 dv":9.57,"id":"a73axwg71l4r","lat":43.544289,"state":"South Dakota","2014 dv":8.88},"type":"Feature","geometry":{"type":"Point","coordinates":[-96.726435,43.544289]}},{"properties":{"column_4":"Blount, Tennessee","lon":-83.942123,"monitor id":470090011,"county":"Blount","2008 dv":14.08,"id":"a73axwq4m390","lat":35.768431,"state":"Tennessee","2014 dv":12.15},"type":"Feature","geometry":{"type":"Point","coordinates":[-83.942123,35.768431]}},{"properties":{"column_4":"Davidson, Tennessee","lon":-86.738902,"monitor id":470370023,"county":"Davidson","2008 dv":13.19,"id":"a73axwrlqp2y","lat":36.176326,"state":"Tennessee","2014 dv":11.61},"type":"Feature","geometry":{"type":"Point","coordinates":[-86.738902,36.176326]}},{"properties":{"column_4":"Dyer, Tennessee","lon":-89.38227,"monitor id":470450004,"county":"Dyer","2008 dv":11.42,"id":"a73axwst54nb","lat":36.052871,"state":"Tennessee","2014 dv":10.04},"type":"Feature","geometry":{"type":"Point","coordinates":[-89.38227,36.052871]}},{"properties":{"column_4":"Hamilton, Tennessee","lon":-85.292975,"monitor id":470654002,"county":"Hamilton","2008 dv":14.26,"id":"a73axwghkxio","lat":35.050928,"state":"Tennessee","2014 dv":12.12},"type":"Feature","geometry":{"type":"Point","coordinates":[-85.292975,35.050928]}},{"properties":{"column_4":"Lawrence, Tennessee","lon":-87.47001,"monitor id":470990002,"county":"Lawrence","2008 dv":11.34,"id":"a73axwnmvav0","lat":35.116223,"state":"Tennessee","2014 dv":9.87},"type":"Feature","geometry":{"type":"Point","coordinates":[-87.47001,35.116223]}},{"properties":{"column_4":"Loudon, Tennessee","lon":-84.317313,"monitor id":471050108,"county":"Loudon","2008 dv":14.9,"id":"a73axweeyive","lat":35.744799,"state":"Tennessee","2014 dv":12.94},"type":"Feature","geometry":{"type":"Point","coordinates":[-84.317313,35.744799]}},{"properties":{"column_4":"McMinn, Tennessee","lon":-84.599167,"monitor id":471071002,"county":"McMinn","2008 dv":14.06,"id":"a73axwum1czo","lat":35.451111,"state":"Tennessee","2014 dv":12.01},"type":"Feature","geometry":{"type":"Point","coordinates":[-84.599167,35.451111]}},{"properties":{"column_4":"Madison, Tennessee","lon":-88.809652,"monitor id":471130006,"county":"Madison","2008 dv":11.75,"id":"a73axwh99net","lat":35.651541,"state":"Tennessee","2014 dv":10.36},"type":"Feature","geometry":{"type":"Point","coordinates":[-88.809652,35.651541]}},{"properties":{"column_4":"Maury, Tennessee","lon":-87.0263,"monitor id":471192007,"county":"Maury","2008 dv":12.3,"id":"a73axwhfwupk","lat":35.65192,"state":"Tennessee","2014 dv":10.74},"type":"Feature","geometry":{"type":"Point","coordinates":[-87.0263,35.65192]}},{"properties":{"column_4":"Montgomery, Tennessee","lon":-87.327778,"monitor id":471251009,"county":"Montgomery","2008 dv":12.63,"id":"a73axwojl92y","lat":36.514444,"state":"Tennessee","2014 dv":11.08},"type":"Feature","geometry":{"type":"Point","coordinates":[-87.327778,36.514444]}},{"properties":{"column_4":"Roane, Tennessee","lon":-84.54372,"monitor id":471450004,"county":"Roane","2008 dv":13.95,"id":"a73axwseoq9m","lat":35.938695,"state":"Tennessee","2014 dv":11.95},"type":"Feature","geometry":{"type":"Point","coordinates":[-84.54372,35.938695]}},{"properties":{"column_4":"Shelby, Tennessee","lon":-89.949444,"monitor id":471570014,"county":"Shelby","2008 dv":12.55,"id":"a73axwqd30yk","lat":35.085833,"state":"Tennessee","2014 dv":11.15},"type":"Feature","geometry":{"type":"Point","coordinates":[-89.949444,35.085833]}},{"properties":{"column_4":"Sullivan, Tennessee","lon":-82.521667,"monitor id":471631007,"county":"Sullivan","2008 dv":13.27,"id":"a73axwjmr3oo","lat":36.540654,"state":"Tennessee","2014 dv":11.39},"type":"Feature","geometry":{"type":"Point","coordinates":[-82.521667,36.540654]}},{"properties":{"column_4":"Sumner, Tennessee","lon":-86.652778,"monitor id":471650007,"county":"Sumner","2008 dv":12.66,"id":"a73axwoz1696","lat":36.297778,"state":"Tennessee","2014 dv":10.85},"type":"Feature","geometry":{"type":"Point","coordinates":[-86.652778,36.297778]}},{"properties":{"column_4":"Bennington, Vermont","lon":-73.24984,"monitor id":500030004,"county":"Bennington","2008 dv":7.47,"id":"a73axwluf4gv","lat":42.88759,"state":"Vermont","2014 dv":6.96},"type":"Feature","geometry":{"type":"Point","coordinates":[-73.24984,42.88759]}},{"properties":{"column_4":"Chittenden, Vermont","lon":-73.214444,"monitor id":500070012,"county":"Chittenden","2008 dv":8.27,"id":"a73axweg872a","lat":44.480278,"state":"Vermont","2014 dv":7.73},"type":"Feature","geometry":{"type":"Point","coordinates":[-73.214444,44.480278]}},{"properties":{"column_4":"Rutland, Vermont","lon":-72.982778,"monitor id":500210002,"county":"Rutland","2008 dv":10.61,"id":"a73axwlgv108","lat":43.608056,"state":"Vermont","2014 dv":10.04},"type":"Feature","geometry":{"type":"Point","coordinates":[-72.982778,43.608056]}},{"properties":{"column_4":"Arlington, Virginia","lon":-77.059167,"monitor id":510130020,"county":"Arlington","2008 dv":12.87,"id":"a73axwi54lf3","lat":38.8575,"state":"Virginia","2014 dv":10.97},"type":"Feature","geometry":{"type":"Point","coordinates":[-77.059167,38.8575]}},{"properties":{"column_4":"Charles, Virginia","lon":-77.260034,"monitor id":510360002,"county":"Charles","2008 dv":11.47,"id":"a73axweks5n2","lat":37.343294,"state":"Virginia","2014 dv":9.72},"type":"Feature","geometry":{"type":"Point","coordinates":[-77.260034,37.343294]}},{"properties":{"column_4":"Chesterfield, Virginia","lon":-77.450833,"monitor id":510410003,"county":"Chesterfield","2008 dv":12.43,"id":"a73axwj6yl6s","lat":37.436111,"state":"Virginia","2014 dv":10.51},"type":"Feature","geometry":{"type":"Point","coordinates":[-77.450833,37.436111]}},{"properties":{"column_4":"Fairfax, Virginia","lon":-77.198889,"monitor id":510595001,"county":"Fairfax","2008 dv":12.67,"id":"a73axwl3ovdi","lat":38.931944,"state":"Virginia","2014 dv":10.76},"type":"Feature","geometry":{"type":"Point","coordinates":[-77.198889,38.931944]}},{"properties":{"column_4":"Henrico, Virginia","lon":-77.400278,"monitor id":510870014,"county":"Henrico","2008 dv":12.1,"id":"a73axwmbhw1m","lat":37.558333,"state":"Virginia","2014 dv":10.25},"type":"Feature","geometry":{"type":"Point","coordinates":[-77.400278,37.558333]}},{"properties":{"column_4":"Loudoun, Virginia","lon":-77.49,"monitor id":511071005,"county":"Loudoun","2008 dv":12.17,"id":"a73axwi3i9dn","lat":39.024444,"state":"Virginia","2014 dv":10.37},"type":"Feature","geometry":{"type":"Point","coordinates":[-77.49,39.024444]}},{"properties":{"column_4":"Page, Virginia","lon":-78.504722,"monitor id":511390004,"county":"Page","2008 dv":11.68,"id":"a73axwh6p4um","lat":38.663333,"state":"Virginia","2014 dv":9.72},"type":"Feature","geometry":{"type":"Point","coordinates":[-78.504722,38.663333]}},{"properties":{"column_4":"Bristol City, Virginia","lon":-82.164444,"monitor id":515200006,"county":"Bristol City","2008 dv":12.66,"id":"a73axwihoock","lat":36.607778,"state":"Virginia","2014 dv":10.76},"type":"Feature","geometry":{"type":"Point","coordinates":[-82.164444,36.607778]}},{"properties":{"column_4":"Hampton City, Virginia","lon":-76.399167,"monitor id":516500004,"county":"Hampton City","2008 dv":11.42,"id":"a73axwo1moy6","lat":37.003333,"state":"Virginia","2014 dv":9.92},"type":"Feature","geometry":{"type":"Point","coordinates":[-76.399167,37.003333]}},{"properties":{"column_4":"Lynchburg City, Virginia","lon":-79.1883,"monitor id":516800015,"county":"Lynchburg City","2008 dv":11.86,"id":"a73axwq6wnio","lat":37.3605,"state":"Virginia","2014 dv":10.02},"type":"Feature","geometry":{"type":"Point","coordinates":[-79.1883,37.3605]}},{"properties":{"column_4":"Norfolk City, Virginia","lon":-76.301667,"monitor id":517100024,"county":"Norfolk City","2008 dv":12.49,"id":"a73axwjix1vy","lat":36.857778,"state":"Virginia","2014 dv":10.93},"type":"Feature","geometry":{"type":"Point","coordinates":[-76.301667,36.857778]}},{"properties":{"column_4":"Roanoke City, Virginia","lon":-79.985,"monitor id":517700014,"county":"Roanoke City","2008 dv":13.44,"id":"a73axwf96wma","lat":37.256111,"state":"Virginia","2014 dv":11.52},"type":"Feature","geometry":{"type":"Point","coordinates":[-79.985,37.256111]}},{"properties":{"column_4":"Virginia Beach City, Virginia","lon":-76.181389,"monitor id":518100008,"county":"Virginia Beach City","2008 dv":11.85,"id":"a73axwg2z2h4","lat":36.841111,"state":"Virginia","2014 dv":10.37},"type":"Feature","geometry":{"type":"Point","coordinates":[-76.181389,36.841111]}},{"properties":{"column_4":"Berkeley, West Virginia","lon":-77.964125,"monitor id":540030003,"county":"Berkeley","2008 dv":14.91,"id":"a73axwphrrk3","lat":39.448006,"state":"West Virginia","2014 dv":13.02},"type":"Feature","geometry":{"type":"Point","coordinates":[-77.964125,39.448006]}},{"properties":{"column_4":"Brooke, West Virginia","lon":-80.596635,"monitor id":540090005,"county":"Brooke","2008 dv":15.43,"id":"a73axwhrawhg","lat":40.341023,"state":"West Virginia","2014 dv":13.63},"type":"Feature","geometry":{"type":"Point","coordinates":[-80.596635,40.341023]}},{"properties":{"column_4":"Cabell, West Virginia","lon":-82.4259,"monitor id":540110006,"county":"Cabell","2008 dv":15.24,"id":"a73axwiqxpkj","lat":38.424133,"state":"West Virginia","2014 dv":13.36},"type":"Feature","geometry":{"type":"Point","coordinates":[-82.4259,38.424133]}},{"properties":{"column_4":"Hancock, West Virginia","lon":-80.580717,"monitor id":540291004,"county":"Hancock","2008 dv":14.25,"id":"a73axwivrs7b","lat":40.421539,"state":"West Virginia","2014 dv":12.54},"type":"Feature","geometry":{"type":"Point","coordinates":[-80.580717,40.421539]}},{"properties":{"column_4":"Harrison, West Virginia","lon":-80.34225,"monitor id":540330003,"county":"Harrison","2008 dv":13.42,"id":"a73axwj7r5nu","lat":39.278117,"state":"West Virginia","2014 dv":11.58},"type":"Feature","geometry":{"type":"Point","coordinates":[-80.34225,39.278117]}},{"properties":{"column_4":"Kanawha, West Virginia","lon":-81.693717,"monitor id":540391005,"county":"Kanawha","2008 dv":15.41,"id":"a73axwundowc","lat":38.366183,"state":"West Virginia","2014 dv":13.25},"type":"Feature","geometry":{"type":"Point","coordinates":[-81.693717,38.366183]}},{"properties":{"column_4":"Marion, West Virginia","lon":-80.134667,"monitor id":540490006,"county":"Marion","2008 dv":14.51,"id":"a73axwnan9fm","lat":39.481483,"state":"West Virginia","2014 dv":12.6},"type":"Feature","geometry":{"type":"Point","coordinates":[-80.134667,39.481483]}},{"properties":{"column_4":"Marshall, West Virginia","lon":-80.733858,"monitor id":540511002,"county":"Marshall","2008 dv":14.18,"id":"a73axwtfj9nv","lat":39.915961,"state":"West Virginia","2014 dv":12.35},"type":"Feature","geometry":{"type":"Point","coordinates":[-80.733858,39.915961]}},{"properties":{"column_4":"Monongalia, West Virginia","lon":-79.920867,"monitor id":540610003,"county":"Monongalia","2008 dv":13.6,"id":"a73axwf4ncvj","lat":39.649367,"state":"West Virginia","2014 dv":11.41},"type":"Feature","geometry":{"type":"Point","coordinates":[-79.920867,39.649367]}},{"properties":{"column_4":"Ohio, West Virginia","lon":-80.700972,"monitor id":540690010,"county":"Ohio","2008 dv":13.71,"id":"a73axwe842jn","lat":40.114876,"state":"West Virginia","2014 dv":11.86},"type":"Feature","geometry":{"type":"Point","coordinates":[-80.700972,40.114876]}},{"properties":{"column_4":"Raleigh, West Virginia","lon":-81.197433,"monitor id":540810002,"county":"Raleigh","2008 dv":11.94,"id":"a73axwr5pv9k","lat":37.807767,"state":"West Virginia","2014 dv":10.15},"type":"Feature","geometry":{"type":"Point","coordinates":[-81.197433,37.807767]}},{"properties":{"column_4":"Wood, West Virginia","lon":-81.552367,"monitor id":541071002,"county":"Wood","2008 dv":14.59,"id":"a73axwm52bnc","lat":39.323533,"state":"West Virginia","2014 dv":12.77},"type":"Feature","geometry":{"type":"Point","coordinates":[-81.552367,39.323533]}},{"properties":{"column_4":"Ashland, Wisconsin","lon":-90.69868,"monitor id":550030010,"county":"Ashland","2008 dv":6.26,"id":"a73axwsba6o4","lat":46.61455,"state":"Wisconsin","2014 dv":5.93},"type":"Feature","geometry":{"type":"Point","coordinates":[-90.69868,46.61455]}},{"properties":{"column_4":"Brown, Wisconsin","lon":-87.992978,"monitor id":550090005,"county":"Brown","2008 dv":11.87,"id":"a73axwnoddhn","lat":44.507004,"state":"Wisconsin","2014 dv":11.24},"type":"Feature","geometry":{"type":"Point","coordinates":[-87.992978,44.507004]}},{"properties":{"column_4":"Dane, Wisconsin","lon":-89.435833,"monitor id":550250047,"county":"Dane","2008 dv":12.61,"id":"a73axwm5zbqi","lat":43.073333,"state":"Wisconsin","2014 dv":11.62},"type":"Feature","geometry":{"type":"Point","coordinates":[-89.435833,43.073333]}},{"properties":{"column_4":"Dodge, Wisconsin","lon":-88.527778,"monitor id":550270007,"county":"Dodge","2008 dv":11.11,"id":"a73axwu3cdtm","lat":43.435,"state":"Wisconsin","2014 dv":10.25},"type":"Feature","geometry":{"type":"Point","coordinates":[-88.527778,43.435]}},{"properties":{"column_4":"Forest, Wisconsin","lon":-88.80859,"monitor id":550410007,"county":"Forest","2008 dv":7.14,"id":"a73axwojc020","lat":45.56498,"state":"Wisconsin","2014 dv":6.72},"type":"Feature","geometry":{"type":"Point","coordinates":[-88.80859,45.56498]}},{"properties":{"column_4":"Grant, Wisconsin","lon":-90.68637,"monitor id":550430009,"county":"Grant","2008 dv":12.33,"id":"a73axwj6uuyd","lat":42.69215,"state":"Wisconsin","2014 dv":11.29},"type":"Feature","geometry":{"type":"Point","coordinates":[-90.68637,42.69215]}},{"properties":{"column_4":"Kenosha, Wisconsin","lon":-87.8093,"monitor id":550590019,"county":"Kenosha","2008 dv":12.7,"id":"a73axwn5z1sh","lat":42.504722,"state":"Wisconsin","2014 dv":11.62},"type":"Feature","geometry":{"type":"Point","coordinates":[-87.8093,42.504722]}},{"properties":{"column_4":"La Crosse, Wisconsin","lon":-91.225,"monitor id":550630012,"county":"La Crosse","2008 dv":12.07,"id":"a73axwmzwgpr","lat":43.778,"state":"Wisconsin","2014 dv":11.26},"type":"Feature","geometry":{"type":"Point","coordinates":[-91.225,43.778]}},{"properties":{"column_4":"Manitowoc, Wisconsin","lon":-87.616111,"monitor id":550710007,"county":"Manitowoc","2008 dv":10.7,"id":"a73axwu66lp1","lat":44.138611,"state":"Wisconsin","2014 dv":10.07},"type":"Feature","geometry":{"type":"Point","coordinates":[-87.616111,44.138611]}},{"properties":{"column_4":"Milwaukee, Wisconsin","lon":-87.934167,"monitor id":550790059,"county":"Milwaukee","2008 dv":14.52,"id":"a73axwhlnogy","lat":42.955,"state":"Wisconsin","2014 dv":13.52},"type":"Feature","geometry":{"type":"Point","coordinates":[-87.934167,42.955]}},{"properties":{"column_4":"Outagamie, Wisconsin","lon":-88.395556,"monitor id":550870009,"county":"Outagamie","2008 dv":11.36,"id":"a73axwgippvj","lat":44.306944,"state":"Wisconsin","2014 dv":10.72},"type":"Feature","geometry":{"type":"Point","coordinates":[-88.395556,44.306944]}},{"properties":{"column_4":"Ozaukee, Wisconsin","lon":-87.81,"monitor id":550890009,"county":"Ozaukee","2008 dv":11.88,"id":"a73axwirwfu9","lat":43.498056,"state":"Wisconsin","2014 dv":10.97},"type":"Feature","geometry":{"type":"Point","coordinates":[-87.81,43.498056]}},{"properties":{"column_4":"St. Croix, Wisconsin","lon":-92.6625,"monitor id":551091002,"county":"St. Croix","2008 dv":10.33,"id":"a73axwjxbheb","lat":45.124444,"state":"Wisconsin","2014 dv":9.62},"type":"Feature","geometry":{"type":"Point","coordinates":[-92.6625,45.124444]}},{"properties":{"column_4":"Sauk, Wisconsin","lon":-89.680278,"monitor id":551110007,"county":"Sauk","2008 dv":10.5,"id":"a73axwi41n31","lat":43.435556,"state":"Wisconsin","2014 dv":9.62},"type":"Feature","geometry":{"type":"Point","coordinates":[-89.680278,43.435556]}},{"properties":{"column_4":"Taylor, Wisconsin","lon":-90.6,"monitor id":551198001,"county":"Taylor","2008 dv":8.98,"id":"a73axwga8s2j","lat":45.203889,"state":"Wisconsin","2014 dv":8.43},"type":"Feature","geometry":{"type":"Point","coordinates":[-90.6,45.203889]}},{"properties":{"column_4":"Vilas, Wisconsin","lon":-89.653611,"monitor id":551250001,"county":"Vilas","2008 dv":6.89,"id":"a73axwg5kvcc","lat":46.048056,"state":"Wisconsin","2014 dv":6.51},"type":"Feature","geometry":{"type":"Point","coordinates":[-89.653611,46.048056]}},{"properties":{"column_4":"Waukesha, Wisconsin","lon":-88.215,"monitor id":551330027,"county":"Waukesha","2008 dv":13.87,"id":"a73axwfm2auf","lat":43.020278,"state":"Wisconsin","2014 dv":13.04},"type":"Feature","geometry":{"type":"Point","coordinates":[-88.215,43.020278]}}],"is_temporal":false,"author":{"url":"","metadata":"","contact_name":"","contact_address":"","source":"","contact_phone":""},"source":"","pagination":{"sort":null,"start":0,"total":327,"limit":1000000},"state":"complete","tags":"","published":"2014-08-14T15:45:38-04:00","id":260720}