{"type":"FeatureCollection","data_type":"Dataset","url_type":null,"permissions":[{"permissions":{"download":true,"view":true},"group_id":"everyone"}],"classification":null,"title":"Scanner_Install_List","count":65,"stream_id":260864,"contributor":{"url":"http://geocommons.com/users/49119","name":"rezakh_71"},"data_attributes":null,"calculation_params":null,"icon_link":null,"link":"http://geocommons.com/overlays/260864.json","extent":[-149.887,31.4679,-84.3014,64.8383],"geometry_types":["point"],"unique_name":null,"name":"Scanner_Install_List","feature_count":65,"description":"","next_feature":null,"is_raster":false,"short_classification":"Y","stats":{"agency code":{"max":75,"variance":579.471153846154,"mean":33.5384615384615,"stdev":24.0722070829858,"min":1,"median":35},"zip code suffix":{"max":8002,"variance":2226210.91909882,"mean":434.873015873016,"stdev":1492.04923481057,"min":0,"median":0}},"features":[{"properties":{"city":"ROSEBUD","area code":"A","ltro code":"A","agency code":7,"it contacts":null,"phone numbers":null,"entity type code":"AGCY","geo_score":0.714,"last\\business name":"ROSEBUD AGENCY","zip code":"57570","zip code suffix":0,"address 2":"137 CIRCLE DRIVE","contacts":null,"id":"a73uv8m9y52g","address":"PO BOX 550","geo_precision":"zip","state code":"SD"},"type":"Feature","geometry":{"type":"Point","coordinates":[-100.626863,43.302375]}},{"properties":{"city":"FORT THOMPSON","area code":"A","ltro code":"A","agency code":14,"it contacts":null,"phone numbers":null,"entity type code":"AGCY","geo_score":0.714,"last\\business name":"CROW CREEK AGENCY","zip code":"57339","zip code suffix":0,"address 2":"SAMBOY DRIVE","contacts":null,"id":"a73uv8jntyoo","address":"P.O. BOX 139","geo_precision":"zip","state code":"SD"},"type":"Feature","geometry":{"type":"Point","coordinates":[-99.251509,44.064873]}},{"properties":{"city":"NEW TOWN","area code":"A","ltro code":"A","agency code":4,"it contacts":null,"phone numbers":null,"entity type code":"AGCY","geo_score":0.714,"last\\business name":"FORT BERTHOLD AGENCY","zip code":"58763","zip code suffix":0,"address 2":"202 MAIN STREET","contacts":null,"id":"a73uv8p2zg28","address":"PO BOX 370","geo_precision":"zip","state code":"ND"},"type":"Feature","geometry":{"type":"Point","coordinates":[-102.546016,47.973905]}},{"properties":{"city":"FORT TOTTEN","area code":"A","ltro code":"A","agency code":5,"it contacts":null,"phone numbers":null,"entity type code":"AGCY","geo_score":0.714,"last\\business name":"FORT TOTTEN AGENCY","zip code":"58335","zip code suffix":0,"address 2":"816 3RD AVENUE NORTH","contacts":null,"id":"a73uv8iy9x6c","address":"PO BOX 270","geo_precision":"zip","state code":"ND"},"type":"Feature","geometry":{"type":"Point","coordinates":[-99.186842,48.108758]}},{"properties":{"city":"PINE RIDGE","area code":"A","ltro code":"A","agency code":6,"it contacts":null,"phone numbers":null,"entity type code":"AGCY","geo_score":0.714,"last\\business name":"PINE RIDGE AGENCY","zip code":"57770","zip code suffix":0,"address 2":"HIGHWAY 18, MAIN STREET, BLDG 159","contacts":null,"id":"a73uv8jm95bp","address":"PO BOX 1203","geo_precision":"zip","state code":"SD"},"type":"Feature","geometry":{"type":"Point","coordinates":[-102.535178,43.024319]}},{"properties":{"city":"WAGNER","area code":"A","ltro code":"A","agency code":8,"it contacts":null,"phone numbers":null,"entity type code":"AGCY","geo_score":0.714,"last\\business name":"YANKTON AGENCY","zip code":"57380","zip code suffix":577,"address 2":"29775 SOUTH MAIN","contacts":null,"id":"a73uv8jb6ooa","address":"PO BOX 577","geo_precision":"zip","state code":"SD"},"type":"Feature","geometry":{"type":"Point","coordinates":[-98.315504,43.034725]}},{"properties":{"city":"AGENCY VILLAGE","area code":"A","ltro code":"A","agency code":9,"it contacts":null,"phone numbers":null,"entity type code":"AGCY","geo_score":0.347,"last\\business name":"SISSETON AGENCY","zip code":"57262","zip code suffix":0,"address 2":"VETERANS MEMORIAL DRIVE","contacts":null,"id":"a73uv8cldy2w","address":"P.O. BOX 688","geo_precision":"street","state code":"SD"},"type":"Feature","geometry":{"type":"Point","coordinates":[-97.376888,44.760492]}},{"properties":{"city":"Fort Yates","area code":null,"ltro code":"A","agency code":10,"it contacts":null,"phone numbers":null,"entity type code":null,"geo_score":0.0,"last\\business name":"Standing Rock Agency","zip code":null,"zip code suffix":null,"address 2":null,"contacts":null,"id":"a73uv8gthmni","address":null,"geo_precision":"unmatched","state code":"ND"},"type":"Feature","geometry":null},{"properties":{"city":"BELCOURT","area code":"A","ltro code":"A","agency code":11,"it contacts":null,"phone numbers":null,"entity type code":"AGCY","geo_score":0.286,"last\\business name":"TURTLE MOUNTAIN AGENCY","zip code":"58316","zip code suffix":0,"address 2":"BIA ROAD #7","contacts":null,"id":"a73uv8bmk3nl","address":"P.O. BOX 60","geo_precision":"street","state code":"ND"},"type":"Feature","geometry":{"type":"Point","coordinates":[-99.26571,47.672968]}},{"properties":{"city":"WINNEBAGO","area code":"A","ltro code":"A","agency code":13,"it contacts":null,"phone numbers":null,"entity type code":"AGCY","geo_score":0.393,"last\\business name":"WINNEBAGO AGENCY","zip code":"68071","zip code suffix":0,"address 2":"RURAL ROUTE 1, BOX 18","contacts":null,"id":"a73uv8numptx","address":"P.O. BOX 18","geo_precision":"street","state code":"NE"},"type":"Feature","geometry":{"type":"Point","coordinates":[-96.211924,41.781758]}},{"properties":{"city":"LOWER BRULE","area code":"A","ltro code":"A","agency code":15,"it contacts":null,"phone numbers":null,"entity type code":"AGCY","geo_score":0.488,"last\\business name":"LOWER BRULE AGENCY","zip code":"57548","zip code suffix":0,"address 2":null,"contacts":null,"id":"a73uv8hyndm8","address":"190 OYATE CIRCLE","geo_precision":"zip","state code":"SD"},"type":"Feature","geometry":{"type":"Point","coordinates":[-99.824337,43.85862]}},{"properties":{"city":"BLOOMINGTON","area code":"F","ltro code":"A","agency code":50,"it contacts":null,"phone numbers":null,"entity type code":"AGCY","geo_score":0.446,"last\\business name":"MIDWEST REGIONAL OFFICE","zip code":"55437","zip code suffix":0,"address 2":"5600 WEST AMERICAN BOULEVARD, SUITE 500","contacts":null,"id":"a73uv8oaf93v","address":"NORMAN POINTE II","geo_precision":"street","state code":"MN"},"type":"Feature","geometry":{"type":"Point","coordinates":[-93.338478,44.879822]}},{"properties":{"city":"BEMIDJI","area code":"F","ltro code":"A","agency code":53,"it contacts":null,"phone numbers":null,"entity type code":"AGCY","geo_score":0.714,"last\\business name":"MINNESOTA  AGENCY","zip code":"56601","zip code suffix":0,"address 2":"522 MINNESOTA AVENUE NW","contacts":null,"id":"a73uv8azllaf","address":"ROOM 418  FEDERAL BUILDING","geo_precision":"zip","state code":"MN"},"type":"Feature","geometry":{"type":"Point","coordinates":[-94.751653,47.587453]}},{"properties":{"city":"SAULT STE. MARIE","area code":"F","ltro code":"A","agency code":60,"it contacts":null,"phone numbers":null,"entity type code":"AGCY","geo_score":0.714,"last\\business name":"MICHIGAN AGENCY","zip code":"49783","zip code suffix":0,"address 2":"2901.5   I-75 BUSINESS SPUR","contacts":null,"id":"a73uv8m11so4","address":"FEDERAL SQUARE OFFICE PLAZA","geo_precision":"zip","state code":"MI"},"type":"Feature","geometry":{"type":"Point","coordinates":[-84.301425,46.462521]}},{"properties":{"city":"BROWNING","area code":"C","ltro code":"C","agency code":51,"it contacts":null,"phone numbers":null,"entity type code":"AGCY","geo_score":0.883,"last\\business name":"BLACKFEET AGENCY","zip code":"59417","zip code suffix":0,"address 2":"P.O. BOX 880","contacts":null,"id":"a73uv8ql1e3e","address":"531 SOUTH EAST BOUNDARY STREET","geo_precision":"range","state code":"MT"},"type":"Feature","geometry":{"type":"Point","coordinates":[-113.010011,48.550802]}},{"properties":{"city":"HARLEM","area code":"C","ltro code":"C","agency code":55,"it contacts":null,"phone numbers":null,"entity type code":"AGCY","geo_score":0.714,"last\\business name":"FORT BELKNAP AGENCY","zip code":"59526","zip code suffix":0,"address 2":null,"contacts":null,"id":"a73uv8ffdpn2","address":"158 TRIBAL WAY, SUITE B","geo_precision":"zip","state code":"MT"},"type":"Feature","geometry":{"type":"Point","coordinates":[-108.543759,48.474164]}},{"properties":{"city":"POPLAR","area code":"C","ltro code":"C","agency code":56,"it contacts":null,"phone numbers":null,"entity type code":"AGCY","geo_score":0.488,"last\\business name":"FORT PECK AGENCY","zip code":"59255","zip code suffix":0,"address 2":"P.O. BOX 637","contacts":null,"id":"a73uv8msaz1p","address":"500 MEDICINE BEAR ROAD","geo_precision":"zip","state code":"MT"},"type":"Feature","geometry":{"type":"Point","coordinates":[-105.189701,48.115522]}},{"properties":{"city":"LAME DEER","area code":"C","ltro code":"C","agency code":57,"it contacts":null,"phone numbers":null,"entity type code":"AGCY","geo_score":0.643,"last\\business name":"NORTHERN CHEYENNE AGENCY","zip code":"59043","zip code suffix":0,"address 2":"P.O. BOX 40","contacts":null,"id":"a73uv8ec9y8l","address":"HWY 39, MAIN BUILDING","geo_precision":"street","state code":"MT"},"type":"Feature","geometry":{"type":"Point","coordinates":[-106.668987,45.6279]}},{"properties":{"city":"FORT WASHAKIE","area code":"C","ltro code":"C","agency code":58,"it contacts":null,"phone numbers":null,"entity type code":"AGCY","geo_score":0.5,"last\\business name":"WIND RIVER AGENCY","zip code":"82514","zip code suffix":0,"address 2":"P.O. BOX 158","contacts":null,"id":"a73uv8dgciag","address":"1ST &amp; WASHAKIE STREET","geo_precision":"street","state code":"WY"},"type":"Feature","geometry":{"type":"Point","coordinates":[-108.884664,43.003705]}},{"properties":{"city":"BOX ELDER","area code":"C","ltro code":"C","agency code":59,"it contacts":null,"phone numbers":null,"entity type code":"AGCY","geo_score":0.488,"last\\business name":"ROCKY BOY AGENCY","zip code":"59521","zip code suffix":0,"address 2":"P.O. BOX 542","contacts":null,"id":"a73uv8g2thh3","address":"R.R.1","geo_precision":"zip","state code":"MT"},"type":"Feature","geometry":{"type":"Point","coordinates":[-109.788257,48.256099]}},{"properties":{"city":"ANCHORAGE","area code":"E","ltro code":"E","agency code":1,"it contacts":null,"phone numbers":null,"entity type code":"AGCY","geo_score":0.857,"last\\business name":"ANCHORAGE FIELD OFFICE","zip code":"99503","zip code suffix":5947,"address 2":null,"contacts":null,"id":"a73uv8brim1m","address":"3601 C STREET, SUITE 1100","geo_precision":"street","state code":"AK"},"type":"Feature","geometry":{"type":"Point","coordinates":[-149.887319,61.202823]}},{"properties":{"city":"ANCHORAGE","area code":"E","ltro code":"E","agency code":2,"it contacts":null,"phone numbers":null,"entity type code":"AGCY","geo_score":0.857,"last\\business name":"BETHEL AGENCY","zip code":"99503","zip code suffix":5947,"address 2":null,"contacts":null,"id":"a73uv8l29yj6","address":"3601 C STREET, SUITE 1100","geo_precision":"street","state code":"AK"},"type":"Feature","geometry":{"type":"Point","coordinates":[-149.887319,61.202823]}},{"properties":{"city":"FAIRBANKS","area code":"E","ltro code":"E","agency code":3,"it contacts":null,"phone numbers":null,"entity type code":"AGCY","geo_score":0.75,"last\\business name":"FAIRBANKS FIELD OFFICE","zip code":"99701","zip code suffix":0,"address 2":null,"contacts":null,"id":"a73uv8c87xtr","address":"101 12TH AVENUE, ROOM 166","geo_precision":"street","state code":"AK"},"type":"Feature","geometry":{"type":"Point","coordinates":[-147.711912,64.838325]}},{"properties":{"city":"ADA","area code":"G","ltro code":"G","agency code":3,"it contacts":null,"phone numbers":null,"entity type code":"AGCY","geo_score":0.714,"last\\business name":"CHICKASAW AGENCY","zip code":"74821","zip code suffix":0,"address 2":null,"contacts":null,"id":"a73uv8n6q26e","address":"P O BOX 2240","geo_precision":"zip","state code":"OK"},"type":"Feature","geometry":{"type":"Point","coordinates":[-96.669321,34.735301]}},{"properties":{"city":"MIAMI","area code":"G","ltro code":"G","agency code":4,"it contacts":null,"phone numbers":null,"entity type code":"AGCY","geo_score":0.403,"last\\business name":"MIAMI AGENCY","zip code":"74355","zip code suffix":0,"address 2":null,"contacts":null,"id":"a73uv8jqhmka","address":"P O BOX 391","geo_precision":"street","state code":"OK"},"type":"Feature","geometry":{"type":"Point","coordinates":[-94.89495,36.88198]}},{"properties":{"city":"MUSKOGEE","area code":"G","ltro code":"G","agency code":8,"it contacts":null,"phone numbers":null,"entity type code":"AGCY","geo_score":0.357,"last\\business name":"CHEROKEE NATION","zip code":"74402","zip code suffix":8002,"address 2":null,"contacts":null,"id":"a73uv8lyas18","address":"P.O. BOX 8002","geo_precision":"street","state code":"OK"},"type":"Feature","geometry":{"type":"Point","coordinates":[-95.350811,35.741822]}},{"properties":{"city":"TALIHINA","area code":"G","ltro code":"G","agency code":9,"it contacts":null,"phone numbers":null,"entity type code":"AGCY","geo_score":0.429,"last\\business name":"TALIHINA AGENCY","zip code":"74571","zip code suffix":0,"address 2":null,"contacts":null,"id":"a73uv8hfx60d","address":"P.O. BOX 8","geo_precision":"street","state code":"OK"},"type":"Feature","geometry":{"type":"Point","coordinates":[-95.044233,34.750226]}},{"properties":{"city":"WEWOKA","area code":"G","ltro code":"G","agency code":10,"it contacts":null,"phone numbers":null,"entity type code":"AGCY","geo_score":0.714,"last\\business name":"WEWOKA AGENCY","zip code":"74884","zip code suffix":0,"address 2":null,"contacts":null,"id":"a73uv8finoke","address":"P. O. BOX 1060","geo_precision":"zip","state code":"OK"},"type":"Feature","geometry":{"type":"Point","coordinates":[-96.599737,35.173967]}},{"properties":{"city":"SACRAMENTO","area code":"J","ltro code":"J","agency code":51,"it contacts":null,"phone numbers":null,"entity type code":"AGCY","geo_score":0.5,"last\\business name":"CENTRAL CALIFORNIA AGENCY","zip code":"95814","zip code suffix":0,"address 2":null,"contacts":null,"id":"a73uv8gubt8f","address":"650 CAPITOL MALL, SUITE 8-500","geo_precision":"street","state code":"CA"},"type":"Feature","geometry":{"type":"Point","coordinates":[-121.506899,38.580172]}},{"properties":{"city":"Redding","area code":null,"ltro code":"J","agency code":52,"it contacts":null,"phone numbers":null,"entity type code":null,"geo_score":0.0,"last\\business name":"NORTHERN CALIFORNIA AGENCY","zip code":null,"zip code suffix":null,"address 2":null,"contacts":null,"id":"a73uv8icho0p","address":null,"geo_precision":"unmatched","state code":"CA"},"type":"Feature","geometry":null},{"properties":{"city":"RIVERSIDE","area code":"J","ltro code":"J","agency code":54,"it contacts":null,"phone numbers":null,"entity type code":"AGCY","geo_score":0.482,"last\\business name":"SOUTHERN CALIFORNIA AGENCY","zip code":"92507","zip code suffix":0,"address 2":null,"contacts":null,"id":"a73uv8ihkvg2","address":"1451 RESEARCH PARK DRIVE, SUITE 100","geo_precision":"street","state code":"CA"},"type":"Feature","geometry":{"type":"Point","coordinates":[-117.324938,34.000316]}},{"properties":{"city":"PHOENIX AREA OFFICE","area code":"H","ltro code":"M","agency code":50,"it contacts":null,"phone numbers":null,"entity type code":"AGCY","geo_score":0.376,"last\\business name":"PHOENIX AREA OFFICE","zip code":"76001","zip code suffix":0,"address 2":null,"contacts":null,"id":"a73uv8gdzdn0","address":"PHOENIX AREA OFFICE","geo_precision":"street","state code":"AZ"},"type":"Feature","geometry":{"type":"Point","coordinates":[-97.752598,32.387482]}},{"properties":{"city":"PARKER","area code":"H","ltro code":"M","agency code":51,"it contacts":null,"phone numbers":null,"entity type code":"AGCY","geo_score":0.697,"last\\business name":"COLORADO RIVER AGENCY","zip code":"85344","zip code suffix":0,"address 2":null,"contacts":null,"id":"a73uv8ptb1q9","address":"12124 1ST AVE","geo_precision":"range","state code":"AZ"},"type":"Feature","geometry":{"type":"Point","coordinates":[-114.302776,34.145226]}},{"properties":{"city":"WHITERIVER","area code":"H","ltro code":"M","agency code":52,"it contacts":null,"phone numbers":null,"entity type code":"AGCY","geo_score":0.325,"last\\business name":"FORT APACHE AGENCY","zip code":"85941","zip code suffix":0,"address 2":null,"contacts":null,"id":"a73uv8f8k83e","address":"P O BOX 560","geo_precision":"street","state code":"AZ"},"type":"Feature","geometry":{"type":"Point","coordinates":[-110.114815,34.323484]}},{"properties":{"city":"SELLS","area code":"H","ltro code":"M","agency code":54,"it contacts":null,"phone numbers":null,"entity type code":"AGCY","geo_score":0.403,"last\\business name":"PAPAGO AGENCY","zip code":"85634","zip code suffix":0,"address 2":null,"contacts":null,"id":"a73uv8ok9641","address":"P O BOX 490","geo_precision":"street","state code":"AZ"},"type":"Feature","geometry":{"type":"Point","coordinates":[-110.976688,31.467935]}},{"properties":{"city":"SCOTTSDALE","area code":"H","ltro code":"M","agency code":55,"it contacts":null,"phone numbers":null,"entity type code":"AGCY","geo_score":0.902,"last\\business name":"SALT RIVER AGENCY","zip code":"85256","zip code suffix":0,"address 2":null,"contacts":null,"id":"a73uv8pthmuv","address":"10000 EAST MCDOWELL ROAD","geo_precision":"range","state code":"AZ"},"type":"Feature","geometry":{"type":"Point","coordinates":[-111.856697,33.465778]}},{"properties":{"city":"SACATON","area code":"H","ltro code":"M","agency code":57,"it contacts":null,"phone numbers":null,"entity type code":"AGCY","geo_score":0.429,"last\\business name":"PIMA AGENCY","zip code":"85247","zip code suffix":0,"address 2":null,"contacts":null,"id":"a73uv8p28xg8","address":"P O BOX 8","geo_precision":"street","state code":"AZ"},"type":"Feature","geometry":{"type":"Point","coordinates":[-111.611858,33.373587]}},{"properties":{"city":"SAN CARLOS","area code":"H","ltro code":"M","agency code":58,"it contacts":null,"phone numbers":null,"entity type code":"AGCY","geo_score":0.325,"last\\business name":"SAN CARLOS AGENCY","zip code":"85550","zip code suffix":0,"address 2":null,"contacts":null,"id":"a73uv8kz070t","address":"P O BOX 209","geo_precision":"street","state code":"AZ"},"type":"Feature","geometry":{"type":"Point","coordinates":[-111.30747,33.85474]}},{"properties":{"city":"CARSON CITY","area code":"H","ltro code":"M","agency code":61,"it contacts":null,"phone numbers":null,"entity type code":"AGCY","geo_score":0.902,"last\\business name":"WESTERN NEVADA AGENCY","zip code":"89701","zip code suffix":0,"address 2":null,"contacts":null,"id":"a73uv8k5a60w","address":"311 E WASHINGTON STREET","geo_precision":"range","state code":"NV"},"type":"Feature","geometry":{"type":"Point","coordinates":[-119.765203,39.16837]}},{"properties":{"city":"FORT DUCHESNE","area code":"H","ltro code":"M","agency code":62,"it contacts":null,"phone numbers":null,"entity type code":"AGCY","geo_score":0.378,"last\\business name":"UINTAH AND OURAY AGENCY","zip code":"84026","zip code suffix":0,"address 2":null,"contacts":null,"id":"a73uv8flk3y9","address":"P O BOX 130","geo_precision":"street","state code":"UT"},"type":"Feature","geometry":{"type":"Point","coordinates":[-111.730751,40.295269]}},{"properties":{"city":"ELKO","area code":"H","ltro code":"M","agency code":64,"it contacts":null,"phone numbers":null,"entity type code":"AGCY","geo_score":0.902,"last\\business name":"EASTERN NEVADA AGENCY","zip code":"89801","zip code suffix":0,"address 2":null,"contacts":null,"id":"a73uv8b5f91b","address":"1555 SHOSHONE CIRCLE","geo_precision":"range","state code":"NV"},"type":"Feature","geometry":{"type":"Point","coordinates":[-115.764593,40.847897]}},{"properties":{"city":"KEAMS CANYON","area code":"H","ltro code":"M","agency code":65,"it contacts":null,"phone numbers":null,"entity type code":"AGCY","geo_score":0.325,"last\\business name":"HOPI AGENCY","zip code":"86034","zip code suffix":0,"address 2":null,"contacts":null,"id":"a73uv8q2lb4i","address":"P O BOX 158","geo_precision":"street","state code":"AZ"},"type":"Feature","geometry":{"type":"Point","coordinates":[-110.691614,35.017373]}},{"properties":{"city":"VALENTINE","area code":"H","ltro code":"M","agency code":68,"it contacts":null,"phone numbers":null,"entity type code":"AGCY","geo_score":0.714,"last\\business name":"TRUXTON CANON AGENCY","zip code":"86437","zip code suffix":37,"address 2":null,"contacts":null,"id":"a73uv8h7m3br","address":"P O BOX 37","geo_precision":"zip","state code":"AZ"},"type":"Feature","geometry":{"type":"Point","coordinates":[-113.642712,35.605301]}},{"properties":{"city":"ST GEORGE","area code":"H","ltro code":"M","agency code":69,"it contacts":null,"phone numbers":null,"entity type code":"AGCY","geo_score":0.364,"last\\business name":"SOUTHERN PAIUTE FIELD OFFICE","zip code":"84771","zip code suffix":0,"address 2":null,"contacts":null,"id":"a73uv8nqilqb","address":"P O BOX 720","geo_precision":"street","state code":"UT"},"type":"Feature","geometry":{"type":"Point","coordinates":[-113.060194,37.664669]}},{"properties":{"city":"LAGUNA","area code":"M","ltro code":"M","agency code":21,"it contacts":null,"phone numbers":null,"entity type code":"AGCY","geo_score":0.286,"last\\business name":"LAGUNA AGENCY","zip code":"87026","zip code suffix":0,"address 2":null,"contacts":null,"id":"a73uv8cpyjdm","address":"P. O. BOX 1448","geo_precision":"street","state code":"NM"},"type":"Feature","geometry":{"type":"Point","coordinates":[-106.773433,34.658294]}},{"properties":{"city":"ESPANOLA","area code":"M","ltro code":"M","agency code":25,"it contacts":null,"phone numbers":null,"entity type code":"AGCY","geo_score":0.436,"last\\business name":"NORTHERN PUEBLO AGENCY","zip code":"87533","zip code suffix":0,"address 2":"FAIRVIEW STATION","contacts":null,"id":"a73uv8otdcam","address":"POST OFFICE BOX 4269","geo_precision":"street","state code":"NM"},"type":"Feature","geometry":{"type":"Point","coordinates":[-106.016907,35.634501]}},{"properties":{"city":"IGNACIO","area code":"M","ltro code":"M","agency code":40,"it contacts":null,"phone numbers":null,"entity type code":"AGCY","geo_score":0.429,"last\\business name":"SOUTHERN UTE AGENCY","zip code":"81137","zip code suffix":315,"address 2":null,"contacts":null,"id":"a73uv8l8hfgl","address":"P.O. BOX 315","geo_precision":"street","state code":"CO"},"type":"Feature","geometry":{"type":"Point","coordinates":[-107.643569,37.140266]}},{"properties":{"city":"TOWAOC","area code":"M","ltro code":"M","agency code":45,"it contacts":null,"phone numbers":null,"entity type code":"AGCY","geo_score":0.429,"last\\business name":"UTE MOUNTAIN UTE AGENCY","zip code":"81334","zip code suffix":0,"address 2":null,"contacts":null,"id":"a73uv8mjms9p","address":"P.O. BOX KK","geo_precision":"street","state code":"CO"},"type":"Feature","geometry":{"type":"Point","coordinates":[-108.551455,37.41926]}},{"properties":{"city":"DULCE","area code":"M","ltro code":"M","agency code":50,"it contacts":null,"phone numbers":null,"entity type code":"AGCY","geo_score":0.286,"last\\business name":"JICARILLA AGENCY","zip code":"87528","zip code suffix":0,"address 2":null,"contacts":null,"id":"a73uv8dgizw5","address":"P.O. BOX 167","geo_precision":"street","state code":"NM"},"type":"Feature","geometry":{"type":"Point","coordinates":[-106.067751,35.633991]}},{"properties":{"city":"MESCALERO","area code":"M","ltro code":"M","agency code":60,"it contacts":null,"phone numbers":null,"entity type code":"AGCY","geo_score":0.286,"last\\business name":"MESCALERO AGENCY","zip code":"88340","zip code suffix":0,"address 2":null,"contacts":null,"id":"a73uv8iovx5m","address":"P. O. BOX 189","geo_precision":"street","state code":"NM"},"type":"Feature","geometry":{"type":"Point","coordinates":[-105.943478,32.977835]}},{"properties":{"city":"ZUNI","area code":"M","ltro code":"M","agency code":70,"it contacts":null,"phone numbers":null,"entity type code":"AGCY","geo_score":0.286,"last\\business name":"ZUNI AGENCY","zip code":"87327","zip code suffix":0,"address 2":null,"contacts":null,"id":"a73uv8kyp9zb","address":"P. O. BOX 369","geo_precision":"street","state code":"NM"},"type":"Feature","geometry":{"type":"Point","coordinates":[-108.703987,35.525384]}},{"properties":{"city":"RAMAH","area code":"M","ltro code":"M","agency code":75,"it contacts":null,"phone numbers":null,"entity type code":"AGCY","geo_score":0.347,"last\\business name":"RAMAH NAVAJO AGENCY","zip code":"87321","zip code suffix":0,"address 2":null,"contacts":null,"id":"a73uv8ks1eim","address":"HC61, BOX 14","geo_precision":"street","state code":"NM"},"type":"Feature","geometry":{"type":"Point","coordinates":[-108.703987,35.525384]}},{"properties":{"city":"TUBA CITY","area code":"N","ltro code":"M","agency code":33,"it contacts":null,"phone numbers":null,"entity type code":"AGCY","geo_score":0.49,"last\\business name":"WESTERN NAVAJO AGENCY","zip code":"86045","zip code suffix":0,"address 2":"ATTN:  DIVISION OF REAL ESTATE SERVICES","contacts":null,"id":"a73uv8l3683d","address":"WESTERN NAVAJO AGENCY","geo_precision":"street","state code":"AZ"},"type":"Feature","geometry":{"type":"Point","coordinates":[-112.210909,35.358243]}},{"properties":{"city":"CROWNPOINT","area code":"N","ltro code":"M","agency code":34,"it contacts":null,"phone numbers":null,"entity type code":"AGCY","geo_score":0.714,"last\\business name":"EASTERN NAVAJO AGENCY","zip code":"87313","zip code suffix":0,"address 2":"EASTERN NAVAJO AGENCY","contacts":null,"id":"a73uv8nhu31x","address":"SUPERINTENDENT","geo_precision":"zip","state code":"NM"},"type":"Feature","geometry":{"type":"Point","coordinates":[-108.157292,36.09168]}},{"properties":{"city":"CHINLE","area code":"N","ltro code":"M","agency code":35,"it contacts":null,"phone numbers":null,"entity type code":"AGCY","geo_score":0.714,"last\\business name":"CHINLE AGENCY","zip code":"86503","zip code suffix":0,"address 2":"ATTN:  DIVISION OF REAL ESTATE SERVICES","contacts":null,"id":"a73uv8jjv7j7","address":"CHINLE AGENCY","geo_precision":"zip","state code":"AZ"},"type":"Feature","geometry":{"type":"Point","coordinates":[-109.867337,36.022227]}},{"properties":{"city":"FORT DEFIANCE","area code":"N","ltro code":"M","agency code":36,"it contacts":null,"phone numbers":null,"entity type code":"AGCY","geo_score":0.714,"last\\business name":"FORT DEFIANCE AGENCY","zip code":"86504","zip code suffix":0,"address 2":"ATTN: DIVISION OF REAL ESTATE SERVICES","contacts":null,"id":"a73uv8jrw2mo","address":"FORT DEFIANCE AGENCY","geo_precision":"zip","state code":"AZ"},"type":"Feature","geometry":{"type":"Point","coordinates":[-109.52295,35.237487]}},{"properties":{"city":"FORT HALL","area code":"P","ltro code":"P","agency code":4,"it contacts":null,"phone numbers":null,"entity type code":"AGCY","geo_score":0.714,"last\\business name":"FORT HALL AGENCY","zip code":"83203","zip code suffix":220,"address 2":null,"contacts":null,"id":"a73uv8oe33f6","address":"P.O. BOX 220","geo_precision":"zip","state code":"ID"},"type":"Feature","geometry":{"type":"Point","coordinates":[-112.418313,43.100471]}},{"properties":{"city":"LAPWAI","area code":"P","ltro code":"P","agency code":5,"it contacts":null,"phone numbers":null,"entity type code":"AGCY","geo_score":0.339,"last\\business name":"NORTHERN IDAHO AGENCY","zip code":"83540","zip code suffix":277,"address 2":null,"contacts":null,"id":"a73uv8c035xh","address":"P.O. DRAWER 277","geo_precision":"street","state code":"ID"},"type":"Feature","geometry":{"type":"Point","coordinates":[-116.440706,46.551271]}},{"properties":{"city":"ABERDEEN","area code":"P","ltro code":"P","agency code":6,"it contacts":null,"phone numbers":null,"entity type code":"AGCY","geo_score":0.333,"last\\business name":"OLYMPIC PENINSULA AGENCY","zip code":"98520","zip code suffix":0,"address 2":null,"contacts":null,"id":"a73uv8jd0xdv","address":"P.O. BOX 48","geo_precision":"street","state code":"WA"},"type":"Feature","geometry":{"type":"Point","coordinates":[-122.600639,46.946118]}},{"properties":{"city":"WARM SPRINGS","area code":"P","ltro code":"P","agency code":9,"it contacts":null,"phone numbers":null,"entity type code":"AGCY","geo_score":0.482,"last\\business name":"WARM SPRINGS AGENCY","zip code":"97761","zip code suffix":1239,"address 2":null,"contacts":null,"id":"a73uv8pktnlu","address":"P.O. BOX 1239","geo_precision":"street","state code":"OR"},"type":"Feature","geometry":{"type":"Point","coordinates":[-121.253296,44.754127]}},{"properties":{"city":"EVERETT","area code":"P","ltro code":"P","agency code":10,"it contacts":null,"phone numbers":null,"entity type code":"AGCY","geo_score":0.857,"last\\business name":"PUGET SOUND AGENCY","zip code":"98201","zip code suffix":3528,"address 2":null,"contacts":null,"id":"a73uv8gbjhxk","address":"2707 COLBY AVE. SUITE 1101","geo_precision":"street","state code":"WA"},"type":"Feature","geometry":{"type":"Point","coordinates":[-122.207851,48.009575]}},{"properties":{"city":"TOPPENISH","area code":"P","ltro code":"P","agency code":11,"it contacts":null,"phone numbers":null,"entity type code":"AGCY","geo_score":0.357,"last\\business name":"YAKIMA AGENCY","zip code":"98948","zip code suffix":632,"address 2":null,"contacts":null,"id":"a73uv8e8p6qc","address":"P.O. BOX 632","geo_precision":"street","state code":"WA"},"type":"Feature","geometry":{"type":"Point","coordinates":[-120.350511,46.887851]}},{"properties":{"city":"WELLPINIT","area code":"P","ltro code":"P","agency code":12,"it contacts":null,"phone numbers":null,"entity type code":"AGCY","geo_score":0.714,"last\\business name":"SPOKANE AGENCY","zip code":"99040","zip code suffix":389,"address 2":null,"contacts":null,"id":"a73uv8iypm5j","address":"P.O. BOX 389","geo_precision":"zip","state code":"WA"},"type":"Feature","geometry":{"type":"Point","coordinates":[-117.933742,47.881367]}},{"properties":{"city":"TAHOLAH","area code":"P","ltro code":"P","agency code":17,"it contacts":null,"phone numbers":null,"entity type code":"AGCY","geo_score":0.333,"last\\business name":"TAHOLAH AGENCY","zip code":"98587","zip code suffix":0,"address 2":null,"contacts":null,"id":"a73uv8bbf2lt","address":"P.O. BOX 39","geo_precision":"street","state code":"WA"},"type":"Feature","geometry":{"type":"Point","coordinates":[-122.600639,46.946118]}},{"properties":{"city":"PLUMMER","area code":"P","ltro code":"P","agency code":18,"it contacts":null,"phone numbers":null,"entity type code":"AGCY","geo_score":0.71,"last\\business name":"COEUR D'ALENE","zip code":"83851","zip code suffix":287,"address 2":"BOX 287","contacts":null,"id":"a73uv8e2oh76","address":"850 A STREET","geo_precision":"street","state code":"ID"},"type":"Feature","geometry":{"type":"Point","coordinates":[-116.883796,47.337196]}}],"is_temporal":false,"author":{"url":"","metadata":null,"contact_name":null,"contact_address":null,"source":null,"contact_phone":null},"source":"","pagination":{"sort":null,"start":0,"total":65,"limit":1000000},"state":"complete","tags":"","published":"2014-08-14T15:57:15-04:00","id":260864}