{"type":"FeatureCollection","data_type":"Dataset","url_type":null,"permissions":[{"permissions":{"download":true,"view":true},"group_id":"everyone"}],"classification":null,"title":"Sample Dundee GP`s","count":5,"stream_id":261419,"contributor":{"url":"http://geocommons.com/users/21005","name":"blackholesunn"},"data_attributes":null,"calculation_params":null,"icon_link":null,"link":"http://geocommons.com/overlays/261419.json","extent":[-92.669,37.674,-73.6927,42.4781],"geometry_types":["point"],"unique_name":null,"name":"Sample Dundee GP`s","feature_count":5,"description":"","next_feature":null,"is_raster":false,"short_classification":"Y","stats":{},"features":[{"properties":{"name":"Ryehill Health Centre","city":"Dundee","pcode":"DD1 4JH","geo_score":0.623,"id":"a775ulyqfi03","address":"St Peter St","geo_precision":"street"},"type":"Feature","geometry":{"type":"Point","coordinates":[-88.103169,42.478137]}},{"properties":{"name":"Ardler Surgery","city":"Dundee","pcode":"DD2 3TP","geo_score":0.0,"id":"a775um746jo9","address":"Turnberry Avenue Ardler","geo_precision":"unmatched"},"type":"Feature","geometry":null},{"properties":{"name":"Downfield Surgery","city":"Dundee","pcode":"DD3 8NE","geo_score":0.489,"id":"a775um53zl7q","address":"325 Strathmartine Road","geo_precision":"street"},"type":"Feature","geometry":{"type":"Point","coordinates":[-73.692675,40.79567]}},{"properties":{"name":"Park Avenue Medical Centre","city":"Dundee","pcode":"DD4 6PP","geo_score":0.597,"id":"a775um6h6i61","address":"Park Av","geo_precision":"street"},"type":"Feature","geometry":{"type":"Point","coordinates":[-90.545463,41.696262]}},{"properties":{"name":"Terra Nova Group Practice","city":"Dundee","pcode":"DD4 6SW","geo_score":0.417,"id":"a775ulvx1kc7","address":"43 Dura Street","geo_precision":"street"},"type":"Feature","geometry":{"type":"Point","coordinates":[-92.668999,37.673974]}}],"is_temporal":false,"author":{"url":"","metadata":"","contact_name":"","contact_address":"","source":"","contact_phone":""},"source":"","pagination":{"sort":null,"start":0,"total":5,"limit":1000000},"state":"complete","tags":"","published":"2014-08-14T16:48:36-04:00","id":261419}